~VERSION INFORMATION
VERS.                             2.0:   CWLS Log ASCII Standard-VERSION 2.0
WRAP.                              NO:   One line per depth step
~Well Information Block
STRT.F                      2726.0000:   Top Depth
STOP.F                     13125.0000:   Bottom Depth
STEP.F                         .50000:   Depth Increment
NULL.                        -999.250:   Null Value
FLD .                      GA BLK 255:   Field Name
WELL.       OCSG01777  A007 ST00 BP00:   NAME
API .                  42706400190000:   WELL API
EDF .F                        92.0000:   ELEV DRILL FLOOR
COMP.       COASTAL STATES GAS PROD C:   OPERATOR
BN  .                             255:   BLOCK
CTRY.                             USA:   COUNTRY NAME
CNTY.                              GA:   COUNTY
CNTY.                        GLVSTN L:   COUNTY NAME
EKB .F                        93.0000:   ELEV KELLY BUSHING
TDD .F                      13136.000:   FINAL TD DRILLER
STAT.                           TEXAS:   STATE NAME
UWI .                  42706400190000:   WELL API
DICO.               IHS : Digitizing Company
~PARAMETER INFORMATION (zones)
#MNEM.UNIT                       Value     Description
#=========                       =====     ===========
#ZONATION                           IE:   ZONATION NAME
#ZONE                            RUN_1:   ZONE NAME
TOP .                       2726.0000:   TOP DEPTH
BOT .                       8780.5000:   BOTTOM DEPTH
RUN .                               1:   RUN NUMBER
LCCD.                             440:   LOGGING CONTRACTOR
SRVC.                    Schlumberger:   LOGGING CONT NAME
DICO.          QC Data Collectors Ltd:   DIG COMPANY NAME
LDAT.                      09/02/1973:   DATE LOGGED
ELD .F                        93.0000:   LOG DATUM ELEVATION
TDD .F                      8829.0000:   TOTAL DEPTH DRILLER
TDL .F                      8822.0000:   TOTAL DEPTH LOGGER
BOTL.F                      8821.0000:   BOTTOM DEPTH LOGGED
TOPL.F                      2726.0000:   TOP DEPTH LOGGED
CS1 .IN                       13.6250:   CASING SIZE 1
BS1 .IN                       12.2500:   BIT SIZE 1
DDB1.F                      8829.0000:   DEPTH DRILLED BIT 1
BHF .                              81:   FLUID CODE
DPT .          Lignosulfonate (Ligno):   DRILLING FLUID TYPE
MUDD.                         12.2000:   FLUID DENSITY
MUDV.                         44.0000:   FLUID VISCOSITY
DFPH.                         10.5000:   FLUID PH
FL  .                          2.0000:   FLUID LOSS
RM  .OHMM                       .9600:   RM
RMT .DEGF                     74.0000:   RM TEMP
RMF .OHMM                       .5900:   RMF
RMFT.DEGF                     71.0000:   RMF TEMP
FSC .                               M:   RMF CODE
RMC .OHMM                      1.8100:   RMC
RMCT.DEGF                     71.0000:   RMC TEMP
CMC .                               M:   RMC CODE
TMAX.DEGF                    160.0000:   MAX REC TEMP
TIMC.                         24.0000:   TIME SINCE CIRCLN
~PARAMETER INFORMATION (zones)
#MNEM.UNIT                       Value     Description
#=========                       =====     ===========
#ZONATION                           IE:   ZONATION NAME
#ZONE                            RUN_2:   ZONE NAME
TOP .                       8780.0000:   TOP DEPTH
BOT .                       9333.5000:   BOTTOM DEPTH
RUN .                               2:   RUN NUMBER
LCCD.                             440:   LOGGING CONTRACTOR
SRVC.                    Schlumberger:   LOGGING CONT NAME
DICO.          QC Data Collectors Ltd:   DIG COMPANY NAME
LDAT.                      09/09/1973:   DATE LOGGED
ELD .F                        93.0000:   LOG DATUM ELEVATION
TDD .F                      9340.0000:   TOTAL DEPTH DRILLER
TDL .F                      9334.0000:   TOTAL DEPTH LOGGER
BOTL.F                      9333.0000:   BOTTOM DEPTH LOGGED
TOPL.F                      8821.0000:   TOP DEPTH LOGGED
CS1 .IN                       13.3750:   CASING SIZE 1
BS1 .IN                       12.2500:   BIT SIZE 1
DDB1.F                      9340.0000:   DEPTH DRILLED BIT 1
BHF .                              99:   FLUID CODE
DPT .                   Miscellaneous:   DRILLING FLUID TYPE
MUDD.                         12.3000:   FLUID DENSITY
MUDV.                         46.0000:   FLUID VISCOSITY
DFPH.                         10.5000:   FLUID PH
FL  .                          3.2000:   FLUID LOSS
RM  .OHMM                       .6500:   RM
RMT .DEGF                     82.0000:   RM TEMP
RMF .OHMM                       .5000:   RMF
RMFT.DEGF                     82.0000:   RMF TEMP
FSC .                               M:   RMF CODE
RMC .OHMM                       .9600:   RMC
RMCT.DEGF                     82.0000:   RMC TEMP
CMC .                               M:   RMC CODE
TMAX.DEGF                    160.0000:   MAX REC TEMP
TIMC.                          4.0000:   TIME SINCE CIRCLN
~PARAMETER INFORMATION (zones)
#MNEM.UNIT                       Value     Description
#=========                       =====     ===========
#ZONATION                           IE:   ZONATION NAME
#ZONE                            RUN_3:   ZONE NAME
TOP .                       9343.0000:   TOP DEPTH
BOT .                      13125.5000:   BOTTOM DEPTH
RUN .                               3:   RUN NUMBER
LCCD.                             440:   LOGGING CONTRACTOR
SRVC.                    Schlumberger:   LOGGING CONT NAME
DICO.          QC Data Collectors Ltd:   DIG COMPANY NAME
LDAT.                      09/22/1973:   DATE LOGGED
ELD .F                        93.0000:   LOG DATUM ELEVATION
TDD .F                     13136.0000:   TOTAL DEPTH DRILLER
TDL .F                     13126.0000:   TOTAL DEPTH LOGGER
BOTL.F                     13125.0000:   BOTTOM DEPTH LOGGED
TOPL.F                      9343.0000:   TOP DEPTH LOGGED
CS1 .IN                        9.6250:   CASING SIZE 1
BS1 .IN                        8.5000:   BIT SIZE 1
DDB1.F                     13136.0000:   DEPTH DRILLED BIT 1
BHF .                              99:   FLUID CODE
DPT .                   Miscellaneous:   DRILLING FLUID TYPE
MUDD.                         16.5000:   FLUID DENSITY
MUDV.                         46.0000:   FLUID VISCOSITY
DFPH.                         11.0000:   FLUID PH
FL  .                          2.2000:   FLUID LOSS
RM  .OHMM                       .6100:   RM
RMT .DEGF                     80.0000:   RM TEMP
RMF .OHMM                       .2300:   RMF
RMFT.DEGF                     80.0000:   RMF TEMP
FSC .                               M:   RMF CODE
RMC .OHMM                      1.0000:   RMC
RMCT.DEGF                     80.0000:   RMC TEMP
CMC .                               M:   RMC CODE
TMAX.DEGF                    232.0000:   MAX REC TEMP
TIMC.                          7.0000:   TIME SINCE CIRCLN
~PARAMETER INFORMATION (zones)
#MNEM.UNIT                       Value     Description
#=========                       =====     ===========
#ZONATION                        SONIC:   ZONATION NAME
#ZONE                            RUN_1:   ZONE NAME
TOP .                       9343.0000:   TOP DEPTH
BOT .                      13014.5000:   BOTTOM DEPTH
RUN .                               1:   RUN NUMBER
LCCD.                             440:   LOGGING CONTRACTOR
SRVC.                    Schlumberger:   LOGGING CONT NAME
DICO.          QC Data Collectors Ltd:   DIG COMPANY NAME
LDAT.                      09/22/1973:   DATE LOGGED
ELD .F                        93.0000:   LOG DATUM ELEVATION
TDD .F                     13136.0000:   TOTAL DEPTH DRILLER
TDL .F                     13126.0000:   TOTAL DEPTH LOGGER
BOTL.F                     13014.0000:   BOTTOM DEPTH LOGGED
TOPL.F                      9343.0000:   TOP DEPTH LOGGED
CS1 .IN                        9.6250:   CASING SIZE 1
BS1 .IN                        8.5000:   BIT SIZE 1
DDB1.F                     13136.0000:   DEPTH DRILLED BIT 1
BHF .                              99:   FLUID CODE
DPT .                   Miscellaneous:   DRILLING FLUID TYPE
MUDD.                         16.5000:   FLUID DENSITY
MUDV.                         46.0000:   FLUID VISCOSITY
DFPH.                         11.0000:   FLUID PH
FL  .                          2.2000:   FLUID LOSS
RM  .OHMM                       .6100:   RM
RMT .DEGF                     80.0000:   RM TEMP
RMF .OHMM                       .2400:   RMF
RMFT.DEGF                     80.0000:   RMF TEMP
FSC .                               M:   RMF CODE
RMC .OHMM                      1.0000:   RMC
RMCT.DEGF                     80.0000:   RMC TEMP
CMC .                               M:   RMC CODE
TMAX.DEGF                    232.0000:   MAX REC TEMP
TIMC.                          6.0000:   TIME SINCE CIRCLN
~Curve Information Block
#MNEM.UNIT                    API CODE    No Description
#=========                    ========    == ===========
DEPT.F                   00 001 00 00:     1  DEPTH
ASN.OHMM                             :     2  Short-Normal Resistivity
ILD.OHMM                             :     3  Deep Induction Resistivity
SP.MV                                :     4  Spontaneous Potential
CALI.IN                              :     5  Caliper
DT.US/F                              :     6  Sonic Transit Time
~ASCII
# ...
 8887.0000      .8470      .7298   -48.4692  -999.2500  -999.2500
 8887.5000      .8490      .7286   -47.8099  -999.2500  -999.2500
 8888.0000      .8342      .7320   -47.5869  -999.2500  -999.2500
 8888.5000      .8221      .7353   -49.4365  -999.2500  -999.2500
 8889.0000      .8104      .7334   -49.3355  -999.2500  -999.2500
 8889.5000      .7992      .7310   -48.6195  -999.2500  -999.2500
 8890.0000      .7928      .7285   -47.7483  -999.2500  -999.2500
 8890.5000      .7957      .7268   -47.8727  -999.2500  -999.2500
 8891.0000      .7965      .7278   -49.1118  -999.2500  -999.2500
 8891.5000      .8013      .7341   -49.6799  -999.2500  -999.2500
 8892.0000      .8045      .7280   -49.3762  -999.2500  -999.2500
 8892.5000      .7956      .7260   -48.5345  -999.2500  -999.2500
 8893.0000      .7916      .7219   -47.5782  -999.2500  -999.2500
 8893.5000      .7966      .7157   -46.9818  -999.2500  -999.2500
 8894.0000      .8154      .7097   -46.7007  -999.2500  -999.2500
 8894.5000      .8188      .7050   -47.5277  -999.2500  -999.2500
 8895.0000      .8201      .7032   -49.5635  -999.2500  -999.2500
 8895.5000      .8277      .7013   -50.8339  -999.2500  -999.2500
 8896.0000      .8356      .7029   -51.2511  -999.2500  -999.2500
 8896.5000      .8123      .7046   -51.1568  -999.2500  -999.2500
 8897.0000      .8098      .7008   -52.3730  -999.2500  -999.2500
 8897.5000      .8023      .6971   -54.7169  -999.2500  -999.2500
 8898.0000      .7917      .6962   -53.8419  -999.2500  -999.2500
 8898.5000      .7926      .6960   -51.1654  -999.2500  -999.2500
 8899.0000      .8068      .6958   -49.6990  -999.2500  -999.2500
 8899.5000      .8144      .6959   -48.7576  -999.2500  -999.2500
 8900.0000      .8030      .7017   -48.1118  -999.2500  -999.2500
 8900.5000      .7983      .6961   -47.6497  -999.2500  -999.2500
 8901.0000      .8138      .6908   -47.5327  -999.2500  -999.2500
 8901.5000      .8357      .6872   -48.6664  -999.2500  -999.2500
 8902.0000      .8470      .6837   -49.6744  -999.2500  -999.2500
 8902.5000      .8336      .6772   -49.8577  -999.2500  -999.2500
 8903.0000      .8213      .6704   -48.9054  -999.2500  -999.2500
 8903.5000      .8112      .6672   -47.9344  -999.2500  -999.2500
 8904.0000      .8034      .6671   -47.0995  -999.2500  -999.2500
 8904.5000      .7991      .6671   -46.6072  -999.2500  -999.2500
 8905.0000      .7962      .6686   -46.7970  -999.2500  -999.2500
 8905.5000      .7995      .6705   -47.7496  -999.2500  -999.2500
 8906.0000      .8054      .6729   -49.7311  -999.2500  -999.2500
 8906.5000      .8141      .6747   -52.3681  -999.2500  -999.2500
 8907.0000      .8222      .6746   -54.7119  -999.2500  -999.2500
 8907.5000      .8195      .6745   -56.5850  -999.2500  -999.2500
 8908.0000      .8107      .6779   -57.6904  -999.2500  -999.2500
 8908.5000      .7990      .6815   -56.8660  -999.2500  -999.2500
 8909.0000      .7942      .6857   -55.4636  -999.2500  -999.2500
 8909.5000      .7970      .6902   -54.1624  -999.2500  -999.2500
 8910.0000      .8064      .6955   -53.5548  -999.2500  -999.2500
 8910.5000      .8204      .7039   -53.3730  -999.2500  -999.2500
 8911.0000      .8298      .7139   -52.8549  -999.2500  -999.2500
 8911.5000      .8327      .7267   -51.4858  -999.2500  -999.2500
 8912.0000      .8279      .7399   -50.2092  -999.2500  -999.2500
 8912.5000      .8208      .7547   -49.7509  -999.2500  -999.2500
 8913.0000      .8227      .7695   -49.6277  -999.2500  -999.2500
 8913.5000      .8324      .7859   -49.2394  -999.2500  -999.2500
 8914.0000      .8528      .8015   -48.6959  -999.2500  -999.2500
 8914.5000      .8739      .8116   -48.9005  -999.2500  -999.2500
 8915.0000      .8986      .8140   -49.4767  -999.2500  -999.2500
 8915.5000      .9033      .8113   -49.4168  -999.2500  -999.2500
 8916.0000      .8948      .8080   -49.0693  -999.2500  -999.2500
 8916.5000      .8933      .7960   -49.2520  -999.2500  -999.2500
 8917.0000      .8950      .7836   -50.2079  -999.2500  -999.2500
 8917.5000      .8931      .7735   -50.5751  -999.2500  -999.2500
 8918.0000      .8934      .7739   -50.1648  -999.2500  -999.2500
 8918.5000      .8949      .7810   -50.1198  -999.2500  -999.2500
 8919.0000      .9010      .7962   -50.2024  -999.2500  -999.2500
 8919.5000      .9139      .8118   -50.0148  -999.2500  -999.2500
 8920.0000      .9372      .8251   -49.6312  -999.2500  -999.2500
 8920.5000      .9504      .8318   -48.9190  -999.2500  -999.2500
 8921.0000      .9421      .8367   -48.6106  -999.2500  -999.2500
 8921.5000      .9368      .8408   -48.8398  -999.2500  -999.2500
 8922.0000      .9472      .8433   -49.0102  -999.2500  -999.2500
 8922.5000      .9611      .8449   -49.1808  -999.2500  -999.2500
 8923.0000      .9653      .8468   -49.1126  -999.2500  -999.2500
 8923.5000      .9585      .8490   -48.9753  -999.2500  -999.2500
 8924.0000      .9562      .8563   -48.8007  -999.2500  -999.2500
 8924.5000      .9585      .8660   -48.4390  -999.2500  -999.2500
 8925.0000      .9446      .8769   -48.1124  -999.2500  -999.2500
 8925.5000      .9374      .8883   -47.8321  -999.2500  -999.2500
 8926.0000      .9379      .8964   -47.5814  -999.2500  -999.2500
 8926.5000      .9436      .9022   -47.4458  -999.2500  -999.2500
 8927.0000      .9515      .9028   -47.3572  -999.2500  -999.2500
 8927.5000      .9570      .8962   -47.4075  -999.2500  -999.2500
 8928.0000      .9577      .8796   -47.4448  -999.2500  -999.2500
 8928.5000      .9491      .8626   -47.4694  -999.2500  -999.2500
 8929.0000      .9321      .8427   -47.2446  -999.2500  -999.2500
 8929.5000      .9017      .8216   -46.9535  -999.2500  -999.2500
 8930.0000      .8705      .8019   -46.6208  -999.2500  -999.2500
 8930.5000      .8470      .7864   -46.3796  -999.2500  -999.2500
 8931.0000      .8485      .7782   -46.2917  -999.2500  -999.2500
 8931.5000      .8610      .7701   -46.6565  -999.2500  -999.2500
 8932.0000      .8721      .7711   -48.1833  -999.2500  -999.2500
 8932.5000      .8705      .7727   -49.4821  -999.2500  -999.2500
 8933.0000      .8717      .7719   -50.3814  -999.2500  -999.2500
 8933.5000      .8750      .7700   -50.2215  -999.2500  -999.2500
 8934.0000      .8803      .7679   -49.5621  -999.2500  -999.2500
 8934.5000      .8602      .7657   -49.6047  -999.2500  -999.2500
 8935.0000      .8434      .7668   -49.5364  -999.2500  -999.2500
 8935.5000      .8328      .7696   -48.7921  -999.2500  -999.2500
 8936.0000      .8280      .7745   -47.9430  -999.2500  -999.2500
 8936.5000      .8280      .7792   -47.3256  -999.2500  -999.2500
 8937.0000      .8307      .7837   -47.0327  -999.2500  -999.2500
 8937.5000      .8412      .7879   -46.9196  -999.2500  -999.2500
 8938.0000      .8568      .7921   -47.2159  -999.2500  -999.2500
 8938.5000      .8758      .7921   -47.5388  -999.2500  -999.2500
 8939.0000      .8925      .7916   -48.1512  -999.2500  -999.2500
 8939.5000      .9003      .7890   -48.7286  -999.2500  -999.2500
 8940.0000      .8799      .7826   -49.1815  -999.2500  -999.2500
 8940.5000      .8804      .7734   -49.5071  -999.2500  -999.2500
 8941.0000      .9010      .7719   -49.5535  -999.2500  -999.2500
 8941.5000      .9234      .7719   -49.4792  -999.2500  -999.2500
 8942.0000      .9330      .7718   -49.3339  -999.2500  -999.2500
 8942.5000      .9302      .7714   -49.3027  -999.2500  -999.2500
 8943.0000      .9222      .7693   -49.5690  -999.2500  -999.2500
 8943.5000      .9128      .7680   -49.6588  -999.2500  -999.2500
 8944.0000      .9055      .7699   -49.5354  -999.2500  -999.2500
 8944.5000      .9007      .7717   -49.0219  -999.2500  -999.2500
 8945.0000      .8942      .7734   -48.5665  -999.2500  -999.2500
 8945.5000      .8645      .7750   -48.2560  -999.2500  -999.2500
 8946.0000      .8256      .7751   -48.2816  -999.2500  -999.2500
 8946.5000      .8112      .7750   -48.7576  -999.2500  -999.2500
 8947.0000      .8383      .7707   -50.4680  -999.2500  -999.2500
 8947.5000      .8896      .7661   -52.4913  -999.2500  -999.2500
