~VERSION INFORMATION
VERS.                             2.0:   CWLS Log ASCII Standard-VERSION 2.0
WRAP.                              NO:   One line per depth step
~Well Information Block
STRT.F                      3138.0000:   Top Depth
STOP.F                      8628.0000:   Bottom Depth
STEP.F                         .50000:   Depth Increment
NULL.                        -999.250:   Null Value
FLD .                      BA BLK 376:   Field Name
WELL.       OCSG07215   003 ST00 BP00:   NAME
API .                  42704401900000:   WELL API
EDF .F                        90.0000:   ELEV DRILL FLOOR
COMP.         UNION EXPL PARTNERS LTD:   OPERATOR
BN  .                             376:   BLOCK
CTRY.                             USA:   COUNTRY NAME
CNTY.                        BRAZOS L:   COUNTY NAME
EKB .F                        91.0000:   ELEV KELLY BUSHING
TDD .F                       8678.000:   FINAL TD DRILLER
STAT.                           TEXAS:   STATE NAME
UWI .                  42704401900000:   WELL API
DICO.               IHS : Digitizing Company
~PARAMETER INFORMATION (zones)
#MNEM.UNIT                       Value     Description
#=========                       =====     ===========
#ZONATION                          DIL:   ZONATION NAME
#ZONE                            RUN_1:   ZONE NAME
TOP .                       3138.0000:   TOP DEPTH
BOT .                       5660.5000:   BOTTOM DEPTH
RUN .                               1:   RUN NUMBER
SRVC.                               0:   LOGGING CONTRACTOR
SRVC.                         UNKNOWN:   LOGGING CONT NAME
DICO.          QC Data Collectors Ltd:   DIG COMPANY NAME
LDAT.                      06/22/1989:   DATE LOGGED
ELD .F                        91.0000:   LOG DATUM ELEVATION
TDD .F                      5675.0000:   TOTAL DEPTH DRILLER
TDL .F                      5662.0000:   TOTAL DEPTH LOGGER
BOTL.F                      5660.0000:   BOTTOM DEPTH LOGGED
TOPL.F                      3220.0000:   TOP DEPTH LOGGED
CS1 .IN                       10.7500:   CASING SIZE 1
BS1 .IN                        9.8750:   BIT SIZE 1
DDB1.F                      5675.0000:   DEPTH DRILLED BIT 1
BHF .                              20:   FLUID CODE
DPT .                    Gel (Gelchem:   DRILLING FLUID TYPE
MUDD.                          9.0000:   FLUID DENSITY
MUDV.                         68.0000:   FLUID VISCOSITY
DFPH.                          9.0000:   FLUID PH
FL  .                         12.0000:   FLUID LOSS
RM  .OHMM                      1.0500:   RM
RMT .DEGF                     75.0000:   RM TEMP
RMF .OHMM                       .8200:   RMF
RMFT.DEGF                     75.0000:   RMF TEMP
FSC .                               M:   RMF CODE
RMC .OHMM                      1.2200:   RMC
RMCT.DEGF                     75.0000:   RMC TEMP
CMC .                               M:   RMC CODE
TMAX.DEGF                    128.0000:   MAX REC TEMP
TIMC.                          7.0000:   TIME SINCE CIRCLN
~PARAMETER INFORMATION (zones)
#MNEM.UNIT                       Value     Description
#=========                       =====     ===========
#ZONATION                          DIL:   ZONATION NAME
#ZONE                            RUN_2:   ZONE NAME
TOP .                       5664.0000:   TOP DEPTH
BOT .                       8628.5000:   BOTTOM DEPTH
RUN .                               2:   RUN NUMBER
SRVC.                               0:   LOGGING CONTRACTOR
SRVC.                         UNKNOWN:   LOGGING CONT NAME
DICO.          QC Data Collectors Ltd:   DIG COMPANY NAME
LDAT.                      07/04/1989:   DATE LOGGED
ELD .F                        91.0000:   LOG DATUM ELEVATION
TDD .F                      8678.0000:   TOTAL DEPTH DRILLER
TDL .F                      8630.0000:   TOTAL DEPTH LOGGER
BOTL.F                      8628.0000:   BOTTOM DEPTH LOGGED
TOPL.F                      5664.0000:   TOP DEPTH LOGGED
CS1 .IN                        7.6250:   CASING SIZE 1
BS1 .IN                        6.5000:   BIT SIZE 1
DDB1.F                      8678.0000:   DEPTH DRILLED BIT 1
BHF .                              81:   FLUID CODE
DPT .          Lignosulfonate (Ligno):   DRILLING FLUID TYPE
MUDD.                         11.8000:   FLUID DENSITY
MUDV.                         48.0000:   FLUID VISCOSITY
DFPH.                         10.5000:   FLUID PH
FL  .                          6.6000:   FLUID LOSS
RM  .OHMM                       .7200:   RM
RMT .DEGF                     70.0000:   RM TEMP
RMF .OHMM                       .5900:   RMF
RMFT.DEGF                     70.0000:   RMF TEMP
FSC .                               M:   RMF CODE
RMC .OHMM                       .9000:   RMC
RMCT.DEGF                     70.0000:   RMC TEMP
CMC .                               C:   RMC CODE
TMAX.DEGF                    191.0000:   MAX REC TEMP
TIMC.                          5.0000:   TIME SINCE CIRCLN
~Curve Information Block
#MNEM.UNIT                    API CODE    No Description
#=========                    ========    == ===========
DEPT.F                   00 001 00 00:     1  DEPTH
DT.US/F                              :     2  Sonic Transit Time
GR.GAPI                              :     3  Gamma Ray
ILD.OHMM                             :     4  Deep Induction Resistivity
ILM.OHMM                             :     5  Medium Induction Resistivity
RFOC.OHMM                            :     6  Medium Resistivity
SP.MV                                :     7  Spontaneous Potential
~ASCII
# ...
 7506.0000   113.0444    79.7531      .7297      .7398     1.0021   -50.3123
 7506.5000   113.0615    81.4883      .7259      .7369     1.0015   -50.3036
 7507.0000   113.1967    81.7617      .7220      .7334      .9980   -50.3428
 7507.5000   113.4658    82.0673      .7163      .7288      .9973   -50.3160
 7508.0000   114.0436    82.0842      .7094      .7232      .9975   -50.2209
 7508.5000   114.6697    80.6344      .7025      .7165      .9981   -50.0685
 7509.0000   114.8091    78.7405      .6967      .7076      .9988   -49.9483
 7509.5000   114.8033    78.3463      .6912      .6988      .9965   -49.7991
 7510.0000   114.8206    78.9241      .6860      .6901      .9926   -49.6461
 7510.5000   114.9301    80.0403      .6809      .6815      .9820   -49.4966
 7511.0000   115.1277    80.6980      .6768      .6737      .9654   -49.3661
 7511.5000   115.7997    80.2933      .6734      .6680      .9553   -49.2158
 7512.0000   116.3628    79.4773      .6700      .6624      .9555   -49.1158
 7512.5000   116.6573    79.6796      .6684      .6605      .9583   -49.0529
 7513.0000   116.8143    81.3531      .6669      .6600      .9553   -49.0996
 7513.5000   116.7424    82.8103      .6651      .6608      .9422   -49.1622
 7514.0000   116.9720    82.8955      .6630      .6618      .9433   -49.3799
 7514.5000   116.9919    81.3794      .6609      .6627      .9438   -49.5894
 7515.0000   116.9812    78.6094      .6592      .6636      .9428   -49.7612
 7515.5000   116.9531    76.5869      .6582      .6645      .9476   -49.8646
 7516.0000   116.9185    75.4326      .6573      .6651      .9570   -49.8723
 7516.5000   116.8379    74.9814      .6563      .6653      .9613   -49.8533
 7517.0000   116.7585    75.0698      .6554      .6683      .9549   -49.8187
 7517.5000   116.6842    75.5186      .6544      .6690      .9484   -49.7761
 7518.0000   116.6262    76.1737      .6550      .6691      .9454   -49.7166
 7518.5000   116.5886    76.6263      .6559      .6687      .9453   -49.6412
 7519.0000   116.6251    76.3688      .6569      .6693      .9469   -49.5291
 7519.5000   116.6815    76.5078      .6580      .6675      .9562   -49.5321
 7520.0000   116.7604    77.2676      .6591      .6660      .9610   -49.6169
 7520.5000   116.7257    78.4099      .6605      .6662      .9638   -49.7448
 7521.0000   116.6815    79.3215      .6619      .6668      .9568   -49.8365
 7521.5000   116.6229    79.5887      .6634      .6683      .9552   -49.9322
 7522.0000   116.5798    79.1963      .6646      .6694      .9514   -50.0065
 7522.5000   116.5533    79.3995      .6658      .6700      .9473   -50.0857
 7523.0000   116.6111    80.4521      .6672      .6709      .9395   -50.1405
 7523.5000   116.7932    81.2299      .6688      .6715      .9303   -50.1242
 7524.0000   117.0383    80.8462      .6701      .6716      .9289   -50.2268
 7524.5000   117.2681    80.4226      .6712      .6715      .9357   -50.3077
 7525.0000   117.4524    79.9392      .6723      .6704      .9504   -50.2509
 7525.5000   117.5304    79.4100      .6735      .6693      .9569   -50.1832
 7526.0000   117.3707    78.7352      .6767      .6688      .9504   -50.3409
 7526.5000   116.7203    77.3948      .6799      .6683      .9478   -50.5323
 7527.0000   115.8784    75.5769      .6830      .6691      .9665   -50.7436
 7527.5000   114.9768    74.9677      .6860      .6699      .9828   -50.8489
 7528.0000   114.4713    75.2123      .6887      .6719      .9836   -50.9407
 7528.5000   114.6887    76.4636      .6906      .6739      .9707   -51.0045
 7529.0000   115.2970    78.4021      .6918      .6755      .9671   -51.0829
 7529.5000   116.0110    79.5140      .6924      .6770      .9719   -51.0875
 7530.0000   116.5106    78.0453      .6922      .6772      .9740   -51.0666
 7530.5000   116.3760    77.4338      .6900      .6766      .9756   -51.0415
 7531.0000   116.1442    77.7244      .6829      .6725      .9781   -51.0137
 7531.5000   115.7419    78.0657      .6708      .6655      .9812   -50.9357
 7532.0000   115.2780    77.9712      .6582      .6575      .9842   -50.8725
 7532.5000   115.0543    77.4119      .6439      .6488      .9776   -50.8915
 7533.0000   115.1034    76.5461      .6289      .6407      .9635   -51.0469
 7533.5000   115.5431    74.7559      .6161      .6331      .9415   -51.4109
 7534.0000   116.2617    73.4875      .6134      .6271      .9187   -51.7906
 7534.5000   117.3418    73.2682      .6124      .6225      .8987   -51.9586
 7535.0000   118.8590    73.6252      .6175      .6196      .8886   -51.9695
 7535.5000   119.4917    74.8871      .6245      .6238      .8892   -52.0110
 7536.0000   119.6479    76.9305      .6367      .6308      .8966   -52.4464
 7536.5000   119.0756    77.7981      .6538      .6449      .9091   -53.1487
 7537.0000   117.0688    76.0963      .6745      .6658      .9345   -53.7415
 7537.5000   114.2208    75.0137      .6976      .6941      .9666   -54.1458
 7538.0000   112.7725    75.4169      .7245      .7287      .9900   -54.3391
 7538.5000   112.2153    75.7523      .7554      .7699      .9923   -54.4995
 7539.0000   111.8748    75.4058      .7873      .8124      .9841   -54.6882
 7539.5000   111.2993    74.7126      .8157      .8540      .9821   -55.0630
 7540.0000   110.3596    73.9191      .8476      .8863      .9942   -55.5745
 7540.5000   109.0917    73.1033      .8797      .9065     1.0253   -55.8528
 7541.0000   106.9104    72.1235      .9085      .9195     1.0847   -55.9039
 7541.5000   104.2933    70.5248      .9351      .9267     1.1558   -55.5496
 7542.0000   103.0426    69.9377      .9560      .9275     1.1725   -54.5187
 7542.5000   102.7158    70.2572      .9639      .9260     1.1509   -52.9211
 7543.0000   103.4193    71.1792      .9620      .9156     1.1292   -51.1151
 7543.5000   104.1543    72.5052      .9351      .9016     1.1003   -50.7347
 7544.0000   104.9313    74.4752      .9086      .8794     1.0799   -50.8676
 7544.5000   105.8867    75.9559      .8764      .8552     1.0723   -51.0590
 7545.0000   106.9038    77.1443      .8454      .8293     1.0621   -51.2358
 7545.5000   107.9092    77.0374      .8124      .8041     1.0324   -51.3376
 7546.0000   109.0537    76.0767      .7789      .7780     1.0016   -51.1810
 7546.5000   110.1995    74.7650      .7443      .7486      .9704   -50.9611
 7547.0000   111.1746    73.5112      .7100      .7155      .9420   -51.0207
 7547.5000   112.2823    72.4856      .6818      .6908      .9221   -51.7486
 7548.0000   113.3729    72.3738      .6623      .6724      .9075   -52.4654
 7548.5000   114.3153    73.2515      .6543      .6633      .8988   -52.2837
 7549.0000   115.1041    75.2465      .6485      .6590      .8941   -51.0535
 7549.5000   115.7052    77.7332      .6475      .6613      .8928   -49.2736
 7550.0000   116.0386    79.5693      .6465      .6635      .8963   -48.4263
 7550.5000   115.9717    79.7031      .6505      .6734      .9038   -48.0084
 7551.0000   115.4906    78.4598      .6553      .6846      .9262   -48.2001
 7551.5000   113.0055    74.8556      .6630      .6949      .9735   -48.6494
 7552.0000   109.4802    72.6548      .6765      .7037     1.0554   -49.0750
 7552.5000   108.2032    72.7257      .6903      .7126     1.0665   -49.4274
 7553.0000   108.7505    73.5439      .7064      .7216      .9947   -49.6053
 7553.5000   110.6351    74.9592      .7236      .7325      .9364   -49.7255
 7554.0000   112.3860    74.6312      .7357      .7443      .9453   -49.8227
 7554.5000   112.0303    73.3145      .7516      .7590      .9922   -49.9055
 7555.0000   110.6102    72.4967      .7691      .7748     1.0463   -49.9737
 7555.5000   109.2308    72.1301      .7871      .7910     1.0754   -50.1803
 7556.0000   107.7451    71.9506      .8055      .8086     1.1014   -50.4855
 7556.5000   106.0337    71.8512      .8251      .8268     1.1113   -51.0082
 7557.0000   104.7081    71.4907      .8468      .8459     1.0984   -51.5486
 7557.5000   104.2999    70.3123      .8690      .8652     1.0909   -51.9027
