~VERSION INFORMATION
VERS.                             2.0:   CWLS Log ASCII Standard-VERSION 2.0
WRAP.                              NO:   One line per depth step
~Well Information Block
STRT.F                      3012.0000:   Top Depth
STOP.F                      9049.0000:   Bottom Depth
STEP.F                         .50000:   Depth Increment
NULL.                        -999.250:   Null Value
FLD .                      GA BLK 210:   Field Name
WELL.       OCSG01759   002 ST00 BP00:   NAME
API .                  42706400060000:   WELL API
R1  .                      TEXACO INC:   COMMENT  1
EDF .F                        74.0000:   ELEV DRILL FLOOR
COMP.                      TEXACO INC:   OPERATOR
BN  .                             210:   BLOCK
CTRY.                             USA:   COUNTRY NAME
CNTY.                              GA:   COUNTY
CNTY.                        GLVSTN L:   COUNTY NAME
EKB .F                        75.0000:   ELEV KELLY BUSHING
TDD .F                       9050.000:   FINAL TD DRILLER
STAT.                           TEXAS:   STATE NAME
UWI .                  42706400060000:   WELL API
DICO.               IHS : Digitizing Company
~PARAMETER INFORMATION (zones)
#MNEM.UNIT                       Value     Description
#=========                       =====     ===========
#ZONATION                           IE:   ZONATION NAME
#ZONE                            RUN_2:   ZONE NAME
TOP .                       9049.0000:   TOP DEPTH
BOT .                       9050.0000:   BOTTOM DEPTH
RUN .                               2:   RUN NUMBER
LCCD.                             440:   LOGGING CONTRACTOR
SRVC.                    Schlumberger:   LOGGING CONT NAME
DICO.          QC Data Collectors Ltd:   DIG COMPANY NAME
LDAT.                      11/07/1971:   DATE LOGGED
ELD .F                        75.0000:   LOG DATUM ELEVATION
TDD .F                      9050.0000:   TOTAL DEPTH DRILLER
TDL .F                      9050.0000:   TOTAL DEPTH LOGGER
BOTL.F                      9049.0000:   BOTTOM DEPTH LOGGED
TOPL.F                      7103.0000:   TOP DEPTH LOGGED
CS1 .IN                        9.6250:   CASING SIZE 1
BS1 .IN                        8.6250:   BIT SIZE 1
DDB1.F                      9050.0000:   DEPTH DRILLED BIT 1
BHF .                              99:   FLUID CODE
DPT .                   Miscellaneous:   DRILLING FLUID TYPE
MUDD.                         15.0000:   FLUID DENSITY
MUDV.                         45.0000:   FLUID VISCOSITY
DFPH.                         10.5000:   FLUID PH
FL  .                          4.0000:   FLUID LOSS
RM  .OHMM                       .7700:   RM
RMT .DEGF                    100.0000:   RM TEMP
RMF .OHMM                       .5300:   RMF
RMFT.DEGF                     77.0000:   RMF TEMP
FSC .                               M:   RMF CODE
RMC .OHMM                      1.4300:   RMC
RMCT.DEGF                     75.0000:   RMC TEMP
CMC .                               M:   RMC CODE
TMAX.DEGF                    194.0000:   MAX REC TEMP
TIMC.                          4.0000:   TIME SINCE CIRCLN
~PARAMETER INFORMATION (zones)
#MNEM.UNIT                       Value     Description
#=========                       =====     ===========
#ZONATION                           IE:   ZONATION NAME
#ZONE                            RUN_1:   ZONE NAME
TOP .                       3012.0000:   TOP DEPTH
BOT .                       9049.5000:   BOTTOM DEPTH
RUN .                               1:   RUN NUMBER
LCCD.                             440:   LOGGING CONTRACTOR
SRVC.                    Schlumberger:   LOGGING CONT NAME
DICO.          QC Data Collectors Ltd:   DIG COMPANY NAME
LDAT.                      10/28/1971:   DATE LOGGED
ELD .F                        75.0000:   LOG DATUM ELEVATION
TDD .F                      7115.0000:   TOTAL DEPTH DRILLER
TDL .F                      7061.0000:   TOTAL DEPTH LOGGER
BOTL.F                      7060.0000:   BOTTOM DEPTH LOGGED
TOPL.F                      3012.0000:   TOP DEPTH LOGGED
CS1 .IN                       13.3750:   CASING SIZE 1
BS1 .IN                       12.2500:   BIT SIZE 1
DDB1.F                      7115.0000:   DEPTH DRILLED BIT 1
BHF .                              11:   FLUID CODE
DPT .         Caustic (high PH) (CLS):   DRILLING FLUID TYPE
MUDD.                         10.5000:   FLUID DENSITY
MUDV.                         40.0000:   FLUID VISCOSITY
DFPH.                          9.0000:   FLUID PH
FL  .                          4.4000:   FLUID LOSS
RM  .OHMM                       .9400:   RM
RMT .DEGF                     96.0000:   RM TEMP
RMF .OHMM                       .7600:   RMF
RMFT.DEGF                     96.0000:   RMF TEMP
FSC .                               M:   RMF CODE
RMC .OHMM                      1.2600:   RMC
RMCT.DEGF                     96.0000:   RMC TEMP
CMC .                               M:   RMC CODE
TMAX.DEGF                    155.0000:   MAX REC TEMP
TIMC.                          4.0000:   TIME SINCE CIRCLN
~PARAMETER INFORMATION (zones)
#MNEM.UNIT                       Value     Description
#=========                       =====     ===========
#ZONATION                        SONIC:   ZONATION NAME
#ZONE                            RUN_1:   ZONE NAME
TOP .                       3012.0000:   TOP DEPTH
BOT .                       9049.5000:   BOTTOM DEPTH
RUN .                               1:   RUN NUMBER
LCCD.                             440:   LOGGING CONTRACTOR
SRVC.                    Schlumberger:   LOGGING CONT NAME
DICO.          QC Data Collectors Ltd:   DIG COMPANY NAME
LDAT.                      10/28/1971:   DATE LOGGED
ELD .F                        75.0000:   LOG DATUM ELEVATION
TDD .F                      7115.0000:   TOTAL DEPTH DRILLER
TDL .F                      7060.0000:   TOTAL DEPTH LOGGER
BOTL.F                      7050.0000:   BOTTOM DEPTH LOGGED
TOPL.F                      3012.0000:   TOP DEPTH LOGGED
CS1 .IN                       13.3750:   CASING SIZE 1
BS1 .IN                       12.2500:   BIT SIZE 1
DDB1.F                      7115.0000:   DEPTH DRILLED BIT 1
BHF .                              11:   FLUID CODE
DPT .         Caustic (high PH) (CLS):   DRILLING FLUID TYPE
MUDD.                         10.5000:   FLUID DENSITY
MUDV.                         40.0000:   FLUID VISCOSITY
DFPH.                          9.0000:   FLUID PH
FL  .                          4.4000:   FLUID LOSS
RM  .OHMM                       .9400:   RM
RMT .DEGF                     96.0000:   RM TEMP
RMF .OHMM                       .7600:   RMF
RMFT.DEGF                     96.0000:   RMF TEMP
FSC .                               M:   RMF CODE
RMC .OHMM                      1.2600:   RMC
RMCT.DEGF                     96.0000:   RMC TEMP
CMC .                               M:   RMC CODE
TMAX.DEGF                    155.0000:   MAX REC TEMP
TIMC.                          6.0000:   TIME SINCE CIRCLN
~Curve Information Block
#MNEM.UNIT                    API CODE    No Description
#=========                    ========    == ===========
DEPT.F                   00 001 00 00:     1  DEPTH
ASN.OHMM                             :     2  Short-Normal Resistivity
CILD.MMHO                            :     3  Deep Induction Conductivity
ILD.OHMM                             :     4  Deep Induction Resistivity
SP.MV                                :     5  Spontaneous Potential
CALI.IN                              :     6  Caliper
DT.US/F                              :     7  Sonic Transit Time
SP.MV                                :     8  Spontaneous Potential
~ASCII
# ...
 6606.5000      .8235  1538.4668      .7645   -57.3501    13.1674   116.2683   -62.0911
 6607.0000      .8207  1550.6563      .7627   -57.2795    13.1594   115.8914   -62.0266
 6607.5000      .8169  1560.8164      .7609   -57.2147    13.1545   116.3987   -61.9620
 6608.0000      .8131  1570.0273      .7606   -57.1499    13.1516   116.9059   -61.8445
 6608.5000      .8102  1576.2656      .7604   -57.2018    13.1486   117.3773   -61.7097
 6609.0000      .8073  1576.4824      .7601   -57.6721    13.1456   116.7435   -62.2759
 6609.5000      .8106  1563.1836      .7599   -58.8547    13.1426   115.7386   -63.6368
 6610.0000      .8145  1550.9434      .7597   -62.0659    13.1400   113.9812   -65.4744
 6610.5000      .8184  1538.7031      .7595   -64.4274    13.1379   112.6274   -67.6704
 6611.0000      .8224  1526.4766      .7593   -64.8197    13.1358   111.8141   -69.0819
 6611.5000      .8242  1516.0313      .7590   -64.2314    13.1337   111.7607   -70.3876
 6612.0000      .8258  1514.1738      .7598   -60.5308    13.1311   113.1110   -69.1517
 6612.5000      .8274  1523.4961      .7606   -60.1603    13.1283   114.0261   -65.4888
 6613.0000      .8290  1537.3457      .7614   -60.7859    13.1256   114.8127   -63.2506
 6613.5000      .8296  1554.7949      .7621   -61.7228    13.1228   115.4745   -63.6850
 6614.0000      .8293  1572.2461      .7629   -62.8643    13.1192   115.2006   -65.2048
 6614.5000      .8289  1589.4707      .7637   -64.8901    13.1150   114.2600   -67.8834
 6615.0000      .8355  1597.8223      .7645   -66.6329    13.1107   112.9740   -70.4441
 6615.5000      .8416  1583.2891      .7652   -67.1282    13.1065   111.8584   -72.1047
 6616.0000      .8310  1563.5449      .7646   -67.3939    13.1063   111.1978   -73.0343
 6616.5000      .8205  1543.3535      .7640   -66.7639    13.1063   111.7875   -73.6414
 6617.0000      .8128  1523.1348      .7634   -64.7804    13.1063   113.3340   -74.2568
 6617.5000      .8175  1506.2969      .7628   -62.4102    13.0866   114.8782   -73.3538
 6618.0000      .8221  1474.0000      .7622   -61.1764    13.0644   116.0332   -69.5850
 6618.5000      .8267  1457.3613      .7616   -60.2495    13.0422   116.7247   -66.0496
 6619.0000      .8313  1446.7910      .7610   -59.7848    13.0647   116.8975   -64.4304
 6619.5000      .8308  1446.5684      .7604   -59.3207    13.1490   116.7617   -63.7440
 6620.0000      .8287  1446.9629      .7598   -58.8821    13.2334   116.5483   -63.0574
 6620.5000      .8265  1451.1152      .7592   -58.6862    13.2866   116.4698   -62.5021
 6621.0000      .8244  1458.2266      .7585   -58.4902    13.2679   116.6006   -61.9720
 6621.5000      .8219  1465.3320      .7577   -58.2943    13.2491   116.8781   -61.4420
 6622.0000      .8181  1476.5430      .7569   -58.0984    13.2329   117.3204   -61.5262
 6622.5000      .8142  1499.3027      .7561   -57.9001    13.2211   117.7634   -61.9516
 6623.0000      .8104  1516.0313      .7553   -57.6325    13.2094   117.9647   -62.3763
 6623.5000      .8066  1525.0059      .7545   -57.3652    13.1976   118.0884   -61.3782
 6624.0000      .8027  1533.9805      .7537   -57.0977    13.1858   118.2416   -60.2651
 6624.5000      .7992  1540.7168      .7517   -56.8475    13.1740   118.4797   -59.1556
 6625.0000      .7961  1545.8203      .7493   -56.6761    13.1622   118.7181   -58.2471
 6625.5000      .7931  1550.5996      .7468   -56.5046    13.1602   118.9308   -60.3890
 6626.0000      .7901  1548.8047      .7444   -56.3331    13.1602   119.0167   -61.1363
 6626.5000      .7870  1547.0117      .7419   -56.3740    13.1602   118.8575   -61.3032
 6627.0000      .7908  1545.2168      .7395   -56.5403    13.1602   118.6449   -61.1588
 6627.5000      .7962  1543.4219      .7370   -56.8931    13.1602   118.2173   -61.0143
 6628.0000      .8017  1541.6289      .7355   -57.2180    13.1602   117.7058   -61.0939
 6628.5000      .8072  1539.7695      .7346   -57.5386    13.1602   116.8793   -61.2341
 6629.0000      .8127  1537.8340      .7337   -57.7585    13.1602   115.9835   -61.3741
 6629.5000      .8162  1535.8984      .7328   -57.9787    13.1662   115.4193   -61.5143
 6630.0000      .8154  1533.9629      .7319   -57.9594    13.1933   114.9088   -61.4117
 6630.5000      .8146  1532.0273      .7310   -57.6715    13.2203   115.1733   -61.2939
 6631.0000      .8132  1536.9961      .7317   -57.2324    13.2350   115.4379   -60.8505
 6631.5000      .8085  1545.5840      .7328   -56.7933    13.2290   115.5256   -60.2338
 6632.0000      .8038  1554.1719      .7339   -56.3541    13.2155   116.3678   -59.6177
 6632.5000      .7991  1562.7852      .7350   -56.0635    13.1933   117.5337   -59.5825
 6633.0000      .7940  1575.7852      .7362   -55.7762    13.1748   118.2882   -59.6564
 6633.5000      .7824  1588.7734      .7373   -55.4893    13.1577   118.9996   -59.7303
 6634.0000      .7708  1601.7617      .7367   -55.2883    13.1409   119.6284   -59.7574
 6634.5000      .7646  1605.3008      .7358   -55.1671    13.1392   119.9214   -59.5930
 6635.0000      .7623  1608.6953      .7350   -55.0458    13.1374   120.2147   -59.4286
 6635.5000      .7628  1612.0840      .7341   -54.9245    13.1357   120.2045   -59.2390
 6636.0000      .7640  1615.4785      .7332   -54.8506    13.1339   119.9553   -58.9083
 6636.5000      .7652  1615.2813      .7324   -54.8898    13.1370   119.7063   -58.5777
 6637.0000      .7665  1613.3477      .7314   -54.9290    13.1431   119.4575   -58.2943
 6637.5000      .7677  1611.4102      .7304   -54.9885    13.1491   119.2085   -58.3445
 6638.0000      .7678  1611.1836      .7294   -55.2155    13.1552   118.9683   -58.3947
 6638.5000      .7676  1635.5898      .7283   -55.4425    13.1645   119.1451   -58.5517
 6639.0000      .7674  1675.9238      .7273   -55.6696    13.1746   119.5706   -58.7316
 6639.5000      .7672  1699.1582      .7213   -55.9739    13.1845   119.9954   -58.4763
 6640.0000      .7670  1710.4004      .7135   -56.3367    13.1935   120.4208   -58.1716
 6640.5000      .7630  1719.8730      .7056   -56.6997    13.1975   120.6426   -57.8669
 6641.0000      .7583  1730.3945      .6978   -57.1245    13.1947   119.9766   -59.1496
 6641.5000      .7536  1767.3633      .6899   -57.7345    13.1918   119.3275   -60.6923
 6642.0000      .7489  1798.6934      .6821   -58.3445    13.1696   118.9209   -61.9786
 6642.5000      .7436  1802.8379      .6695   -59.1579    13.1403   118.9709   -62.4341
 6643.0000      .7439  1806.1836      .6570   -60.0923    13.1110   119.0094   -62.8433
 6643.5000      .7487  1803.7539      .6444   -60.9056    13.0895   119.0450   -63.3770
 6644.0000      .7543  1779.6289      .6418   -62.6896    13.0777   119.0076   -64.1254
 6644.5000      .7603  1746.9219      .6515   -66.2799    13.0658   118.4348   -65.2000
 6645.0000      .7662  1723.0645      .6623   -67.7919    13.0540   117.8616   -66.8557
 6645.5000      .7710  1699.8320      .6745   -65.7784    13.0504   117.2271   -71.3250
 6646.0000      .7730  1676.9961      .6867   -61.6417    13.0766   116.4308   -70.8798
 6646.5000      .7749  1601.3867      .6989   -59.5159    13.1028   115.6375   -65.4286
 6647.0000      .7757  1583.7871      .7111   -58.0214    13.1290   116.6744   -62.9041
 6647.5000      .7752  1572.3203      .7232   -56.8638    13.1552   117.5010   -60.9619
 6648.0000      .7747  1560.8535      .7353   -56.3771    13.1814   118.2258   -59.2050
 6648.5000      .7742  1549.3926      .7438   -56.4709    13.2036   118.6365   -58.6352
 6649.0000      .7807  1541.6523      .7522   -56.5646    13.2181   118.7244   -58.1397
 6649.5000      .7880  1533.9043      .7606   -56.6584    13.2325   118.7170   -57.8572
 6650.0000      .7952  1527.0059      .7691   -56.7523    13.2469   118.6379   -58.7158
 6650.5000      .7973  1525.0684      .7700   -56.7615    13.2580   118.2810   -59.1520
 6651.0000      .7984  1531.7852      .7608   -56.6778    13.2626   117.8730   -59.3391
 6651.5000      .7996  1545.7715      .7516   -56.5941    13.2672   117.4519   -59.0262
