~VERSION INFORMATION
VERS.                             2.0:   CWLS Log ASCII Standard-VERSION 2.0
WRAP.                              NO:   One line per depth step
~Well Information Block
STRT.F                      2500.0000:   Top Depth
STOP.F                     12867.0000:   Bottom Depth
STEP.F                         .50000:   Depth Increment
NULL.                        -999.250:   Null Value
FLD .                      GA BLK 255:   Field Name
WELL.       OCSG01777  A004 ST00 BP00:   NAME
API .                  42706400140000:   WELL API
EDF .F                        91.0000:   ELEV DRILL FLOOR
COMP.       COASTAL STATES GAS PROD C:   OPERATOR
BN  .                             255:   BLOCK
CTRY.                             USA:   COUNTRY NAME
CNTY.                              GA:   COUNTY
CNTY.                        GLVSTN L:   COUNTY NAME
EKB .F                        92.0000:   ELEV KELLY BUSHING
TDD .F                      12868.000:   FINAL TD DRILLER
STAT.                           TEXAS:   STATE NAME
UWI .                  42706400140000:   WELL API
DICO.               IHS : Digitizing Company
~PARAMETER INFORMATION (zones)
#MNEM.UNIT                       Value     Description
#=========                       =====     ===========
#ZONATION                           IE:   ZONATION NAME
#ZONE                            RUN_1:   ZONE NAME
TOP .                       2500.0000:   TOP DEPTH
BOT .                       8267.5000:   BOTTOM DEPTH
RUN .                               1:   RUN NUMBER
LCCD.                             440:   LOGGING CONTRACTOR
SRVC.                    Schlumberger:   LOGGING CONT NAME
DICO.          QC Data Collectors Ltd:   DIG COMPANY NAME
LDAT.                      05/23/1973:   DATE LOGGED
ELD .F                        92.0000:   LOG DATUM ELEVATION
TDD .F                      8274.0000:   TOTAL DEPTH DRILLER
TDL .F                      8268.0000:   TOTAL DEPTH LOGGER
BOTL.F                      8267.0000:   BOTTOM DEPTH LOGGED
TOPL.F                      2500.0000:   TOP DEPTH LOGGED
CS1 .IN                       13.3750:   CASING SIZE 1
BS1 .IN                       12.2500:   BIT SIZE 1
DDB1.F                      8274.0000:   DEPTH DRILLED BIT 1
BHF .                              99:   FLUID CODE
DPT .                   Miscellaneous:   DRILLING FLUID TYPE
MUDV.                         45.0000:   FLUID VISCOSITY
FL  .                          3.4000:   FLUID LOSS
RM  .OHMM                       .7100:   RM
RMT .DEGF                     82.0000:   RM TEMP
RMF .OHMM                       .4200:   RMF
RMFT.DEGF                     82.0000:   RMF TEMP
FSC .                               M:   RMF CODE
RMC .OHMM                      1.2500:   RMC
RMCT.DEGF                     82.0000:   RMC TEMP
CMC .                               M:   RMC CODE
TMAX.DEGF                     82.0000:   MAX REC TEMP
TIMC.                          6.0000:   TIME SINCE CIRCLN
MUDD.                            NULL:   FLUID DENSITY
DFPH.                            NULL:   FLUID PH
~PARAMETER INFORMATION (zones)
#MNEM.UNIT                       Value     Description
#=========                       =====     ===========
#ZONATION                           IE:   ZONATION NAME
#ZONE                            RUN_2:   ZONE NAME
TOP .                       8273.0000:   TOP DEPTH
BOT .                      12867.5000:   BOTTOM DEPTH
RUN .                               2:   RUN NUMBER
LCCD.                             440:   LOGGING CONTRACTOR
SRVC.                    Schlumberger:   LOGGING CONT NAME
DICO.          QC Data Collectors Ltd:   DIG COMPANY NAME
LDAT.                      06/12/1973:   DATE LOGGED
ELD .F                        92.0000:   LOG DATUM ELEVATION
TDD .F                     12865.0000:   TOTAL DEPTH DRILLER
TDL .F                     12868.0000:   TOTAL DEPTH LOGGER
BOTL.F                     12867.0000:   BOTTOM DEPTH LOGGED
TOPL.F                      8272.0000:   TOP DEPTH LOGGED
CS1 .IN                        9.6250:   CASING SIZE 1
BS1 .IN                        8.5000:   BIT SIZE 1
DDB1.F                     12865.0000:   DEPTH DRILLED BIT 1
BHF .                              11:   FLUID CODE
DPT .         Caustic (high PH) (CLS):   DRILLING FLUID TYPE
MUDV.                         44.0000:   FLUID VISCOSITY
FL  .                          2.6000:   FLUID LOSS
RM  .OHMM                       .9100:   RM
RMT .DEGF                     76.0000:   RM TEMP
RMF .OHMM                       .4600:   RMF
RMFT.DEGF                     78.0000:   RMF TEMP
FSC .                               M:   RMF CODE
RMC .OHMM                      1.3200:   RMC
RMCT.DEGF                     76.0000:   RMC TEMP
CMC .                               C:   RMC CODE
TMAX.DEGF                    248.0000:   MAX REC TEMP
TIMC.                          5.0000:   TIME SINCE CIRCLN
MUDD.                         16.3000:   FLUID DENSITY
DFPH.                         10.5000:   FLUID PH
~PARAMETER INFORMATION (zones)
#MNEM.UNIT                       Value     Description
#=========                       =====     ===========
#ZONATION                        SONIC:   ZONATION NAME
#ZONE                            RUN_1:   ZONE NAME
TOP .                       8272.0000:   TOP DEPTH
BOT .                      12860.5000:   BOTTOM DEPTH
RUN .                               1:   RUN NUMBER
LCCD.                             440:   LOGGING CONTRACTOR
SRVC.                    Schlumberger:   LOGGING CONT NAME
DICO.          QC Data Collectors Ltd:   DIG COMPANY NAME
LDAT.                      06/12/1973:   DATE LOGGED
ELD .F                        92.0000:   LOG DATUM ELEVATION
TDD .F                     12865.0000:   TOTAL DEPTH DRILLER
BOTL.F                     12860.0000:   BOTTOM DEPTH LOGGED
TOPL.F                      8272.0000:   TOP DEPTH LOGGED
CS1 .IN                        9.6250:   CASING SIZE 1
BS1 .IN                        8.5000:   BIT SIZE 1
DDB1.F                     12865.0000:   DEPTH DRILLED BIT 1
BHF .                              11:   FLUID CODE
DPT .         Caustic (high PH) (CLS):   DRILLING FLUID TYPE
MUDD.                         16.3000:   FLUID DENSITY
MUDV.                         44.0000:   FLUID VISCOSITY
DFPH.                         10.5000:   FLUID PH
FL  .                          2.6000:   FLUID LOSS
RM  .OHMM                       .9100:   RM
RMT .DEGF                     76.0000:   RM TEMP
RMF .OHMM                       .4600:   RMF
RMFT.DEGF                     78.0000:   RMF TEMP
FSC .                               M:   RMF CODE
RMC .OHMM                      1.3200:   RMC
RMCT.DEGF                     76.0000:   RMC TEMP
CMC .                               C:   RMC CODE
TMAX.DEGF                    248.0000:   MAX REC TEMP
TIMC.                         10.0000:   TIME SINCE CIRCLN
~Curve Information Block
#MNEM.UNIT                    API CODE    No Description
#=========                    ========    == ===========
DEPT.F                   00 001 00 00:     1  DEPTH
ASN.OHMM                             :     2  Short-Normal Resistivity
ILD.OHMM                             :     3  Deep Induction Resistivity
SP.MV                                :     4  Spontaneous Potential
CALI.IN                              :     5  Caliper
DT.US/F                              :     6  Sonic Transit Time
~ASCII
# ...
 4574.0000      .5648      .1910  -126.1532  -999.2500  -999.2500
 4574.5000      .5806      .2013  -126.7115  -999.2500  -999.2500
 4575.0000      .5994      .2133  -126.2677  -999.2500  -999.2500
 4575.5000      .6166      .2260  -125.6469  -999.2500  -999.2500
 4576.0000      .6255      .2383  -126.7240  -999.2500  -999.2500
 4576.5000      .6240      .2620  -126.7529  -999.2500  -999.2500
 4577.0000      .6147      .2881  -126.3229  -999.2500  -999.2500
 4577.5000      .6003      .3101  -126.7568  -999.2500  -999.2500
 4578.0000      .5890      .3143  -125.7112  -999.2500  -999.2500
 4578.5000      .5852      .3101  -123.3860  -999.2500  -999.2500
 4579.0000      .5948      .2953  -121.5757  -999.2500  -999.2500
 4579.5000      .6157      .2735  -119.2799  -999.2500  -999.2500
 4580.0000      .6368      .2452  -117.0576  -999.2500  -999.2500
 4580.5000      .6500      .2245  -115.3965  -999.2500  -999.2500
 4581.0000      .6450      .2206  -116.2831  -999.2500  -999.2500
 4581.5000      .6111      .2239  -118.2828  -999.2500  -999.2500
 4582.0000      .5732      .2251  -119.9762  -999.2500  -999.2500
 4582.5000      .5550      .2209  -121.7689  -999.2500  -999.2500
 4583.0000      .5406      .2089  -123.2231  -999.2500  -999.2500
 4583.5000      .5304      .1990  -124.3016  -999.2500  -999.2500
 4584.0000      .5232      .1942  -124.8314  -999.2500  -999.2500
 4584.5000      .5168      .1866  -125.3070  -999.2500  -999.2500
 4585.0000      .5132      .1850  -125.3047  -999.2500  -999.2500
 4585.5000      .5125      .1891  -125.3074  -999.2500  -999.2500
 4586.0000      .5102      .1952  -125.8358  -999.2500  -999.2500
 4586.5000      .5043      .2007  -125.5015  -999.2500  -999.2500
 4587.0000      .4969      .2042  -125.1962  -999.2500  -999.2500
 4587.5000      .4899      .2061  -124.7988  -999.2500  -999.2500
 4588.0000      .4834      .2136  -124.2681  -999.2500  -999.2500
 4588.5000      .4767      .2179  -124.6829  -999.2500  -999.2500
 4589.0000      .4695      .2217  -125.7314  -999.2500  -999.2500
 4589.5000      .4629      .2251  -126.2859  -999.2500  -999.2500
 4590.0000      .4585      .2191  -126.6770  -999.2500  -999.2500
 4590.5000      .4594      .2099  -128.4485  -999.2500  -999.2500
 4591.0000      .4659      .1976  -126.9456  -999.2500  -999.2500
 4591.5000      .4839      .1871  -125.3552  -999.2500  -999.2500
 4592.0000      .5094      .1804  -124.1356  -999.2500  -999.2500
 4592.5000      .5247      .1774  -123.5133  -999.2500  -999.2500
 4593.0000      .5275      .1750  -124.1779  -999.2500  -999.2500
 4593.5000      .5275      .1764  -124.8645  -999.2500  -999.2500
 4594.0000      .5236      .1799  -125.4574  -999.2500  -999.2500
 4594.5000      .5160      .1866  -125.7111  -999.2500  -999.2500
 4595.0000      .5039      .1972  -125.7709  -999.2500  -999.2500
 4595.5000      .4879      .2133  -126.0791  -999.2500  -999.2500
 4596.0000      .4675      .2368  -126.4618  -999.2500  -999.2500
 4596.5000      .4447      .2610  -125.9127  -999.2500  -999.2500
 4597.0000      .4285      .2784  -125.5511  -999.2500  -999.2500
 4597.5000      .4271      .2952  -124.8798  -999.2500  -999.2500
 4598.0000      .4317      .3051  -120.3928  -999.2500  -999.2500
 4598.5000      .4439      .3034  -112.9019  -999.2500  -999.2500
 4599.0000      .4751      .2851  -105.4109  -999.2500  -999.2500
 4599.5000      .5166      .2531   -97.9126  -999.2500  -999.2500
 4600.0000      .5510      .2158   -92.8206  -999.2500  -999.2500
 4600.5000      .5616      .1774  -101.3784  -999.2500  -999.2500
 4601.0000      .5517      .1542  -109.9364  -999.2500  -999.2500
 4601.5000      .5320      .1534  -118.4944  -999.2500  -999.2500
 4602.0000      .5024      .1600  -124.5594  -999.2500  -999.2500
 4602.5000      .4764      .1735  -125.0380  -999.2500  -999.2500
 4603.0000      .4757      .1900  -125.5586  -999.2500  -999.2500
 4603.5000      .4842      .2096  -126.9788  -999.2500  -999.2500
 4604.0000      .4896      .2208  -126.9442  -999.2500  -999.2500
 4604.5000      .4835      .2301  -127.7891  -999.2500  -999.2500
 4605.0000      .4739      .2381  -129.1438  -999.2500  -999.2500
 4605.5000      .4626      .2391  -129.8914  -999.2500  -999.2500
 4606.0000      .4477      .2362  -127.7789  -999.2500  -999.2500
 4606.5000      .4339      .2300  -124.1016  -999.2500  -999.2500
 4607.0000      .4469      .2186  -118.4281  -999.2500  -999.2500
 4607.5000      .4950      .2068  -113.2478  -999.2500  -999.2500
 4608.0000      .5455      .1972  -109.7745  -999.2500  -999.2500
 4608.5000      .5625      .1889  -112.1514  -999.2500  -999.2500
 4609.0000      .5505      .1846  -115.0450  -999.2500  -999.2500
 4609.5000      .5301      .1863  -117.4255  -999.2500  -999.2500
 4610.0000      .5098      .1886  -119.2578  -999.2500  -999.2500
 4610.5000      .4921      .1838  -120.5198  -999.2500  -999.2500
 4611.0000      .4780      .1930  -121.4208  -999.2500  -999.2500
 4611.5000      .4694      .2108  -121.8655  -999.2500  -999.2500
 4612.0000      .4649      .2259  -122.0879  -999.2500  -999.2500
 4612.5000      .4652      .2371  -122.1211  -999.2500  -999.2500
 4613.0000      .4688      .2444  -121.8333  -999.2500  -999.2500
 4613.5000      .4879      .2515  -121.2373  -999.2500  -999.2500
 4614.0000      .5568      .2586  -119.4326  -999.2500  -999.2500
 4614.5000      .8365      .2575  -117.2655  -999.2500  -999.2500
 4615.0000     1.2518      .2521  -115.6466  -999.2500  -999.2500
 4615.5000     1.6684      .2450  -113.8125  -999.2500  -999.2500
 4616.0000     2.2378      .2301  -112.4788  -999.2500  -999.2500
 4616.5000     2.4027      .2076  -114.5814  -999.2500  -999.2500
 4617.0000     2.0888      .1793  -115.7202  -999.2500  -999.2500
 4617.5000     1.4955      .1598  -117.2821  -999.2500  -999.2500
 4618.0000     1.2510      .1551  -119.1953  -999.2500  -999.2500
 4618.5000      .6116      .1606  -121.2317  -999.2500  -999.2500
 4619.0000      .4900      .1701  -122.3208  -999.2500  -999.2500
 4619.5000      .4659      .1878  -123.1008  -999.2500  -999.2500
 4620.0000      .4600      .2060  -123.4683  -999.2500  -999.2500
 4620.5000      .4582      .2117  -123.0665  -999.2500  -999.2500
 4621.0000      .4581      .1939  -122.9281  -999.2500  -999.2500
 4621.5000      .4583      .1919  -122.3907  -999.2500  -999.2500
 4622.0000      .4578      .2075  -121.2795  -999.2500  -999.2500
 4622.5000      .4568      .2340  -119.7490  -999.2500  -999.2500
 4623.0000      .4643      .2636  -116.7321  -999.2500  -999.2500
 4623.5000      .4877      .2922  -112.4824  -999.2500  -999.2500
 4624.0000      .5178      .3100  -108.6597  -999.2500  -999.2500
 4624.5000      .5489      .3257  -106.0990  -999.2500  -999.2500
 4625.0000      .5671      .3343  -106.6494  -999.2500  -999.2500
 4625.5000      .5817      .3401  -106.9972  -999.2500  -999.2500
 4626.0000      .5963      .3433  -105.1865  -999.2500  -999.2500
 4626.5000      .5924      .3493  -101.2496  -999.2500  -999.2500
 4627.0000      .5808      .3565   -97.4711  -999.2500  -999.2500
 4627.5000      .5621      .3568   -94.0935  -999.2500  -999.2500
 4628.0000      .5777      .3541   -90.9753  -999.2500  -999.2500
 4628.5000      .5937      .3462   -96.5292  -999.2500  -999.2500
 4629.0000      .6075      .3310  -102.1696  -999.2500  -999.2500
 4629.5000      .6073      .3166  -107.8098  -999.2500  -999.2500
 4630.0000      .5892      .2987  -113.5347  -999.2500  -999.2500
 4630.5000      .5844      .2790  -116.3073  -999.2500  -999.2500
 4631.0000      .6363      .2590  -116.4172  -999.2500  -999.2500
 4631.5000      .7374      .2421  -115.4277  -999.2500  -999.2500
 4632.0000      .7957      .2271  -113.9027  -999.2500  -999.2500
 4632.5000      .8180      .2155  -114.8225  -999.2500  -999.2500
 4633.0000      .7585      .2067  -117.8146  -999.2500  -999.2500
 4633.5000      .6551      .2011  -119.1860  -999.2500  -999.2500
 4634.0000      .5737      .1991  -120.4352  -999.2500  -999.2500
 4634.5000      .5300      .2007  -120.9374  -999.2500  -999.2500
