~VERSION INFORMATION
VERS.                             2.0:   CWLS Log ASCII Standard-VERSION 2.0
WRAP.                              NO:   One line per depth step
~Well Information Block
STRT.F                      3576.0000:   Top Depth
STOP.F                      7908.0000:   Bottom Depth
STEP.F                         .50000:   Depth Increment
NULL.                        -999.250:   Null Value
FLD .                      BA BLK 431:   Field Name
WELL.       OCSG09017   001 ST00 BP00:   NAME
API .                  42704401710000:   WELL API
EDF .F                        80.0000:   ELEV DRILL FLOOR
COMP.        WOLVERINE EXPLORATION CO:   OPERATOR
BN  .                             431:   BLOCK
CTRY.                             USA:   COUNTRY NAME
CNTY.                        BRAZOS L:   COUNTY NAME
EKB .F                        81.0000:   ELEV KELLY BUSHING
TDD .F                       7953.000:   FINAL TD DRILLER
STAT.                           TEXAS:   STATE NAME
UWI .                  42704401710000:   WELL API
DICO.               IHS : Digitizing Company
~PARAMETER INFORMATION (zones)
#MNEM.UNIT                       Value     Description
#=========                       =====     ===========
#ZONATION                          DIL:   ZONATION NAME
#ZONE                            RUN_1:   ZONE NAME
TOP .                       3576.0000:   TOP DEPTH
BOT .                       7908.5000:   BOTTOM DEPTH
RUN .                               1:   RUN NUMBER
LCCD.                             440:   LOGGING CONTRACTOR
SRVC.                    Schlumberger:   LOGGING CONT NAME
DICO.          QC Data Collectors Ltd:   DIG COMPANY NAME
LDAT.                      05/13/1988:   DATE LOGGED
ELD .F                        81.0000:   LOG DATUM ELEVATION
TDD .F                      7953.0000:   TOTAL DEPTH DRILLER
TDL .F                      7911.0000:   TOTAL DEPTH LOGGER
BOTL.F                      7908.0000:   BOTTOM DEPTH LOGGED
TOPL.F                      3608.0000:   TOP DEPTH LOGGED
CS1 .IN                       10.7500:   CASING SIZE 1
BS1 .IN                        9.8750:   BIT SIZE 1
DDB1.F                      7953.0000:   DEPTH DRILLED BIT 1
BHF .                              99:   FLUID CODE
DPT .                   Miscellaneous:   DRILLING FLUID TYPE
MUDD.                         10.0000:   FLUID DENSITY
MUDV.                         43.0000:   FLUID VISCOSITY
DFPH.                         11.3000:   FLUID PH
FL  .                          6.2000:   FLUID LOSS
RM  .OHMM                       .7340:   RM
RMT .DEGF                     73.0000:   RM TEMP
RMF .OHMM                       .5760:   RMF
RMFT.DEGF                     73.0000:   RMF TEMP
FSC .                               M:   RMF CODE
RMC .OHMM                       .8300:   RMC
RMCT.DEGF                     73.0000:   RMC TEMP
CMC .                               M:   RMC CODE
TMAX.DEGF                    164.0000:   MAX REC TEMP
TIMC.                          5.0000:   TIME SINCE CIRCLN
~Curve Information Block
#MNEM.UNIT                    API CODE    No Description
#=========                    ========    == ===========
DEPT.F                   00 001 00 00:     1  DEPTH
DCAL.IN                              :     2  Differential Caliper
DT.US/F                              :     3  Sonic Transit Time
GR.GAPI                              :     4  Gamma Ray
ILD.OHMM                             :     5  Deep Induction Resistivity
ILM.OHMM                             :     6  Medium Induction Resistivity
SFL.OHMM                             :     7  Medium Resistivity
SP.MV                                :     8  Spontaneous Potential
~ASCII
# ...
 3621.5000     9.1253    98.8035    34.9597      .6188      .6521      .6720   -71.3564
 3622.0000     9.1292   103.7103    35.5858      .6294      .6971      .6887   -72.8042
 3622.5000     9.1205   110.7917    34.7489      .6207      .7101      .6963   -75.5636
 3623.0000     9.0999   117.9326    32.7943      .6022      .7095      .7011   -80.4397
 3623.5000     9.0718   123.4271    30.1572      .5784      .6576      .7049   -84.1982
 3624.0000     9.0434   126.3157    27.0292      .5419      .6064      .7141   -86.6721
 3624.5000     9.0168   127.4557    24.8471      .4955      .5605      .7210   -88.2317
 3625.0000     9.0056   125.9934    23.3926      .4460      .5236      .7246   -89.2950
 3625.5000     8.9884   124.1858    22.5764      .3955      .4888      .7136   -90.1277
 3626.0000     8.9887   122.4818    22.2190      .3465      .4564      .6913   -90.7183
 3626.5000     8.9903   122.1417    22.6653      .3096      .4291      .6635   -91.0151
 3627.0000     8.9924   122.6111    24.1103      .2840      .4047      .6326   -91.2266
 3627.5000     8.9981   123.4141    25.5630      .2703      .3848      .6028   -91.4554
 3628.0000     9.0089   124.5776    26.8055      .2589      .3735      .5785   -91.6959
 3628.5000     9.0002   126.4595    26.0723      .2542      .3659      .5658   -91.9033
 3629.0000     8.9892   128.9934    25.7242      .2519      .3602      .5660   -92.0564
 3629.5000     8.9701   132.3135    26.2201      .2527      .3575      .5794   -91.8450
 3630.0000     8.9581   136.3896    26.8549      .2549      .3560      .5991   -90.9807
 3630.5000     8.9579   139.9243    27.2785      .2582      .3563      .6141   -88.8159
 3631.0000     8.9699   141.2151    27.5511      .2627      .3594      .6214   -86.2505
 3631.5000     8.9769   140.0806    28.4195      .2760      .3663      .6041   -82.8457
 3632.0000     8.9760   139.4409    31.2080      .3042      .3771      .5697   -79.3258
 3632.5000     8.9711   128.5596    36.2251      .3340      .3959      .5355   -75.9321
 3633.0000     8.9624   118.7261    38.6810      .3852      .4301      .5208   -72.8375
 3633.5000     8.9555   109.3090    39.5516      .4472      .5184      .5270   -72.0594
 3634.0000     8.9511   100.5862    37.7940      .5059      .6141      .6422   -72.9117
 3634.5000     8.9421    94.3683    35.1074      .5568      .6813      .7623   -75.5488
 3635.0000     8.9319    98.0175    32.5494      .5632      .7014      .8496   -80.8280
 3635.5000     8.9241   106.7179    30.5244      .5636      .6632      .8516   -85.1304
 3636.0000     8.9205   111.5480    28.9530      .5514      .6029      .7873   -88.5353
 3636.5000     8.9194   116.8713    27.8471      .5228      .5584      .7185   -89.6479
 3637.0000     8.9435   124.0520    28.6019      .4797      .5263      .6665   -89.3992
 3637.5000     8.9605   138.6250    29.8079      .4378      .5054      .6876   -88.5018
 3638.0000     8.9731   144.8425    30.8186      .3951      .4958      .7643   -87.5577
 3638.5000     8.9845   149.1792    31.2674      .3648      .4900      .8284   -87.3994
 3639.0000     8.9937   156.6101    31.0034      .3555      .4841      .8212   -87.7678
 3639.5000     9.0030   144.2524    30.4156      .3528      .4769      .7624   -88.3551
 3640.0000     9.0123   139.3552    29.5260      .3496      .4677      .6867   -88.8390
 3640.5000     9.0187   127.4489    28.0826      .3453      .4623      .6217   -88.9502
 3641.0000     8.9927   122.7335    27.0731      .3437      .4599      .5773   -89.0183
 3641.5000     8.9590   122.2939    28.4176      .3467      .4624      .5608   -89.0638
 3642.0000     8.9104   118.9789    30.2208      .3542      .4724      .5742   -89.0956
 3642.5000     8.8994   113.2662    29.4104      .3715      .4981      .6056   -89.2476
 3643.0000     8.8913   119.9608    27.4731      .4018      .5375      .6614   -89.5017
 3643.5000     8.8851   136.5386    25.6953      .4464      .5783      .7468   -89.7828
 3644.0000     8.8856   139.8564    25.0380      .4898      .6172      .8117   -90.0336
 3644.5000     8.8911   145.5640    24.9832      .5346      .6544      .8489   -90.4655
 3645.0000     8.8922   135.8789    25.0693      .5732      .6846      .8606   -91.0175
 3645.5000     8.8884   117.6152    25.3114      .6013      .6992      .8749   -91.5856
 3646.0000     8.8990   109.2743    25.4999      .6174      .7036      .8579   -92.2628
 3646.5000     8.9140   115.1110    25.3996      .6265      .7040      .8293   -92.5640
 3647.0000     8.9313   121.2203    25.2029      .6341      .7030      .7907   -92.7072
 3647.5000     8.9403   123.1345    24.5949      .6399      .7002      .7644   -92.7026
 3648.0000     8.9435   120.5150    24.2759      .6419      .6995      .7557   -92.5233
 3648.5000     8.9389   119.9155    25.3874      .6394      .7007      .7677   -92.2507
 3649.0000     8.9442   120.4656    27.8873      .6322      .7040      .7902   -92.0461
 3649.5000     8.9542   116.0085    29.2825      .6221      .7060      .7949   -92.0446
 3650.0000     8.9536   115.0862    28.7156      .6062      .7066      .7839   -92.4208
 3650.5000     8.9635   120.4095    27.7185      .5768      .7037      .7607   -92.9316
 3651.0000     8.9759   125.5719    26.4128      .5370      .6770      .7323   -93.6660
 3651.5000     8.9898   127.7588    26.3678      .4940      .6425      .7020   -94.3732
 3652.0000     9.0231   129.4075    27.4409      .4516      .6009      .6711   -94.7646
 3652.5000     9.0303   124.3322    28.7242      .4149      .5601      .6480   -94.8285
 3653.0000     8.9511   120.1368    29.8722      .3667      .5153      .6328   -94.6708
 3653.5000     8.7170   114.9349    30.1841      .3316      .4775      .6295   -94.8085
 3654.0000     8.5282   110.5735    29.0952      .3053      .4483      .6660   -95.1038
 3654.5000     8.5762   118.0863    27.8551      .2900      .4210      .7104   -95.6974
 3655.0000     8.7220   127.7117    26.1515      .2803      .4011      .7174   -96.2589
 3655.5000     8.8463   128.3835    24.7408      .2730      .3905      .7128   -96.7679
 3656.0000     8.9339   124.9098    22.9568      .2663      .3864      .6953   -97.2396
 3656.5000     8.9509   119.8988    21.8073      .2601      .3823      .6826   -97.5527
 3657.0000     8.9327   114.5593    21.4203      .2558      .3787      .6734   -97.6899
 3657.5000     8.9079   116.0396    21.2346      .2518      .3720      .6619   -97.5649
 3658.0000     8.8796   118.4124    21.2570      .2480      .3614      .6477   -97.3352
 3658.5000     8.8956   120.2869    21.4373      .2443      .3499      .6316   -97.2321
 3659.0000     8.9120   121.3561    21.7320      .2393      .3384      .6157   -97.2103
 3659.5000     8.9634   121.8954    22.0824      .2339      .3288      .6025   -97.2622
 3660.0000     9.0088   122.3324    22.6483      .2294      .3234      .5878   -97.2020
 3660.5000     9.0357   122.5382    23.4548      .2289      .3220      .5721   -97.1118
 3661.0000     9.0277   121.7076    22.9098      .2336      .3240      .5607   -97.0618
 3661.5000     8.9744   118.2004    21.9207      .2451      .3346      .5522   -97.0131
 3662.0000     8.8584   113.9357    21.2509      .2763      .3598      .5517   -96.9036
 3662.5000     8.6741   114.8296    21.3044      .3485      .4243      .6625   -96.6573
 3663.0000     8.4638   114.3076    22.0351      .4369      .4742      .8307   -96.1183
 3663.5000     8.2969   109.7800    22.7180      .5442      .5602     1.1956   -95.6294
 3664.0000     8.2083   105.2030    22.2792      .7185      .6985     1.6573   -95.2780
 3664.5000     8.1382    92.4485    21.2305      .9786      .8855     2.0826   -95.0388
 3665.0000     8.0582    87.7784    21.6561     1.2803     1.2213     2.5467   -94.8278
 3665.5000     7.9337    86.3589    23.4865     1.5036     1.5009     2.8316   -94.6888
 3666.0000     7.8253    84.8241    24.2288     1.5928     1.6536     2.8226   -94.6624
 3666.5000     7.7979    84.4213    23.1218     1.5040     1.6397     2.6714   -94.7643
