~VERSION INFORMATION
VERS.                             2.0:   CWLS Log ASCII Standard-VERSION 2.0
WRAP.                              NO:   One line per depth step
~Well Information Block
STRT.F                      3012.0000:   Top Depth
STOP.F                      9049.0000:   Bottom Depth
STEP.F                         .50000:   Depth Increment
NULL.                        -999.250:   Null Value
FLD .                      GA BLK 210:   Field Name
WELL.       OCSG01759   002 ST00 BP00:   NAME
API .                  42706400060000:   WELL API
R1  .                      TEXACO INC:   COMMENT  1
EDF .F                        74.0000:   ELEV DRILL FLOOR
COMP.                      TEXACO INC:   OPERATOR
BN  .                             210:   BLOCK
CTRY.                             USA:   COUNTRY NAME
CNTY.                              GA:   COUNTY
CNTY.                        GLVSTN L:   COUNTY NAME
EKB .F                        75.0000:   ELEV KELLY BUSHING
TDD .F                       9050.000:   FINAL TD DRILLER
STAT.                           TEXAS:   STATE NAME
UWI .                  42706400060000:   WELL API
DICO.               IHS : Digitizing Company
~PARAMETER INFORMATION (zones)
#MNEM.UNIT                       Value     Description
#=========                       =====     ===========
#ZONATION                           IE:   ZONATION NAME
#ZONE                            RUN_2:   ZONE NAME
TOP .                       9049.0000:   TOP DEPTH
BOT .                       9050.0000:   BOTTOM DEPTH
RUN .                               2:   RUN NUMBER
LCCD.                             440:   LOGGING CONTRACTOR
SRVC.                    Schlumberger:   LOGGING CONT NAME
DICO.          QC Data Collectors Ltd:   DIG COMPANY NAME
LDAT.                      11/07/1971:   DATE LOGGED
ELD .F                        75.0000:   LOG DATUM ELEVATION
TDD .F                      9050.0000:   TOTAL DEPTH DRILLER
TDL .F                      9050.0000:   TOTAL DEPTH LOGGER
BOTL.F                      9049.0000:   BOTTOM DEPTH LOGGED
TOPL.F                      7103.0000:   TOP DEPTH LOGGED
CS1 .IN                        9.6250:   CASING SIZE 1
BS1 .IN                        8.6250:   BIT SIZE 1
DDB1.F                      9050.0000:   DEPTH DRILLED BIT 1
BHF .                              99:   FLUID CODE
DPT .                   Miscellaneous:   DRILLING FLUID TYPE
MUDD.                         15.0000:   FLUID DENSITY
MUDV.                         45.0000:   FLUID VISCOSITY
DFPH.                         10.5000:   FLUID PH
FL  .                          4.0000:   FLUID LOSS
RM  .OHMM                       .7700:   RM
RMT .DEGF                    100.0000:   RM TEMP
RMF .OHMM                       .5300:   RMF
RMFT.DEGF                     77.0000:   RMF TEMP
FSC .                               M:   RMF CODE
RMC .OHMM                      1.4300:   RMC
RMCT.DEGF                     75.0000:   RMC TEMP
CMC .                               M:   RMC CODE
TMAX.DEGF                    194.0000:   MAX REC TEMP
TIMC.                          4.0000:   TIME SINCE CIRCLN
~PARAMETER INFORMATION (zones)
#MNEM.UNIT                       Value     Description
#=========                       =====     ===========
#ZONATION                           IE:   ZONATION NAME
#ZONE                            RUN_1:   ZONE NAME
TOP .                       3012.0000:   TOP DEPTH
BOT .                       9049.5000:   BOTTOM DEPTH
RUN .                               1:   RUN NUMBER
LCCD.                             440:   LOGGING CONTRACTOR
SRVC.                    Schlumberger:   LOGGING CONT NAME
DICO.          QC Data Collectors Ltd:   DIG COMPANY NAME
LDAT.                      10/28/1971:   DATE LOGGED
ELD .F                        75.0000:   LOG DATUM ELEVATION
TDD .F                      7115.0000:   TOTAL DEPTH DRILLER
TDL .F                      7061.0000:   TOTAL DEPTH LOGGER
BOTL.F                      7060.0000:   BOTTOM DEPTH LOGGED
TOPL.F                      3012.0000:   TOP DEPTH LOGGED
CS1 .IN                       13.3750:   CASING SIZE 1
BS1 .IN                       12.2500:   BIT SIZE 1
DDB1.F                      7115.0000:   DEPTH DRILLED BIT 1
BHF .                              11:   FLUID CODE
DPT .         Caustic (high PH) (CLS):   DRILLING FLUID TYPE
MUDD.                         10.5000:   FLUID DENSITY
MUDV.                         40.0000:   FLUID VISCOSITY
DFPH.                          9.0000:   FLUID PH
FL  .                          4.4000:   FLUID LOSS
RM  .OHMM                       .9400:   RM
RMT .DEGF                     96.0000:   RM TEMP
RMF .OHMM                       .7600:   RMF
RMFT.DEGF                     96.0000:   RMF TEMP
FSC .                               M:   RMF CODE
RMC .OHMM                      1.2600:   RMC
RMCT.DEGF                     96.0000:   RMC TEMP
CMC .                               M:   RMC CODE
TMAX.DEGF                    155.0000:   MAX REC TEMP
TIMC.                          4.0000:   TIME SINCE CIRCLN
~PARAMETER INFORMATION (zones)
#MNEM.UNIT                       Value     Description
#=========                       =====     ===========
#ZONATION                        SONIC:   ZONATION NAME
#ZONE                            RUN_1:   ZONE NAME
TOP .                       3012.0000:   TOP DEPTH
BOT .                       9049.5000:   BOTTOM DEPTH
RUN .                               1:   RUN NUMBER
LCCD.                             440:   LOGGING CONTRACTOR
SRVC.                    Schlumberger:   LOGGING CONT NAME
DICO.          QC Data Collectors Ltd:   DIG COMPANY NAME
LDAT.                      10/28/1971:   DATE LOGGED
ELD .F                        75.0000:   LOG DATUM ELEVATION
TDD .F                      7115.0000:   TOTAL DEPTH DRILLER
TDL .F                      7060.0000:   TOTAL DEPTH LOGGER
BOTL.F                      7050.0000:   BOTTOM DEPTH LOGGED
TOPL.F                      3012.0000:   TOP DEPTH LOGGED
CS1 .IN                       13.3750:   CASING SIZE 1
BS1 .IN                       12.2500:   BIT SIZE 1
DDB1.F                      7115.0000:   DEPTH DRILLED BIT 1
BHF .                              11:   FLUID CODE
DPT .         Caustic (high PH) (CLS):   DRILLING FLUID TYPE
MUDD.                         10.5000:   FLUID DENSITY
MUDV.                         40.0000:   FLUID VISCOSITY
DFPH.                          9.0000:   FLUID PH
FL  .                          4.4000:   FLUID LOSS
RM  .OHMM                       .9400:   RM
RMT .DEGF                     96.0000:   RM TEMP
RMF .OHMM                       .7600:   RMF
RMFT.DEGF                     96.0000:   RMF TEMP
FSC .                               M:   RMF CODE
RMC .OHMM                      1.2600:   RMC
RMCT.DEGF                     96.0000:   RMC TEMP
CMC .                               M:   RMC CODE
TMAX.DEGF                    155.0000:   MAX REC TEMP
TIMC.                          6.0000:   TIME SINCE CIRCLN
~Curve Information Block
#MNEM.UNIT                    API CODE    No Description
#=========                    ========    == ===========
DEPT.F                   00 001 00 00:     1  DEPTH
ASN.OHMM                             :     2  Short-Normal Resistivity
CILD.MMHO                            :     3  Deep Induction Conductivity
ILD.OHMM                             :     4  Deep Induction Resistivity
SP.MV                                :     5  Spontaneous Potential
CALI.IN                              :     6  Caliper
DT.US/F                              :     7  Sonic Transit Time
SP.MV                                :     8  Spontaneous Potential
~ASCII
# ...
 4195.0000      .7319  4075.0938      .3693  -119.3453    14.1000   118.5190  -146.6743
 4195.5000      .7363  4171.8125      .3619  -119.7764    14.1772   119.6536  -147.0088
 4196.0000      .7231  4315.0078      .3561  -120.0781    14.2542   120.8652  -147.3433
 4196.5000      .7059  4373.0937      .3552  -120.2784    14.3094   122.6240  -147.6780
 4197.0000      .6896  4393.7578      .3543  -119.9064    14.3783   123.5465  -147.8892
 4197.5000      .6898  4374.5469      .3533  -119.5347    14.3520   124.1593  -147.9885
 4198.0000      .6900  4348.7578      .3524  -119.1045    14.2840   124.8326  -148.0879
 4198.5000      .6902  4287.1875      .3515  -118.6505    14.2160   124.8547  -148.1873
 4199.0000      .6919  4254.7266      .3520  -118.1960    14.1331   124.2944  -148.2751
 4199.5000      .6921  4230.9609      .3562  -117.7419    14.0248   123.6957  -148.3550
 4200.0000      .6895  4221.1641      .3604  -117.3975    13.9405   123.0016  -148.3054
 4200.5000      .6869  4211.3672      .3646  -117.1262    13.9015   122.4388  -148.1799
 4201.0000      .6842  4202.0156      .3688  -117.0062    13.8539   122.9750  -148.0356
 4201.5000      .6816  4192.4766      .3730  -117.2910    13.8060   123.5114  -147.7944
 4202.0000      .6834  4182.0937      .3772  -117.5756    13.7449   124.0477  -147.5532
 4202.5000      .7007  4152.5234      .3813  -117.8604    13.6710   124.0083  -147.3389
 4203.0000      .7214  3965.8750      .3841  -118.0851    13.6008   122.1768  -147.3230
 4203.5000      .7632  3749.6250      .3869  -118.2668    13.5593   121.7177  -147.3074
 4204.0000      .7930  3597.1992      .3897  -118.4487    13.6136   121.3134  -147.2917
 4204.5000      .8144  3535.9219      .3924  -118.6305    13.7432   120.9091  -147.2754
 4205.0000      .8368  3442.6406      .3952  -118.8121    13.8629   120.5049  -147.2593
 4205.5000      .8593  3413.8203      .3980  -118.7719    13.9827   120.1006  -147.2432
 4206.0000      .8684  3440.8203      .3993  -118.7017    14.1025   119.8988  -147.2271
 4206.5000      .8565  3467.8438      .3991  -118.6315    14.2223   120.2008  -147.2341
 4207.0000      .8347  3494.1680      .3989  -118.5471    14.5306   121.1531  -147.3147
 4207.5000      .8168  3519.3711      .3987  -118.3019    14.6481   122.4222  -147.3955
 4208.0000      .8033  3544.5742      .3984  -118.0570    14.6084   123.0502  -147.4761
 4208.5000      .8001  3520.8398      .3982  -117.8120    14.5516   123.6781  -148.0747
 4209.0000      .8043  3488.2852      .3980  -117.5599    14.5284   124.3059  -147.9124
 4209.5000      .8145  3454.8047      .3978  -117.2831    14.6295   123.2047  -147.7544
 4210.0000      .8210  3422.5234      .3989  -117.0062    14.7301   121.8252  -147.6021
 4210.5000      .8047  3393.1563      .4013  -116.7295    14.7178   120.7839  -147.4500
 4211.0000      .7845  3355.0664      .4037  -116.4526    14.6790   119.7427  -147.2976
 4211.5000      .7643  3448.9727      .4061  -116.1757    14.6089   118.6869  -146.8989
 4212.0000      .7367  3543.4023      .4085  -115.9169    14.5204   124.1307  -146.3511
 4212.5000      .7083  3625.8672      .4084  -115.6743    14.4291   126.0242  -145.6323
 4213.0000      .7000  3673.6797      .4082  -115.4318    14.3923   127.5188  -144.6208
 4213.5000      .7047  3635.8867      .4080  -115.3312    14.4871   128.3286  -143.6440
 4214.0000      .7124  3593.8086      .4078  -115.5984    14.5636   128.2583  -142.9119
 4214.5000      .7359  3505.3125      .4075  -115.8658    14.6264   122.5925  -143.3889
 4215.0000      .7656  3418.5078      .4073  -116.1332    14.5830   119.9342  -143.8657
 4215.5000      .8004  3334.9453      .4071  -116.2633    14.5240   117.9954  -144.3423
 4216.0000      .8231  3241.1641      .4034  -115.8248    14.4361   117.1428  -144.2935
 4216.5000      .8435  3157.7031      .3970  -115.3440    14.3481   119.4869  -143.7427
 4217.0000      .8613  3117.9648      .3906  -114.8494    14.2601   123.8151  -143.1921
 4217.5000      .8776  3193.4023      .3704  -114.3544    14.2803   122.5756  -142.6414
 4218.0000      .8818  3892.0078      .3499  -113.8922    14.3027   113.0527  -143.8958
 4218.5000      .8860  3963.1055      .3297  -113.7911    14.2411   107.0499  -145.8589
 4219.0000      .8789  3990.5234      .3174  -114.6819    14.1794    86.9471  -147.3027
 4219.5000      .7711  4002.3750      .3051  -115.7484    14.1098    90.8795  -148.0964
 4220.0000      .7420  4418.1094      .2928  -116.9161    14.0389   100.4800  -148.8076
 4220.5000      .7268  4861.2500      .2830  -117.5542    14.0081   113.0139  -148.8113
 4221.0000      .7181  4860.7500      .2997  -117.9829    14.0215   124.1987  -148.6982
 4221.5000      .7099  4484.5000      .3163  -118.0349    14.0444   124.8899  -148.5852
 4222.0000      .7026  4108.5000      .3330  -117.7684    13.9187   125.2672  -148.3511
 4222.5000      .6953  3868.5742      .3497  -117.2788    13.8399   125.6442  -147.9426
 4223.0000      .6883  3699.7539      .3663  -116.7290    13.7741   125.9645  -146.9365
 4223.5000      .6835  3531.0391      .3810  -115.8389    13.7316   125.8496  -142.6956
 4224.0000      .6786  3374.9844      .3930  -114.6456    13.7032   124.2205  -138.9858
 4224.5000      .6961  3258.2656      .4049  -112.4762    13.7016   122.8901  -135.9343
 4225.0000      .7211  3202.2773      .4169  -109.8228    13.7001   122.7671  -133.4644
 4225.5000      .7701  3165.2070      .4289  -103.1138    13.8259   124.6411  -130.9944
 4226.0000      .8041  3120.8320      .4409  -104.7255    13.9613   125.5424  -128.4668
 4226.5000      .8254  3033.8086      .4529  -107.3927    14.0965   125.9333  -128.8127
 4227.0000      .8233  2962.3867      .4616  -110.3901    14.2296   124.4023  -136.2371
 4227.5000      .8163  2883.2852      .4680  -110.9019    14.2232   122.6943  -140.0071
 4228.0000      .8123  2698.4141      .4727  -111.4137    14.1771   122.2507  -141.1123
 4228.5000      .8223  2669.1484      .4695  -110.7560    14.0778   127.7346  -137.8699
 4229.0000      .8488  2632.0039      .4663  -108.9620    13.9422   128.7000  -136.4209
 4229.5000      .8801  2628.8867      .4631  -106.3098    13.8064   118.9390  -134.9143
 4230.0000      .9302  2670.6680      .4568  -103.5878    13.8549   111.3241  -133.2192
 4230.5000      .9964  2830.9375      .4384  -104.8241    13.9213   108.5543  -131.0125
 4231.0000      .9534  3212.2461      .4199  -106.7202    14.0606   106.0583  -130.5300
 4231.5000      .8957  3909.8555      .4015  -108.6165    14.2000   102.8947  -142.9155
 4232.0000      .8639  3981.8945      .3830  -110.5139    14.3395   101.5515  -143.9792
 4232.5000      .8398  3981.2578      .3646  -112.4102    14.4632   115.2565  -144.8167
 4233.0000      .7974  4173.2109      .3492  -113.4556    14.5832   121.8434  -145.2561
 4233.5000      .7668  4411.5313      .3410  -114.3881    14.7031   128.2412  -145.6094
 4234.0000      .7649  4651.0469      .3327  -115.3212    14.7570   126.7866  -145.8650
 4234.5000      .7635  4717.4766      .3245  -116.3030    14.7697   125.8896  -146.0471
 4235.0000      .7622  4705.8125      .3162  -117.0999    14.7804   124.9933  -146.1626
 4235.5000      .7590  4694.4844      .3120  -117.6639    14.7911   125.0291  -146.2783
 4236.0000      .7549  4683.7266      .3151  -118.1694    14.8018   126.0370  -146.2251
 4236.5000      .7508  4703.2344      .3182  -118.4117    14.8125   127.0060  -146.4709
 4237.0000      .7467  4726.9531      .3213  -118.6541    14.8231   127.2576  -146.7219
 4237.5000      .7407  4753.4766      .3423  -118.3068    14.8338   127.5094  -146.9773
 4238.0000      .7347  4409.0000      .3693  -117.7432    14.8248   127.8289  -147.2485
 4238.5000      .7286  3824.3008      .3962  -116.7234    14.7666   127.0104  -147.5322
 4239.0000      .7381  3574.4141      .4231  -112.5448    14.7176   126.1357  -147.4734
 4239.5000      .7591  3324.3281      .4502  -110.1097    14.6695   125.2611  -146.8564
 4240.0000      .7988  3093.5859      .4784  -108.1611    14.5926   124.5771  -145.6907
