~VERSION INFORMATION
VERS.                             2.0:   CWLS Log ASCII Standard-VERSION 2.0
WRAP.                              NO:   One line per depth step
~Well Information Block
STRT.F                      3012.0000:   Top Depth
STOP.F                      9049.0000:   Bottom Depth
STEP.F                         .50000:   Depth Increment
NULL.                        -999.250:   Null Value
FLD .                      GA BLK 210:   Field Name
WELL.       OCSG01759   002 ST00 BP00:   NAME
API .                  42706400060000:   WELL API
R1  .                      TEXACO INC:   COMMENT  1
EDF .F                        74.0000:   ELEV DRILL FLOOR
COMP.                      TEXACO INC:   OPERATOR
BN  .                             210:   BLOCK
CTRY.                             USA:   COUNTRY NAME
CNTY.                              GA:   COUNTY
CNTY.                        GLVSTN L:   COUNTY NAME
EKB .F                        75.0000:   ELEV KELLY BUSHING
TDD .F                       9050.000:   FINAL TD DRILLER
STAT.                           TEXAS:   STATE NAME
UWI .                  42706400060000:   WELL API
DICO.               IHS : Digitizing Company
~PARAMETER INFORMATION (zones)
#MNEM.UNIT                       Value     Description
#=========                       =====     ===========
#ZONATION                           IE:   ZONATION NAME
#ZONE                            RUN_2:   ZONE NAME
TOP .                       9049.0000:   TOP DEPTH
BOT .                       9050.0000:   BOTTOM DEPTH
RUN .                               2:   RUN NUMBER
LCCD.                             440:   LOGGING CONTRACTOR
SRVC.                    Schlumberger:   LOGGING CONT NAME
DICO.          QC Data Collectors Ltd:   DIG COMPANY NAME
LDAT.                      11/07/1971:   DATE LOGGED
ELD .F                        75.0000:   LOG DATUM ELEVATION
TDD .F                      9050.0000:   TOTAL DEPTH DRILLER
TDL .F                      9050.0000:   TOTAL DEPTH LOGGER
BOTL.F                      9049.0000:   BOTTOM DEPTH LOGGED
TOPL.F                      7103.0000:   TOP DEPTH LOGGED
CS1 .IN                        9.6250:   CASING SIZE 1
BS1 .IN                        8.6250:   BIT SIZE 1
DDB1.F                      9050.0000:   DEPTH DRILLED BIT 1
BHF .                              99:   FLUID CODE
DPT .                   Miscellaneous:   DRILLING FLUID TYPE
MUDD.                         15.0000:   FLUID DENSITY
MUDV.                         45.0000:   FLUID VISCOSITY
DFPH.                         10.5000:   FLUID PH
FL  .                          4.0000:   FLUID LOSS
RM  .OHMM                       .7700:   RM
RMT .DEGF                    100.0000:   RM TEMP
RMF .OHMM                       .5300:   RMF
RMFT.DEGF                     77.0000:   RMF TEMP
FSC .                               M:   RMF CODE
RMC .OHMM                      1.4300:   RMC
RMCT.DEGF                     75.0000:   RMC TEMP
CMC .                               M:   RMC CODE
TMAX.DEGF                    194.0000:   MAX REC TEMP
TIMC.                          4.0000:   TIME SINCE CIRCLN
~PARAMETER INFORMATION (zones)
#MNEM.UNIT                       Value     Description
#=========                       =====     ===========
#ZONATION                           IE:   ZONATION NAME
#ZONE                            RUN_1:   ZONE NAME
TOP .                       3012.0000:   TOP DEPTH
BOT .                       9049.5000:   BOTTOM DEPTH
RUN .                               1:   RUN NUMBER
LCCD.                             440:   LOGGING CONTRACTOR
SRVC.                    Schlumberger:   LOGGING CONT NAME
DICO.          QC Data Collectors Ltd:   DIG COMPANY NAME
LDAT.                      10/28/1971:   DATE LOGGED
ELD .F                        75.0000:   LOG DATUM ELEVATION
TDD .F                      7115.0000:   TOTAL DEPTH DRILLER
TDL .F                      7061.0000:   TOTAL DEPTH LOGGER
BOTL.F                      7060.0000:   BOTTOM DEPTH LOGGED
TOPL.F                      3012.0000:   TOP DEPTH LOGGED
CS1 .IN                       13.3750:   CASING SIZE 1
BS1 .IN                       12.2500:   BIT SIZE 1
DDB1.F                      7115.0000:   DEPTH DRILLED BIT 1
BHF .                              11:   FLUID CODE
DPT .         Caustic (high PH) (CLS):   DRILLING FLUID TYPE
MUDD.                         10.5000:   FLUID DENSITY
MUDV.                         40.0000:   FLUID VISCOSITY
DFPH.                          9.0000:   FLUID PH
FL  .                          4.4000:   FLUID LOSS
RM  .OHMM                       .9400:   RM
RMT .DEGF                     96.0000:   RM TEMP
RMF .OHMM                       .7600:   RMF
RMFT.DEGF                     96.0000:   RMF TEMP
FSC .                               M:   RMF CODE
RMC .OHMM                      1.2600:   RMC
RMCT.DEGF                     96.0000:   RMC TEMP
CMC .                               M:   RMC CODE
TMAX.DEGF                    155.0000:   MAX REC TEMP
TIMC.                          4.0000:   TIME SINCE CIRCLN
~PARAMETER INFORMATION (zones)
#MNEM.UNIT                       Value     Description
#=========                       =====     ===========
#ZONATION                        SONIC:   ZONATION NAME
#ZONE                            RUN_1:   ZONE NAME
TOP .                       3012.0000:   TOP DEPTH
BOT .                       9049.5000:   BOTTOM DEPTH
RUN .                               1:   RUN NUMBER
LCCD.                             440:   LOGGING CONTRACTOR
SRVC.                    Schlumberger:   LOGGING CONT NAME
DICO.          QC Data Collectors Ltd:   DIG COMPANY NAME
LDAT.                      10/28/1971:   DATE LOGGED
ELD .F                        75.0000:   LOG DATUM ELEVATION
TDD .F                      7115.0000:   TOTAL DEPTH DRILLER
TDL .F                      7060.0000:   TOTAL DEPTH LOGGER
BOTL.F                      7050.0000:   BOTTOM DEPTH LOGGED
TOPL.F                      3012.0000:   TOP DEPTH LOGGED
CS1 .IN                       13.3750:   CASING SIZE 1
BS1 .IN                       12.2500:   BIT SIZE 1
DDB1.F                      7115.0000:   DEPTH DRILLED BIT 1
BHF .                              11:   FLUID CODE
DPT .         Caustic (high PH) (CLS):   DRILLING FLUID TYPE
MUDD.                         10.5000:   FLUID DENSITY
MUDV.                         40.0000:   FLUID VISCOSITY
DFPH.                          9.0000:   FLUID PH
FL  .                          4.4000:   FLUID LOSS
RM  .OHMM                       .9400:   RM
RMT .DEGF                     96.0000:   RM TEMP
RMF .OHMM                       .7600:   RMF
RMFT.DEGF                     96.0000:   RMF TEMP
FSC .                               M:   RMF CODE
RMC .OHMM                      1.2600:   RMC
RMCT.DEGF                     96.0000:   RMC TEMP
CMC .                               M:   RMC CODE
TMAX.DEGF                    155.0000:   MAX REC TEMP
TIMC.                          6.0000:   TIME SINCE CIRCLN
~Curve Information Block
#MNEM.UNIT                    API CODE    No Description
#=========                    ========    == ===========
DEPT.F                   00 001 00 00:     1  DEPTH
ASN.OHMM                             :     2  Short-Normal Resistivity
CILD.MMHO                            :     3  Deep Induction Conductivity
ILD.OHMM                             :     4  Deep Induction Resistivity
SP.MV                                :     5  Spontaneous Potential
CALI.IN                              :     6  Caliper
DT.US/F                              :     7  Sonic Transit Time
SP.MV                                :     8  Spontaneous Potential
~ASCII
# ...
 7016.0000      .9137  1342.8281      .8316   -58.9234    12.9554   115.1432   -47.8340
 7016.5000      .9120  1346.1914      .8277   -58.7307    12.9636   115.2500   -48.0880
 7017.0000      .9102  1349.5527      .8237   -58.5379    12.9717   115.3342   -48.0494
 7017.5000      .9084  1353.6387      .8198   -58.3558    12.9799   115.2664   -48.0109
 7018.0000      .9066  1360.3574      .8166   -58.2493    12.9730   115.1985   -48.0091
 7018.5000      .9046  1367.0820      .8141   -58.1428    12.9609   115.3330   -48.1920
 7019.0000      .9027  1371.5684      .8116   -58.0363    12.9487   115.5129   -48.3746
 7019.5000      .9007  1375.1152      .8091   -57.9297    12.9366   115.6927   -47.9574
 7020.0000      .8983  1378.6602      .8066   -57.8232    12.9249   115.8451   -47.4406
 7020.5000      .8959  1378.0859      .8066   -57.7167    12.9142   115.9949   -46.9243
 7021.0000      .8935  1377.3789      .8105   -57.6102    12.9035   116.0415   -45.9839
 7021.5000      .8919  1376.6719      .8145   -57.6262    12.8928   116.0195   -45.0958
 7022.0000      .8909  1371.6934      .8185   -57.6707    12.8820   115.9976   -45.6319
 7022.5000      .8899  1365.5918      .8224   -57.7151    12.8747   115.9756   -46.1680
 7023.0000      .8915  1359.4902      .8264   -57.7596    12.8742   115.9106   -46.7035
 7023.5000      .8931  1352.2617      .8303   -57.7300    12.8737   115.4896   -47.3268
 7024.0000      .8947  1344.0586      .8358   -57.6997    12.8732   114.9697   -47.9628
 7024.5000      .8971  1335.8711      .8421   -57.6695    12.8727   114.4773   -48.5994
 7025.0000      .9001  1327.6816      .8485   -57.6392    12.8722   114.3154   -48.8220
 7025.5000      .9035  1311.7383      .8549   -57.6035    12.8717   114.5624   -48.3015
 7026.0000      .9090  1296.8809      .8612   -57.5345    12.8721   114.8097   -47.8683
 7026.5000      .9147  1285.7383      .8676   -57.4655    12.8729   115.0566   -47.6577
 7027.0000      .9215  1275.6055      .8739   -57.3965    12.8738   114.6678   -47.4471
 7027.5000      .9284  1267.6270      .8803   -57.3275    12.8746   114.0989   -47.2366
 7028.0000      .9353  1259.6621      .8866   -57.2626    12.8755   113.0334   -47.0260
 7028.5000      .9424  1251.6973      .8911   -57.1996    12.8797   111.9680   -46.8166
 7029.0000      .9496  1243.9453      .8933   -57.4835    12.8857   111.1354   -46.6135
 7029.5000      .9568  1236.4668      .8956   -57.8237    12.8917   110.6021   -46.4448
 7030.0000      .9632  1228.9883      .8979   -58.1614    12.8978   110.1327   -46.9165
 7030.5000      .9618  1231.0137      .9001   -58.4974    12.9037   109.9597   -47.3888
 7031.0000      .9577  1240.3926      .9024   -58.8333    12.9097   110.5822   -47.8611
 7031.5000      .9525  1256.2969      .9047   -59.1110    12.9145   111.2051   -48.3328
 7032.0000      .9472  1272.1777      .8933   -59.0292    12.9129   111.6086   -48.1538
 7032.5000      .9419  1289.5527      .8807   -58.9476    12.9113   111.2227   -47.9604
 7033.0000      .9347  1311.4648      .8681   -58.8033    12.9097   110.8367   -47.7672
 7033.5000      .9275  1321.5371      .8565   -58.5148    12.9081   111.1215   -47.5738
 7034.0000      .9202  1328.3730      .8461   -58.2263    12.9065   111.7566   -47.2706
 7034.5000      .9131  1334.8730      .8359   -57.9379    12.9049   112.4735   -46.9655
 7035.0000      .9061  1337.6348      .8275   -57.6675    12.9030   112.9319   -46.6605
 7035.5000      .8994  1340.3945      .8204   -57.4747    12.9001   113.2546   -46.3554
 7036.0000      .8932  1343.1563      .8132   -57.2820    12.8972   113.5546   -46.1059
 7036.5000      .8871  1345.9160      .8060   -57.0892    12.8944   113.8612   -45.9320
 7037.0000      .8819  1348.0723      .7993   -56.8965    12.8915   114.1685   -45.7580
 7037.5000      .8831  1349.2520      .7969   -56.7314    12.8886   114.5243   -45.7911
 7038.0000      .8843  1350.4316      .7945   -56.8879    12.8857   115.0242   -45.8906
 7038.5000      .8854  1351.6113      .7921   -57.0445    12.8811   115.4303   -46.0098
 7039.0000      .8865  1352.7910      .7897   -57.2009    12.8761   115.6302   -46.3864
 7039.5000      .8866  1353.2910      .7873   -57.3574    12.8709   115.8302   -46.7637
 7040.0000      .8868  1352.9727      .7887   -57.5140    12.8658   115.8141   -47.1403
 7040.5000      .8869  1352.6543      .7912   -57.5479    12.8607   115.7966   -47.5175
 7041.0000      .8871  1352.3340      .7937   -57.5663    12.8556   115.8378   -47.8948
 7041.5000      .8867  1351.9453      .7962   -57.5849    12.8537   115.9066   -48.1337
 7042.0000      .8862  1350.8438      .7987   -57.6034    12.8525   115.8854   -48.2133
 7042.5000      .8857  1349.7441      .8012   -57.6219    12.8512   115.4402   -47.6493
 7043.0000      .8852  1348.9355      .8047   -57.6028    12.8500   115.5065   -46.5519
 7043.5000      .8847  1348.7813      .8084   -57.5773    12.8488   115.6942   -45.9508
 7044.0000      .8839  1348.6250      .8121   -57.5517    12.8476   115.9014   -45.9598
 7044.5000      .8829  1348.4707      .8158   -57.5261    12.8530   116.0916   -46.2820
 7045.0000      .8818  1349.0820      .8195   -57.5516    12.8592   116.1913   -46.6042
 7045.5000      .8806  1351.1582      .8206   -57.6099    12.8551   118.3640   -46.9264
 7046.0000      .8792  1353.8555      .8204   -57.6682    12.8352   120.8462   -47.1249
 7046.5000      .8763  1357.5840      .8203   -57.7266    12.6861   122.8242   -47.1982
 7047.0000      .8728  1362.7930      .8201   -57.7849    12.5170   124.8701   -47.2714
 7047.5000      .8692  1369.9922      .8200   -57.8967    12.3772   122.3734   -47.3445
 7048.0000      .8648  1380.2676      .8198   -58.0459    12.2590   119.8766   -47.5254
 7048.5000      .8593  1397.4941      .8227   -58.1951    12.2012   118.5658   -47.0922
 7049.0000      .8525  1411.0313      .8285   -58.0090    12.1434   118.8737   -46.5820
 7049.5000      .8448  1406.0449      .8342   -57.5917    12.1018   119.1815   -46.0784
 7050.0000      .8253  1383.3848      .8400   -56.9309    12.0660   119.1906   -45.5958
 7050.5000      .8179  1359.2285      .8458   -56.3207    12.0477   119.1697   -45.1800
 7051.0000      .8423  1326.5469      .8521   -55.9621    12.0338   119.1493   -45.0928
 7051.5000      .8644  1306.7168      .8615   -56.1313    12.0681   119.1549   -45.0056
 7052.0000      .8802  1293.3906      .8708   -56.2851    12.1089   119.1606   -45.0355
 7052.5000      .8904  1280.9395      .8802   -56.4389    12.1497   119.1664   -45.1850
 7053.0000      .8961  1268.6250      .8896   -56.5927    12.2215   119.1721   -45.3786
 7053.5000      .8992  1260.8223      .8958   -56.7465    12.2543   119.1779   -45.7601
 7054.0000      .9032  1253.0566      .8997   -56.8523    11.9863   119.1833   -46.1415
 7054.5000      .9079  1247.9531      .9035   -56.9381    11.5971   119.1853   -46.5230
 7055.0000      .9171  1245.0762      .9074   -57.0240    11.3646   119.1873   -46.9044
 7055.5000      .9333  1242.2031      .9112   -57.1099    11.2478   119.1892   -47.2859
 7056.0000      .9544  1240.0430      .9134   -57.1972    11.1771   119.1912   -47.6667
 7056.5000      .9720  1238.4883      .9146   -57.2960    11.1295   119.1931   -48.0443
 7057.0000      .9710  1237.6836      .9158   -57.3950    11.1006   119.1951   -48.3132
 7057.5000      .9556  1237.5000      .9170   -57.5239    11.0786   119.1970   -48.5822
 7058.0000      .9229  1237.3164      .9181   -57.7238    11.0757   119.1738   -48.8508
 7058.5000      .8785  1237.1328      .9193   -58.2711    11.0775   119.1479   -49.0547
 7059.0000      .8415  1236.9492      .9205   -58.9634    11.0793   119.1219   -48.9598
 7059.5000      .8325  1236.7656      .9217   -59.7027    11.0810   119.0961   -48.8648
 7060.0000      .8260  1236.5820      .9228   -60.4583    11.0824   119.0702   -48.7662
 7060.5000  -999.2500  -999.2500  -999.2500   -61.1231    11.0825   119.0442   -48.6591
 7061.0000  -999.2500  -999.2500  -999.2500   -61.6957    11.0826   119.0183   -48.5521
