~VERSION INFORMATION
VERS.                             2.0:   CWLS Log ASCII Standard-VERSION 2.0
WRAP.                              NO:   One line per depth step
~Well Information Block
STRT.F                      3138.0000:   Top Depth
STOP.F                      8628.0000:   Bottom Depth
STEP.F                         .50000:   Depth Increment
NULL.                        -999.250:   Null Value
FLD .                      BA BLK 376:   Field Name
WELL.       OCSG07215   003 ST00 BP00:   NAME
API .                  42704401900000:   WELL API
EDF .F                        90.0000:   ELEV DRILL FLOOR
COMP.         UNION EXPL PARTNERS LTD:   OPERATOR
BN  .                             376:   BLOCK
CTRY.                             USA:   COUNTRY NAME
CNTY.                        BRAZOS L:   COUNTY NAME
EKB .F                        91.0000:   ELEV KELLY BUSHING
TDD .F                       8678.000:   FINAL TD DRILLER
STAT.                           TEXAS:   STATE NAME
UWI .                  42704401900000:   WELL API
DICO.               IHS : Digitizing Company
~PARAMETER INFORMATION (zones)
#MNEM.UNIT                       Value     Description
#=========                       =====     ===========
#ZONATION                          DIL:   ZONATION NAME
#ZONE                            RUN_1:   ZONE NAME
TOP .                       3138.0000:   TOP DEPTH
BOT .                       5660.5000:   BOTTOM DEPTH
RUN .                               1:   RUN NUMBER
SRVC.                               0:   LOGGING CONTRACTOR
SRVC.                         UNKNOWN:   LOGGING CONT NAME
DICO.          QC Data Collectors Ltd:   DIG COMPANY NAME
LDAT.                      06/22/1989:   DATE LOGGED
ELD .F                        91.0000:   LOG DATUM ELEVATION
TDD .F                      5675.0000:   TOTAL DEPTH DRILLER
TDL .F                      5662.0000:   TOTAL DEPTH LOGGER
BOTL.F                      5660.0000:   BOTTOM DEPTH LOGGED
TOPL.F                      3220.0000:   TOP DEPTH LOGGED
CS1 .IN                       10.7500:   CASING SIZE 1
BS1 .IN                        9.8750:   BIT SIZE 1
DDB1.F                      5675.0000:   DEPTH DRILLED BIT 1
BHF .                              20:   FLUID CODE
DPT .                    Gel (Gelchem:   DRILLING FLUID TYPE
MUDD.                          9.0000:   FLUID DENSITY
MUDV.                         68.0000:   FLUID VISCOSITY
DFPH.                          9.0000:   FLUID PH
FL  .                         12.0000:   FLUID LOSS
RM  .OHMM                      1.0500:   RM
RMT .DEGF                     75.0000:   RM TEMP
RMF .OHMM                       .8200:   RMF
RMFT.DEGF                     75.0000:   RMF TEMP
FSC .                               M:   RMF CODE
RMC .OHMM                      1.2200:   RMC
RMCT.DEGF                     75.0000:   RMC TEMP
CMC .                               M:   RMC CODE
TMAX.DEGF                    128.0000:   MAX REC TEMP
TIMC.                          7.0000:   TIME SINCE CIRCLN
~PARAMETER INFORMATION (zones)
#MNEM.UNIT                       Value     Description
#=========                       =====     ===========
#ZONATION                          DIL:   ZONATION NAME
#ZONE                            RUN_2:   ZONE NAME
TOP .                       5664.0000:   TOP DEPTH
BOT .                       8628.5000:   BOTTOM DEPTH
RUN .                               2:   RUN NUMBER
SRVC.                               0:   LOGGING CONTRACTOR
SRVC.                         UNKNOWN:   LOGGING CONT NAME
DICO.          QC Data Collectors Ltd:   DIG COMPANY NAME
LDAT.                      07/04/1989:   DATE LOGGED
ELD .F                        91.0000:   LOG DATUM ELEVATION
TDD .F                      8678.0000:   TOTAL DEPTH DRILLER
TDL .F                      8630.0000:   TOTAL DEPTH LOGGER
BOTL.F                      8628.0000:   BOTTOM DEPTH LOGGED
TOPL.F                      5664.0000:   TOP DEPTH LOGGED
CS1 .IN                        7.6250:   CASING SIZE 1
BS1 .IN                        6.5000:   BIT SIZE 1
DDB1.F                      8678.0000:   DEPTH DRILLED BIT 1
BHF .                              81:   FLUID CODE
DPT .          Lignosulfonate (Ligno):   DRILLING FLUID TYPE
MUDD.                         11.8000:   FLUID DENSITY
MUDV.                         48.0000:   FLUID VISCOSITY
DFPH.                         10.5000:   FLUID PH
FL  .                          6.6000:   FLUID LOSS
RM  .OHMM                       .7200:   RM
RMT .DEGF                     70.0000:   RM TEMP
RMF .OHMM                       .5900:   RMF
RMFT.DEGF                     70.0000:   RMF TEMP
FSC .                               M:   RMF CODE
RMC .OHMM                       .9000:   RMC
RMCT.DEGF                     70.0000:   RMC TEMP
CMC .                               C:   RMC CODE
TMAX.DEGF                    191.0000:   MAX REC TEMP
TIMC.                          5.0000:   TIME SINCE CIRCLN
~Curve Information Block
#MNEM.UNIT                    API CODE    No Description
#=========                    ========    == ===========
DEPT.F                   00 001 00 00:     1  DEPTH
DT.US/F                              :     2  Sonic Transit Time
GR.GAPI                              :     3  Gamma Ray
ILD.OHMM                             :     4  Deep Induction Resistivity
ILM.OHMM                             :     5  Medium Induction Resistivity
RFOC.OHMM                            :     6  Medium Resistivity
SP.MV                                :     7  Spontaneous Potential
~ASCII
# ...
 5374.0000   107.4862    61.6162      .2366      .2488      .4401  -123.3025
 5374.5000   107.4542    60.5533      .2360      .2505      .4599  -123.5669
 5375.0000   107.1206    58.2802      .2350      .2540      .4779  -124.1964
 5375.5000   106.1449    56.8564      .2342      .2642      .4911  -124.4624
 5376.0000   103.9858    55.5825      .2373      .3002      .4797  -124.4900
 5376.5000   100.1196    54.5671      .2501      .3332      .4696  -124.4679
 5377.0000    91.7235    53.4488      .2668      .3507      .5550  -124.4738
 5377.5000    84.3254    51.6981      .2876      .3436      .8248  -124.6368
 5378.0000    77.2877    49.6569      .3092      .3313     1.1424  -125.3926
 5378.5000    76.7600    47.5817      .3192      .3129      .7641  -126.5441
 5379.0000    86.3630    49.5852      .3203      .2886      .5003  -126.1793
 5379.5000    94.6494    52.9720      .3124      .2694      .4458  -125.1711
 5380.0000   102.5699    56.3719      .2981      .2590      .4523  -124.4846
 5380.5000   108.3433    58.3362      .2823      .2571      .4595  -123.4503
 5381.0000   110.8093    59.8095      .2679      .2603      .4652  -119.3132
 5381.5000   112.1200    61.9627      .2555      .2696      .4619  -114.0038
 5382.0000   112.9397    65.0109      .2448      .2870      .4408  -106.1462
 5382.5000   113.5016    70.2812      .2453      .3103      .4142   -84.1476
 5383.0000   113.8928    78.6285      .2601      .3295      .4009   -76.7122
 5383.5000   114.1396    87.1790      .2769      .3371      .4041   -74.9081
 5384.0000   112.8522    91.4359      .2958      .3416      .4222   -78.0096
 5384.5000   109.0120    89.3257      .3100      .3399      .4548   -92.9116
 5385.0000   105.6996    83.2606      .3229      .3362      .4796  -103.0903
 5385.5000   103.2335    78.6571      .3348      .3351      .5066  -106.7533
 5386.0000   101.2560    74.9760      .3360      .3384      .4925  -109.3013
 5386.5000   100.0374    72.1753      .3348      .3449      .4886  -108.9847
 5387.0000    99.1381    70.1901      .3324      .3530      .5265  -107.8892
 5387.5000    97.8312    68.6270      .3328      .3610      .5637  -106.3339
 5388.0000    95.2946    67.7137      .3342      .3683      .5692  -103.9501
 5388.5000    91.3839    67.5322      .3400      .3652      .5684  -101.6132
 5389.0000    88.0323    67.9183      .3467      .3560      .5775  -100.0461
 5389.5000    85.1509    68.3657      .3556      .3458      .5978   -99.5707
 5390.0000    84.7095    66.5193      .3519      .3343      .5707  -106.7507
 5390.5000    89.1060    63.9948      .3375      .3220      .5094  -113.9933
 5391.0000    95.6263    62.4590      .3263      .3146      .5055  -118.5238
 5391.5000    99.3829    61.9399      .3177      .3125      .5178  -120.8373
 5392.0000   100.3912    61.3915      .3134      .3370      .5322  -120.0740
 5392.5000    96.0862    59.9554      .3135      .3658      .5662  -114.3737
 5393.0000    90.2659    58.1395      .3180      .3917      .6395  -106.7560
 5393.5000    85.9946    56.1478      .3284      .4146      .6563   -99.7999
 5394.0000    82.8246    54.1418      .3413      .4368      .6835   -90.9838
 5394.5000    86.8019    52.4679      .3588      .4561      .6214   -81.8601
 5395.0000    91.5511    55.7388      .3814      .4625      .4758   -75.8159
 5395.5000    96.3630    62.2155      .4088      .4632      .4547   -72.1061
 5396.0000   100.0204    69.9686      .4359      .4449      .5214   -70.3442
 5396.5000   101.9907    76.9637      .4516      .4300      .5595   -70.1251
 5397.0000   103.0480    79.7552      .4480      .4211      .5064   -70.4678
 5397.5000   105.0674    81.8381      .4409      .4138      .4894   -71.0526
 5398.0000   108.1996    84.8499      .4317      .4081      .4893   -71.2900
 5398.5000   111.1567    87.9163      .4224      .4039      .4797   -71.0073
 5399.0000   113.6934    89.8389      .4157      .4011      .4666   -70.1431
 5399.5000   115.6173    90.9888      .4114      .3995      .4654   -69.2064
 5400.0000   116.8582    90.4237      .4082      .3985      .4693   -68.4587
 5400.5000   117.5319    89.9847      .4063      .3981      .4713   -68.1177
 5401.0000   117.5974    90.8472      .4028      .3978      .4720   -68.0690
 5401.5000   117.7559    92.6135      .3995      .3969      .4691   -68.3064
 5402.0000   118.3374    95.1093      .3964      .3955      .4663   -69.0123
 5402.5000   119.0336    97.7771      .3940      .3935      .4641   -69.7203
 5403.0000   119.3894    97.9985      .3907      .3918      .4628   -70.0201
 5403.5000   119.4427    96.6809      .3864      .3905      .4620   -69.8704
 5404.0000   119.4379    95.8936      .3808      .3886      .4642   -69.6520
 5404.5000   119.1841    95.9487      .3751      .3861      .4662   -69.4160
 5405.0000   118.9020    95.6812      .3721      .3822      .4676   -69.3115
 5405.5000   118.7040    92.6969      .3680      .3784      .4653   -69.1733
 5406.0000   118.7606    90.8536      .3636      .3753      .4613   -69.3954
 5406.5000   118.6399    92.4806      .3594      .3732      .4533   -72.1270
 5407.0000   117.8685    93.8506      .3539      .3735      .4434   -75.3314
 5407.5000   114.5997    93.9017      .3493      .3765      .4450   -77.4417
 5408.0000   110.3234    90.7898      .3474      .3824      .4913   -77.6422
 5408.5000   106.2507    85.4230      .3475      .3892      .5739   -74.8651
 5409.0000   104.6631    82.7721      .3528      .3977      .4902   -72.9098
 5409.5000   106.6896    82.2754      .3639      .4060      .4535   -71.9999
 5410.0000   108.6907    83.5836      .3800      .4144      .4616   -71.2867
 5410.5000   110.5331    85.1416      .3998      .4224      .4940   -70.5006
 5411.0000   110.3397    86.9197      .4211      .4309      .5073   -69.6285
 5411.5000   109.6422    89.1381      .4393      .4402      .4979   -68.9573
 5412.0000   109.5391    91.6704      .4561      .4512      .4898   -69.3979
 5412.5000   110.5454    93.8080      .4688      .4616      .4849   -69.8835
 5413.0000   111.5662    94.0347      .4766      .4705      .4804   -70.2668
 5413.5000   112.1207    93.5336      .4800      .4766      .4763   -70.4567
 5414.0000   111.9777    93.4474      .4774      .4799      .4723   -70.5865
 5414.5000   111.4650    93.9800      .4711      .4815      .4711   -70.6479
 5415.0000   110.8936    95.0220      .4606      .4810      .4704   -70.7687
 5415.5000   110.0165    96.3937      .4419      .4793      .4725   -71.1116
 5416.0000   108.8722    95.8414      .4097      .4759      .4630   -73.6901
 5416.5000   104.9106    90.6804      .3750      .4598      .4407   -84.1580
 5417.0000    97.9357    80.9628      .3430      .4240      .4744   -91.5778
 5417.5000    92.9462    68.7390      .3201      .3832      .5164  -109.1476
 5418.0000    89.5814    57.6927      .3048      .3434      .5230  -122.3822
 5418.5000    94.3568    52.1175      .2937      .3174      .5103  -127.0131
 5419.0000    98.4059    49.9714      .2849      .3002      .5045  -128.1724
 5419.5000   100.5363    49.4224      .2785      .2880      .5017  -128.1638
 5420.0000   101.8040    49.2107      .2729      .2817      .5026  -127.3361
 5420.5000   102.0084    49.0868      .2687      .2791      .5019  -126.4204
 5421.0000   101.8206    48.9585      .2662      .2800      .5006  -126.0435
 5421.5000   101.5355    48.7675      .2652      .2829      .5007  -126.2885
 5422.0000   101.2246    48.6533      .2666      .2850      .5009  -126.4666
 5422.5000   100.8674    48.4249      .2694      .2856      .5033  -125.6088
 5423.0000   100.5320    48.1067      .2731      .2844      .5060  -124.2306
 5423.5000   100.3220    49.1683      .2744      .2817      .5023  -123.0127
 5424.0000   100.9177    58.3805      .2729      .2784      .4877  -122.1022
 5424.5000   102.9670    61.8377      .2690      .2763      .4799  -121.5883
 5425.0000   104.8309    62.4066      .2664      .2797      .4815  -120.3997
 5425.5000   106.3448    62.1353      .2666      .2920      .4828  -115.6815
