~VERSION INFORMATION
VERS.                             2.0:   CWLS Log ASCII Standard-VERSION 2.0
WRAP.                              NO:   One line per depth step
~Well Information Block
STRT.F                      2726.0000:   Top Depth
STOP.F                     13125.0000:   Bottom Depth
STEP.F                         .50000:   Depth Increment
NULL.                        -999.250:   Null Value
FLD .                      GA BLK 255:   Field Name
WELL.       OCSG01777  A007 ST00 BP00:   NAME
API .                  42706400190000:   WELL API
EDF .F                        92.0000:   ELEV DRILL FLOOR
COMP.       COASTAL STATES GAS PROD C:   OPERATOR
BN  .                             255:   BLOCK
CTRY.                             USA:   COUNTRY NAME
CNTY.                              GA:   COUNTY
CNTY.                        GLVSTN L:   COUNTY NAME
EKB .F                        93.0000:   ELEV KELLY BUSHING
TDD .F                      13136.000:   FINAL TD DRILLER
STAT.                           TEXAS:   STATE NAME
UWI .                  42706400190000:   WELL API
DICO.               IHS : Digitizing Company
~PARAMETER INFORMATION (zones)
#MNEM.UNIT                       Value     Description
#=========                       =====     ===========
#ZONATION                           IE:   ZONATION NAME
#ZONE                            RUN_1:   ZONE NAME
TOP .                       2726.0000:   TOP DEPTH
BOT .                       8780.5000:   BOTTOM DEPTH
RUN .                               1:   RUN NUMBER
LCCD.                             440:   LOGGING CONTRACTOR
SRVC.                    Schlumberger:   LOGGING CONT NAME
DICO.          QC Data Collectors Ltd:   DIG COMPANY NAME
LDAT.                      09/02/1973:   DATE LOGGED
ELD .F                        93.0000:   LOG DATUM ELEVATION
TDD .F                      8829.0000:   TOTAL DEPTH DRILLER
TDL .F                      8822.0000:   TOTAL DEPTH LOGGER
BOTL.F                      8821.0000:   BOTTOM DEPTH LOGGED
TOPL.F                      2726.0000:   TOP DEPTH LOGGED
CS1 .IN                       13.6250:   CASING SIZE 1
BS1 .IN                       12.2500:   BIT SIZE 1
DDB1.F                      8829.0000:   DEPTH DRILLED BIT 1
BHF .                              81:   FLUID CODE
DPT .          Lignosulfonate (Ligno):   DRILLING FLUID TYPE
MUDD.                         12.2000:   FLUID DENSITY
MUDV.                         44.0000:   FLUID VISCOSITY
DFPH.                         10.5000:   FLUID PH
FL  .                          2.0000:   FLUID LOSS
RM  .OHMM                       .9600:   RM
RMT .DEGF                     74.0000:   RM TEMP
RMF .OHMM                       .5900:   RMF
RMFT.DEGF                     71.0000:   RMF TEMP
FSC .                               M:   RMF CODE
RMC .OHMM                      1.8100:   RMC
RMCT.DEGF                     71.0000:   RMC TEMP
CMC .                               M:   RMC CODE
TMAX.DEGF                    160.0000:   MAX REC TEMP
TIMC.                         24.0000:   TIME SINCE CIRCLN
~PARAMETER INFORMATION (zones)
#MNEM.UNIT                       Value     Description
#=========                       =====     ===========
#ZONATION                           IE:   ZONATION NAME
#ZONE                            RUN_2:   ZONE NAME
TOP .                       8780.0000:   TOP DEPTH
BOT .                       9333.5000:   BOTTOM DEPTH
RUN .                               2:   RUN NUMBER
LCCD.                             440:   LOGGING CONTRACTOR
SRVC.                    Schlumberger:   LOGGING CONT NAME
DICO.          QC Data Collectors Ltd:   DIG COMPANY NAME
LDAT.                      09/09/1973:   DATE LOGGED
ELD .F                        93.0000:   LOG DATUM ELEVATION
TDD .F                      9340.0000:   TOTAL DEPTH DRILLER
TDL .F                      9334.0000:   TOTAL DEPTH LOGGER
BOTL.F                      9333.0000:   BOTTOM DEPTH LOGGED
TOPL.F                      8821.0000:   TOP DEPTH LOGGED
CS1 .IN                       13.3750:   CASING SIZE 1
BS1 .IN                       12.2500:   BIT SIZE 1
DDB1.F                      9340.0000:   DEPTH DRILLED BIT 1
BHF .                              99:   FLUID CODE
DPT .                   Miscellaneous:   DRILLING FLUID TYPE
MUDD.                         12.3000:   FLUID DENSITY
MUDV.                         46.0000:   FLUID VISCOSITY
DFPH.                         10.5000:   FLUID PH
FL  .                          3.2000:   FLUID LOSS
RM  .OHMM                       .6500:   RM
RMT .DEGF                     82.0000:   RM TEMP
RMF .OHMM                       .5000:   RMF
RMFT.DEGF                     82.0000:   RMF TEMP
FSC .                               M:   RMF CODE
RMC .OHMM                       .9600:   RMC
RMCT.DEGF                     82.0000:   RMC TEMP
CMC .                               M:   RMC CODE
TMAX.DEGF                    160.0000:   MAX REC TEMP
TIMC.                          4.0000:   TIME SINCE CIRCLN
~PARAMETER INFORMATION (zones)
#MNEM.UNIT                       Value     Description
#=========                       =====     ===========
#ZONATION                           IE:   ZONATION NAME
#ZONE                            RUN_3:   ZONE NAME
TOP .                       9343.0000:   TOP DEPTH
BOT .                      13125.5000:   BOTTOM DEPTH
RUN .                               3:   RUN NUMBER
LCCD.                             440:   LOGGING CONTRACTOR
SRVC.                    Schlumberger:   LOGGING CONT NAME
DICO.          QC Data Collectors Ltd:   DIG COMPANY NAME
LDAT.                      09/22/1973:   DATE LOGGED
ELD .F                        93.0000:   LOG DATUM ELEVATION
TDD .F                     13136.0000:   TOTAL DEPTH DRILLER
TDL .F                     13126.0000:   TOTAL DEPTH LOGGER
BOTL.F                     13125.0000:   BOTTOM DEPTH LOGGED
TOPL.F                      9343.0000:   TOP DEPTH LOGGED
CS1 .IN                        9.6250:   CASING SIZE 1
BS1 .IN                        8.5000:   BIT SIZE 1
DDB1.F                     13136.0000:   DEPTH DRILLED BIT 1
BHF .                              99:   FLUID CODE
DPT .                   Miscellaneous:   DRILLING FLUID TYPE
MUDD.                         16.5000:   FLUID DENSITY
MUDV.                         46.0000:   FLUID VISCOSITY
DFPH.                         11.0000:   FLUID PH
FL  .                          2.2000:   FLUID LOSS
RM  .OHMM                       .6100:   RM
RMT .DEGF                     80.0000:   RM TEMP
RMF .OHMM                       .2300:   RMF
RMFT.DEGF                     80.0000:   RMF TEMP
FSC .                               M:   RMF CODE
RMC .OHMM                      1.0000:   RMC
RMCT.DEGF                     80.0000:   RMC TEMP
CMC .                               M:   RMC CODE
TMAX.DEGF                    232.0000:   MAX REC TEMP
TIMC.                          7.0000:   TIME SINCE CIRCLN
~PARAMETER INFORMATION (zones)
#MNEM.UNIT                       Value     Description
#=========                       =====     ===========
#ZONATION                        SONIC:   ZONATION NAME
#ZONE                            RUN_1:   ZONE NAME
TOP .                       9343.0000:   TOP DEPTH
BOT .                      13014.5000:   BOTTOM DEPTH
RUN .                               1:   RUN NUMBER
LCCD.                             440:   LOGGING CONTRACTOR
SRVC.                    Schlumberger:   LOGGING CONT NAME
DICO.          QC Data Collectors Ltd:   DIG COMPANY NAME
LDAT.                      09/22/1973:   DATE LOGGED
ELD .F                        93.0000:   LOG DATUM ELEVATION
TDD .F                     13136.0000:   TOTAL DEPTH DRILLER
TDL .F                     13126.0000:   TOTAL DEPTH LOGGER
BOTL.F                     13014.0000:   BOTTOM DEPTH LOGGED
TOPL.F                      9343.0000:   TOP DEPTH LOGGED
CS1 .IN                        9.6250:   CASING SIZE 1
BS1 .IN                        8.5000:   BIT SIZE 1
DDB1.F                     13136.0000:   DEPTH DRILLED BIT 1
BHF .                              99:   FLUID CODE
DPT .                   Miscellaneous:   DRILLING FLUID TYPE
MUDD.                         16.5000:   FLUID DENSITY
MUDV.                         46.0000:   FLUID VISCOSITY
DFPH.                         11.0000:   FLUID PH
FL  .                          2.2000:   FLUID LOSS
RM  .OHMM                       .6100:   RM
RMT .DEGF                     80.0000:   RM TEMP
RMF .OHMM                       .2400:   RMF
RMFT.DEGF                     80.0000:   RMF TEMP
FSC .                               M:   RMF CODE
RMC .OHMM                      1.0000:   RMC
RMCT.DEGF                     80.0000:   RMC TEMP
CMC .                               M:   RMC CODE
TMAX.DEGF                    232.0000:   MAX REC TEMP
TIMC.                          6.0000:   TIME SINCE CIRCLN
~Curve Information Block
#MNEM.UNIT                    API CODE    No Description
#=========                    ========    == ===========
DEPT.F                   00 001 00 00:     1  DEPTH
ASN.OHMM                             :     2  Short-Normal Resistivity
ILD.OHMM                             :     3  Deep Induction Resistivity
SP.MV                                :     4  Spontaneous Potential
CALI.IN                              :     5  Caliper
DT.US/F                              :     6  Sonic Transit Time
~ASCII
# ...
 7545.0000     1.5918      .3320  -109.0791  -999.2500  -999.2500
 7545.5000     1.2913      .3017  -109.6229  -999.2500  -999.2500
 7546.0000     1.0275      .2792  -111.3052  -999.2500  -999.2500
 7546.5000      .7480      .2680  -113.2532  -999.2500  -999.2500
 7547.0000      .6501      .2761  -114.5457  -999.2500  -999.2500
 7547.5000      .6103      .2939  -115.3290  -999.2500  -999.2500
 7548.0000      .6183      .3276  -114.4558  -999.2500  -999.2500
 7548.5000      .6483      .3567  -113.6620  -999.2500  -999.2500
 7549.0000      .6310      .3722  -113.4769  -999.2500  -999.2500
 7549.5000      .6184      .3506  -113.8348  -999.2500  -999.2500
 7550.0000      .6226      .3074  -114.0811  -999.2500  -999.2500
 7550.5000      .6062      .2540  -114.0193  -999.2500  -999.2500
 7551.0000      .5723      .2034  -113.4247  -999.2500  -999.2500
 7551.5000      .5495      .1666  -113.5569  -999.2500  -999.2500
 7552.0000      .5342      .1507  -114.7399  -999.2500  -999.2500
 7552.5000      .5307      .1453  -115.3904  -999.2500  -999.2500
 7553.0000      .5286      .1550  -115.5035  -999.2500  -999.2500
 7553.5000      .5310      .1663  -116.0367  -999.2500  -999.2500
 7554.0000      .5342      .1884  -116.9731  -999.2500  -999.2500
 7554.5000      .5128      .2110  -117.8654  -999.2500  -999.2500
 7555.0000      .4947      .2439  -118.5270  -999.2500  -999.2500
 7555.5000      .4895      .2835  -118.6561  -999.2500  -999.2500
 7556.0000      .5096      .3342  -117.7947  -999.2500  -999.2500
 7556.5000      .5453      .3896  -117.0088  -999.2500  -999.2500
 7557.0000      .6117      .4423  -117.3406  -999.2500  -999.2500
 7557.5000      .6836      .4852  -117.4908  -999.2500  -999.2500
 7558.0000      .7635      .5153  -116.7112  -999.2500  -999.2500
 7558.5000      .8422      .5021  -115.4889  -999.2500  -999.2500
 7559.0000      .9103      .4806  -115.7815  -999.2500  -999.2500
 7559.5000      .9745      .4538  -116.5101  -999.2500  -999.2500
 7560.0000     1.0159      .4228  -117.0365  -999.2500  -999.2500
 7560.5000      .9955      .3917  -116.6184  -999.2500  -999.2500
 7561.0000      .9142      .3630  -115.2994  -999.2500  -999.2500
 7561.5000      .8871      .3350  -113.6049  -999.2500  -999.2500
 7562.0000      .8627      .3080  -112.2324  -999.2500  -999.2500
 7562.5000      .8067      .2852  -111.6833  -999.2500  -999.2500
 7563.0000      .7079      .2624  -112.0646  -999.2500  -999.2500
 7563.5000      .6552      .2429  -112.8719  -999.2500  -999.2500
 7564.0000      .5819      .2270  -113.9308  -999.2500  -999.2500
 7564.5000      .5344      .2122  -115.0573  -999.2500  -999.2500
 7565.0000      .5400      .2063  -115.7323  -999.2500  -999.2500
 7565.5000      .5269      .2004  -115.9033  -999.2500  -999.2500
 7566.0000      .5042      .1959  -115.1089  -999.2500  -999.2500
 7566.5000      .4945      .1918  -116.3656  -999.2500  -999.2500
 7567.0000      .4868      .1883  -117.6249  -999.2500  -999.2500
 7567.5000      .4811      .1874  -117.6797  -999.2500  -999.2500
 7568.0000      .4786      .1865  -117.2554  -999.2500  -999.2500
 7568.5000      .4718      .1872  -117.3489  -999.2500  -999.2500
 7569.0000      .4589      .1880  -117.8488  -999.2500  -999.2500
 7569.5000      .4488      .1905  -119.0686  -999.2500  -999.2500
 7570.0000      .4514      .1938  -119.7806  -999.2500  -999.2500
 7570.5000      .4460      .2009  -119.3810  -999.2500  -999.2500
 7571.0000      .4331      .2089  -117.2155  -999.2500  -999.2500
 7571.5000      .4174      .2163  -116.1455  -999.2500  -999.2500
 7572.0000      .4039      .2236  -117.2646  -999.2500  -999.2500
 7572.5000      .3929      .2306  -119.1216  -999.2500  -999.2500
 7573.0000      .3854      .2372  -120.9415  -999.2500  -999.2500
 7573.5000      .3819      .2419  -122.0951  -999.2500  -999.2500
 7574.0000      .3808      .2470  -122.7653  -999.2500  -999.2500
 7574.5000      .3926      .2550  -122.9904  -999.2500  -999.2500
 7575.0000      .4121      .2623  -122.6853  -999.2500  -999.2500
 7575.5000      .4491      .2683  -121.1310  -999.2500  -999.2500
 7576.0000      .5260      .2698  -116.1874  -999.2500  -999.2500
 7576.5000      .6129      .2688  -112.5719  -999.2500  -999.2500
 7577.0000      .6590      .2679  -111.2092  -999.2500  -999.2500
 7577.5000      .6778      .2669  -110.6627  -999.2500  -999.2500
 7578.0000      .6656      .2660  -110.4825  -999.2500  -999.2500
 7578.5000      .6448      .2650  -110.7395  -999.2500  -999.2500
 7579.0000      .6214      .2641  -111.1005  -999.2500  -999.2500
 7579.5000      .6113      .2632  -111.7399  -999.2500  -999.2500
 7580.0000      .6103      .2622  -112.5079  -999.2500  -999.2500
 7580.5000      .6079      .2613  -113.6257  -999.2500  -999.2500
 7581.0000      .6013      .2580  -114.9305  -999.2500  -999.2500
 7581.5000      .5916      .2532  -116.1898  -999.2500  -999.2500
 7582.0000      .5794      .2493  -117.0922  -999.2500  -999.2500
 7582.5000      .5655      .2462  -117.0199  -999.2500  -999.2500
 7583.0000      .5498      .2447  -116.0706  -999.2500  -999.2500
 7583.5000      .5328      .2438  -115.3306  -999.2500  -999.2500
 7584.0000      .5159      .2480  -115.3723  -999.2500  -999.2500
 7584.5000      .5013      .2529  -114.6428  -999.2500  -999.2500
 7585.0000      .4901      .2610  -113.2532  -999.2500  -999.2500
 7585.5000      .4837      .2697  -114.4288  -999.2500  -999.2500
 7586.0000      .4794      .2782  -115.8627  -999.2500  -999.2500
 7586.5000      .4828      .2866  -116.4868  -999.2500  -999.2500
 7587.0000      .4866      .2858  -116.4492  -999.2500  -999.2500
 7587.5000      .4897      .2812  -115.6843  -999.2500  -999.2500
 7588.0000      .4832      .2761  -114.2738  -999.2500  -999.2500
 7588.5000      .4704      .2706  -112.6973  -999.2500  -999.2500
 7589.0000      .4569      .2578  -111.2732  -999.2500  -999.2500
 7589.5000      .4489      .2439  -111.5068  -999.2500  -999.2500
 7590.0000      .4408      .2371  -110.7272  -999.2500  -999.2500
 7590.5000      .4442      .2303  -108.7892  -999.2500  -999.2500
 7591.0000      .4505      .2246  -107.1769  -999.2500  -999.2500
 7591.5000      .4537      .2178  -111.3864  -999.2500  -999.2500
 7592.0000      .4241      .2094  -116.9695  -999.2500  -999.2500
 7592.5000      .3887      .2037  -119.3945  -999.2500  -999.2500
 7593.0000      .3654      .1986  -121.0326  -999.2500  -999.2500
 7593.5000      .3553      .1989  -122.1541  -999.2500  -999.2500
 7594.0000      .3470      .1996  -123.1465  -999.2500  -999.2500
 7594.5000      .3441      .2018  -123.7460  -999.2500  -999.2500
 7595.0000      .3458      .2054  -124.3351  -999.2500  -999.2500
 7595.5000      .3548      .2089  -124.4404  -999.2500  -999.2500
 7596.0000      .3618      .2149  -124.3677  -999.2500  -999.2500
 7596.5000      .3635      .2210  -123.4084  -999.2500  -999.2500
 7597.0000      .3648      .2281  -119.8126  -999.2500  -999.2500
 7597.5000      .3757      .2355  -110.8010  -999.2500  -999.2500
 7598.0000      .4042      .2479  -107.0035  -999.2500  -999.2500
 7598.5000      .4271      .2622  -107.0527  -999.2500  -999.2500
 7599.0000      .4348      .2767  -109.3302  -999.2500  -999.2500
 7599.5000      .4258      .2894  -110.6938  -999.2500  -999.2500
 7600.0000      .4032      .2994  -107.7512  -999.2500  -999.2500
 7600.5000      .3813      .3032   -96.9540  -999.2500  -999.2500
 7601.0000      .3874      .2912   -91.8284  -999.2500  -999.2500
 7601.5000      .4053      .2787   -89.1143  -999.2500  -999.2500
 7602.0000      .4316      .2655   -91.9661  -999.2500  -999.2500
 7602.5000      .4593      .2505   -99.6201  -999.2500  -999.2500
 7603.0000      .4722      .2336  -104.5981  -999.2500  -999.2500
 7603.5000      .4555      .2218  -108.4596  -999.2500  -999.2500
 7604.0000      .4327      .2145  -111.3568  -999.2500  -999.2500
 7604.5000      .4060      .2085  -113.4032  -999.2500  -999.2500
 7605.0000      .3950      .2034  -114.4250  -999.2500  -999.2500
 7605.5000      .4003      .2028  -114.7350  -999.2500  -999.2500
