~VERSION INFORMATION
VERS.                             2.0:   CWLS Log ASCII Standard-VERSION 2.0
WRAP.                              NO:   One line per depth step
~Well Information Block
STRT.F                      3012.0000:   Top Depth
STOP.F                      9049.0000:   Bottom Depth
STEP.F                         .50000:   Depth Increment
NULL.                        -999.250:   Null Value
FLD .                      GA BLK 210:   Field Name
WELL.       OCSG01759   002 ST00 BP00:   NAME
API .                  42706400060000:   WELL API
R1  .                      TEXACO INC:   COMMENT  1
EDF .F                        74.0000:   ELEV DRILL FLOOR
COMP.                      TEXACO INC:   OPERATOR
BN  .                             210:   BLOCK
CTRY.                             USA:   COUNTRY NAME
CNTY.                              GA:   COUNTY
CNTY.                        GLVSTN L:   COUNTY NAME
EKB .F                        75.0000:   ELEV KELLY BUSHING
TDD .F                       9050.000:   FINAL TD DRILLER
STAT.                           TEXAS:   STATE NAME
UWI .                  42706400060000:   WELL API
DICO.               IHS : Digitizing Company
~PARAMETER INFORMATION (zones)
#MNEM.UNIT                       Value     Description
#=========                       =====     ===========
#ZONATION                           IE:   ZONATION NAME
#ZONE                            RUN_2:   ZONE NAME
TOP .                       9049.0000:   TOP DEPTH
BOT .                       9050.0000:   BOTTOM DEPTH
RUN .                               2:   RUN NUMBER
LCCD.                             440:   LOGGING CONTRACTOR
SRVC.                    Schlumberger:   LOGGING CONT NAME
DICO.          QC Data Collectors Ltd:   DIG COMPANY NAME
LDAT.                      11/07/1971:   DATE LOGGED
ELD .F                        75.0000:   LOG DATUM ELEVATION
TDD .F                      9050.0000:   TOTAL DEPTH DRILLER
TDL .F                      9050.0000:   TOTAL DEPTH LOGGER
BOTL.F                      9049.0000:   BOTTOM DEPTH LOGGED
TOPL.F                      7103.0000:   TOP DEPTH LOGGED
CS1 .IN                        9.6250:   CASING SIZE 1
BS1 .IN                        8.6250:   BIT SIZE 1
DDB1.F                      9050.0000:   DEPTH DRILLED BIT 1
BHF .                              99:   FLUID CODE
DPT .                   Miscellaneous:   DRILLING FLUID TYPE
MUDD.                         15.0000:   FLUID DENSITY
MUDV.                         45.0000:   FLUID VISCOSITY
DFPH.                         10.5000:   FLUID PH
FL  .                          4.0000:   FLUID LOSS
RM  .OHMM                       .7700:   RM
RMT .DEGF                    100.0000:   RM TEMP
RMF .OHMM                       .5300:   RMF
RMFT.DEGF                     77.0000:   RMF TEMP
FSC .                               M:   RMF CODE
RMC .OHMM                      1.4300:   RMC
RMCT.DEGF                     75.0000:   RMC TEMP
CMC .                               M:   RMC CODE
TMAX.DEGF                    194.0000:   MAX REC TEMP
TIMC.                          4.0000:   TIME SINCE CIRCLN
~PARAMETER INFORMATION (zones)
#MNEM.UNIT                       Value     Description
#=========                       =====     ===========
#ZONATION                           IE:   ZONATION NAME
#ZONE                            RUN_1:   ZONE NAME
TOP .                       3012.0000:   TOP DEPTH
BOT .                       9049.5000:   BOTTOM DEPTH
RUN .                               1:   RUN NUMBER
LCCD.                             440:   LOGGING CONTRACTOR
SRVC.                    Schlumberger:   LOGGING CONT NAME
DICO.          QC Data Collectors Ltd:   DIG COMPANY NAME
LDAT.                      10/28/1971:   DATE LOGGED
ELD .F                        75.0000:   LOG DATUM ELEVATION
TDD .F                      7115.0000:   TOTAL DEPTH DRILLER
TDL .F                      7061.0000:   TOTAL DEPTH LOGGER
BOTL.F                      7060.0000:   BOTTOM DEPTH LOGGED
TOPL.F                      3012.0000:   TOP DEPTH LOGGED
CS1 .IN                       13.3750:   CASING SIZE 1
BS1 .IN                       12.2500:   BIT SIZE 1
DDB1.F                      7115.0000:   DEPTH DRILLED BIT 1
BHF .                              11:   FLUID CODE
DPT .         Caustic (high PH) (CLS):   DRILLING FLUID TYPE
MUDD.                         10.5000:   FLUID DENSITY
MUDV.                         40.0000:   FLUID VISCOSITY
DFPH.                          9.0000:   FLUID PH
FL  .                          4.4000:   FLUID LOSS
RM  .OHMM                       .9400:   RM
RMT .DEGF                     96.0000:   RM TEMP
RMF .OHMM                       .7600:   RMF
RMFT.DEGF                     96.0000:   RMF TEMP
FSC .                               M:   RMF CODE
RMC .OHMM                      1.2600:   RMC
RMCT.DEGF                     96.0000:   RMC TEMP
CMC .                               M:   RMC CODE
TMAX.DEGF                    155.0000:   MAX REC TEMP
TIMC.                          4.0000:   TIME SINCE CIRCLN
~PARAMETER INFORMATION (zones)
#MNEM.UNIT                       Value     Description
#=========                       =====     ===========
#ZONATION                        SONIC:   ZONATION NAME
#ZONE                            RUN_1:   ZONE NAME
TOP .                       3012.0000:   TOP DEPTH
BOT .                       9049.5000:   BOTTOM DEPTH
RUN .                               1:   RUN NUMBER
LCCD.                             440:   LOGGING CONTRACTOR
SRVC.                    Schlumberger:   LOGGING CONT NAME
DICO.          QC Data Collectors Ltd:   DIG COMPANY NAME
LDAT.                      10/28/1971:   DATE LOGGED
ELD .F                        75.0000:   LOG DATUM ELEVATION
TDD .F                      7115.0000:   TOTAL DEPTH DRILLER
TDL .F                      7060.0000:   TOTAL DEPTH LOGGER
BOTL.F                      7050.0000:   BOTTOM DEPTH LOGGED
TOPL.F                      3012.0000:   TOP DEPTH LOGGED
CS1 .IN                       13.3750:   CASING SIZE 1
BS1 .IN                       12.2500:   BIT SIZE 1
DDB1.F                      7115.0000:   DEPTH DRILLED BIT 1
BHF .                              11:   FLUID CODE
DPT .         Caustic (high PH) (CLS):   DRILLING FLUID TYPE
MUDD.                         10.5000:   FLUID DENSITY
MUDV.                         40.0000:   FLUID VISCOSITY
DFPH.                          9.0000:   FLUID PH
FL  .                          4.4000:   FLUID LOSS
RM  .OHMM                       .9400:   RM
RMT .DEGF                     96.0000:   RM TEMP
RMF .OHMM                       .7600:   RMF
RMFT.DEGF                     96.0000:   RMF TEMP
FSC .                               M:   RMF CODE
RMC .OHMM                      1.2600:   RMC
RMCT.DEGF                     96.0000:   RMC TEMP
CMC .                               M:   RMC CODE
TMAX.DEGF                    155.0000:   MAX REC TEMP
TIMC.                          6.0000:   TIME SINCE CIRCLN
~Curve Information Block
#MNEM.UNIT                    API CODE    No Description
#=========                    ========    == ===========
DEPT.F                   00 001 00 00:     1  DEPTH
ASN.OHMM                             :     2  Short-Normal Resistivity
CILD.MMHO                            :     3  Deep Induction Conductivity
ILD.OHMM                             :     4  Deep Induction Resistivity
SP.MV                                :     5  Spontaneous Potential
CALI.IN                              :     6  Caliper
DT.US/F                              :     7  Sonic Transit Time
SP.MV                                :     8  Spontaneous Potential
~ASCII
# ...
 9018.0000      .6831  1573.6152      .7543   -44.4660     9.2869   137.9868   -42.3607
 9018.5000      .6909  1553.4160      .7599   -44.5092     9.2832   136.1736   -42.1172
 9019.0000      .6988  1531.4355      .7655   -44.5958     9.2809   134.8743   -42.1433
 9019.5000      .7092  1505.7930      .7711   -44.6826     9.2785   134.1772   -42.2474
 9020.0000      .7228  1485.1426      .7747   -44.8513     9.2762   133.5586   -42.3514
 9020.5000      .7331  1467.2520      .7758   -45.0706     9.2739   133.6260   -42.5977
 9021.0000      .7403  1450.9922      .7770   -45.2895     9.2735   134.3762   -43.0098
 9021.5000      .7355  1442.8867      .7782   -45.5087     9.2750   135.1265   -43.4226
 9022.0000      .7307  1462.5352      .7794   -45.6432     9.2766   135.8779   -43.5769
 9022.5000      .7259  1502.6309      .7758   -45.5641     9.2781   136.4524   -43.3152
 9023.0000      .7211  1530.5586      .7707   -45.4850     9.2796   137.0183   -43.0532
 9023.5000      .7168  1550.3047      .7655   -45.4046     9.2760   137.5845   -42.7914
 9024.0000      .7133  1568.1699      .7603   -45.3168     9.2638   137.8572   -42.5294
 9024.5000      .7098  1576.9141      .7565   -45.2291     9.2516   137.1941   -42.4688
 9025.0000      .7062  1576.8770      .7549   -45.1414     9.2394   136.5310   -42.4527
 9025.5000      .7066  1574.9551      .7533   -45.0535     9.2233   136.0093   -42.4366
 9026.0000      .7078  1573.0313      .7516   -45.0632     9.1974   136.3523   -42.4205
 9026.5000      .7090  1571.4883      .7500   -45.1880     9.1715   136.6960   -42.4044
 9027.0000      .7103  1569.9902      .7484   -45.3128     9.1456   137.0391   -42.3172
 9027.5000      .7114  1568.4941      .7470   -45.4376     9.1197   137.3826   -42.2231
 9028.0000      .7104  1566.9941      .7465   -45.5624     9.0939   137.6914   -42.1292
 9028.5000      .7095  1567.7285      .7460   -45.6871     9.0682   137.9724   -42.0353
 9029.0000      .7085  1569.8789      .7455   -45.7863     9.0425   138.2534   -41.9775
 9029.5000      .7034  1572.0273      .7450   -45.7567     9.0167   138.2573   -41.9771
 9030.0000      .6990  1574.1797      .7471   -45.7269     8.9910   138.2144   -41.9767
 9030.5000      .6965  1571.8965      .7515   -45.6670     8.9726   137.7832   -41.9821
 9031.0000      .6941  1556.3516      .7559   -45.5062     8.9591   137.1311   -42.0049
 9031.5000      .6923  1533.0176      .7602   -45.3452     8.9455   136.4802   -42.0276
 9032.0000      .6938  1505.6426      .7646   -45.1844     8.9329   135.6948   -42.0504
 9032.5000      .6954  1472.7715      .7731   -45.0233     8.9213   134.7954   -42.4984
 9033.0000      .7072  1438.7969      .7840   -45.0197     8.9097   133.8962   -42.9822
 9033.5000      .7225  1407.4824      .7950   -45.0270     8.8991   133.3149   -43.4659
 9034.0000      .7422  1381.3633      .8060   -45.0342     8.8925   132.8210   -43.9496
 9034.5000      .7613  1361.3398      .8165   -45.0415     8.8860   132.3411   -44.3149
 9035.0000      .7772  1348.4043      .8270   -45.1415     8.9061   131.9133   -44.6307
 9035.5000      .7914  1338.7324      .8365   -45.2626     8.9315   131.8484   -44.9472
 9036.0000      .8016  1332.1074      .8396   -45.3835     8.9571   131.9587   -44.7493
 9036.5000      .8107  1330.0996      .8427   -45.5043     8.9676   132.2441   -43.8516
 9037.0000      .8101  1341.9180      .8458   -45.6254     8.9704   132.5295   -42.9539
 9037.5000      .8031  1353.7363      .8488   -45.7463     8.9731   132.8149   -42.8705
 9038.0000      .7935  1365.5293      .8445   -45.8428     8.9758   133.1003   -42.9541
 9038.5000      .7839  1379.4805      .8381   -45.8888     8.9699   132.6926   -42.9102
 9039.0000      .7753  1411.8984      .8317   -45.9349     8.9470   131.9541   -42.6061
 9039.5000      .7698  1443.9668      .8244   -45.9811     8.9241   132.0037   -42.1512
 9040.0000      .7643  1467.0508      .8168   -46.0276     8.9253   132.0586   -42.1230
 9040.5000      .7588  1484.2383      .8093   -46.0763     8.9319   132.1526   -42.6597
 9041.0000      .7547  1496.9844      .8020   -46.1249     8.9417   132.2466   -43.1970
 9041.5000      .7513  1508.0254      .7952   -46.1678     8.9554   132.3406   -43.2968
 9042.0000      .7480  1516.2676      .7885   -46.1339     8.9498   132.4343   -43.0592
 9042.5000      .7446  1523.5449      .7818   -46.1000     8.9237   132.5286   -42.8215
 9043.0000      .7430  1524.7949      .7760   -46.0662     8.8977   132.6226   -42.5839
 9043.5000      .7421  1525.7734      .7723   -46.0323     8.8930   132.7163   -42.7716
 9044.0000      .7411  1526.7500      .7686   -45.9984     8.9221   132.7910   -42.9620
 9044.5000      .7409  1527.7285      .7648   -46.0869     8.9512   132.7949   -43.1522
 9045.0000      .7412  1527.3594      .7611   -46.1785     8.9803   132.7988   -43.3423
 9045.5000      .7415  1526.7578      .7574   -46.2543     9.0094   132.8027   -43.5324
 9046.0000      .7397  1526.1543      .7549   -46.3084     9.0457   132.8066   -43.4163
 9046.5000      .7347  1525.5527      .7540   -46.3627     9.0754   132.8105   -43.2815
 9047.0000      .7294  1524.9512      .7531   -46.4169     9.0605   132.8145   -43.1469
 9047.5000      .7169  1524.3477      .7523   -46.3495     9.0503   132.8115   -42.8769
 9048.0000      .7105  1523.7461      .7514   -46.2670     9.0401   132.8086   -42.5700
 9048.5000      .7074  1523.1445      .7505   -46.1844     9.0299   132.8054   -42.4348
 9049.0000      .7043  1522.8848      .7497   -46.1019     9.0197   132.8025   -42.5568
