~VERSION INFORMATION
VERS.                             2.0:   CWLS Log ASCII Standard-VERSION 2.0
WRAP.                              NO:   One line per depth step
~Well Information Block
STRT.F                      3576.0000:   Top Depth
STOP.F                      7908.0000:   Bottom Depth
STEP.F                         .50000:   Depth Increment
NULL.                        -999.250:   Null Value
FLD .                      BA BLK 431:   Field Name
WELL.       OCSG09017   001 ST00 BP00:   NAME
API .                  42704401710000:   WELL API
EDF .F                        80.0000:   ELEV DRILL FLOOR
COMP.        WOLVERINE EXPLORATION CO:   OPERATOR
BN  .                             431:   BLOCK
CTRY.                             USA:   COUNTRY NAME
CNTY.                        BRAZOS L:   COUNTY NAME
EKB .F                        81.0000:   ELEV KELLY BUSHING
TDD .F                       7953.000:   FINAL TD DRILLER
STAT.                           TEXAS:   STATE NAME
UWI .                  42704401710000:   WELL API
DICO.               IHS : Digitizing Company
~PARAMETER INFORMATION (zones)
#MNEM.UNIT                       Value     Description
#=========                       =====     ===========
#ZONATION                          DIL:   ZONATION NAME
#ZONE                            RUN_1:   ZONE NAME
TOP .                       3576.0000:   TOP DEPTH
BOT .                       7908.5000:   BOTTOM DEPTH
RUN .                               1:   RUN NUMBER
LCCD.                             440:   LOGGING CONTRACTOR
SRVC.                    Schlumberger:   LOGGING CONT NAME
DICO.          QC Data Collectors Ltd:   DIG COMPANY NAME
LDAT.                      05/13/1988:   DATE LOGGED
ELD .F                        81.0000:   LOG DATUM ELEVATION
TDD .F                      7953.0000:   TOTAL DEPTH DRILLER
TDL .F                      7911.0000:   TOTAL DEPTH LOGGER
BOTL.F                      7908.0000:   BOTTOM DEPTH LOGGED
TOPL.F                      3608.0000:   TOP DEPTH LOGGED
CS1 .IN                       10.7500:   CASING SIZE 1
BS1 .IN                        9.8750:   BIT SIZE 1
DDB1.F                      7953.0000:   DEPTH DRILLED BIT 1
BHF .                              99:   FLUID CODE
DPT .                   Miscellaneous:   DRILLING FLUID TYPE
MUDD.                         10.0000:   FLUID DENSITY
MUDV.                         43.0000:   FLUID VISCOSITY
DFPH.                         11.3000:   FLUID PH
FL  .                          6.2000:   FLUID LOSS
RM  .OHMM                       .7340:   RM
RMT .DEGF                     73.0000:   RM TEMP
RMF .OHMM                       .5760:   RMF
RMFT.DEGF                     73.0000:   RMF TEMP
FSC .                               M:   RMF CODE
RMC .OHMM                       .8300:   RMC
RMCT.DEGF                     73.0000:   RMC TEMP
CMC .                               M:   RMC CODE
TMAX.DEGF                    164.0000:   MAX REC TEMP
TIMC.                          5.0000:   TIME SINCE CIRCLN
~Curve Information Block
#MNEM.UNIT                    API CODE    No Description
#=========                    ========    == ===========
DEPT.F                   00 001 00 00:     1  DEPTH
DCAL.IN                              :     2  Differential Caliper
DT.US/F                              :     3  Sonic Transit Time
GR.GAPI                              :     4  Gamma Ray
ILD.OHMM                             :     5  Deep Induction Resistivity
ILM.OHMM                             :     6  Medium Induction Resistivity
SFL.OHMM                             :     7  Medium Resistivity
SP.MV                                :     8  Spontaneous Potential
~ASCII
# ...
 4759.0000     4.6147   103.1285    58.1098      .4105      .4997      .6526   -75.3757
 4759.5000     4.7420   102.2769    52.2020      .3733      .4552      .5891   -79.1886
 4760.0000     4.7597   107.5112    47.7818      .3533      .4323      .5991   -79.9545
 4760.5000     4.6577   115.0499    45.4811      .3388      .4316      .6881   -79.8208
 4761.0000     4.2929   119.1967    47.4942      .3378      .4392      .7660   -78.2812
 4761.5000     4.0016   114.7172    58.0057      .3479      .4537      .7919   -74.0916
 4762.0000     3.9030   109.4406    63.6680      .3635      .4842      .7579   -68.1218
 4762.5000     3.8655   107.3871    69.4840      .3829      .5115      .7307   -63.8032
 4763.0000     3.8705   111.3749    68.6659      .4049      .5276      .7340   -64.6213
 4763.5000     3.9018   115.9835    63.4597      .4185      .5373      .7359   -67.6656
 4764.0000     3.9445   118.5684    57.4268      .4297      .5223      .7178   -71.9347
 4764.5000     3.9337   118.7615    56.0286      .4390      .5095      .6816   -75.4752
 4765.0000     3.9125   115.6906    55.9247      .4480      .5087      .6546   -73.1594
 4765.5000     3.8497   111.8145    56.8318      .4569      .5287      .6670   -68.2111
 4766.0000     3.7853   108.4921    59.2378      .4689      .5532      .7796   -64.5098
 4766.5000     3.7446   110.0986    62.7482      .4844      .5821      .8986   -60.8333
 4767.0000     3.7184   115.9835    66.6007      .5177      .6027      .9773   -58.1211
 4767.5000     3.6987   122.1267    69.1171      .5622      .6298      .9015   -56.2047
 4768.0000     3.7068   125.3125    70.4843      .6235      .6630      .8205   -54.6739
 4768.5000     3.7149   124.0089    70.5531      .6931      .7038      .7912   -53.3228
 4769.0000     3.7217   116.2169    70.2216      .7402      .7447      .7825   -51.8043
 4769.5000     3.7244   110.1731    70.1029      .7654      .7762      .7881   -50.6602
 4770.0000     3.7271   106.9535    70.1022      .7899      .7984      .8022   -49.8266
 4770.5000     3.7299   107.0072    70.5253      .8059      .8136      .8200   -49.3115
 4771.0000     3.7327   106.6956    70.6519      .8173      .8215      .8329   -49.1786
 4771.5000     3.7354   105.5620    69.3575      .8227      .8193      .8338   -49.4996
 4772.0000     3.7351   107.9730    67.7374      .8228      .8144      .8396   -50.6292
 4772.5000     3.7311   111.9435    66.1818      .8173      .8093      .8528   -52.0485
 4773.0000     3.7328   116.4727    64.8059      .8014      .8012      .8670   -52.9084
 4773.5000     3.7409   119.0253    63.5552      .7806      .7905      .8653   -53.0595
 4774.0000     3.7586   118.1537    62.5859      .7590      .7809      .8210   -52.9039
 4774.5000     3.7854   114.0814    62.3336      .7390      .7765      .7548   -52.6968
 4775.0000     3.8136   109.3785    62.4360      .7147      .7748      .7321   -53.0674
 4775.5000     3.8435   106.7911    62.7563      .6833      .7730      .7781   -54.0702
 4776.0000     3.8739   106.0002    63.1406      .6444      .7360      .8712   -56.0858
 4776.5000     3.9170   108.5541    63.2674      .6056      .6930      .9519   -59.4276
 4777.0000     3.9602   111.5288    60.2047      .5500      .6488      .9752   -63.4066
 4777.5000     4.0056   114.0243    54.3217      .5017      .5926      .9820   -68.3003
 4778.0000     4.0522   116.3982    49.2346      .4582      .5437      .9251   -73.2140
 4778.5000     4.0979   118.4685    46.9503      .4252      .5071      .8228   -76.0835
 4779.0000     4.1068   118.7158    48.9792      .4079      .4834      .7134   -77.2599
 4779.5000     3.9885   118.0830    54.3564      .3957      .4788      .6456   -74.6617
 4780.0000     3.8269   117.6307    60.4699      .3920      .4854      .6402   -67.5863
 4780.5000     3.7168   117.5197    68.0212      .4032      .5012      .6700   -60.4267
 4781.0000     3.6257   117.9104    73.5547      .4211      .5219      .6886   -55.2800
 4781.5000     3.6098   117.9104    75.0637      .4464      .5449      .6905   -51.8043
 4782.0000     3.6156   116.4304    73.8373      .4955      .5690      .6920   -50.1817
 4782.5000     3.6382   114.7010    72.7198      .5532      .5929      .7035   -49.9515
 4783.0000     3.6595   113.8021    71.7784      .6150      .6149      .7302   -50.3224
 4783.5000     3.6904   113.5746    71.2498      .6472      .6351      .7757   -50.9050
 4784.0000     3.7274   113.4840    70.4347      .6651      .6505      .8197   -51.1794
 4784.5000     3.7223   113.7971    69.2733      .6697      .6585      .8443   -51.1210
 4785.0000     3.6960   116.1698    68.4893      .6611      .6506      .8460   -50.8170
 4785.5000     3.6644   119.1321    68.3817      .6428      .6354      .8333   -50.5161
 4786.0000     3.6517   121.7467    70.1249      .6048      .6072      .8098   -51.4039
 4786.5000     3.6557   123.5991    72.3170      .5467      .5535      .7606   -53.7628
 4787.0000     3.7237   124.9462    72.4429      .4758      .5122      .6123   -57.4865
 4787.5000     3.8346   125.8984    68.2544      .4058      .4720      .5200   -63.4314
 4788.0000     4.0029   124.9996    61.1294      .3524      .4368      .4979   -69.5101
 4788.5000     4.2219   123.1199    54.4854      .3233      .4065      .5200   -73.5983
 4789.0000     4.4083   119.7677    51.2104      .3093      .3822      .5664   -76.6550
 4789.5000     4.2467   117.2734    48.9841      .3020      .3702      .5897   -78.1165
 4790.0000     3.9885   115.9047    47.6876      .2984      .3720      .5891   -76.3203
 4790.5000     3.8097   115.3097    49.0126      .2969      .3882      .5905   -74.0061
 4791.0000     3.7759   115.2950    50.2881      .2976      .3981      .6205   -74.2279
 4791.5000     3.8726   115.8793    49.9584      .3001      .3999      .6754   -76.6748
 4792.0000     3.9403   116.8328    49.1738      .3027      .3969      .6835   -80.8496
 4792.5000     3.9882   117.8253    48.3129      .3023      .3877      .6127   -84.2634
 4793.0000     4.0126   118.5975    47.6950      .2994      .3760      .5877   -84.3464
 4793.5000     4.0071   119.1635    47.6863      .2943      .3635      .5836   -82.6780
 4794.0000     4.0015   119.5952    48.4524      .2866      .3530      .5909   -80.7344
 4794.5000     3.9893   120.0511    49.7688      .2781      .3442      .6034   -78.9656
 4795.0000     3.9721   120.4257    52.0261      .2729      .3411      .6171   -78.2537
 4795.5000     3.9585   120.4814    53.8395      .2759      .3448      .6315   -77.4744
 4796.0000     3.9548   120.2441    54.5861      .2865      .3547      .6492   -74.6469
 4796.5000     3.9519   120.1353    55.0469      .3009      .3687      .6478   -70.1498
 4797.0000     3.9588   119.7938    56.9620      .3163      .3840      .6122   -66.4534
 4797.5000     3.9657   118.5833    59.7659      .3323      .4023      .5665   -64.4478
 4798.0000     3.9756   116.0356    61.5958      .3475      .4180      .5338   -63.7850
 4798.5000     3.9865   114.0927    60.7959      .3572      .4314      .5233   -64.2600
 4799.0000     3.9954   112.9883    59.9202      .3612      .4355      .5859   -65.3130
 4799.5000     4.0030   112.4600    59.6617      .3606      .4332      .6403   -66.7869
 4800.0000     4.0055   112.2729    59.1138      .3529      .4252      .6440   -69.9812
 4800.5000     4.0021   112.0125    55.1547      .3389      .4094      .6312   -74.3296
 4801.0000     3.9917   113.6667    49.5618      .3267      .3942      .6505   -79.3870
 4801.5000     3.9532   116.1300    47.3730      .3185      .3849      .7348   -82.3998
 4802.0000     3.8922   115.4000    49.0684      .3201      .3852      .6933   -78.2268
 4802.5000     3.8242   112.4078    53.6771      .3345      .3965      .6165   -69.3564
 4803.0000     3.6788   108.8322    61.0203      .3720      .4175      .5717   -63.9570
 4803.5000     3.5622   104.2534    65.8013      .4170      .4551      .5704   -59.5416
 4804.0000     3.5376   101.9664    66.6230      .4659      .5003      .7227   -57.2422
