~VERSION INFORMATION
VERS.                             2.0:   CWLS Log ASCII Standard-VERSION 2.0
WRAP.                              NO:   One line per depth step
~Well Information Block
STRT.F                      3012.0000:   Top Depth
STOP.F                      9049.0000:   Bottom Depth
STEP.F                         .50000:   Depth Increment
NULL.                        -999.250:   Null Value
FLD .                      GA BLK 210:   Field Name
WELL.       OCSG01759   002 ST00 BP00:   NAME
API .                  42706400060000:   WELL API
R1  .                      TEXACO INC:   COMMENT  1
EDF .F                        74.0000:   ELEV DRILL FLOOR
COMP.                      TEXACO INC:   OPERATOR
BN  .                             210:   BLOCK
CTRY.                             USA:   COUNTRY NAME
CNTY.                              GA:   COUNTY
CNTY.                        GLVSTN L:   COUNTY NAME
EKB .F                        75.0000:   ELEV KELLY BUSHING
TDD .F                       9050.000:   FINAL TD DRILLER
STAT.                           TEXAS:   STATE NAME
UWI .                  42706400060000:   WELL API
DICO.               IHS : Digitizing Company
~PARAMETER INFORMATION (zones)
#MNEM.UNIT                       Value     Description
#=========                       =====     ===========
#ZONATION                           IE:   ZONATION NAME
#ZONE                            RUN_2:   ZONE NAME
TOP .                       9049.0000:   TOP DEPTH
BOT .                       9050.0000:   BOTTOM DEPTH
RUN .                               2:   RUN NUMBER
LCCD.                             440:   LOGGING CONTRACTOR
SRVC.                    Schlumberger:   LOGGING CONT NAME
DICO.          QC Data Collectors Ltd:   DIG COMPANY NAME
LDAT.                      11/07/1971:   DATE LOGGED
ELD .F                        75.0000:   LOG DATUM ELEVATION
TDD .F                      9050.0000:   TOTAL DEPTH DRILLER
TDL .F                      9050.0000:   TOTAL DEPTH LOGGER
BOTL.F                      9049.0000:   BOTTOM DEPTH LOGGED
TOPL.F                      7103.0000:   TOP DEPTH LOGGED
CS1 .IN                        9.6250:   CASING SIZE 1
BS1 .IN                        8.6250:   BIT SIZE 1
DDB1.F                      9050.0000:   DEPTH DRILLED BIT 1
BHF .                              99:   FLUID CODE
DPT .                   Miscellaneous:   DRILLING FLUID TYPE
MUDD.                         15.0000:   FLUID DENSITY
MUDV.                         45.0000:   FLUID VISCOSITY
DFPH.                         10.5000:   FLUID PH
FL  .                          4.0000:   FLUID LOSS
RM  .OHMM                       .7700:   RM
RMT .DEGF                    100.0000:   RM TEMP
RMF .OHMM                       .5300:   RMF
RMFT.DEGF                     77.0000:   RMF TEMP
FSC .                               M:   RMF CODE
RMC .OHMM                      1.4300:   RMC
RMCT.DEGF                     75.0000:   RMC TEMP
CMC .                               M:   RMC CODE
TMAX.DEGF                    194.0000:   MAX REC TEMP
TIMC.                          4.0000:   TIME SINCE CIRCLN
~PARAMETER INFORMATION (zones)
#MNEM.UNIT                       Value     Description
#=========                       =====     ===========
#ZONATION                           IE:   ZONATION NAME
#ZONE                            RUN_1:   ZONE NAME
TOP .                       3012.0000:   TOP DEPTH
BOT .                       9049.5000:   BOTTOM DEPTH
RUN .                               1:   RUN NUMBER
LCCD.                             440:   LOGGING CONTRACTOR
SRVC.                    Schlumberger:   LOGGING CONT NAME
DICO.          QC Data Collectors Ltd:   DIG COMPANY NAME
LDAT.                      10/28/1971:   DATE LOGGED
ELD .F                        75.0000:   LOG DATUM ELEVATION
TDD .F                      7115.0000:   TOTAL DEPTH DRILLER
TDL .F                      7061.0000:   TOTAL DEPTH LOGGER
BOTL.F                      7060.0000:   BOTTOM DEPTH LOGGED
TOPL.F                      3012.0000:   TOP DEPTH LOGGED
CS1 .IN                       13.3750:   CASING SIZE 1
BS1 .IN                       12.2500:   BIT SIZE 1
DDB1.F                      7115.0000:   DEPTH DRILLED BIT 1
BHF .                              11:   FLUID CODE
DPT .         Caustic (high PH) (CLS):   DRILLING FLUID TYPE
MUDD.                         10.5000:   FLUID DENSITY
MUDV.                         40.0000:   FLUID VISCOSITY
DFPH.                          9.0000:   FLUID PH
FL  .                          4.4000:   FLUID LOSS
RM  .OHMM                       .9400:   RM
RMT .DEGF                     96.0000:   RM TEMP
RMF .OHMM                       .7600:   RMF
RMFT.DEGF                     96.0000:   RMF TEMP
FSC .                               M:   RMF CODE
RMC .OHMM                      1.2600:   RMC
RMCT.DEGF                     96.0000:   RMC TEMP
CMC .                               M:   RMC CODE
TMAX.DEGF                    155.0000:   MAX REC TEMP
TIMC.                          4.0000:   TIME SINCE CIRCLN
~PARAMETER INFORMATION (zones)
#MNEM.UNIT                       Value     Description
#=========                       =====     ===========
#ZONATION                        SONIC:   ZONATION NAME
#ZONE                            RUN_1:   ZONE NAME
TOP .                       3012.0000:   TOP DEPTH
BOT .                       9049.5000:   BOTTOM DEPTH
RUN .                               1:   RUN NUMBER
LCCD.                             440:   LOGGING CONTRACTOR
SRVC.                    Schlumberger:   LOGGING CONT NAME
DICO.          QC Data Collectors Ltd:   DIG COMPANY NAME
LDAT.                      10/28/1971:   DATE LOGGED
ELD .F                        75.0000:   LOG DATUM ELEVATION
TDD .F                      7115.0000:   TOTAL DEPTH DRILLER
TDL .F                      7060.0000:   TOTAL DEPTH LOGGER
BOTL.F                      7050.0000:   BOTTOM DEPTH LOGGED
TOPL.F                      3012.0000:   TOP DEPTH LOGGED
CS1 .IN                       13.3750:   CASING SIZE 1
BS1 .IN                       12.2500:   BIT SIZE 1
DDB1.F                      7115.0000:   DEPTH DRILLED BIT 1
BHF .                              11:   FLUID CODE
DPT .         Caustic (high PH) (CLS):   DRILLING FLUID TYPE
MUDD.                         10.5000:   FLUID DENSITY
MUDV.                         40.0000:   FLUID VISCOSITY
DFPH.                          9.0000:   FLUID PH
FL  .                          4.4000:   FLUID LOSS
RM  .OHMM                       .9400:   RM
RMT .DEGF                     96.0000:   RM TEMP
RMF .OHMM                       .7600:   RMF
RMFT.DEGF                     96.0000:   RMF TEMP
FSC .                               M:   RMF CODE
RMC .OHMM                      1.2600:   RMC
RMCT.DEGF                     96.0000:   RMC TEMP
CMC .                               M:   RMC CODE
TMAX.DEGF                    155.0000:   MAX REC TEMP
TIMC.                          6.0000:   TIME SINCE CIRCLN
~Curve Information Block
#MNEM.UNIT                    API CODE    No Description
#=========                    ========    == ===========
DEPT.F                   00 001 00 00:     1  DEPTH
ASN.OHMM                             :     2  Short-Normal Resistivity
CILD.MMHO                            :     3  Deep Induction Conductivity
ILD.OHMM                             :     4  Deep Induction Resistivity
SP.MV                                :     5  Spontaneous Potential
CALI.IN                              :     6  Caliper
DT.US/F                              :     7  Sonic Transit Time
SP.MV                                :     8  Spontaneous Potential
~ASCII
# ...
 3421.5000      .9681  2003.8008      .4831  -111.8082    15.3942   173.3032  -139.6069
 3422.0000      .8592  2271.9336      .4455  -113.8417    14.7713   172.8447  -140.5007
 3422.5000      .8109  2725.8359      .4226  -114.5178    14.5467   170.0942  -141.4966
 3423.0000      .7717  3142.6953      .4002  -114.8401    14.1938   168.6477  -142.4932
 3423.5000      .7383  3229.8477      .3778  -115.0110    13.9919   167.9758  -143.3320
 3424.0000      .7212  3317.0000      .3597  -115.0403    13.7451   167.3767  -143.9763
 3424.5000      .7107  3393.7773      .3564  -115.0695    13.6113   166.9358  -144.6201
 3425.0000      .7254  3499.6250      .3531  -114.7146    13.5970   165.5352  -144.9990
 3425.5000      .7505  3723.8867      .3498  -114.3145    13.6072   163.0684  -145.2393
 3426.0000      .7662  3280.3516      .3547  -113.7911    13.6173   161.4478  -145.4792
 3426.5000      .7704  3197.4414      .3698  -113.2360    14.0467   160.8613  -145.7195
 3427.0000      .7746  3114.5273      .3848  -112.6812    14.5883   160.2700  -145.9595
 3427.5000      .7791  3031.6133      .4002  -112.2601    14.6699   159.5452  -146.2144
 3428.0000      .7960  2948.6992      .4237  -111.8518    14.6847   158.8206  -146.4707
 3428.5000      .8274  2865.7852      .4473  -111.4436    14.6802   157.9839  -146.7271
 3429.0000      .8418  2750.5664      .4709  -111.0867    14.6769   157.1377  -146.6873
 3429.5000      .8563  2582.4453      .4944  -110.8607    14.6736   156.1753  -146.1816
 3430.0000      .8653  2421.3320      .5061  -110.6348    14.8492   156.7275  -145.7578
 3430.5000      .8714  2348.8125      .5177  -110.4200    15.0930   167.5522  -145.3345
 3431.0000      .8776  2312.2930      .5293  -110.2196    15.2038   174.1660  -144.9106
 3431.5000      .8834  2300.4687      .5409  -110.0193    15.3037   174.7795  -144.4871
 3432.0000      .8889  2288.8320      .5450  -109.8237    15.4011   174.9370  -144.1179
 3432.5000      .8943  2278.4883      .5441  -109.7666    15.4025   175.3135  -143.7690
 3433.0000      .8998  2277.3555      .5432  -109.7096    15.4037   175.6902  -143.4202
 3433.5000      .9048  2276.2188      .5424  -109.6526    15.4051   176.4133  -143.0713
 3434.0000      .9096  2275.0859      .5415  -109.6422    15.4059   184.1519  -142.7222
 3434.5000      .9145  2281.9609      .5385  -109.6866    15.4039   179.5500  -142.3669
 3435.0000      .9174  2291.8359      .5327  -109.7311    15.4018   179.0278  -142.0115
 3435.5000      .9169  2321.6406      .5270  -109.9458    15.3998   177.3176  -141.6562
 3436.0000      .9164  2355.7188      .5212  -110.1936    15.3977   176.1877  -141.3010
 3436.5000      .9159  2385.6836      .5154  -110.4414    15.3957   174.3066  -141.1277
 3437.0000      .9121  2406.3984      .5097  -110.6520    15.3936   170.7646  -141.0852
 3437.5000      .9083  2452.6172      .5039  -110.7791    15.3846   168.2043  -141.6467
 3438.0000      .9044  2489.6367      .4981  -109.9307    15.3719   162.2090  -142.5767
 3438.5000      .8993  2512.0352      .4978  -108.7153    15.3557   159.6294  -143.5071
 3439.0000      .8901  2532.4258      .5001  -108.2961    15.3463   152.5793  -144.2534
 3439.5000      .8809  2543.5703      .5023  -107.8773    15.3535   148.2156  -144.4353
 3440.0000      .9352  2543.7305      .5046  -107.8142    15.3608   149.1125  -143.5391
 3440.5000      .9465  2485.5703      .5069  -107.7744    15.3680   154.0767  -142.6433
 3441.0000      .9577  2417.9883      .5097  -107.8578    15.3700   155.9819  -141.6462
 3441.5000      .9668  2377.8789      .5127  -107.9596    15.3718   157.8040  -140.6089
 3442.0000      .9756  2344.7500      .5157  -108.0613    15.3737   159.4197  -139.5937
 3442.5000      .9845  2333.1016      .5187  -108.1630    15.3755   161.1260  -138.7065
 3443.0000      .9924  2322.5000      .5217  -108.2646    15.3773   161.7305  -138.4988
 3443.5000     1.0003  2326.6367      .5247  -108.2295    15.3769   151.0376  -138.9138
 3444.0000      .9952  2336.9336      .5259  -108.1659    15.3761   152.2485  -139.3291
 3444.5000      .9760  2347.2305      .5232  -108.1023    15.3753   153.7539  -139.7441
 3445.0000      .9596  2365.5664      .5205  -107.6693    15.3745   155.3008  -140.0227
 3445.5000      .9432  2416.0938      .5179  -107.0826    15.3737   157.4680  -140.0317
 3446.0000      .9265  2460.4922      .5152  -106.6638    15.3729   158.4280  -140.0408
 3446.5000      .9006  2512.5195      .5125  -106.2446    15.3721   158.0476  -140.0769
 3447.0000      .8804  2568.6719      .5098  -105.8807    15.3714   158.6113  -140.2253
 3447.5000      .8655  2588.1055      .5071  -105.5531    15.3706   154.6838  -140.3738
 3448.0000      .8501  2541.1758      .5044  -108.9777    15.3698   152.8740  -140.5222
 3448.5000      .8344  2510.8750      .5015  -109.2172    15.3668   153.9631  -140.3167
 3449.0000      .8601  2480.5742      .4987  -110.1609    15.3613   154.9644  -139.9177
 3449.5000      .8553  2431.3281      .4958  -111.1058    15.3473   155.9675  -139.5107
 3450.0000      .8387  2315.5078      .4918  -112.4657    15.2855   156.9700  -139.0955
 3450.5000      .8214  2276.6172      .4822  -113.2029    15.0812   157.2197  -138.8862
 3451.0000      .8040  2516.7344      .4726  -113.9003    14.9182   148.3743  -139.6370
 3451.5000      .7925  2756.9453      .4629  -114.3051    14.8042   147.4277  -140.3884
 3452.0000      .7853  2979.5117      .4498  -114.5046    14.7257   147.0352  -141.5405
 3452.5000      .7783  3150.4258      .4312  -114.5914    14.6543   146.6851  -142.9863
 3453.0000      .7806  3321.3359      .4127  -114.6781    14.5999   146.3350  -143.8469
 3453.5000      .7829  3492.2461      .3942  -114.6885    14.5454   145.5391  -144.5093
 3454.0000      .7866  3552.0039      .3757  -114.6115    14.5034   144.4045  -145.0505
 3454.5000      .7910  3582.4531      .3708  -114.5345    14.5245   143.2383  -145.4944
 3455.0000      .7955  3582.4805      .3681  -114.2589    14.6915   142.5576  -145.9385
 3455.5000      .8000  3576.9531      .3654  -113.9430    14.8437   141.9883  -146.2373
 3456.0000      .8045  3571.4258      .3627  -113.6270    14.9383   142.2166  -146.5322
 3456.5000      .8090  3565.8984      .3600  -113.3110    15.0328   142.3916  -146.8289
 3457.0000      .8107  3562.0195      .3573  -113.0438    15.1274   142.5569  -147.3735
 3457.5000      .8124  3560.6328      .3573  -112.9117    15.1818   142.7222  -147.9177
 3458.0000      .8140  3559.2500      .3586  -112.7795    15.2337   140.5593  -148.2988
 3458.5000      .8146  3562.3750      .3599  -112.6473    15.2936   138.7593  -148.5808
 3459.0000      .8105  3611.6055      .3613  -112.6245    15.2660   137.8677  -148.8630
 3459.5000      .8065  3651.8672      .3626  -112.8516    15.2219   137.1753  -148.8232
 3460.0000      .8018  3670.8711      .3648  -113.0786    15.1778   136.8899  -148.6157
 3460.5000      .7949  3685.1094      .3741  -113.1707    15.1177   137.4126  -148.4082
 3461.0000      .7880  3710.3984      .3835  -112.9901    15.0396   137.9302  -148.2004
 3461.5000      .7815  3726.4492      .3929  -112.8094    14.9641   138.4434  -147.9927
 3462.0000      .7752  3716.0703      .4023  -112.6288    14.9256   138.9561  -147.8196
 3462.5000      .7330  3698.3984      .4018  -112.5520    14.8938   139.4690  -147.6714
 3463.0000      .6997  3669.5430      .3916  -112.5605    14.8785   139.7749  -147.5234
 3463.5000      .6853  3612.5547      .4073  -112.5690    14.8632   138.7502  -147.3752
 3464.0000      .6785  3483.7734      .4252  -112.5775    14.8120   137.5042  -146.9326
 3464.5000      .6977  3240.1680      .4486  -112.6180    14.6875   136.4609  -146.4429
 3465.0000      .7414  2979.2109      .4741  -112.7023    14.4818   135.6179  -145.9534
 3465.5000      .7958  2860.2539      .4917  -112.7865    14.3924   135.7090  -145.4639
 3466.0000      .8316  2741.2422      .5004  -112.9700    14.6439   137.2222  -144.8232
 3466.5000      .8878  2614.9531      .4963  -113.2145    14.9345   139.1631  -144.2185
