~VERSION INFORMATION
VERS.                             2.0:   CWLS Log ASCII Standard-VERSION 2.0
WRAP.                              NO:   One line per depth step
~Well Information Block
STRT.F                      2500.0000:   Top Depth
STOP.F                     12867.0000:   Bottom Depth
STEP.F                         .50000:   Depth Increment
NULL.                        -999.250:   Null Value
FLD .                      GA BLK 255:   Field Name
WELL.       OCSG01777  A004 ST00 BP00:   NAME
API .                  42706400140000:   WELL API
EDF .F                        91.0000:   ELEV DRILL FLOOR
COMP.       COASTAL STATES GAS PROD C:   OPERATOR
BN  .                             255:   BLOCK
CTRY.                             USA:   COUNTRY NAME
CNTY.                              GA:   COUNTY
CNTY.                        GLVSTN L:   COUNTY NAME
EKB .F                        92.0000:   ELEV KELLY BUSHING
TDD .F                      12868.000:   FINAL TD DRILLER
STAT.                           TEXAS:   STATE NAME
UWI .                  42706400140000:   WELL API
DICO.               IHS : Digitizing Company
~PARAMETER INFORMATION (zones)
#MNEM.UNIT                       Value     Description
#=========                       =====     ===========
#ZONATION                           IE:   ZONATION NAME
#ZONE                            RUN_1:   ZONE NAME
TOP .                       2500.0000:   TOP DEPTH
BOT .                       8267.5000:   BOTTOM DEPTH
RUN .                               1:   RUN NUMBER
LCCD.                             440:   LOGGING CONTRACTOR
SRVC.                    Schlumberger:   LOGGING CONT NAME
DICO.          QC Data Collectors Ltd:   DIG COMPANY NAME
LDAT.                      05/23/1973:   DATE LOGGED
ELD .F                        92.0000:   LOG DATUM ELEVATION
TDD .F                      8274.0000:   TOTAL DEPTH DRILLER
TDL .F                      8268.0000:   TOTAL DEPTH LOGGER
BOTL.F                      8267.0000:   BOTTOM DEPTH LOGGED
TOPL.F                      2500.0000:   TOP DEPTH LOGGED
CS1 .IN                       13.3750:   CASING SIZE 1
BS1 .IN                       12.2500:   BIT SIZE 1
DDB1.F                      8274.0000:   DEPTH DRILLED BIT 1
BHF .                              99:   FLUID CODE
DPT .                   Miscellaneous:   DRILLING FLUID TYPE
MUDV.                         45.0000:   FLUID VISCOSITY
FL  .                          3.4000:   FLUID LOSS
RM  .OHMM                       .7100:   RM
RMT .DEGF                     82.0000:   RM TEMP
RMF .OHMM                       .4200:   RMF
RMFT.DEGF                     82.0000:   RMF TEMP
FSC .                               M:   RMF CODE
RMC .OHMM                      1.2500:   RMC
RMCT.DEGF                     82.0000:   RMC TEMP
CMC .                               M:   RMC CODE
TMAX.DEGF                     82.0000:   MAX REC TEMP
TIMC.                          6.0000:   TIME SINCE CIRCLN
MUDD.                            NULL:   FLUID DENSITY
DFPH.                            NULL:   FLUID PH
~PARAMETER INFORMATION (zones)
#MNEM.UNIT                       Value     Description
#=========                       =====     ===========
#ZONATION                           IE:   ZONATION NAME
#ZONE                            RUN_2:   ZONE NAME
TOP .                       8273.0000:   TOP DEPTH
BOT .                      12867.5000:   BOTTOM DEPTH
RUN .                               2:   RUN NUMBER
LCCD.                             440:   LOGGING CONTRACTOR
SRVC.                    Schlumberger:   LOGGING CONT NAME
DICO.          QC Data Collectors Ltd:   DIG COMPANY NAME
LDAT.                      06/12/1973:   DATE LOGGED
ELD .F                        92.0000:   LOG DATUM ELEVATION
TDD .F                     12865.0000:   TOTAL DEPTH DRILLER
TDL .F                     12868.0000:   TOTAL DEPTH LOGGER
BOTL.F                     12867.0000:   BOTTOM DEPTH LOGGED
TOPL.F                      8272.0000:   TOP DEPTH LOGGED
CS1 .IN                        9.6250:   CASING SIZE 1
BS1 .IN                        8.5000:   BIT SIZE 1
DDB1.F                     12865.0000:   DEPTH DRILLED BIT 1
BHF .                              11:   FLUID CODE
DPT .         Caustic (high PH) (CLS):   DRILLING FLUID TYPE
MUDV.                         44.0000:   FLUID VISCOSITY
FL  .                          2.6000:   FLUID LOSS
RM  .OHMM                       .9100:   RM
RMT .DEGF                     76.0000:   RM TEMP
RMF .OHMM                       .4600:   RMF
RMFT.DEGF                     78.0000:   RMF TEMP
FSC .                               M:   RMF CODE
RMC .OHMM                      1.3200:   RMC
RMCT.DEGF                     76.0000:   RMC TEMP
CMC .                               C:   RMC CODE
TMAX.DEGF                    248.0000:   MAX REC TEMP
TIMC.                          5.0000:   TIME SINCE CIRCLN
MUDD.                         16.3000:   FLUID DENSITY
DFPH.                         10.5000:   FLUID PH
~PARAMETER INFORMATION (zones)
#MNEM.UNIT                       Value     Description
#=========                       =====     ===========
#ZONATION                        SONIC:   ZONATION NAME
#ZONE                            RUN_1:   ZONE NAME
TOP .                       8272.0000:   TOP DEPTH
BOT .                      12860.5000:   BOTTOM DEPTH
RUN .                               1:   RUN NUMBER
LCCD.                             440:   LOGGING CONTRACTOR
SRVC.                    Schlumberger:   LOGGING CONT NAME
DICO.          QC Data Collectors Ltd:   DIG COMPANY NAME
LDAT.                      06/12/1973:   DATE LOGGED
ELD .F                        92.0000:   LOG DATUM ELEVATION
TDD .F                     12865.0000:   TOTAL DEPTH DRILLER
BOTL.F                     12860.0000:   BOTTOM DEPTH LOGGED
TOPL.F                      8272.0000:   TOP DEPTH LOGGED
CS1 .IN                        9.6250:   CASING SIZE 1
BS1 .IN                        8.5000:   BIT SIZE 1
DDB1.F                     12865.0000:   DEPTH DRILLED BIT 1
BHF .                              11:   FLUID CODE
DPT .         Caustic (high PH) (CLS):   DRILLING FLUID TYPE
MUDD.                         16.3000:   FLUID DENSITY
MUDV.                         44.0000:   FLUID VISCOSITY
DFPH.                         10.5000:   FLUID PH
FL  .                          2.6000:   FLUID LOSS
RM  .OHMM                       .9100:   RM
RMT .DEGF                     76.0000:   RM TEMP
RMF .OHMM                       .4600:   RMF
RMFT.DEGF                     78.0000:   RMF TEMP
FSC .                               M:   RMF CODE
RMC .OHMM                      1.3200:   RMC
RMCT.DEGF                     76.0000:   RMC TEMP
CMC .                               C:   RMC CODE
TMAX.DEGF                    248.0000:   MAX REC TEMP
TIMC.                         10.0000:   TIME SINCE CIRCLN
~Curve Information Block
#MNEM.UNIT                    API CODE    No Description
#=========                    ========    == ===========
DEPT.F                   00 001 00 00:     1  DEPTH
ASN.OHMM                             :     2  Short-Normal Resistivity
ILD.OHMM                             :     3  Deep Induction Resistivity
SP.MV                                :     4  Spontaneous Potential
CALI.IN                              :     5  Caliper
DT.US/F                              :     6  Sonic Transit Time
~ASCII
# ...
 7319.0000     1.0095      .7763   -41.7292  -999.2500  -999.2500
 7319.5000     1.0097      .8026   -41.7601  -999.2500  -999.2500
 7320.0000     1.0199      .8260   -41.8964  -999.2500  -999.2500
 7320.5000     1.0328      .8440   -41.9260  -999.2500  -999.2500
 7321.0000     1.0457      .8502   -41.8820  -999.2500  -999.2500
 7321.5000     1.0588      .8543   -41.8949  -999.2500  -999.2500
 7322.0000     1.0726      .8565   -41.8223  -999.2500  -999.2500
 7322.5000     1.0860      .8580   -41.7004  -999.2500  -999.2500
 7323.0000     1.0967      .8423   -41.4732  -999.2500  -999.2500
 7323.5000     1.1067      .8253   -41.5794  -999.2500  -999.2500
 7324.0000     1.1158      .8059   -42.0997  -999.2500  -999.2500
 7324.5000     1.1188      .7909   -42.5944  -999.2500  -999.2500
 7325.0000     1.1076      .7800   -42.7765  -999.2500  -999.2500
 7325.5000     1.0837      .7757   -42.8661  -999.2500  -999.2500
 7326.0000     1.0600      .7720   -42.9005  -999.2500  -999.2500
 7326.5000     1.0450      .7706   -42.7313  -999.2500  -999.2500
 7327.0000     1.0382      .7706   -42.5789  -999.2500  -999.2500
 7327.5000     1.0336      .7705   -42.4402  -999.2500  -999.2500
 7328.0000     1.0295      .7692   -42.3068  -999.2500  -999.2500
 7328.5000     1.0270      .7678   -42.0457  -999.2500  -999.2500
 7329.0000     1.0261      .7673   -41.6916  -999.2500  -999.2500
 7329.5000     1.0240      .7688   -41.3070  -999.2500  -999.2500
 7330.0000     1.0216      .7700   -41.5434  -999.2500  -999.2500
 7330.5000     1.0192      .7698   -41.7990  -999.2500  -999.2500
 7331.0000     1.0174      .7696   -42.0233  -999.2500  -999.2500
 7331.5000     1.0160      .7757   -42.1709  -999.2500  -999.2500
 7332.0000     1.0196      .7830   -42.3091  -999.2500  -999.2500
 7332.5000     1.0248      .7934   -42.5665  -999.2500  -999.2500
 7333.0000     1.0340      .8044   -42.7922  -999.2500  -999.2500
 7333.5000     1.0458      .8083   -42.9178  -999.2500  -999.2500
 7334.0000     1.0581      .8098   -42.8474  -999.2500  -999.2500
 7334.5000     1.0702      .8048   -42.6071  -999.2500  -999.2500
 7335.0000     1.0792      .7986   -42.3573  -999.2500  -999.2500
 7335.5000     1.0699      .7892   -42.0854  -999.2500  -999.2500
 7336.0000     1.0495      .7827   -41.8990  -999.2500  -999.2500
 7336.5000     1.0412      .7806   -41.7677  -999.2500  -999.2500
 7337.0000     1.0409      .7798   -41.7435  -999.2500  -999.2500
 7337.5000     1.0446      .7830   -41.7261  -999.2500  -999.2500
 7338.0000     1.0463      .7861   -41.7364  -999.2500  -999.2500
 7338.5000     1.0474      .7903   -41.7470  -999.2500  -999.2500
 7339.0000     1.0477      .7948   -41.7581  -999.2500  -999.2500
 7339.5000     1.0480      .7998   -41.7070  -999.2500  -999.2500
 7340.0000     1.0500      .8072   -41.6418  -999.2500  -999.2500
 7340.5000     1.0529      .8130   -41.5774  -999.2500  -999.2500
 7341.0000     1.0562      .8125   -41.4478  -999.2500  -999.2500
 7341.5000     1.0604      .8107   -41.2261  -999.2500  -999.2500
 7342.0000     1.0645      .8060   -41.1536  -999.2500  -999.2500
 7342.5000     1.0686      .8016   -41.4465  -999.2500  -999.2500
 7343.0000     1.0728      .7977   -41.8303  -999.2500  -999.2500
 7343.5000     1.0753      .7945   -42.0824  -999.2500  -999.2500
 7344.0000     1.0742      .7943   -42.2317  -999.2500  -999.2500
 7344.5000     1.0692      .7940   -42.1907  -999.2500  -999.2500
 7345.0000     1.0636      .7909   -41.9104  -999.2500  -999.2500
 7345.5000     1.0603      .7877   -41.7584  -999.2500  -999.2500
 7346.0000     1.0606      .7843   -41.6669  -999.2500  -999.2500
 7346.5000     1.0647      .7809   -41.6635  -999.2500  -999.2500
 7347.0000     1.0716      .7777   -41.6671  -999.2500  -999.2500
 7347.5000     1.0792      .7771   -41.6193  -999.2500  -999.2500
 7348.0000     1.0873      .7769   -41.5651  -999.2500  -999.2500
 7348.5000     1.0854      .7784   -41.5408  -999.2500  -999.2500
 7349.0000     1.0740      .7784   -41.4506  -999.2500  -999.2500
 7349.5000     1.0626      .7775   -41.3741  -999.2500  -999.2500
 7350.0000     1.0536      .7789   -41.3702  -999.2500  -999.2500
 7350.5000     1.0526      .7802   -41.3890  -999.2500  -999.2500
 7351.0000     1.0544      .7818   -41.3707  -999.2500  -999.2500
 7351.5000     1.0552      .7851   -41.3524  -999.2500  -999.2500
 7352.0000     1.0523      .7895   -41.3340  -999.2500  -999.2500
 7352.5000     1.0490      .7969   -41.2885  -999.2500  -999.2500
 7353.0000     1.0479      .8051   -41.2413  -999.2500  -999.2500
 7353.5000     1.0483      .8150   -41.1700  -999.2500  -999.2500
 7354.0000     1.0527      .8281   -41.0960  -999.2500  -999.2500
 7354.5000     1.0570      .8446   -41.0471  -999.2500  -999.2500
 7355.0000     1.0613      .8603   -41.0055  -999.2500  -999.2500
 7355.5000     1.0648      .8787   -40.9637  -999.2500  -999.2500
 7356.0000     1.0643      .9026   -40.9217  -999.2500  -999.2500
 7356.5000     1.0693      .9164   -40.8796  -999.2500  -999.2500
 7357.0000     1.0935      .9183   -40.8342  -999.2500  -999.2500
 7357.5000     1.1091      .9057   -40.7875  -999.2500  -999.2500
 7358.0000     1.1146      .8870   -40.7368  -999.2500  -999.2500
 7358.5000     1.1208      .8706   -40.6841  -999.2500  -999.2500
 7359.0000     1.1269      .8582   -40.5497  -999.2500  -999.2500
 7359.5000     1.1330      .8529   -40.6119  -999.2500  -999.2500
 7360.0000     1.1376      .8475   -40.8338  -999.2500  -999.2500
 7360.5000     1.1315      .8439   -41.1505  -999.2500  -999.2500
 7361.0000     1.1187      .8404   -41.3354  -999.2500  -999.2500
 7361.5000     1.1000      .8385   -41.4973  -999.2500  -999.2500
 7362.0000     1.0783      .8382   -41.4141  -999.2500  -999.2500
 7362.5000     1.0733      .8381   -41.3002  -999.2500  -999.2500
 7363.0000     1.0745      .8476   -41.2043  -999.2500  -999.2500
 7363.5000     1.0753      .8569   -41.1085  -999.2500  -999.2500
 7364.0000     1.0766      .8653   -41.0302  -999.2500  -999.2500
 7364.5000     1.0811      .8531   -40.9572  -999.2500  -999.2500
 7365.0000     1.0875      .8413   -40.8538  -999.2500  -999.2500
 7365.5000     1.0959      .8316   -40.7295  -999.2500  -999.2500
 7366.0000     1.1091      .8231   -40.8027  -999.2500  -999.2500
 7366.5000     1.1145      .8146   -40.9645  -999.2500  -999.2500
 7367.0000     1.1120      .8098   -41.3024  -999.2500  -999.2500
 7367.5000     1.0961      .8059   -41.4525  -999.2500  -999.2500
 7368.0000     1.0755      .8021   -41.4026  -999.2500  -999.2500
 7368.5000     1.0570      .7983   -41.3132  -999.2500  -999.2500
 7369.0000     1.0481      .7949   -41.2681  -999.2500  -999.2500
 7369.5000     1.0535      .7941   -41.2207  -999.2500  -999.2500
 7370.0000     1.0607      .7950   -41.1408  -999.2500  -999.2500
 7370.5000     1.0664      .8020   -41.0540  -999.2500  -999.2500
 7371.0000     1.0672      .8153   -40.9271  -999.2500  -999.2500
 7371.5000     1.0663      .8416   -40.8387  -999.2500  -999.2500
 7372.0000     1.0710      .8563   -40.7869  -999.2500  -999.2500
 7372.5000     1.0832      .8526   -40.7863  -999.2500  -999.2500
 7373.0000     1.0981      .8432   -40.8051  -999.2500  -999.2500
 7373.5000     1.1198      .8296   -40.8923  -999.2500  -999.2500
 7374.0000     1.1482      .8199   -40.9798  -999.2500  -999.2500
 7374.5000     1.1046      .8082   -41.0672  -999.2500  -999.2500
 7375.0000     1.0631      .7939   -41.1176  -999.2500  -999.2500
 7375.5000     1.0694      .7782   -41.0944  -999.2500  -999.2500
 7376.0000     1.0895      .7670   -41.0457  -999.2500  -999.2500
 7376.5000     1.0803      .7694   -41.0427  -999.2500  -999.2500
 7377.0000     1.0677      .7818   -41.0859  -999.2500  -999.2500
 7377.5000     1.0556      .7961   -41.2054  -999.2500  -999.2500
 7378.0000     1.0623      .8056   -41.4838  -999.2500  -999.2500
 7378.5000     1.0696      .8045   -41.8112  -999.2500  -999.2500
 7379.0000     1.0793      .8015   -42.0736  -999.2500  -999.2500
 7379.5000     1.0878      .8052   -42.2860  -999.2500  -999.2500
