~VERSION INFORMATION
VERS.                             2.0:   CWLS Log ASCII Standard-VERSION 2.0
WRAP.                              NO:   One line per depth step
~Well Information Block
STRT.F                      3138.0000:   Top Depth
STOP.F                      8628.0000:   Bottom Depth
STEP.F                         .50000:   Depth Increment
NULL.                        -999.250:   Null Value
FLD .                      BA BLK 376:   Field Name
WELL.       OCSG07215   003 ST00 BP00:   NAME
API .                  42704401900000:   WELL API
EDF .F                        90.0000:   ELEV DRILL FLOOR
COMP.         UNION EXPL PARTNERS LTD:   OPERATOR
BN  .                             376:   BLOCK
CTRY.                             USA:   COUNTRY NAME
CNTY.                        BRAZOS L:   COUNTY NAME
EKB .F                        91.0000:   ELEV KELLY BUSHING
TDD .F                       8678.000:   FINAL TD DRILLER
STAT.                           TEXAS:   STATE NAME
UWI .                  42704401900000:   WELL API
DICO.               IHS : Digitizing Company
~PARAMETER INFORMATION (zones)
#MNEM.UNIT                       Value     Description
#=========                       =====     ===========
#ZONATION                          DIL:   ZONATION NAME
#ZONE                            RUN_1:   ZONE NAME
TOP .                       3138.0000:   TOP DEPTH
BOT .                       5660.5000:   BOTTOM DEPTH
RUN .                               1:   RUN NUMBER
SRVC.                               0:   LOGGING CONTRACTOR
SRVC.                         UNKNOWN:   LOGGING CONT NAME
DICO.          QC Data Collectors Ltd:   DIG COMPANY NAME
LDAT.                      06/22/1989:   DATE LOGGED
ELD .F                        91.0000:   LOG DATUM ELEVATION
TDD .F                      5675.0000:   TOTAL DEPTH DRILLER
TDL .F                      5662.0000:   TOTAL DEPTH LOGGER
BOTL.F                      5660.0000:   BOTTOM DEPTH LOGGED
TOPL.F                      3220.0000:   TOP DEPTH LOGGED
CS1 .IN                       10.7500:   CASING SIZE 1
BS1 .IN                        9.8750:   BIT SIZE 1
DDB1.F                      5675.0000:   DEPTH DRILLED BIT 1
BHF .                              20:   FLUID CODE
DPT .                    Gel (Gelchem:   DRILLING FLUID TYPE
MUDD.                          9.0000:   FLUID DENSITY
MUDV.                         68.0000:   FLUID VISCOSITY
DFPH.                          9.0000:   FLUID PH
FL  .                         12.0000:   FLUID LOSS
RM  .OHMM                      1.0500:   RM
RMT .DEGF                     75.0000:   RM TEMP
RMF .OHMM                       .8200:   RMF
RMFT.DEGF                     75.0000:   RMF TEMP
FSC .                               M:   RMF CODE
RMC .OHMM                      1.2200:   RMC
RMCT.DEGF                     75.0000:   RMC TEMP
CMC .                               M:   RMC CODE
TMAX.DEGF                    128.0000:   MAX REC TEMP
TIMC.                          7.0000:   TIME SINCE CIRCLN
~PARAMETER INFORMATION (zones)
#MNEM.UNIT                       Value     Description
#=========                       =====     ===========
#ZONATION                          DIL:   ZONATION NAME
#ZONE                            RUN_2:   ZONE NAME
TOP .                       5664.0000:   TOP DEPTH
BOT .                       8628.5000:   BOTTOM DEPTH
RUN .                               2:   RUN NUMBER
SRVC.                               0:   LOGGING CONTRACTOR
SRVC.                         UNKNOWN:   LOGGING CONT NAME
DICO.          QC Data Collectors Ltd:   DIG COMPANY NAME
LDAT.                      07/04/1989:   DATE LOGGED
ELD .F                        91.0000:   LOG DATUM ELEVATION
TDD .F                      8678.0000:   TOTAL DEPTH DRILLER
TDL .F                      8630.0000:   TOTAL DEPTH LOGGER
BOTL.F                      8628.0000:   BOTTOM DEPTH LOGGED
TOPL.F                      5664.0000:   TOP DEPTH LOGGED
CS1 .IN                        7.6250:   CASING SIZE 1
BS1 .IN                        6.5000:   BIT SIZE 1
DDB1.F                      8678.0000:   DEPTH DRILLED BIT 1
BHF .                              81:   FLUID CODE
DPT .          Lignosulfonate (Ligno):   DRILLING FLUID TYPE
MUDD.                         11.8000:   FLUID DENSITY
MUDV.                         48.0000:   FLUID VISCOSITY
DFPH.                         10.5000:   FLUID PH
FL  .                          6.6000:   FLUID LOSS
RM  .OHMM                       .7200:   RM
RMT .DEGF                     70.0000:   RM TEMP
RMF .OHMM                       .5900:   RMF
RMFT.DEGF                     70.0000:   RMF TEMP
FSC .                               M:   RMF CODE
RMC .OHMM                       .9000:   RMC
RMCT.DEGF                     70.0000:   RMC TEMP
CMC .                               C:   RMC CODE
TMAX.DEGF                    191.0000:   MAX REC TEMP
TIMC.                          5.0000:   TIME SINCE CIRCLN
~Curve Information Block
#MNEM.UNIT                    API CODE    No Description
#=========                    ========    == ===========
DEPT.F                   00 001 00 00:     1  DEPTH
DT.US/F                              :     2  Sonic Transit Time
GR.GAPI                              :     3  Gamma Ray
ILD.OHMM                             :     4  Deep Induction Resistivity
ILM.OHMM                             :     5  Medium Induction Resistivity
RFOC.OHMM                            :     6  Medium Resistivity
SP.MV                                :     7  Spontaneous Potential
~ASCII
# ...
 3190.0000  -999.2500    30.7466  -999.2500  -999.2500  -999.2500  -999.2500
 3190.5000  -999.2500    31.0393  -999.2500  -999.2500  -999.2500  -999.2500
 3191.0000  -999.2500    30.5669  -999.2500  -999.2500  -999.2500  -999.2500
 3191.5000  -999.2500    29.8574  -999.2500  -999.2500  -999.2500  -999.2500
 3192.0000  -999.2500    29.1126  -999.2500  -999.2500  -999.2500  -999.2500
 3192.5000  -999.2500    28.5186  -999.2500  -999.2500  -999.2500  -999.2500
 3193.0000  -999.2500    29.2985  -999.2500  -999.2500  -999.2500  -999.2500
 3193.5000  -999.2500    30.2974  -999.2500  -999.2500  -999.2500  -999.2500
 3194.0000  -999.2500    31.2692  -999.2500  -999.2500  -999.2500  -999.2500
 3194.5000  -999.2500    31.7785  -999.2500  -999.2500  -999.2500  -999.2500
 3195.0000  -999.2500    31.6300  -999.2500  -999.2500  -999.2500  -999.2500
 3195.5000  -999.2500    32.1829  -999.2500  -999.2500  -999.2500  -999.2500
 3196.0000  -999.2500    33.6340  -999.2500  -999.2500  -999.2500  -999.2500
 3196.5000  -999.2500    33.5948  -999.2500  -999.2500  -999.2500  -999.2500
 3197.0000  -999.2500    32.0153  -999.2500  -999.2500  -999.2500  -999.2500
 3197.5000  -999.2500    30.7541  -999.2500  -999.2500  -999.2500  -999.2500
 3198.0000  -999.2500    31.0406  -999.2500  -999.2500  -999.2500  -999.2500
 3198.5000  -999.2500    34.5807  -999.2500  -999.2500  -999.2500  -999.2500
 3199.0000  -999.2500    37.1565  -999.2500  -999.2500  -999.2500  -999.2500
 3199.5000  -999.2500    38.2408  -999.2500  -999.2500  -999.2500  -999.2500
 3200.0000  -999.2500    39.8524  -999.2500  -999.2500  -999.2500  -999.2500
 3200.5000  -999.2500    39.8743  -999.2500  -999.2500  -999.2500  -999.2500
 3201.0000  -999.2500    39.7617  -999.2500  -999.2500  -999.2500  -999.2500
 3201.5000  -999.2500    39.5899  -999.2500  -999.2500  -999.2500  -999.2500
 3202.0000  -999.2500    38.6656  -999.2500  -999.2500  -999.2500  -999.2500
 3202.5000  -999.2500    37.6034  -999.2500  -999.2500  -999.2500  -999.2500
 3203.0000  -999.2500    36.7928  -999.2500  -999.2500  -999.2500  -999.2500
 3203.5000  -999.2500    36.6990  -999.2500  -999.2500  -999.2500  -999.2500
 3204.0000  -999.2500    37.2713  -999.2500  -999.2500  -999.2500  -999.2500
 3204.5000  -999.2500    36.4584  -999.2500  -999.2500  -999.2500  -999.2500
 3205.0000  -999.2500    32.9391  -999.2500  -999.2500  -999.2500  -999.2500
 3205.5000  -999.2500    30.5159  -999.2500  -999.2500  -999.2500  -999.2500
 3206.0000  -999.2500    30.7018  -999.2500  -999.2500  -999.2500  -999.2500
 3206.5000  -999.2500    31.0213  -999.2500  -999.2500  -999.2500  -999.2500
 3207.0000  -999.2500    31.1018  -999.2500  -999.2500  -999.2500  -999.2500
 3207.5000  -999.2500    30.9261  -999.2500  -999.2500  -999.2500  -999.2500
 3208.0000  -999.2500    30.3281  -999.2500  -999.2500  -999.2500  -999.2500
 3208.5000  -999.2500    29.9858  -999.2500  -999.2500  -999.2500  -999.2500
 3209.0000  -999.2500    30.0780  -999.2500  -999.2500  -999.2500  -999.2500
 3209.5000  -999.2500    30.4439  -999.2500  -999.2500  -999.2500  -999.2500
 3210.0000  -999.2500    31.1479  -999.2500  -999.2500  -999.2500  -999.2500
 3210.5000  -999.2500    32.0884  -999.2500  -999.2500  -999.2500  -999.2500
 3211.0000  -999.2500    32.7855  -999.2500  -999.2500  -999.2500  -999.2500
 3211.5000  -999.2500    33.4464  -999.2500  -999.2500  -999.2500  -999.2500
 3212.0000  -999.2500    34.0235  -999.2500  -999.2500  -999.2500  -999.2500
 3212.5000  -999.2500    34.6844  -999.2500  -999.2500  -999.2500  -999.2500
 3213.0000  -999.2500    35.3845  -999.2500  -999.2500  -999.2500  -999.2500
 3213.5000  -999.2500    35.9977  -999.2500  -999.2500  -999.2500  -999.2500
 3214.0000  -999.2500    36.5996  -999.2500  -999.2500  -999.2500  -999.2500
 3214.5000  -999.2500    37.2547  -999.2500  -999.2500  -999.2500  -999.2500
 3215.0000  -999.2500    37.8908  -999.2500  -999.2500  -999.2500  -999.2500
 3215.5000  -999.2500    38.5348  -999.2500  -999.2500  -999.2500  -999.2500
 3216.0000  -999.2500    39.4778  -999.2500  -999.2500  -999.2500  -999.2500
 3216.5000  -999.2500    43.0624  -999.2500  -999.2500  -999.2500  -999.2500
 3217.0000  -999.2500    45.8417  -999.2500  -999.2500  -999.2500  -999.2500
 3217.5000  -999.2500    46.9185  -999.2500  -999.2500  -999.2500  -999.2500
 3218.0000   123.4307    45.8341      .3870      .4447      .6338  -158.4358
 3218.5000    92.3009    44.4779      .3716      .4847      .6999  -158.2122
 3219.0000    89.8254    43.0703      .3918      .5217      .7308  -157.6501
 3219.5000    88.9596    42.5670      .4192      .5479      .7386  -156.8616
 3220.0000    86.3085    43.2243      .4453      .6070      .7327  -156.0151
 3220.5000    86.0477    43.8757      .4833      .6143      .7030  -154.6819
 3221.0000    87.6945    43.6764      .5722      .6037      .6816  -155.7671
 3221.5000    90.2168    43.8929      .5153      .5930      .6765  -157.7495
 3222.0000    94.1367    44.4978      .5001      .5765      .7024  -160.3213
 3222.5000   102.7665    45.0922      .5012      .5834      .7298  -162.5803
 3223.0000   121.4224    45.2657      .5012      .5958      .6746  -163.9321
 3223.5000   129.8010    45.3376      .5012      .6040      .6495  -164.5281
 3224.0000   135.0415    45.4075      .4995      .6091      .6451  -164.9072
 3224.5000   132.8999    44.5209      .4955      .6029      .6552  -165.9197
 3225.0000   128.0278    42.5020      .5223      .5960      .6764  -166.9880
 3225.5000   126.7885    39.9094      .5727      .5921      .6912  -167.9211
 3226.0000   128.8909    39.0409      .5793      .5915      .6815  -168.6411
 3226.5000   138.1169    38.8889      .5678      .5904      .6238  -168.8940
 3227.0000   143.8359    38.4211      .5583      .5775      .5727  -168.7280
 3227.5000   150.3816    37.1372      .5484      .5623      .5637  -168.0208
 3228.0000   155.8601    35.7758      .5371      .5491      .5817  -167.0193
 3228.5000   151.7571    35.8334      .5247      .5366      .5984  -165.7329
 3229.0000   138.2632    36.6392      .5116      .5225      .6115  -165.3970
 3229.5000   123.0437    37.9380      .4945      .5057      .6155  -166.2727
 3230.0000   110.8260    40.0045      .4754      .4865      .6067  -167.6821
 3230.5000   107.2042    41.3613      .4562      .4668      .6123  -168.3071
 3231.0000   110.2834    41.8986      .4352      .4466      .6249  -168.3848
 3231.5000   112.3206    41.8282      .4131      .4239      .6425  -168.1707
 3232.0000   108.0724    41.7056      .3907      .4012      .6571  -167.7056
 3232.5000   105.1184    41.5258      .3699      .3773      .6531  -166.9631
 3233.0000   105.3616    41.3434      .3437      .3513      .6387  -166.1772
 3233.5000   107.7351    41.1447      .3149      .3258      .6211  -165.5332
 3234.0000   113.4830    40.6445      .2875      .3016      .6140  -164.9089
 3234.5000   121.1033    40.1331      .2683      .2827      .6220  -164.2754
 3235.0000   131.8303    39.7654      .2525      .2762      .6276  -163.6079
 3235.5000   144.2517    39.4346      .2404      .2794      .6309  -162.8337
 3236.0000   148.6753    39.1083      .2336      .2868      .5986  -161.9377
 3236.5000   146.5518    38.7820      .2314      .3024      .5626  -160.6733
 3237.0000   144.0896    38.4554      .2357      .3264      .5477  -159.0479
 3237.5000   138.5718    38.0878      .2488      .3706      .5903  -157.3870
 3238.0000   133.1404    38.0703      .2667      .4263      .6575  -155.8679
 3238.5000   129.5735    38.0498      .2918      .4697      .6937  -155.2302
 3239.0000   129.6721    37.9606      .3330      .5312      .6609  -154.3071
 3239.5000   130.5435    37.5591      .3782      .5831      .6288  -153.9070
 3240.0000   128.8230    36.6750      .4378      .6136      .6030  -154.1914
 3240.5000   124.0479    35.7706      .5018      .6167      .6083  -154.5081
 3241.0000   115.8208    34.7524      .5602      .6085      .6414  -154.4543
 3241.5000   106.6917    34.5020      .6006      .5936      .6904  -153.9153
