~VERSION INFORMATION
VERS.                             2.0:   CWLS Log ASCII Standard-VERSION 2.0
WRAP.                              NO:   One line per depth step
~Well Information Block
STRT.F                      3576.0000:   Top Depth
STOP.F                      7908.0000:   Bottom Depth
STEP.F                         .50000:   Depth Increment
NULL.                        -999.250:   Null Value
FLD .                      BA BLK 431:   Field Name
WELL.       OCSG09017   001 ST00 BP00:   NAME
API .                  42704401710000:   WELL API
EDF .F                        80.0000:   ELEV DRILL FLOOR
COMP.        WOLVERINE EXPLORATION CO:   OPERATOR
BN  .                             431:   BLOCK
CTRY.                             USA:   COUNTRY NAME
CNTY.                        BRAZOS L:   COUNTY NAME
EKB .F                        81.0000:   ELEV KELLY BUSHING
TDD .F                       7953.000:   FINAL TD DRILLER
STAT.                           TEXAS:   STATE NAME
UWI .                  42704401710000:   WELL API
DICO.               IHS : Digitizing Company
~PARAMETER INFORMATION (zones)
#MNEM.UNIT                       Value     Description
#=========                       =====     ===========
#ZONATION                          DIL:   ZONATION NAME
#ZONE                            RUN_1:   ZONE NAME
TOP .                       3576.0000:   TOP DEPTH
BOT .                       7908.5000:   BOTTOM DEPTH
RUN .                               1:   RUN NUMBER
LCCD.                             440:   LOGGING CONTRACTOR
SRVC.                    Schlumberger:   LOGGING CONT NAME
DICO.          QC Data Collectors Ltd:   DIG COMPANY NAME
LDAT.                      05/13/1988:   DATE LOGGED
ELD .F                        81.0000:   LOG DATUM ELEVATION
TDD .F                      7953.0000:   TOTAL DEPTH DRILLER
TDL .F                      7911.0000:   TOTAL DEPTH LOGGER
BOTL.F                      7908.0000:   BOTTOM DEPTH LOGGED
TOPL.F                      3608.0000:   TOP DEPTH LOGGED
CS1 .IN                       10.7500:   CASING SIZE 1
BS1 .IN                        9.8750:   BIT SIZE 1
DDB1.F                      7953.0000:   DEPTH DRILLED BIT 1
BHF .                              99:   FLUID CODE
DPT .                   Miscellaneous:   DRILLING FLUID TYPE
MUDD.                         10.0000:   FLUID DENSITY
MUDV.                         43.0000:   FLUID VISCOSITY
DFPH.                         11.3000:   FLUID PH
FL  .                          6.2000:   FLUID LOSS
RM  .OHMM                       .7340:   RM
RMT .DEGF                     73.0000:   RM TEMP
RMF .OHMM                       .5760:   RMF
RMFT.DEGF                     73.0000:   RMF TEMP
FSC .                               M:   RMF CODE
RMC .OHMM                       .8300:   RMC
RMCT.DEGF                     73.0000:   RMC TEMP
CMC .                               M:   RMC CODE
TMAX.DEGF                    164.0000:   MAX REC TEMP
TIMC.                          5.0000:   TIME SINCE CIRCLN
~Curve Information Block
#MNEM.UNIT                    API CODE    No Description
#=========                    ========    == ===========
DEPT.F                   00 001 00 00:     1  DEPTH
DCAL.IN                              :     2  Differential Caliper
DT.US/F                              :     3  Sonic Transit Time
GR.GAPI                              :     4  Gamma Ray
ILD.OHMM                             :     5  Deep Induction Resistivity
ILM.OHMM                             :     6  Medium Induction Resistivity
SFL.OHMM                             :     7  Medium Resistivity
SP.MV                                :     8  Spontaneous Potential
~ASCII
# ...
 5032.0000     2.6891   106.5093    56.1773      .6754      .7213      .8276   -53.0085
 5032.5000     2.6638   103.3247    55.9046      .7182      .7455      .8270   -52.2967
 5033.0000     2.6459   100.1053    55.3394      .7592      .7707      .8857   -51.8886
 5033.5000     2.6494    98.4207    54.4890      .7814      .7919      .9762   -51.9052
 5034.0000     2.6420   102.5251    53.7614      .7970      .8047     1.0781   -51.9117
 5034.5000     2.6248   110.9379    53.5065      .8006      .8039     1.1201   -51.9050
 5035.0000     2.5999   117.1307    54.7184      .7937      .7964     1.0607   -51.7056
 5035.5000     2.5599   119.8820    58.1147      .7819      .7866      .9586   -51.2490
 5036.0000     2.5046   121.1825    62.3491      .7603      .7723      .8565   -50.2623
 5036.5000     2.4730   121.9702    66.9354      .7344      .7478      .7726   -49.1225
 5037.0000     2.4517   122.1676    71.8242      .7073      .7187      .7038   -47.8984
 5037.5000     2.4456   121.6127    80.2285      .6797      .6887      .6729   -47.0289
 5038.0000     2.4477   120.0160    80.5657      .6547      .6751      .6741   -46.5435
 5038.5000     2.4497   118.3301    76.4999      .6337      .6709      .6909   -46.4196
 5039.0000     2.4518   117.7875    71.7549      .6199      .6714      .7376   -46.4560
 5039.5000     2.4607   119.4574    69.8019      .6158      .6645      .7848   -46.5834
 5040.0000     2.4726   121.3781    72.7465      .6201      .6542      .8278   -46.6638
 5040.5000     2.4847   122.9641    75.5553      .6269      .6463      .8147   -46.7316
 5041.0000     2.4971   123.1621    74.3567      .6350      .6471      .7848   -46.7905
 5041.5000     2.5094   121.8722    72.4590      .6479      .6596      .7592   -46.7517
 5042.0000     2.5067   119.4301    71.0310      .6639      .6776      .7482   -46.6356
 5042.5000     2.5060   117.4708    71.3762      .6809      .6972      .7641   -46.5697
 5043.0000     2.5081   116.1139    72.6201      .6985      .7164      .7966   -46.5211
 5043.5000     2.5071   115.6328    74.2513      .7180      .7381      .8244   -46.5573
 5044.0000     2.5046   115.5322    76.0698      .7356      .7575      .8509   -46.6084
 5044.5000     2.4918   114.5291    76.4801      .7483      .7704      .8645   -46.6937
 5045.0000     2.5015   113.3291    74.3456      .7578      .7764      .8788   -46.8188
 5045.5000     2.5116   112.7689    71.9730      .7608      .7710      .8970   -47.0520
 5046.0000     2.5173   115.1169    69.3005      .7546      .7602      .9069   -47.3884
 5046.5000     2.5225   118.2382    66.6355      .7363      .7399      .8832   -47.8030
 5047.0000     2.5246   121.4835    66.9578      .7163      .7172      .7937   -48.3118
 5047.5000     2.5321   122.4574    68.9609      .6957      .6962      .7214   -49.2855
 5048.0000     2.5717   120.3339    71.1227      .6803      .6897      .6907   -50.1204
 5048.5000     2.6246   116.2566    67.3420      .6698      .6877      .6677   -51.0990
 5049.0000     2.6752   111.6779    62.3987      .6700      .6936      .6592   -52.5765
 5049.5000     2.6723   107.1338    57.5718      .6774      .7179      .6788   -54.7173
 5050.0000     2.6721    99.4213    54.3986      .6915      .7661      .8135   -56.7886
 5050.5000     2.6734    95.7439    52.7995      .7132      .8039     1.0691   -57.1564
 5051.0000     2.6594    95.9574    51.2922      .7312      .8197     1.1984   -56.3845
 5051.5000     2.6448    99.6721    49.8741      .7378      .8280     1.2958   -55.4790
 5052.0000     2.6249   102.7561    49.6402      .7318      .8215     1.3248   -54.8146
 5052.5000     2.6051   105.7184    50.9612      .7166      .8017     1.1897   -54.3476
 5053.0000     2.5938   107.8018    52.3582      .7006      .7752     1.0310   -53.9426
 5053.5000     2.5892   110.0812    53.5755      .6818      .7425      .9142   -53.2496
 5054.0000     2.5871   112.6364    54.5300      .6511      .7114      .8633   -52.4067
 5054.5000     2.5947   115.7501    56.6893      .6291      .6832      .8452   -51.3196
 5055.0000     2.6024   119.2314    59.7683      .6123      .6579      .8468   -49.3599
 5055.5000     2.6152   121.5320    62.9689      .5989      .6379      .8164   -46.7221
 5056.0000     2.6394   122.9001    67.4313      .5917      .6265      .7692   -44.8188
 5056.5000     2.6636   123.3710    71.7499      .5869      .6202      .7296   -44.0183
 5057.0000     2.6913   122.7791    75.3422      .5848      .6177      .7035   -43.3573
 5057.5000     2.7199   121.8610    75.3198      .5858      .6235      .6916   -42.9005
 5058.0000     2.7462   120.3401    74.2290      .5879      .6319      .6930   -42.8401
 5058.5000     2.7691   118.5820    74.9702      .5936      .6431      .7199   -43.0366
 5059.0000     2.7726   117.0785    77.7073      .5998      .6516      .7660   -43.3685
 5059.5000     2.7541   116.5125    81.1284      .6060      .6587      .7918   -43.8922
 5060.0000     2.7320   118.7621    81.1147      .6121      .6616      .7974   -44.5212
 5060.5000     2.7068   120.5685    78.8328      .6185      .6562      .7967   -45.1336
 5061.0000     2.6823   121.3463    75.4438      .6263      .6493      .7959   -45.5839
 5061.5000     2.6602   121.2477    72.8560      .6339      .6474      .7911   -45.5026
 5062.0000     2.6753   120.6306    72.6145      .6405      .6529      .7861   -45.2907
 5062.5000     2.7200   119.5132    72.6552      .6471      .6608      .7816   -44.9839
 5063.0000     2.7750   118.7987    72.0895      .6553      .6719      .7828   -45.2219
 5063.5000     2.8326   119.4357    70.9082      .6637      .6831      .7841   -45.5179
 5064.0000     2.8818   119.9850    69.9479      .6703      .6848      .7853   -45.9684
 5064.5000     2.9467   120.5344    70.1893      .6753      .6860      .7839   -46.3456
 5065.0000     3.0076   120.6970    71.3297      .6793      .6872      .7787   -46.7147
 5065.5000     3.0523   121.1862    70.8450      .6816      .6851      .7718   -46.8955
 5066.0000     3.0886   121.5876    68.5791      .6814      .6831      .7647   -46.8865
 5066.5000     3.1175   121.1962    66.1719      .6777      .6798      .7600   -46.9595
 5067.0000     3.1426   121.1530    65.4194      .6710      .6722      .7531   -48.6657
 5067.5000     3.1631   121.0714    66.6367      .6491      .6585      .7408   -51.1672
 5068.0000     3.1994   119.7180    67.8317      .6074      .6292      .7312   -54.7941
 5068.5000     3.2753   117.5665    67.3842      .5450      .5827      .7131   -60.7192
 5069.0000     3.4097   116.3472    63.3259      .4829      .5234      .6944   -67.3484
 5069.5000     3.9008   117.2710    57.2322      .4254      .4630      .6836   -73.6354
 5070.0000     5.2059   119.4474    45.5555      .3735      .4165      .6779   -77.8846
 5070.5000     5.7035   122.1863    43.8747      .3384      .3843      .6544   -78.2714
 5071.0000     4.5464   123.5643    48.0892      .3201      .3680      .6077   -75.7874
 5071.5000     3.8201   122.6704    56.3050      .3042      .3655      .5432   -71.3101
 5072.0000     3.5696   117.1108    65.2843      .2919      .3694      .4969   -67.4847
 5072.5000     3.3118   111.0670    63.6184      .2884      .3784      .4887   -68.4615
 5073.0000     3.0830   105.7631    57.6041      .2946      .3910      .5583   -71.2133
 5073.5000     2.9114   104.1407    53.4639      .3122      .4039      .6828   -73.5920
 5074.0000     2.8105   105.9667    51.9393      .3397      .4153      .7832   -73.9437
 5074.5000     2.7477   110.8683    53.1144      .3664      .4274      .8394   -73.0553
 5075.0000     2.7240   115.5590    55.4993      .3927      .4419      .7956   -70.1844
 5075.5000     2.7320   117.6038    58.9775      .4247      .4658      .7424   -66.8079
 5076.0000     2.7573   117.1440    62.4830      .4602      .4975      .6930   -63.8082
 5076.5000     2.7903   116.5776    64.8914      .4891      .5268      .6725   -61.2535
 5077.0000     2.8188   116.1107    66.1366      .4918      .5529      .6812   -60.2878
