~VERSION INFORMATION
VERS.                             2.0:   CWLS Log ASCII Standard-VERSION 2.0
WRAP.                              NO:   One line per depth step
~Well Information Block
STRT.F                      2726.0000:   Top Depth
STOP.F                     13125.0000:   Bottom Depth
STEP.F                         .50000:   Depth Increment
NULL.                        -999.250:   Null Value
FLD .                      GA BLK 255:   Field Name
WELL.       OCSG01777  A007 ST00 BP00:   NAME
API .                  42706400190000:   WELL API
EDF .F                        92.0000:   ELEV DRILL FLOOR
COMP.       COASTAL STATES GAS PROD C:   OPERATOR
BN  .                             255:   BLOCK
CTRY.                             USA:   COUNTRY NAME
CNTY.                              GA:   COUNTY
CNTY.                        GLVSTN L:   COUNTY NAME
EKB .F                        93.0000:   ELEV KELLY BUSHING
TDD .F                      13136.000:   FINAL TD DRILLER
STAT.                           TEXAS:   STATE NAME
UWI .                  42706400190000:   WELL API
DICO.               IHS : Digitizing Company
~PARAMETER INFORMATION (zones)
#MNEM.UNIT                       Value     Description
#=========                       =====     ===========
#ZONATION                           IE:   ZONATION NAME
#ZONE                            RUN_1:   ZONE NAME
TOP .                       2726.0000:   TOP DEPTH
BOT .                       8780.5000:   BOTTOM DEPTH
RUN .                               1:   RUN NUMBER
LCCD.                             440:   LOGGING CONTRACTOR
SRVC.                    Schlumberger:   LOGGING CONT NAME
DICO.          QC Data Collectors Ltd:   DIG COMPANY NAME
LDAT.                      09/02/1973:   DATE LOGGED
ELD .F                        93.0000:   LOG DATUM ELEVATION
TDD .F                      8829.0000:   TOTAL DEPTH DRILLER
TDL .F                      8822.0000:   TOTAL DEPTH LOGGER
BOTL.F                      8821.0000:   BOTTOM DEPTH LOGGED
TOPL.F                      2726.0000:   TOP DEPTH LOGGED
CS1 .IN                       13.6250:   CASING SIZE 1
BS1 .IN                       12.2500:   BIT SIZE 1
DDB1.F                      8829.0000:   DEPTH DRILLED BIT 1
BHF .                              81:   FLUID CODE
DPT .          Lignosulfonate (Ligno):   DRILLING FLUID TYPE
MUDD.                         12.2000:   FLUID DENSITY
MUDV.                         44.0000:   FLUID VISCOSITY
DFPH.                         10.5000:   FLUID PH
FL  .                          2.0000:   FLUID LOSS
RM  .OHMM                       .9600:   RM
RMT .DEGF                     74.0000:   RM TEMP
RMF .OHMM                       .5900:   RMF
RMFT.DEGF                     71.0000:   RMF TEMP
FSC .                               M:   RMF CODE
RMC .OHMM                      1.8100:   RMC
RMCT.DEGF                     71.0000:   RMC TEMP
CMC .                               M:   RMC CODE
TMAX.DEGF                    160.0000:   MAX REC TEMP
TIMC.                         24.0000:   TIME SINCE CIRCLN
~PARAMETER INFORMATION (zones)
#MNEM.UNIT                       Value     Description
#=========                       =====     ===========
#ZONATION                           IE:   ZONATION NAME
#ZONE                            RUN_2:   ZONE NAME
TOP .                       8780.0000:   TOP DEPTH
BOT .                       9333.5000:   BOTTOM DEPTH
RUN .                               2:   RUN NUMBER
LCCD.                             440:   LOGGING CONTRACTOR
SRVC.                    Schlumberger:   LOGGING CONT NAME
DICO.          QC Data Collectors Ltd:   DIG COMPANY NAME
LDAT.                      09/09/1973:   DATE LOGGED
ELD .F                        93.0000:   LOG DATUM ELEVATION
TDD .F                      9340.0000:   TOTAL DEPTH DRILLER
TDL .F                      9334.0000:   TOTAL DEPTH LOGGER
BOTL.F                      9333.0000:   BOTTOM DEPTH LOGGED
TOPL.F                      8821.0000:   TOP DEPTH LOGGED
CS1 .IN                       13.3750:   CASING SIZE 1
BS1 .IN                       12.2500:   BIT SIZE 1
DDB1.F                      9340.0000:   DEPTH DRILLED BIT 1
BHF .                              99:   FLUID CODE
DPT .                   Miscellaneous:   DRILLING FLUID TYPE
MUDD.                         12.3000:   FLUID DENSITY
MUDV.                         46.0000:   FLUID VISCOSITY
DFPH.                         10.5000:   FLUID PH
FL  .                          3.2000:   FLUID LOSS
RM  .OHMM                       .6500:   RM
RMT .DEGF                     82.0000:   RM TEMP
RMF .OHMM                       .5000:   RMF
RMFT.DEGF                     82.0000:   RMF TEMP
FSC .                               M:   RMF CODE
RMC .OHMM                       .9600:   RMC
RMCT.DEGF                     82.0000:   RMC TEMP
CMC .                               M:   RMC CODE
TMAX.DEGF                    160.0000:   MAX REC TEMP
TIMC.                          4.0000:   TIME SINCE CIRCLN
~PARAMETER INFORMATION (zones)
#MNEM.UNIT                       Value     Description
#=========                       =====     ===========
#ZONATION                           IE:   ZONATION NAME
#ZONE                            RUN_3:   ZONE NAME
TOP .                       9343.0000:   TOP DEPTH
BOT .                      13125.5000:   BOTTOM DEPTH
RUN .                               3:   RUN NUMBER
LCCD.                             440:   LOGGING CONTRACTOR
SRVC.                    Schlumberger:   LOGGING CONT NAME
DICO.          QC Data Collectors Ltd:   DIG COMPANY NAME
LDAT.                      09/22/1973:   DATE LOGGED
ELD .F                        93.0000:   LOG DATUM ELEVATION
TDD .F                     13136.0000:   TOTAL DEPTH DRILLER
TDL .F                     13126.0000:   TOTAL DEPTH LOGGER
BOTL.F                     13125.0000:   BOTTOM DEPTH LOGGED
TOPL.F                      9343.0000:   TOP DEPTH LOGGED
CS1 .IN                        9.6250:   CASING SIZE 1
BS1 .IN                        8.5000:   BIT SIZE 1
DDB1.F                     13136.0000:   DEPTH DRILLED BIT 1
BHF .                              99:   FLUID CODE
DPT .                   Miscellaneous:   DRILLING FLUID TYPE
MUDD.                         16.5000:   FLUID DENSITY
MUDV.                         46.0000:   FLUID VISCOSITY
DFPH.                         11.0000:   FLUID PH
FL  .                          2.2000:   FLUID LOSS
RM  .OHMM                       .6100:   RM
RMT .DEGF                     80.0000:   RM TEMP
RMF .OHMM                       .2300:   RMF
RMFT.DEGF                     80.0000:   RMF TEMP
FSC .                               M:   RMF CODE
RMC .OHMM                      1.0000:   RMC
RMCT.DEGF                     80.0000:   RMC TEMP
CMC .                               M:   RMC CODE
TMAX.DEGF                    232.0000:   MAX REC TEMP
TIMC.                          7.0000:   TIME SINCE CIRCLN
~PARAMETER INFORMATION (zones)
#MNEM.UNIT                       Value     Description
#=========                       =====     ===========
#ZONATION                        SONIC:   ZONATION NAME
#ZONE                            RUN_1:   ZONE NAME
TOP .                       9343.0000:   TOP DEPTH
BOT .                      13014.5000:   BOTTOM DEPTH
RUN .                               1:   RUN NUMBER
LCCD.                             440:   LOGGING CONTRACTOR
SRVC.                    Schlumberger:   LOGGING CONT NAME
DICO.          QC Data Collectors Ltd:   DIG COMPANY NAME
LDAT.                      09/22/1973:   DATE LOGGED
ELD .F                        93.0000:   LOG DATUM ELEVATION
TDD .F                     13136.0000:   TOTAL DEPTH DRILLER
TDL .F                     13126.0000:   TOTAL DEPTH LOGGER
BOTL.F                     13014.0000:   BOTTOM DEPTH LOGGED
TOPL.F                      9343.0000:   TOP DEPTH LOGGED
CS1 .IN                        9.6250:   CASING SIZE 1
BS1 .IN                        8.5000:   BIT SIZE 1
DDB1.F                     13136.0000:   DEPTH DRILLED BIT 1
BHF .                              99:   FLUID CODE
DPT .                   Miscellaneous:   DRILLING FLUID TYPE
MUDD.                         16.5000:   FLUID DENSITY
MUDV.                         46.0000:   FLUID VISCOSITY
DFPH.                         11.0000:   FLUID PH
FL  .                          2.2000:   FLUID LOSS
RM  .OHMM                       .6100:   RM
RMT .DEGF                     80.0000:   RM TEMP
RMF .OHMM                       .2400:   RMF
RMFT.DEGF                     80.0000:   RMF TEMP
FSC .                               M:   RMF CODE
RMC .OHMM                      1.0000:   RMC
RMCT.DEGF                     80.0000:   RMC TEMP
CMC .                               M:   RMC CODE
TMAX.DEGF                    232.0000:   MAX REC TEMP
TIMC.                          6.0000:   TIME SINCE CIRCLN
~Curve Information Block
#MNEM.UNIT                    API CODE    No Description
#=========                    ========    == ===========
DEPT.F                   00 001 00 00:     1  DEPTH
ASN.OHMM                             :     2  Short-Normal Resistivity
ILD.OHMM                             :     3  Deep Induction Resistivity
SP.MV                                :     4  Spontaneous Potential
CALI.IN                              :     5  Caliper
DT.US/F                              :     6  Sonic Transit Time
~ASCII
# ...
 6142.0000      .6340      .5381   -69.5753  -999.2500  -999.2500
 6142.5000      .6736      .5377   -70.0658  -999.2500  -999.2500
 6143.0000      .6905      .5411   -70.3989  -999.2500  -999.2500
 6143.5000      .7002      .5473   -70.9845  -999.2500  -999.2500
 6144.0000      .7032      .5584   -72.2384  -999.2500  -999.2500
 6144.5000      .7062      .5622   -74.4274  -999.2500  -999.2500
 6145.0000      .7123      .5656   -77.3698  -999.2500  -999.2500
 6145.5000      .7188      .5670   -80.5598  -999.2500  -999.2500
 6146.0000      .7378      .5683   -83.7476  -999.2500  -999.2500
 6146.5000      .7618      .5663   -86.0690  -999.2500  -999.2500
 6147.0000      .7869      .5640   -86.4789  -999.2500  -999.2500
 6147.5000      .8033      .5604   -83.2593  -999.2500  -999.2500
 6148.0000      .7818      .5567   -79.1930  -999.2500  -999.2500
 6148.5000      .7698      .5494   -76.3489  -999.2500  -999.2500
 6149.0000      .7638      .5377   -73.9930  -999.2500  -999.2500
 6149.5000      .7469      .5265   -72.0618  -999.2500  -999.2500
 6150.0000      .7312      .5162   -70.8827  -999.2500  -999.2500
 6150.5000      .7065      .5075   -69.7992  -999.2500  -999.2500
 6151.0000      .7084      .5016   -70.6274  -999.2500  -999.2500
 6151.5000      .7096      .4984   -72.4716  -999.2500  -999.2500
 6152.0000      .6965      .5002   -71.2913  -999.2500  -999.2500
 6152.5000      .6643      .5012   -70.7146  -999.2500  -999.2500
 6153.0000      .6545      .4996   -71.3563  -999.2500  -999.2500
 6153.5000      .6453      .4979   -71.7802  -999.2500  -999.2500
 6154.0000      .6249      .4937   -74.2949  -999.2500  -999.2500
 6154.5000      .6227      .4886   -77.9120  -999.2500  -999.2500
 6155.0000      .6456      .4842   -79.3145  -999.2500  -999.2500
 6155.5000      .6575      .4808   -77.2004  -999.2500  -999.2500
 6156.0000      .6734      .4772   -72.5305  -999.2500  -999.2500
 6156.5000      .6981      .4655   -71.3864  -999.2500  -999.2500
 6157.0000      .7204      .4539   -71.7550  -999.2500  -999.2500
 6157.5000      .7342      .4426   -71.9153  -999.2500  -999.2500
 6158.0000      .7339      .4315   -71.3698  -999.2500  -999.2500
 6158.5000      .7321      .4200   -70.7256  -999.2500  -999.2500
 6159.0000      .7410      .4059   -73.0875  -999.2500  -999.2500
 6159.5000      .7668      .3919   -79.1243  -999.2500  -999.2500
 6160.0000      .8132      .3801   -86.3586  -999.2500  -999.2500
 6160.5000      .8567      .3685   -92.6653  -999.2500  -999.2500
 6161.0000      .8896      .3623   -97.8971  -999.2500  -999.2500
 6161.5000      .8967      .3572  -102.6578  -999.2500  -999.2500
 6162.0000      .8782      .3614  -106.6725  -999.2500  -999.2500
 6162.5000      .8268      .3748  -108.8884  -999.2500  -999.2500
 6163.0000      .7660      .4004  -110.0940  -999.2500  -999.2500
 6163.5000      .7254      .4304  -110.7142  -999.2500  -999.2500
 6164.0000      .7007      .4673  -110.0786  -999.2500  -999.2500
 6164.5000      .6705      .5052  -107.2222  -999.2500  -999.2500
 6165.0000      .6586      .5371  -101.3180  -999.2500  -999.2500
 6165.5000      .6772      .5651   -92.5623  -999.2500  -999.2500
 6166.0000      .6908      .5910   -84.8273  -999.2500  -999.2500
 6166.5000      .7598      .6127   -80.4543  -999.2500  -999.2500
 6167.0000      .7998      .6344   -78.2286  -999.2500  -999.2500
 6167.5000      .8198      .6490   -76.7771  -999.2500  -999.2500
 6168.0000      .8197      .6618   -75.1857  -999.2500  -999.2500
 6168.5000      .7979      .6707   -69.4066  -999.2500  -999.2500
 6169.0000      .7666      .6723   -64.4741  -999.2500  -999.2500
 6169.5000      .7457      .6738   -60.0619  -999.2500  -999.2500
 6170.0000      .7430      .6767   -56.2534  -999.2500  -999.2500
 6170.5000      .7400      .6801   -54.2092  -999.2500  -999.2500
 6171.0000      .7454      .6833   -53.7880  -999.2500  -999.2500
 6171.5000      .7587      .6864   -55.0227  -999.2500  -999.2500
 6172.0000      .7685      .6896   -55.6625  -999.2500  -999.2500
 6172.5000      .7685      .6880   -55.9453  -999.2500  -999.2500
 6173.0000      .7639      .6863   -55.7503  -999.2500  -999.2500
 6173.5000      .7619      .6810   -56.1454  -999.2500  -999.2500
 6174.0000      .7726      .6734   -58.0104  -999.2500  -999.2500
 6174.5000      .7873      .6639   -59.7429  -999.2500  -999.2500
 6175.0000      .8014      .6528   -60.9987  -999.2500  -999.2500
 6175.5000      .8065      .6420   -61.5202  -999.2500  -999.2500
 6176.0000      .8077      .6316   -61.4196  -999.2500  -999.2500
 6176.5000      .8028      .6214   -61.0889  -999.2500  -999.2500
 6177.0000      .7945      .6121   -60.1282  -999.2500  -999.2500
 6177.5000      .7881      .6028   -58.9368  -999.2500  -999.2500
 6178.0000      .7834      .5923   -57.9000  -999.2500  -999.2500
 6178.5000      .7921      .5817   -58.9822  -999.2500  -999.2500
 6179.0000      .8221      .5735   -63.4729  -999.2500  -999.2500
 6179.5000      .8602      .5663   -68.3906  -999.2500  -999.2500
 6180.0000      .8897      .5591   -72.4004  -999.2500  -999.2500
 6180.5000      .8712      .5586   -74.6777  -999.2500  -999.2500
 6181.0000      .8252      .5586   -76.7268  -999.2500  -999.2500
 6181.5000      .7930      .5600   -77.2826  -999.2500  -999.2500
 6182.0000      .7597      .5632   -75.4875  -999.2500  -999.2500
 6182.5000      .7311      .5666   -72.7416  -999.2500  -999.2500
 6183.0000      .7189      .5762   -71.6495  -999.2500  -999.2500
 6183.5000      .7221      .5812   -72.1133  -999.2500  -999.2500
 6184.0000      .7258      .5787   -72.2870  -999.2500  -999.2500
 6184.5000      .7211      .5756   -70.1722  -999.2500  -999.2500
 6185.0000      .7056      .5723   -66.6729  -999.2500  -999.2500
 6185.5000      .6885      .5692   -62.8987  -999.2500  -999.2500
 6186.0000      .6752      .5665   -59.3699  -999.2500  -999.2500
 6186.5000      .6648      .5637   -57.0901  -999.2500  -999.2500
 6187.0000      .6565      .5598   -55.9172  -999.2500  -999.2500
 6187.5000      .6477      .5541   -54.4349  -999.2500  -999.2500
 6188.0000      .6387      .5484   -52.6252  -999.2500  -999.2500
 6188.5000      .6291      .5430   -52.1037  -999.2500  -999.2500
 6189.0000      .6202      .5377   -52.3785  -999.2500  -999.2500
 6189.5000      .6117      .5325   -52.1270  -999.2500  -999.2500
 6190.0000      .6090      .5280   -50.5970  -999.2500  -999.2500
 6190.5000      .6103      .5240   -49.4011  -999.2500  -999.2500
 6191.0000      .6153      .5200   -49.3148  -999.2500  -999.2500
 6191.5000      .6193      .5159   -50.6497  -999.2500  -999.2500
 6192.0000      .6222      .5117   -52.8669  -999.2500  -999.2500
 6192.5000      .6226      .5075   -54.5123  -999.2500  -999.2500
 6193.0000      .6266      .5044   -56.5797  -999.2500  -999.2500
 6193.5000      .6339      .5017   -60.2582  -999.2500  -999.2500
 6194.0000      .6433      .4991   -64.1797  -999.2500  -999.2500
 6194.5000      .6511      .4983   -67.7722  -999.2500  -999.2500
 6195.0000      .6561      .4982   -70.4618  -999.2500  -999.2500
 6195.5000      .6588      .4980   -72.0778  -999.2500  -999.2500
 6196.0000      .6596      .4966   -71.8152  -999.2500  -999.2500
 6196.5000      .6586      .4952   -70.3906  -999.2500  -999.2500
 6197.0000      .6559      .4938   -69.0348  -999.2500  -999.2500
 6197.5000      .6505      .4925   -68.1716  -999.2500  -999.2500
 6198.0000      .6457      .4913   -67.7836  -999.2500  -999.2500
 6198.5000      .6416      .4902   -67.5471  -999.2500  -999.2500
 6199.0000      .6425      .4930   -67.2671  -999.2500  -999.2500
 6199.5000      .6438      .4959   -67.5171  -999.2500  -999.2500
 6200.0000      .6447      .5011   -70.4200  -999.2500  -999.2500
 6200.5000      .6398      .5116   -71.7501  -999.2500  -999.2500
 6201.0000      .6309      .5221   -73.2274  -999.2500  -999.2500
 6201.5000      .6232      .5330   -75.3550  -999.2500  -999.2500
 6202.0000      .6196      .5439   -77.3276  -999.2500  -999.2500
 6202.5000      .6299      .5551   -75.4089  -999.2500  -999.2500
