~VERSION INFORMATION
VERS.                             2.0:   CWLS Log ASCII Standard-VERSION 2.0
WRAP.                              NO:   One line per depth step
~Well Information Block
STRT.F                      3012.0000:   Top Depth
STOP.F                      9049.0000:   Bottom Depth
STEP.F                         .50000:   Depth Increment
NULL.                        -999.250:   Null Value
FLD .                      GA BLK 210:   Field Name
WELL.       OCSG01759   002 ST00 BP00:   NAME
API .                  42706400060000:   WELL API
R1  .                      TEXACO INC:   COMMENT  1
EDF .F                        74.0000:   ELEV DRILL FLOOR
COMP.                      TEXACO INC:   OPERATOR
BN  .                             210:   BLOCK
CTRY.                             USA:   COUNTRY NAME
CNTY.                              GA:   COUNTY
CNTY.                        GLVSTN L:   COUNTY NAME
EKB .F                        75.0000:   ELEV KELLY BUSHING
TDD .F                       9050.000:   FINAL TD DRILLER
STAT.                           TEXAS:   STATE NAME
UWI .                  42706400060000:   WELL API
DICO.               IHS : Digitizing Company
~PARAMETER INFORMATION (zones)
#MNEM.UNIT                       Value     Description
#=========                       =====     ===========
#ZONATION                           IE:   ZONATION NAME
#ZONE                            RUN_2:   ZONE NAME
TOP .                       9049.0000:   TOP DEPTH
BOT .                       9050.0000:   BOTTOM DEPTH
RUN .                               2:   RUN NUMBER
LCCD.                             440:   LOGGING CONTRACTOR
SRVC.                    Schlumberger:   LOGGING CONT NAME
DICO.          QC Data Collectors Ltd:   DIG COMPANY NAME
LDAT.                      11/07/1971:   DATE LOGGED
ELD .F                        75.0000:   LOG DATUM ELEVATION
TDD .F                      9050.0000:   TOTAL DEPTH DRILLER
TDL .F                      9050.0000:   TOTAL DEPTH LOGGER
BOTL.F                      9049.0000:   BOTTOM DEPTH LOGGED
TOPL.F                      7103.0000:   TOP DEPTH LOGGED
CS1 .IN                        9.6250:   CASING SIZE 1
BS1 .IN                        8.6250:   BIT SIZE 1
DDB1.F                      9050.0000:   DEPTH DRILLED BIT 1
BHF .                              99:   FLUID CODE
DPT .                   Miscellaneous:   DRILLING FLUID TYPE
MUDD.                         15.0000:   FLUID DENSITY
MUDV.                         45.0000:   FLUID VISCOSITY
DFPH.                         10.5000:   FLUID PH
FL  .                          4.0000:   FLUID LOSS
RM  .OHMM                       .7700:   RM
RMT .DEGF                    100.0000:   RM TEMP
RMF .OHMM                       .5300:   RMF
RMFT.DEGF                     77.0000:   RMF TEMP
FSC .                               M:   RMF CODE
RMC .OHMM                      1.4300:   RMC
RMCT.DEGF                     75.0000:   RMC TEMP
CMC .                               M:   RMC CODE
TMAX.DEGF                    194.0000:   MAX REC TEMP
TIMC.                          4.0000:   TIME SINCE CIRCLN
~PARAMETER INFORMATION (zones)
#MNEM.UNIT                       Value     Description
#=========                       =====     ===========
#ZONATION                           IE:   ZONATION NAME
#ZONE                            RUN_1:   ZONE NAME
TOP .                       3012.0000:   TOP DEPTH
BOT .                       9049.5000:   BOTTOM DEPTH
RUN .                               1:   RUN NUMBER
LCCD.                             440:   LOGGING CONTRACTOR
SRVC.                    Schlumberger:   LOGGING CONT NAME
DICO.          QC Data Collectors Ltd:   DIG COMPANY NAME
LDAT.                      10/28/1971:   DATE LOGGED
ELD .F                        75.0000:   LOG DATUM ELEVATION
TDD .F                      7115.0000:   TOTAL DEPTH DRILLER
TDL .F                      7061.0000:   TOTAL DEPTH LOGGER
BOTL.F                      7060.0000:   BOTTOM DEPTH LOGGED
TOPL.F                      3012.0000:   TOP DEPTH LOGGED
CS1 .IN                       13.3750:   CASING SIZE 1
BS1 .IN                       12.2500:   BIT SIZE 1
DDB1.F                      7115.0000:   DEPTH DRILLED BIT 1
BHF .                              11:   FLUID CODE
DPT .         Caustic (high PH) (CLS):   DRILLING FLUID TYPE
MUDD.                         10.5000:   FLUID DENSITY
MUDV.                         40.0000:   FLUID VISCOSITY
DFPH.                          9.0000:   FLUID PH
FL  .                          4.4000:   FLUID LOSS
RM  .OHMM                       .9400:   RM
RMT .DEGF                     96.0000:   RM TEMP
RMF .OHMM                       .7600:   RMF
RMFT.DEGF                     96.0000:   RMF TEMP
FSC .                               M:   RMF CODE
RMC .OHMM                      1.2600:   RMC
RMCT.DEGF                     96.0000:   RMC TEMP
CMC .                               M:   RMC CODE
TMAX.DEGF                    155.0000:   MAX REC TEMP
TIMC.                          4.0000:   TIME SINCE CIRCLN
~PARAMETER INFORMATION (zones)
#MNEM.UNIT                       Value     Description
#=========                       =====     ===========
#ZONATION                        SONIC:   ZONATION NAME
#ZONE                            RUN_1:   ZONE NAME
TOP .                       3012.0000:   TOP DEPTH
BOT .                       9049.5000:   BOTTOM DEPTH
RUN .                               1:   RUN NUMBER
LCCD.                             440:   LOGGING CONTRACTOR
SRVC.                    Schlumberger:   LOGGING CONT NAME
DICO.          QC Data Collectors Ltd:   DIG COMPANY NAME
LDAT.                      10/28/1971:   DATE LOGGED
ELD .F                        75.0000:   LOG DATUM ELEVATION
TDD .F                      7115.0000:   TOTAL DEPTH DRILLER
TDL .F                      7060.0000:   TOTAL DEPTH LOGGER
BOTL.F                      7050.0000:   BOTTOM DEPTH LOGGED
TOPL.F                      3012.0000:   TOP DEPTH LOGGED
CS1 .IN                       13.3750:   CASING SIZE 1
BS1 .IN                       12.2500:   BIT SIZE 1
DDB1.F                      7115.0000:   DEPTH DRILLED BIT 1
BHF .                              11:   FLUID CODE
DPT .         Caustic (high PH) (CLS):   DRILLING FLUID TYPE
MUDD.                         10.5000:   FLUID DENSITY
MUDV.                         40.0000:   FLUID VISCOSITY
DFPH.                          9.0000:   FLUID PH
FL  .                          4.4000:   FLUID LOSS
RM  .OHMM                       .9400:   RM
RMT .DEGF                     96.0000:   RM TEMP
RMF .OHMM                       .7600:   RMF
RMFT.DEGF                     96.0000:   RMF TEMP
FSC .                               M:   RMF CODE
RMC .OHMM                      1.2600:   RMC
RMCT.DEGF                     96.0000:   RMC TEMP
CMC .                               M:   RMC CODE
TMAX.DEGF                    155.0000:   MAX REC TEMP
TIMC.                          6.0000:   TIME SINCE CIRCLN
~Curve Information Block
#MNEM.UNIT                    API CODE    No Description
#=========                    ========    == ===========
DEPT.F                   00 001 00 00:     1  DEPTH
ASN.OHMM                             :     2  Short-Normal Resistivity
CILD.MMHO                            :     3  Deep Induction Conductivity
ILD.OHMM                             :     4  Deep Induction Resistivity
SP.MV                                :     5  Spontaneous Potential
CALI.IN                              :     6  Caliper
DT.US/F                              :     7  Sonic Transit Time
SP.MV                                :     8  Spontaneous Potential
~ASCII
# ...
 8199.0000      .4551  2850.2969      .4403  -117.9658     8.6973   136.0718  -122.9042
 8199.5000      .4558  2780.5391      .4426  -118.4475     8.7000   135.2742  -122.4716
 8200.0000      .4529  2746.3516      .4434  -118.8275     8.7027   129.2869  -122.1864
 8200.5000      .4501  2752.9883      .4441  -119.1187     8.7054   126.9622  -122.2159
 8201.0000      .4473  2782.6992      .4449  -119.4102     8.7082   125.4519  -122.5396
 8201.5000      .4503  2812.4063      .4456  -119.7017     8.7253   124.5671  -122.8280
 8202.0000      .4608  2842.1133      .4464  -119.9928     8.7426   124.2756  -122.9823
 8202.5000      .4708  2906.7031      .4424  -120.2572     8.7599   129.9060  -123.1366
 8203.0000      .4803  2978.2617      .4330  -120.4103     8.7740   130.6868  -123.2909
 8203.5000      .4898  3028.2461      .4235  -120.5635     8.7847   131.4673  -123.4061
 8204.0000      .4993  3059.9102      .4141  -120.5986     8.7954   132.6321  -123.4573
 8204.5000      .5048  3087.9375      .4055  -120.5546     8.8059   132.6052  -123.5084
 8205.0000      .5064  3111.1250      .3971  -120.5104     8.8072   132.5691  -123.5596
 8205.5000      .5063  3131.0195      .3888  -120.4663     8.8085   132.5569  -123.5233
 8206.0000      .5045  3148.8633      .3804  -120.4222     8.8099   132.5447  -123.3212
 8206.5000      .5077  3136.3398      .3943  -120.3710     8.8112   132.5425  -123.1193
 8207.0000      .5128  3101.0625      .4105  -120.0525     8.8173   132.5898  -122.9171
 8207.5000      .5180  3065.7813      .4456  -116.3014     8.8307   132.6370  -122.7153
 8208.0000      .5228  3027.7422      .4823  -102.1375     8.8442   131.1292  -122.5132
 8208.5000      .5275  2988.2500      .5189   -88.8418     8.8569   128.4238  -122.2686
 8209.0000      .5323  2890.3398      .5556   -84.0529     8.8695   126.4022  -122.0198
 8209.5000      .5405  2828.0117      .5915   -79.2640     8.8821   124.9550  -111.8317
 8210.0000      .5544  2608.1094      .6268   -74.4702     8.8945   124.1429   -98.7780
 8210.5000      .5966  2283.0000      .6621   -69.6813     8.8934   126.4022   -85.7241
 8211.0000      .6697  1554.0000      .6974   -64.8925     8.8923   133.0247   -74.8651
 8211.5000      .7096  1388.2129      .7227   -61.0394     8.8912   134.6101   -60.3674
 8212.0000      .7429  1360.0605      .7415   -57.6116     8.8901   135.8318   -53.2003
 8212.5000      .7540  1332.4082      .7604   -54.1888     8.8890   136.8577   -52.5030
 8213.0000      .7522  1306.7656      .7800   -58.0519     8.8900   137.1057   -52.6011
 8213.5000      .7523  1296.6270      .7783   -62.9810     8.8914   136.4062   -52.9969
 8214.0000      .7644  1325.5840      .7484   -67.9099     8.8928   135.5640   -53.3928
 8214.5000      .7773  1582.4727      .7185   -72.8389     8.8942   134.7144   -62.3312
 8215.0000      .7947  1792.3398      .6886   -76.9371     8.8957   134.0664   -69.9844
 8215.5000      .8120  1871.7305      .6586   -80.7152     8.8971   133.5344   -74.2924
 8216.0000      .8268  1942.9902      .6266   -84.4983     8.8990   133.0720   -78.7736
 8216.5000      .8375  2055.2500      .5879   -88.2762     8.9021   132.6567   -83.1923
 8217.0000      .8317  2130.5625      .5493   -92.0543     8.9052   132.2424   -87.5050
 8217.5000      .8258  2196.0039      .5106   -95.8324     8.9083   132.4243   -91.8274
 8218.0000      .8386  2261.3438      .4768  -100.0608     8.9115   132.5076  -101.0402
 8218.5000      .8768  2005.8750      .4638  -104.4193     8.9184   132.4678  -106.6863
 8219.0000      .9136  1987.7188      .5008  -110.1177     8.9260   131.0417  -111.6102
 8219.5000      .9496  1797.6602      .6704  -105.4001     8.9336   127.1392  -113.7836
 8220.0000      .9879  1552.3633     1.1071  -100.0958     8.9431   123.8254  -113.2830
 8220.5000     1.0307  1307.4668     1.7144   -93.0302     8.9527   111.5669  -112.0784
 8221.0000     1.1006  1034.4688     1.8129   -85.9645     8.9613   110.1390  -108.0195
 8221.5000     1.3046   809.9492     1.8627   -80.1298     8.9693    99.9022   -77.8879
 8222.0000     1.5087   764.6836     1.9030   -74.6252     8.9730    98.7883   -67.5200
 8222.5000     1.7128   721.9775     1.8881   -69.1108     8.9669   104.4401   -64.1555
 8223.0000     1.6722   687.4014     1.5772   -63.5964     8.9608   115.5133   -59.0004
 8223.5000     1.5508   655.5342     1.4418   -59.0278     8.9548   119.1251   -55.1329
 8224.0000     1.4292   701.1514     1.3500   -57.2063     8.9487   125.8689   -52.6227
 8224.5000     1.3078   738.4873     1.2684   -55.3823     8.9426   129.3013   -50.1155
 8225.0000     1.0934   797.2021     1.1928   -53.5583     8.9365   132.8369   -49.5855
 8225.5000     1.0851   884.0195     1.1516   -50.4683     8.9304   133.6599   -48.5638
 8226.0000     1.0767   978.6660     1.1317   -49.5914     8.9242   132.0356   -47.5422
 8226.5000     1.0740  1073.3105     1.1118   -48.9609     8.9181   125.5198   -46.7336
 8227.0000     1.0725  1062.2461     1.1001   -48.7322     8.9119   123.6799   -46.0056
 8227.5000     1.0752  1050.8281     1.0994   -48.5615     8.9057   122.1073   -45.2763
 8228.0000     1.0845  1039.4004     1.0988   -48.3907     8.8995   121.5062   -44.6699
 8228.5000     1.1123  1027.9824     1.0981   -48.2385     8.8933   120.9056   -44.2794
 8229.0000     1.1463  1016.5664     1.0974   -48.2567     8.8872   120.3044   -44.5278
 8229.5000     1.1733  1004.7607     1.1000   -48.2748     8.8810   119.6257   -44.9376
 8230.0000     1.1864   991.7139     1.1122   -48.2929     8.8748   118.9264   -45.3474
 8230.5000     1.1995   978.6904     1.1243   -48.3110     8.8687   118.3076   -45.3446
 8231.0000     1.2010   965.6436     1.1364   -48.5327     8.8680   117.8695   -45.2154
 8231.5000     1.2020   952.5957     1.1491   -48.7733     8.8672   117.5808   -45.0861
 8232.0000     1.1955   942.9980     1.1632   -49.0137     8.8665   117.4489   -45.0660
 8232.5000     1.1835   943.4873     1.1605   -49.2539     8.8657   117.3143   -45.3218
 8233.0000     1.1260   970.0840     1.1192   -49.4944     8.8650   117.7968   -45.5778
 8233.5000     1.0767  1085.2559     1.0780   -49.7212     8.8642   119.5082   -45.8455
 8234.0000      .9978  1221.9551     1.0399   -49.8381     8.8635   123.6049   -46.1523
 8234.5000      .9534  1241.4512     1.0050   -49.9553     8.8627   126.4070   -46.4592
 8235.0000      .8999  1260.9473      .9701   -50.0723     8.8620   128.0310   -46.7661
 8235.5000      .8866  1277.8594      .9352   -49.9774     8.8621   130.1013   -47.0640
 8236.0000      .8791  1285.9141      .9003   -49.7997     8.8634   133.2695   -47.1680
 8236.5000      .8753  1293.9688      .8799   -49.6224     8.8648   134.1707   -47.2719
 8237.0000      .8721  1297.4688      .8649   -49.4450     8.8661   134.4687   -47.2775
 8237.5000      .8689  1286.0898      .8500   -49.2677     8.8675   133.9495   -47.1093
 8238.0000      .8657  1274.7109      .8499   -49.0904     8.8689   133.4307   -46.9412
 8238.5000      .8667  1263.3301      .8626   -48.9127     8.8702   132.8550   -46.7730
 8239.0000      .8681  1251.9512      .8754   -48.7354     8.8716   132.2629   -46.5675
 8239.5000      .8716  1221.5527      .8881   -48.7958     8.8729   132.2490   -46.0158
 8240.0000      .8918  1192.6973      .9008   -48.9244     8.8730   132.7483   -45.4647
 8240.5000      .9151  1175.8105      .9130   -49.0533     8.8704   131.3279   -44.9129
 8241.0000      .9391  1158.9238      .9228   -49.0904     8.8679   130.0115   -44.3907
 8241.5000      .9609  1142.0371      .9325   -48.9795     8.8654   128.6953   -44.0258
 8242.0000      .9664  1142.9102      .9423   -48.8640     8.8629   127.1488   -44.2667
 8242.5000      .9602  1145.7031      .9521   -48.7282     8.8604   125.8967   -44.5077
 8243.0000      .9541  1151.0449      .9618   -48.5137     8.8579   125.4374   -44.7487
 8243.5000      .9266  1161.9980      .9661   -48.2991     8.8563   127.1294   -44.9905
 8244.0000      .9012  1172.9512      .9626   -48.0845     8.8579   128.5935   -45.2327
