~VERSION INFORMATION
VERS.                             2.0:   CWLS Log ASCII Standard-VERSION 2.0
WRAP.                              NO:   One line per depth step
~Well Information Block
STRT.F                      3138.0000:   Top Depth
STOP.F                      8628.0000:   Bottom Depth
STEP.F                         .50000:   Depth Increment
NULL.                        -999.250:   Null Value
FLD .                      BA BLK 376:   Field Name
WELL.       OCSG07215   003 ST00 BP00:   NAME
API .                  42704401900000:   WELL API
EDF .F                        90.0000:   ELEV DRILL FLOOR
COMP.         UNION EXPL PARTNERS LTD:   OPERATOR
BN  .                             376:   BLOCK
CTRY.                             USA:   COUNTRY NAME
CNTY.                        BRAZOS L:   COUNTY NAME
EKB .F                        91.0000:   ELEV KELLY BUSHING
TDD .F                       8678.000:   FINAL TD DRILLER
STAT.                           TEXAS:   STATE NAME
UWI .                  42704401900000:   WELL API
DICO.               IHS : Digitizing Company
~PARAMETER INFORMATION (zones)
#MNEM.UNIT                       Value     Description
#=========                       =====     ===========
#ZONATION                          DIL:   ZONATION NAME
#ZONE                            RUN_1:   ZONE NAME
TOP .                       3138.0000:   TOP DEPTH
BOT .                       5660.5000:   BOTTOM DEPTH
RUN .                               1:   RUN NUMBER
SRVC.                               0:   LOGGING CONTRACTOR
SRVC.                         UNKNOWN:   LOGGING CONT NAME
DICO.          QC Data Collectors Ltd:   DIG COMPANY NAME
LDAT.                      06/22/1989:   DATE LOGGED
ELD .F                        91.0000:   LOG DATUM ELEVATION
TDD .F                      5675.0000:   TOTAL DEPTH DRILLER
TDL .F                      5662.0000:   TOTAL DEPTH LOGGER
BOTL.F                      5660.0000:   BOTTOM DEPTH LOGGED
TOPL.F                      3220.0000:   TOP DEPTH LOGGED
CS1 .IN                       10.7500:   CASING SIZE 1
BS1 .IN                        9.8750:   BIT SIZE 1
DDB1.F                      5675.0000:   DEPTH DRILLED BIT 1
BHF .                              20:   FLUID CODE
DPT .                    Gel (Gelchem:   DRILLING FLUID TYPE
MUDD.                          9.0000:   FLUID DENSITY
MUDV.                         68.0000:   FLUID VISCOSITY
DFPH.                          9.0000:   FLUID PH
FL  .                         12.0000:   FLUID LOSS
RM  .OHMM                      1.0500:   RM
RMT .DEGF                     75.0000:   RM TEMP
RMF .OHMM                       .8200:   RMF
RMFT.DEGF                     75.0000:   RMF TEMP
FSC .                               M:   RMF CODE
RMC .OHMM                      1.2200:   RMC
RMCT.DEGF                     75.0000:   RMC TEMP
CMC .                               M:   RMC CODE
TMAX.DEGF                    128.0000:   MAX REC TEMP
TIMC.                          7.0000:   TIME SINCE CIRCLN
~PARAMETER INFORMATION (zones)
#MNEM.UNIT                       Value     Description
#=========                       =====     ===========
#ZONATION                          DIL:   ZONATION NAME
#ZONE                            RUN_2:   ZONE NAME
TOP .                       5664.0000:   TOP DEPTH
BOT .                       8628.5000:   BOTTOM DEPTH
RUN .                               2:   RUN NUMBER
SRVC.                               0:   LOGGING CONTRACTOR
SRVC.                         UNKNOWN:   LOGGING CONT NAME
DICO.          QC Data Collectors Ltd:   DIG COMPANY NAME
LDAT.                      07/04/1989:   DATE LOGGED
ELD .F                        91.0000:   LOG DATUM ELEVATION
TDD .F                      8678.0000:   TOTAL DEPTH DRILLER
TDL .F                      8630.0000:   TOTAL DEPTH LOGGER
BOTL.F                      8628.0000:   BOTTOM DEPTH LOGGED
TOPL.F                      5664.0000:   TOP DEPTH LOGGED
CS1 .IN                        7.6250:   CASING SIZE 1
BS1 .IN                        6.5000:   BIT SIZE 1
DDB1.F                      8678.0000:   DEPTH DRILLED BIT 1
BHF .                              81:   FLUID CODE
DPT .          Lignosulfonate (Ligno):   DRILLING FLUID TYPE
MUDD.                         11.8000:   FLUID DENSITY
MUDV.                         48.0000:   FLUID VISCOSITY
DFPH.                         10.5000:   FLUID PH
FL  .                          6.6000:   FLUID LOSS
RM  .OHMM                       .7200:   RM
RMT .DEGF                     70.0000:   RM TEMP
RMF .OHMM                       .5900:   RMF
RMFT.DEGF                     70.0000:   RMF TEMP
FSC .                               M:   RMF CODE
RMC .OHMM                       .9000:   RMC
RMCT.DEGF                     70.0000:   RMC TEMP
CMC .                               C:   RMC CODE
TMAX.DEGF                    191.0000:   MAX REC TEMP
TIMC.                          5.0000:   TIME SINCE CIRCLN
~Curve Information Block
#MNEM.UNIT                    API CODE    No Description
#=========                    ========    == ===========
DEPT.F                   00 001 00 00:     1  DEPTH
DT.US/F                              :     2  Sonic Transit Time
GR.GAPI                              :     3  Gamma Ray
ILD.OHMM                             :     4  Deep Induction Resistivity
ILM.OHMM                             :     5  Medium Induction Resistivity
RFOC.OHMM                            :     6  Medium Resistivity
SP.MV                                :     7  Spontaneous Potential
~ASCII
# ...
 3918.0000   111.0197    66.8738      .4015      .4023      .5613   -96.2208
 3918.5000   107.2958    66.0769      .4079      .4051      .5816   -93.4199
 3919.0000   108.4961    65.9974      .4099      .4062      .5341   -90.6686
 3919.5000   113.8334    71.0874      .4082      .4062      .4931   -88.4862
 3920.0000   120.0206    74.9469      .4025      .4044      .4694   -87.1274
 3920.5000   123.4569    77.4574      .3962      .4010      .4619   -86.6157
 3921.0000   125.4169    79.0317      .3864      .3992      .4659   -89.1854
 3921.5000   126.9858    79.9067      .3737      .3961      .4697   -93.4486
 3922.0000   126.3671    77.5095      .3629      .3935      .4675   -97.7950
 3922.5000   125.5449    72.8817      .3517      .3893      .4747  -101.5947
 3923.0000   124.9017    70.6525      .3392      .3851      .4987  -104.5687
 3923.5000   127.0016    73.3036      .3278      .3808      .5112  -107.0011
 3924.0000   132.0864    75.5133      .3194      .3763      .4665  -109.4960
 3924.5000   134.5676    73.0198      .3122      .3714      .4312  -109.0272
 3925.0000   131.5688    69.6538      .3062      .3663      .4056  -107.3787
 3925.5000   118.1483    67.2279      .3024      .3609      .4367  -118.4155
 3926.0000   106.7257    62.1992      .3020      .3546      .5230  -123.5588
 3926.5000    99.6074    55.9177      .3024      .3468      .6155  -126.6371
 3927.0000   102.3009    49.8134      .3024      .3379      .5971  -129.1814
 3927.5000   107.4030    44.6205      .3030      .3294      .5393  -131.1450
 3928.0000   112.6775    42.7719      .3023      .3202      .5051  -132.6477
 3928.5000   116.2864    43.5860      .2998      .3098      .5109  -133.7754
 3929.0000   117.9482    44.4376      .2965      .3019      .5083  -134.5696
 3929.5000   118.6945    44.8542      .2919      .2968      .4857  -134.7559
 3930.0000   117.9738    43.8561      .2871      .2943      .4663  -134.1816
 3930.5000   116.6198    43.8666      .2823      .2924      .4589  -132.9224
 3931.0000   114.9291    45.3132      .2774      .2914      .5029  -132.1333
 3931.5000   113.9877    46.6531      .2730      .2913      .5194  -132.0051
 3932.0000   116.4302    47.5513      .2708      .2917      .5176  -132.0073
 3932.5000   119.5669    47.4113      .2694      .2912      .4721  -132.0349
 3933.0000   121.5675    46.4943      .2688      .2910      .4744  -131.9729
 3933.5000   122.5651    45.5261      .2699      .2910      .4790  -131.9302
 3934.0000   121.3464    44.6140      .2707      .2917      .4984  -132.0520
 3934.5000   119.6520    44.0079      .2709      .2922      .4980  -132.4128
 3935.0000   118.4006    44.0087      .2711      .2925      .4897  -132.8997
 3935.5000   119.2269    44.0615      .2708      .2915      .4842  -133.4492
 3936.0000   120.0906    43.3822      .2694      .2890      .4867  -134.0112
 3936.5000   120.3862    42.8796      .2665      .2790      .4907  -134.4209
 3937.0000   119.2257    45.1752      .2635      .2717      .4943  -134.8550
 3937.5000   116.4904    47.1844      .2606      .2675      .4952  -135.2251
 3938.0000   114.3839    48.4761      .2581      .2776      .4715  -135.1279
 3938.5000   113.2633    48.3000      .2579      .2916      .4536  -134.1555
 3939.0000   111.3752    47.7850      .2610      .3020      .4575  -132.8306
 3939.5000   106.9689    47.3989      .2655      .3073      .5147  -132.3530
 3940.0000   101.5740    46.9751      .2706      .3094      .5824  -132.8235
 3940.5000    98.3522    46.7206      .2755      .3042      .5935  -133.7590
 3941.0000   103.2738    46.9725      .2786      .2982      .5223  -134.6118
 3941.5000   114.8219    47.5207      .2808      .2948      .4981  -135.1719
 3942.0000   126.5426    48.0881      .2825      .2866      .4849  -135.1919
 3942.5000   131.2537    48.0988      .2810      .2795      .4716  -135.0442
 3943.0000   130.4861    47.4152      .2758      .2736      .4545  -134.7458
 3943.5000   124.0767    46.7374      .2702      .2685      .4732  -134.3291
 3944.0000   120.0206    46.2343      .2616      .2692      .4939  -133.5801
 3944.5000   117.8842    46.1639      .2535      .2833      .4759  -132.2747
 3945.0000   116.9558    47.6362      .2564      .3068      .4546  -130.6189
 3945.5000   112.4684    49.7496      .2683      .3357      .4685  -129.0369
 3946.0000   103.4359    49.8316      .2836      .3592      .5487  -129.3398
 3946.5000    97.0787    47.1180      .3000      .3757      .6728  -130.2095
 3947.0000    95.9098    44.3914      .3133      .3767      .7582  -131.1438
 3947.5000   104.8899    42.5378      .3244      .3750      .6075  -132.0637
 3948.0000   120.4757    41.4622      .3318      .3600      .5172  -132.9197
 3948.5000   127.0944    40.8235      .3367      .3455      .5019  -133.6631
 3949.0000   128.7024    40.4977      .3353      .3325      .4963  -133.8137
 3949.5000   127.7260    40.3783      .3290      .3252      .4878  -133.0017
 3950.0000   125.4091    40.5548      .3225      .3231      .4768  -131.5500
 3950.5000   123.0659    41.0374      .3153      .3281      .4752  -129.4131
 3951.0000   121.1923    42.3196      .3086      .3342      .5105  -127.6124
 3951.5000   121.0431    44.7221      .3017      .3405      .5487  -126.2621
 3952.0000   131.4824    47.5920      .2977      .3455      .5255  -126.4125
 3952.5000   134.9722    48.8205      .2993      .3493      .4959  -127.1241
 3953.0000   135.8113    47.5991      .3035      .3485      .4975  -127.8175
 3953.5000   131.9819    45.1257      .3106      .3433      .5134  -128.3650
 3954.0000   126.1111    43.6964      .3113      .3373      .5234  -128.9146
 3954.5000   121.1190    43.2987      .3082      .3311      .5107  -129.4158
 3955.0000   119.1283    43.2435      .3036      .3258      .4962  -129.7688
 3955.5000   117.8959    43.4634      .2995      .3222      .4881  -129.9414
 3956.0000   116.0339    43.7780      .2960      .3197      .4852  -129.6099
 3956.5000   116.5897    43.5411      .2935      .3210      .4840  -128.7993
 3957.0000   118.8059    42.6042      .2915      .3224      .4832  -127.9113
 3957.5000   119.8821    41.7625      .2905      .3284      .4834  -127.1882
 3958.0000   119.2329    42.1348      .2908      .3345      .4838  -126.9039
 3958.5000   118.4680    42.2458      .2932      .3386      .4852  -126.9603
 3959.0000   117.6936    41.8997      .2969      .3405      .4869  -127.1267
 3959.5000   117.6011    41.6844      .3020      .3438      .4901  -127.1895
 3960.0000   117.7217    42.4173      .3094      .3561      .4958  -127.1061
 3960.5000   114.7697    43.1099      .3186      .3846      .5060  -126.8972
 3961.0000   105.9098    42.6621      .3290      .4063      .5390  -126.3392
 3961.5000    88.0750    41.9212      .3406      .4178      .5708  -125.6254
 3962.0000    82.4238    41.4017      .3560      .4237      .6831  -125.0734
 3962.5000    82.9547    42.3640      .3698      .4158      .7603  -124.8949
 3963.0000   101.6420    43.2429      .3826      .4064      .6292  -125.1078
 3963.5000   113.5353    44.1609      .3859      .3968      .5309  -125.5619
 3964.0000   121.9714    45.0632      .3726      .3849      .5041  -126.3865
 3964.5000   127.1624    45.2944      .3599      .3662      .4996  -128.0903
 3965.0000   128.9248    44.8559      .3400      .3483      .5043  -130.1162
 3965.5000   128.3157    44.3588      .3160      .3317      .5021  -131.9666
 3966.0000   125.7699    43.7396      .2923      .3118      .4786  -133.3340
 3966.5000   123.2358    42.9766      .2766      .2920      .4613  -134.0522
 3967.0000   121.6976    42.0319      .2658      .2803      .4542  -133.5149
 3967.5000   122.2644    41.1367      .2560      .2728      .4493  -131.4731
 3968.0000   123.1816    41.6198      .2491      .2740      .4448  -127.2570
 3968.5000   121.6342    43.7780      .2474      .2820      .4414  -119.7228
 3969.0000   119.6742    46.6310      .2496      .2916      .4404  -112.7330
 3969.5000   116.4629    49.4969      .2524      .3014      .4473  -110.8893
