~VERSION INFORMATION
VERS.                             2.0:   CWLS Log ASCII Standard-VERSION 2.0
WRAP.                              NO:   One line per depth step
~Well Information Block
STRT.F                      3138.0000:   Top Depth
STOP.F                      8628.0000:   Bottom Depth
STEP.F                         .50000:   Depth Increment
NULL.                        -999.250:   Null Value
FLD .                      BA BLK 376:   Field Name
WELL.       OCSG07215   003 ST00 BP00:   NAME
API .                  42704401900000:   WELL API
EDF .F                        90.0000:   ELEV DRILL FLOOR
COMP.         UNION EXPL PARTNERS LTD:   OPERATOR
BN  .                             376:   BLOCK
CTRY.                             USA:   COUNTRY NAME
CNTY.                        BRAZOS L:   COUNTY NAME
EKB .F                        91.0000:   ELEV KELLY BUSHING
TDD .F                       8678.000:   FINAL TD DRILLER
STAT.                           TEXAS:   STATE NAME
UWI .                  42704401900000:   WELL API
DICO.               IHS : Digitizing Company
~PARAMETER INFORMATION (zones)
#MNEM.UNIT                       Value     Description
#=========                       =====     ===========
#ZONATION                          DIL:   ZONATION NAME
#ZONE                            RUN_1:   ZONE NAME
TOP .                       3138.0000:   TOP DEPTH
BOT .                       5660.5000:   BOTTOM DEPTH
RUN .                               1:   RUN NUMBER
SRVC.                               0:   LOGGING CONTRACTOR
SRVC.                         UNKNOWN:   LOGGING CONT NAME
DICO.          QC Data Collectors Ltd:   DIG COMPANY NAME
LDAT.                      06/22/1989:   DATE LOGGED
ELD .F                        91.0000:   LOG DATUM ELEVATION
TDD .F                      5675.0000:   TOTAL DEPTH DRILLER
TDL .F                      5662.0000:   TOTAL DEPTH LOGGER
BOTL.F                      5660.0000:   BOTTOM DEPTH LOGGED
TOPL.F                      3220.0000:   TOP DEPTH LOGGED
CS1 .IN                       10.7500:   CASING SIZE 1
BS1 .IN                        9.8750:   BIT SIZE 1
DDB1.F                      5675.0000:   DEPTH DRILLED BIT 1
BHF .                              20:   FLUID CODE
DPT .                    Gel (Gelchem:   DRILLING FLUID TYPE
MUDD.                          9.0000:   FLUID DENSITY
MUDV.                         68.0000:   FLUID VISCOSITY
DFPH.                          9.0000:   FLUID PH
FL  .                         12.0000:   FLUID LOSS
RM  .OHMM                      1.0500:   RM
RMT .DEGF                     75.0000:   RM TEMP
RMF .OHMM                       .8200:   RMF
RMFT.DEGF                     75.0000:   RMF TEMP
FSC .                               M:   RMF CODE
RMC .OHMM                      1.2200:   RMC
RMCT.DEGF                     75.0000:   RMC TEMP
CMC .                               M:   RMC CODE
TMAX.DEGF                    128.0000:   MAX REC TEMP
TIMC.                          7.0000:   TIME SINCE CIRCLN
~PARAMETER INFORMATION (zones)
#MNEM.UNIT                       Value     Description
#=========                       =====     ===========
#ZONATION                          DIL:   ZONATION NAME
#ZONE                            RUN_2:   ZONE NAME
TOP .                       5664.0000:   TOP DEPTH
BOT .                       8628.5000:   BOTTOM DEPTH
RUN .                               2:   RUN NUMBER
SRVC.                               0:   LOGGING CONTRACTOR
SRVC.                         UNKNOWN:   LOGGING CONT NAME
DICO.          QC Data Collectors Ltd:   DIG COMPANY NAME
LDAT.                      07/04/1989:   DATE LOGGED
ELD .F                        91.0000:   LOG DATUM ELEVATION
TDD .F                      8678.0000:   TOTAL DEPTH DRILLER
TDL .F                      8630.0000:   TOTAL DEPTH LOGGER
BOTL.F                      8628.0000:   BOTTOM DEPTH LOGGED
TOPL.F                      5664.0000:   TOP DEPTH LOGGED
CS1 .IN                        7.6250:   CASING SIZE 1
BS1 .IN                        6.5000:   BIT SIZE 1
DDB1.F                      8678.0000:   DEPTH DRILLED BIT 1
BHF .                              81:   FLUID CODE
DPT .          Lignosulfonate (Ligno):   DRILLING FLUID TYPE
MUDD.                         11.8000:   FLUID DENSITY
MUDV.                         48.0000:   FLUID VISCOSITY
DFPH.                         10.5000:   FLUID PH
FL  .                          6.6000:   FLUID LOSS
RM  .OHMM                       .7200:   RM
RMT .DEGF                     70.0000:   RM TEMP
RMF .OHMM                       .5900:   RMF
RMFT.DEGF                     70.0000:   RMF TEMP
FSC .                               M:   RMF CODE
RMC .OHMM                       .9000:   RMC
RMCT.DEGF                     70.0000:   RMC TEMP
CMC .                               C:   RMC CODE
TMAX.DEGF                    191.0000:   MAX REC TEMP
TIMC.                          5.0000:   TIME SINCE CIRCLN
~Curve Information Block
#MNEM.UNIT                    API CODE    No Description
#=========                    ========    == ===========
DEPT.F                   00 001 00 00:     1  DEPTH
DT.US/F                              :     2  Sonic Transit Time
GR.GAPI                              :     3  Gamma Ray
ILD.OHMM                             :     4  Deep Induction Resistivity
ILM.OHMM                             :     5  Medium Induction Resistivity
RFOC.OHMM                            :     6  Medium Resistivity
SP.MV                                :     7  Spontaneous Potential
~ASCII
# ...
 5738.0000   117.1953    67.2866      .7886      .7835      .9933   -69.7567
 5738.5000   118.1067    66.7859      .7901      .7858      .9774   -69.5621
 5739.0000   118.8822    66.4105      .7942      .7904      .9606   -69.4648
 5739.5000   119.3156    66.1361      .7985      .7965      .9454   -69.4668
 5740.0000   119.2830    65.5068      .8027      .7998      .9428   -69.4214
 5740.5000   119.0302    65.1379      .8036      .8014      .9492   -69.7172
 5741.0000   118.4012    65.4404      .7972      .8014      .9628   -70.0446
 5741.5000   117.2544    65.0840      .7846      .7970     1.0054   -71.0245
 5742.0000   115.2795    63.9490      .7506      .7711     1.1152   -73.5630
 5742.5000   111.9938    62.6176      .7021      .7274     1.1935   -78.8049
 5743.0000   108.7802    60.7127      .6436      .6762     1.1913   -84.0416
 5743.5000   107.5573    58.3064      .5854      .6235     1.1582   -89.0060
 5744.0000   107.4982    56.4827      .5348      .5874     1.1133   -93.7583
 5744.5000   109.0649    55.9371      .5052      .5649     1.0780   -96.0206
 5745.0000   110.7458    56.6268      .4874      .5507     1.0444   -96.2560
 5745.5000   112.2805    57.7330      .4769      .5470     1.0180   -95.9813
 5746.0000   111.9006    58.9754      .4771      .5513     1.0226   -95.2404
 5746.5000   110.8981    59.8427      .5008      .5611     1.0631   -93.3132
 5747.0000   109.8824    61.4039      .5416      .5772     1.0821   -89.9120
 5747.5000   109.0649    63.7500      .5811      .5973     1.0313   -85.1832
 5748.0000   108.5513    65.9834      .6130      .6259      .9753   -79.6376
 5748.5000   109.5885    67.8451      .6353      .6483      .9178   -74.6941
 5749.0000   111.9623    69.3440      .6525      .6671      .8659   -71.5782
 5749.5000   116.2610    70.3940      .6733      .6824      .8367   -69.4430
 5750.0000   121.8352    71.4714      .6904      .6939      .8516   -68.2582
 5750.5000   123.6368    71.7019      .6942      .6941      .8939   -67.5231
 5751.0000   124.2896    71.3468      .6935      .6851      .9171   -66.9137
 5751.5000   124.1870    71.2057      .6922      .6783      .9313   -66.4482
 5752.0000   123.7321    73.4457      .6900      .6720      .9153   -66.8220
 5752.5000   123.1383    75.7158      .6855      .6703      .8890   -67.5657
 5753.0000   122.8511    77.2725      .6833      .6695      .8739   -68.0782
 5753.5000   123.0621    75.8336      .6825      .6695      .8767   -68.4098
 5754.0000   123.5674    74.5876      .6818      .6707      .8870   -68.7145
 5754.5000   124.1946    74.1384      .6815      .6728      .8993   -68.9890
 5755.0000   124.6785    74.0312      .6824      .6768      .9048   -69.1541
 5755.5000   125.0452    73.9474      .6839      .6815      .9025   -69.2421
 5756.0000   124.5082    74.4917      .6856      .6843      .9033   -69.1774
 5756.5000   123.2668    75.9253      .6871      .6865      .9083   -69.0306
 5757.0000   122.2755    76.8483      .6876      .6874      .9178   -68.8042
 5757.5000   121.4232    75.6674      .6868      .6879      .9289   -68.5963
 5758.0000   121.0111    74.8079      .6847      .6880      .9351   -68.4329
 5758.5000   120.9742    74.3792      .6824      .6874      .9344   -68.3477
 5759.0000   121.0648    73.9857      .6799      .6867      .9290   -68.3060
 5759.5000   121.2159    73.1620      .6773      .6854      .9208   -68.2229
 5760.0000   121.4875    74.3909      .6748      .6842      .9134   -68.0702
 5760.5000   121.8130    76.9988      .6740      .6835      .9158   -67.8770
 5761.0000   122.2242    79.1105      .6753      .6828      .9154   -67.6792
 5761.5000   122.7616    78.6405      .6784      .6843      .9129   -67.5192
 5762.0000   122.7048    74.1475      .6832      .6884      .9087   -67.3660
 5762.5000   122.2223    70.0261      .6900      .6965      .9107   -67.2220
 5763.0000   120.8340    69.1688      .6978      .7034      .9229   -67.1086
 5763.5000   119.5566    70.2317      .7064      .7105      .9419   -67.0466
 5764.0000   119.0479    71.8976      .7164      .7185      .9654   -67.1082
 5764.5000   118.7589    70.9609      .7229      .7251      .9686   -67.1906
 5765.0000   118.5338    68.0597      .7275      .7305      .9494   -66.9635
 5765.5000   118.5708    65.8210      .7312      .7361      .9337   -66.6600
 5766.0000   118.7955    66.8789      .7348      .7413      .9221   -66.4227
 5766.5000   119.0868    70.3979      .7337      .7450      .9109   -66.2957
 5767.0000   119.3867    73.6211      .7307      .7459      .9050   -66.3206
 5767.5000   119.6503    75.9790      .7285      .7434      .9117   -66.3506
 5768.0000   119.8033    75.3518      .7259      .7391      .9317   -66.3607
 5768.5000   119.7291    72.5240      .7240      .7340      .9583   -66.3909
 5769.0000   119.3617    70.9543      .7224      .7276      .9648   -66.4772
 5769.5000   118.8828    70.0333      .7208      .7224      .9517   -66.6097
 5770.0000   118.6240    69.5823      .7190      .7196      .9320   -66.6647
 5770.5000   119.0317    69.2184      .7152      .7163      .9170   -66.6873
 5771.0000   119.3123    68.6718      .7112      .7140      .9203   -66.5657
 5771.5000   119.3892    68.0585      .7069      .7140      .9453   -66.5165
 5772.0000   119.2661    67.5577      .7044      .7152      .9680   -66.5040
 5772.5000   119.3932    67.1230      .7031      .7165      .9547   -66.4578
 5773.0000   119.6924    66.7675      .7031      .7193      .9472   -66.3492
 5773.5000   119.9736    66.6663      .7070      .7226      .9475   -66.1160
 5774.0000   119.2502    66.9103      .7130      .7291      .9446   -65.9320
 5774.5000   115.3163    67.8254      .7239      .7363      .9398   -65.7791
 5775.0000   102.8976    68.8898      .7351      .7453      .9318   -65.7104
 5775.5000    96.9193    69.4816      .7470      .7523      .9237   -65.7490
 5776.0000    93.1244    69.7080      .7564      .7573      .9177   -65.7473
 5776.5000    91.8916    70.1040      .7456      .7471      .9198   -65.8484
 5777.0000    93.8251    70.7410      .7267      .7192      .9506   -66.5170
 5777.5000    99.1028    71.3239      .7062      .6928     1.0082   -67.8884
 5778.0000   113.0619    71.6722      .6844      .6712     1.0764   -68.5103
 5778.5000   115.7992    72.0344      .6621      .6500     1.0128   -68.8265
 5779.0000   114.1458    73.2821      .6402      .6283      .9227   -68.4984
 5779.5000   107.4536    75.1345      .6197      .6108      .8475   -67.8170
 5780.0000   101.1865    76.0464      .6020      .5950      .8241   -66.9799
 5780.5000    99.5055    75.3198      .5887      .5832      .8254   -66.1825
 5781.0000    99.6138    74.9067      .5813      .5782      .8305   -65.5463
 5781.5000    99.7327    76.0902      .5788      .5753      .8356   -65.0900
 5782.0000    99.7245    77.6246      .5758      .5740      .8409   -64.9928
 5782.5000    99.6530    77.9067      .5745      .5737      .8492   -65.0361
 5783.0000    99.6320    74.4930      .5745      .5742      .8555   -65.0853
 5783.5000    99.7103    71.9402      .5745      .5747      .8594   -65.0353
 5784.0000    99.8816    71.0564      .5746      .5753      .8478   -64.9712
 5784.5000   100.0853    72.5240      .5753      .5757      .8433   -64.9073
 5785.0000   100.2844    74.2626      .5764      .5757      .8397   -64.8036
 5785.5000    99.9613    75.1813      .5781      .5758      .8373   -64.6709
 5786.0000    99.0581    74.5205      .5800      .5763      .8354   -64.6035
 5786.5000    98.0543    73.5923      .5802      .5768      .8299   -64.6003
 5787.0000    97.5374    73.3145      .5802      .5768      .8301   -64.6273
 5787.5000    97.3364    74.2404      .5809      .5769      .8321   -64.6550
 5788.0000    97.2061    75.0927      .5813      .5778      .8378   -64.6803
 5788.5000    97.0693    74.8079      .5813      .5789      .8452   -64.6874
 5789.0000    96.9265    74.0558      .5823      .5810      .8522   -64.6162
 5789.5000    96.6625    73.4044      .5858      .5833      .8577   -64.5619
