~VERSION INFORMATION
VERS.                             2.0:   CWLS Log ASCII Standard-VERSION 2.0
WRAP.                              NO:   One line per depth step
~Well Information Block
STRT.F                      2726.0000:   Top Depth
STOP.F                     13125.0000:   Bottom Depth
STEP.F                         .50000:   Depth Increment
NULL.                        -999.250:   Null Value
FLD .                      GA BLK 255:   Field Name
WELL.       OCSG01777  A007 ST00 BP00:   NAME
API .                  42706400190000:   WELL API
EDF .F                        92.0000:   ELEV DRILL FLOOR
COMP.       COASTAL STATES GAS PROD C:   OPERATOR
BN  .                             255:   BLOCK
CTRY.                             USA:   COUNTRY NAME
CNTY.                              GA:   COUNTY
CNTY.                        GLVSTN L:   COUNTY NAME
EKB .F                        93.0000:   ELEV KELLY BUSHING
TDD .F                      13136.000:   FINAL TD DRILLER
STAT.                           TEXAS:   STATE NAME
UWI .                  42706400190000:   WELL API
DICO.               IHS : Digitizing Company
~PARAMETER INFORMATION (zones)
#MNEM.UNIT                       Value     Description
#=========                       =====     ===========
#ZONATION                           IE:   ZONATION NAME
#ZONE                            RUN_1:   ZONE NAME
TOP .                       2726.0000:   TOP DEPTH
BOT .                       8780.5000:   BOTTOM DEPTH
RUN .                               1:   RUN NUMBER
LCCD.                             440:   LOGGING CONTRACTOR
SRVC.                    Schlumberger:   LOGGING CONT NAME
DICO.          QC Data Collectors Ltd:   DIG COMPANY NAME
LDAT.                      09/02/1973:   DATE LOGGED
ELD .F                        93.0000:   LOG DATUM ELEVATION
TDD .F                      8829.0000:   TOTAL DEPTH DRILLER
TDL .F                      8822.0000:   TOTAL DEPTH LOGGER
BOTL.F                      8821.0000:   BOTTOM DEPTH LOGGED
TOPL.F                      2726.0000:   TOP DEPTH LOGGED
CS1 .IN                       13.6250:   CASING SIZE 1
BS1 .IN                       12.2500:   BIT SIZE 1
DDB1.F                      8829.0000:   DEPTH DRILLED BIT 1
BHF .                              81:   FLUID CODE
DPT .          Lignosulfonate (Ligno):   DRILLING FLUID TYPE
MUDD.                         12.2000:   FLUID DENSITY
MUDV.                         44.0000:   FLUID VISCOSITY
DFPH.                         10.5000:   FLUID PH
FL  .                          2.0000:   FLUID LOSS
RM  .OHMM                       .9600:   RM
RMT .DEGF                     74.0000:   RM TEMP
RMF .OHMM                       .5900:   RMF
RMFT.DEGF                     71.0000:   RMF TEMP
FSC .                               M:   RMF CODE
RMC .OHMM                      1.8100:   RMC
RMCT.DEGF                     71.0000:   RMC TEMP
CMC .                               M:   RMC CODE
TMAX.DEGF                    160.0000:   MAX REC TEMP
TIMC.                         24.0000:   TIME SINCE CIRCLN
~PARAMETER INFORMATION (zones)
#MNEM.UNIT                       Value     Description
#=========                       =====     ===========
#ZONATION                           IE:   ZONATION NAME
#ZONE                            RUN_2:   ZONE NAME
TOP .                       8780.0000:   TOP DEPTH
BOT .                       9333.5000:   BOTTOM DEPTH
RUN .                               2:   RUN NUMBER
LCCD.                             440:   LOGGING CONTRACTOR
SRVC.                    Schlumberger:   LOGGING CONT NAME
DICO.          QC Data Collectors Ltd:   DIG COMPANY NAME
LDAT.                      09/09/1973:   DATE LOGGED
ELD .F                        93.0000:   LOG DATUM ELEVATION
TDD .F                      9340.0000:   TOTAL DEPTH DRILLER
TDL .F                      9334.0000:   TOTAL DEPTH LOGGER
BOTL.F                      9333.0000:   BOTTOM DEPTH LOGGED
TOPL.F                      8821.0000:   TOP DEPTH LOGGED
CS1 .IN                       13.3750:   CASING SIZE 1
BS1 .IN                       12.2500:   BIT SIZE 1
DDB1.F                      9340.0000:   DEPTH DRILLED BIT 1
BHF .                              99:   FLUID CODE
DPT .                   Miscellaneous:   DRILLING FLUID TYPE
MUDD.                         12.3000:   FLUID DENSITY
MUDV.                         46.0000:   FLUID VISCOSITY
DFPH.                         10.5000:   FLUID PH
FL  .                          3.2000:   FLUID LOSS
RM  .OHMM                       .6500:   RM
RMT .DEGF                     82.0000:   RM TEMP
RMF .OHMM                       .5000:   RMF
RMFT.DEGF                     82.0000:   RMF TEMP
FSC .                               M:   RMF CODE
RMC .OHMM                       .9600:   RMC
RMCT.DEGF                     82.0000:   RMC TEMP
CMC .                               M:   RMC CODE
TMAX.DEGF                    160.0000:   MAX REC TEMP
TIMC.                          4.0000:   TIME SINCE CIRCLN
~PARAMETER INFORMATION (zones)
#MNEM.UNIT                       Value     Description
#=========                       =====     ===========
#ZONATION                           IE:   ZONATION NAME
#ZONE                            RUN_3:   ZONE NAME
TOP .                       9343.0000:   TOP DEPTH
BOT .                      13125.5000:   BOTTOM DEPTH
RUN .                               3:   RUN NUMBER
LCCD.                             440:   LOGGING CONTRACTOR
SRVC.                    Schlumberger:   LOGGING CONT NAME
DICO.          QC Data Collectors Ltd:   DIG COMPANY NAME
LDAT.                      09/22/1973:   DATE LOGGED
ELD .F                        93.0000:   LOG DATUM ELEVATION
TDD .F                     13136.0000:   TOTAL DEPTH DRILLER
TDL .F                     13126.0000:   TOTAL DEPTH LOGGER
BOTL.F                     13125.0000:   BOTTOM DEPTH LOGGED
TOPL.F                      9343.0000:   TOP DEPTH LOGGED
CS1 .IN                        9.6250:   CASING SIZE 1
BS1 .IN                        8.5000:   BIT SIZE 1
DDB1.F                     13136.0000:   DEPTH DRILLED BIT 1
BHF .                              99:   FLUID CODE
DPT .                   Miscellaneous:   DRILLING FLUID TYPE
MUDD.                         16.5000:   FLUID DENSITY
MUDV.                         46.0000:   FLUID VISCOSITY
DFPH.                         11.0000:   FLUID PH
FL  .                          2.2000:   FLUID LOSS
RM  .OHMM                       .6100:   RM
RMT .DEGF                     80.0000:   RM TEMP
RMF .OHMM                       .2300:   RMF
RMFT.DEGF                     80.0000:   RMF TEMP
FSC .                               M:   RMF CODE
RMC .OHMM                      1.0000:   RMC
RMCT.DEGF                     80.0000:   RMC TEMP
CMC .                               M:   RMC CODE
TMAX.DEGF                    232.0000:   MAX REC TEMP
TIMC.                          7.0000:   TIME SINCE CIRCLN
~PARAMETER INFORMATION (zones)
#MNEM.UNIT                       Value     Description
#=========                       =====     ===========
#ZONATION                        SONIC:   ZONATION NAME
#ZONE                            RUN_1:   ZONE NAME
TOP .                       9343.0000:   TOP DEPTH
BOT .                      13014.5000:   BOTTOM DEPTH
RUN .                               1:   RUN NUMBER
LCCD.                             440:   LOGGING CONTRACTOR
SRVC.                    Schlumberger:   LOGGING CONT NAME
DICO.          QC Data Collectors Ltd:   DIG COMPANY NAME
LDAT.                      09/22/1973:   DATE LOGGED
ELD .F                        93.0000:   LOG DATUM ELEVATION
TDD .F                     13136.0000:   TOTAL DEPTH DRILLER
TDL .F                     13126.0000:   TOTAL DEPTH LOGGER
BOTL.F                     13014.0000:   BOTTOM DEPTH LOGGED
TOPL.F                      9343.0000:   TOP DEPTH LOGGED
CS1 .IN                        9.6250:   CASING SIZE 1
BS1 .IN                        8.5000:   BIT SIZE 1
DDB1.F                     13136.0000:   DEPTH DRILLED BIT 1
BHF .                              99:   FLUID CODE
DPT .                   Miscellaneous:   DRILLING FLUID TYPE
MUDD.                         16.5000:   FLUID DENSITY
MUDV.                         46.0000:   FLUID VISCOSITY
DFPH.                         11.0000:   FLUID PH
FL  .                          2.2000:   FLUID LOSS
RM  .OHMM                       .6100:   RM
RMT .DEGF                     80.0000:   RM TEMP
RMF .OHMM                       .2400:   RMF
RMFT.DEGF                     80.0000:   RMF TEMP
FSC .                               M:   RMF CODE
RMC .OHMM                      1.0000:   RMC
RMCT.DEGF                     80.0000:   RMC TEMP
CMC .                               M:   RMC CODE
TMAX.DEGF                    232.0000:   MAX REC TEMP
TIMC.                          6.0000:   TIME SINCE CIRCLN
~Curve Information Block
#MNEM.UNIT                    API CODE    No Description
#=========                    ========    == ===========
DEPT.F                   00 001 00 00:     1  DEPTH
ASN.OHMM                             :     2  Short-Normal Resistivity
ILD.OHMM                             :     3  Deep Induction Resistivity
SP.MV                                :     4  Spontaneous Potential
CALI.IN                              :     5  Caliper
DT.US/F                              :     6  Sonic Transit Time
~ASCII
# ...
 4129.0000      .9158      .6455   -87.1606  -999.2500  -999.2500
 4129.5000      .8931      .6522   -85.7780  -999.2500  -999.2500
 4130.0000      .8687      .6587   -83.8258  -999.2500  -999.2500
 4130.5000      .8395      .6635   -81.6096  -999.2500  -999.2500
 4131.0000      .8079      .6682   -79.9843  -999.2500  -999.2500
 4131.5000      .7779      .6709   -78.6180  -999.2500  -999.2500
 4132.0000      .7515      .6698   -76.6893  -999.2500  -999.2500
 4132.5000      .7270      .6684   -73.8687  -999.2500  -999.2500
 4133.0000      .7069      .6649   -71.1696  -999.2500  -999.2500
 4133.5000      .6913      .6638   -69.8250  -999.2500  -999.2500
 4134.0000      .6777      .6649   -68.9226  -999.2500  -999.2500
 4134.5000      .6682      .6656   -68.2310  -999.2500  -999.2500
 4135.0000      .6616      .6662   -67.8489  -999.2500  -999.2500
 4135.5000      .6581      .6663   -67.5352  -999.2500  -999.2500
 4136.0000      .6548      .6652   -67.3990  -999.2500  -999.2500
 4136.5000      .6558      .6636   -67.3367  -999.2500  -999.2500
 4137.0000      .6569      .6597   -67.3060  -999.2500  -999.2500
 4137.5000      .6588      .6581   -67.0933  -999.2500  -999.2500
 4138.0000      .6614      .6576   -66.8953  -999.2500  -999.2500
 4138.5000      .6654      .6588   -66.7349  -999.2500  -999.2500
 4139.0000      .6702      .6597   -66.6667  -999.2500  -999.2500
 4139.5000      .6744      .6603   -66.7241  -999.2500  -999.2500
 4140.0000      .6785      .6612   -66.6826  -999.2500  -999.2500
 4140.5000      .6806      .6638   -66.5856  -999.2500  -999.2500
 4141.0000      .6819      .6664   -66.4658  -999.2500  -999.2500
 4141.5000      .6822      .6698   -66.2153  -999.2500  -999.2500
 4142.0000      .6814      .6738   -65.9874  -999.2500  -999.2500
 4142.5000      .6849      .6797   -65.8002  -999.2500  -999.2500
 4143.0000      .6887      .6851   -65.8114  -999.2500  -999.2500
 4143.5000      .6997      .6903   -66.0177  -999.2500  -999.2500
 4144.0000      .7104      .6937   -66.3749  -999.2500  -999.2500
 4144.5000      .7188      .6961   -66.9520  -999.2500  -999.2500
 4145.0000      .7189      .6979   -67.6885  -999.2500  -999.2500
 4145.5000      .7122      .6988   -68.1993  -999.2500  -999.2500
 4146.0000      .7167      .7002   -68.4454  -999.2500  -999.2500
 4146.5000      .7159      .7037   -68.3231  -999.2500  -999.2500
 4147.0000      .7096      .7080   -67.5491  -999.2500  -999.2500
 4147.5000      .7027      .7132   -66.9514  -999.2500  -999.2500
 4148.0000      .6972      .7190   -66.8755  -999.2500  -999.2500
 4148.5000      .7001      .7251   -66.6495  -999.2500  -999.2500
 4149.0000      .7041      .7291   -66.2843  -999.2500  -999.2500
 4149.5000      .7032      .7300   -65.8033  -999.2500  -999.2500
 4150.0000      .7017      .7312   -65.3975  -999.2500  -999.2500
 4150.5000      .7014      .7327   -65.2115  -999.2500  -999.2500
 4151.0000      .7053      .7319   -65.0270  -999.2500  -999.2500
 4151.5000      .7114      .7325   -64.8452  -999.2500  -999.2500
 4152.0000      .7184      .7366   -64.6631  -999.2500  -999.2500
 4152.5000      .7261      .7366   -64.4673  -999.2500  -999.2500
 4153.0000      .7351      .7352   -64.6940  -999.2500  -999.2500
 4153.5000      .7407      .7319   -65.7487  -999.2500  -999.2500
 4154.0000      .7425      .7278   -66.6283  -999.2500  -999.2500
 4154.5000      .7360      .7225   -66.7239  -999.2500  -999.2500
 4155.0000      .7288      .7158   -66.4155  -999.2500  -999.2500
 4155.5000      .7290      .7081   -65.9539  -999.2500  -999.2500
 4156.0000      .7401      .7012   -65.5809  -999.2500  -999.2500
 4156.5000      .7590      .6983   -65.8291  -999.2500  -999.2500
 4157.0000      .7784      .6955   -66.5300  -999.2500  -999.2500
 4157.5000      .8003      .6985   -67.7456  -999.2500  -999.2500
 4158.0000      .8353      .7019   -69.2764  -999.2500  -999.2500
 4158.5000      .8519      .7070   -70.2119  -999.2500  -999.2500
 4159.0000      .8470      .7119   -70.9263  -999.2500  -999.2500
 4159.5000      .8546      .7167   -71.9362  -999.2500  -999.2500
 4160.0000      .8709      .7279   -73.2777  -999.2500  -999.2500
 4160.5000      .8918      .7169   -74.8625  -999.2500  -999.2500
 4161.0000      .9149      .7109   -76.5125  -999.2500  -999.2500
 4161.5000      .9360      .7200   -78.0615  -999.2500  -999.2500
 4162.0000      .9282      .7275   -79.3884  -999.2500  -999.2500
 4162.5000      .9142      .7212   -80.2361  -999.2500  -999.2500
 4163.0000      .9061      .7164   -81.1127  -999.2500  -999.2500
 4163.5000      .8897      .7128   -80.9950  -999.2500  -999.2500
 4164.0000      .8669      .7094   -80.1071  -999.2500  -999.2500
 4164.5000      .8441      .6988   -78.6156  -999.2500  -999.2500
 4165.0000      .8235      .6863   -77.1255  -999.2500  -999.2500
 4165.5000      .8068      .6825   -75.7446  -999.2500  -999.2500
 4166.0000      .7977      .6810   -74.3784  -999.2500  -999.2500
 4166.5000      .7952      .6786   -73.2297  -999.2500  -999.2500
 4167.0000      .7917      .6714   -72.3428  -999.2500  -999.2500
 4167.5000      .7846      .6549   -71.8250  -999.2500  -999.2500
 4168.0000      .7720      .6313   -72.0509  -999.2500  -999.2500
 4168.5000      .7594      .6225   -71.9532  -999.2500  -999.2500
 4169.0000      .7488      .6185   -71.3381  -999.2500  -999.2500
 4169.5000      .7373      .6157   -71.4232  -999.2500  -999.2500
 4170.0000      .7258      .6179   -71.8446  -999.2500  -999.2500
 4170.5000      .7145      .6198   -71.6921  -999.2500  -999.2500
 4171.0000      .7079      .6202   -71.2374  -999.2500  -999.2500
 4171.5000      .7310      .6192   -71.1793  -999.2500  -999.2500
 4172.0000      .8198      .6167   -75.3208  -999.2500  -999.2500
 4172.5000      .8786      .6109   -83.3799  -999.2500  -999.2500
 4173.0000      .9120      .5992   -91.7461  -999.2500  -999.2500
 4173.5000      .9219      .5837   -94.8789  -999.2500  -999.2500
 4174.0000      .8865      .5721   -96.1129  -999.2500  -999.2500
 4174.5000      .8312      .5506   -94.8113  -999.2500  -999.2500
 4175.0000      .7803      .5223   -91.7904  -999.2500  -999.2500
 4175.5000      .7440      .5017   -87.8444  -999.2500  -999.2500
 4176.0000      .7294      .4888   -85.8167  -999.2500  -999.2500
 4176.5000      .7430      .4773   -85.4143  -999.2500  -999.2500
 4177.0000      .8011      .4688   -90.7363  -999.2500  -999.2500
 4177.5000      .8643      .4734   -97.2573  -999.2500  -999.2500
 4178.0000      .8874      .5052  -102.0632  -999.2500  -999.2500
 4178.5000      .9221      .5579  -104.7169  -999.2500  -999.2500
 4179.0000     1.0077      .6021  -107.2599  -999.2500  -999.2500
 4179.5000     1.1129      .6365  -109.4958  -999.2500  -999.2500
 4180.0000     1.2088      .6698  -111.3018  -999.2500  -999.2500
 4180.5000     1.3029      .6975  -112.6704  -999.2500  -999.2500
 4181.0000     1.4066      .7042  -113.3571  -999.2500  -999.2500
 4181.5000     1.4855      .6970  -113.6346  -999.2500  -999.2500
 4182.0000     1.5328      .6872  -113.5959  -999.2500  -999.2500
 4182.5000     1.5472      .6674  -113.2239  -999.2500  -999.2500
 4183.0000     1.5376      .6421  -112.7511  -999.2500  -999.2500
 4183.5000     1.5338      .6235  -112.4241  -999.2500  -999.2500
 4184.0000     1.5176      .6096  -112.1697  -999.2500  -999.2500
 4184.5000     1.4314      .5984  -112.0968  -999.2500  -999.2500
 4185.0000     1.3970      .5947  -112.0240  -999.2500  -999.2500
 4185.5000     1.3836      .6034  -112.0505  -999.2500  -999.2500
 4186.0000     1.3711      .6228  -112.0797  -999.2500  -999.2500
 4186.5000     1.3376      .6514  -112.1880  -999.2500  -999.2500
 4187.0000     1.2928      .6845  -112.3363  -999.2500  -999.2500
 4187.5000     1.2573      .7234  -112.4506  -999.2500  -999.2500
 4188.0000     1.2365      .7571  -112.5457  -999.2500  -999.2500
 4188.5000     1.2322      .7792  -112.3372  -999.2500  -999.2500
 4189.0000     1.2627      .8064  -112.0254  -999.2500  -999.2500
 4189.5000     1.3075      .8299  -111.2059  -999.2500  -999.2500
