~VERSION INFORMATION
VERS.                             2.0:   CWLS Log ASCII Standard-VERSION 2.0
WRAP.                              NO:   One line per depth step
~Well Information Block
STRT.F                      3012.0000:   Top Depth
STOP.F                      9049.0000:   Bottom Depth
STEP.F                         .50000:   Depth Increment
NULL.                        -999.250:   Null Value
FLD .                      GA BLK 210:   Field Name
WELL.       OCSG01759   002 ST00 BP00:   NAME
API .                  42706400060000:   WELL API
R1  .                      TEXACO INC:   COMMENT  1
EDF .F                        74.0000:   ELEV DRILL FLOOR
COMP.                      TEXACO INC:   OPERATOR
BN  .                             210:   BLOCK
CTRY.                             USA:   COUNTRY NAME
CNTY.                              GA:   COUNTY
CNTY.                        GLVSTN L:   COUNTY NAME
EKB .F                        75.0000:   ELEV KELLY BUSHING
TDD .F                       9050.000:   FINAL TD DRILLER
STAT.                           TEXAS:   STATE NAME
UWI .                  42706400060000:   WELL API
DICO.               IHS : Digitizing Company
~PARAMETER INFORMATION (zones)
#MNEM.UNIT                       Value     Description
#=========                       =====     ===========
#ZONATION                           IE:   ZONATION NAME
#ZONE                            RUN_2:   ZONE NAME
TOP .                       9049.0000:   TOP DEPTH
BOT .                       9050.0000:   BOTTOM DEPTH
RUN .                               2:   RUN NUMBER
LCCD.                             440:   LOGGING CONTRACTOR
SRVC.                    Schlumberger:   LOGGING CONT NAME
DICO.          QC Data Collectors Ltd:   DIG COMPANY NAME
LDAT.                      11/07/1971:   DATE LOGGED
ELD .F                        75.0000:   LOG DATUM ELEVATION
TDD .F                      9050.0000:   TOTAL DEPTH DRILLER
TDL .F                      9050.0000:   TOTAL DEPTH LOGGER
BOTL.F                      9049.0000:   BOTTOM DEPTH LOGGED
TOPL.F                      7103.0000:   TOP DEPTH LOGGED
CS1 .IN                        9.6250:   CASING SIZE 1
BS1 .IN                        8.6250:   BIT SIZE 1
DDB1.F                      9050.0000:   DEPTH DRILLED BIT 1
BHF .                              99:   FLUID CODE
DPT .                   Miscellaneous:   DRILLING FLUID TYPE
MUDD.                         15.0000:   FLUID DENSITY
MUDV.                         45.0000:   FLUID VISCOSITY
DFPH.                         10.5000:   FLUID PH
FL  .                          4.0000:   FLUID LOSS
RM  .OHMM                       .7700:   RM
RMT .DEGF                    100.0000:   RM TEMP
RMF .OHMM                       .5300:   RMF
RMFT.DEGF                     77.0000:   RMF TEMP
FSC .                               M:   RMF CODE
RMC .OHMM                      1.4300:   RMC
RMCT.DEGF                     75.0000:   RMC TEMP
CMC .                               M:   RMC CODE
TMAX.DEGF                    194.0000:   MAX REC TEMP
TIMC.                          4.0000:   TIME SINCE CIRCLN
~PARAMETER INFORMATION (zones)
#MNEM.UNIT                       Value     Description
#=========                       =====     ===========
#ZONATION                           IE:   ZONATION NAME
#ZONE                            RUN_1:   ZONE NAME
TOP .                       3012.0000:   TOP DEPTH
BOT .                       9049.5000:   BOTTOM DEPTH
RUN .                               1:   RUN NUMBER
LCCD.                             440:   LOGGING CONTRACTOR
SRVC.                    Schlumberger:   LOGGING CONT NAME
DICO.          QC Data Collectors Ltd:   DIG COMPANY NAME
LDAT.                      10/28/1971:   DATE LOGGED
ELD .F                        75.0000:   LOG DATUM ELEVATION
TDD .F                      7115.0000:   TOTAL DEPTH DRILLER
TDL .F                      7061.0000:   TOTAL DEPTH LOGGER
BOTL.F                      7060.0000:   BOTTOM DEPTH LOGGED
TOPL.F                      3012.0000:   TOP DEPTH LOGGED
CS1 .IN                       13.3750:   CASING SIZE 1
BS1 .IN                       12.2500:   BIT SIZE 1
DDB1.F                      7115.0000:   DEPTH DRILLED BIT 1
BHF .                              11:   FLUID CODE
DPT .         Caustic (high PH) (CLS):   DRILLING FLUID TYPE
MUDD.                         10.5000:   FLUID DENSITY
MUDV.                         40.0000:   FLUID VISCOSITY
DFPH.                          9.0000:   FLUID PH
FL  .                          4.4000:   FLUID LOSS
RM  .OHMM                       .9400:   RM
RMT .DEGF                     96.0000:   RM TEMP
RMF .OHMM                       .7600:   RMF
RMFT.DEGF                     96.0000:   RMF TEMP
FSC .                               M:   RMF CODE
RMC .OHMM                      1.2600:   RMC
RMCT.DEGF                     96.0000:   RMC TEMP
CMC .                               M:   RMC CODE
TMAX.DEGF                    155.0000:   MAX REC TEMP
TIMC.                          4.0000:   TIME SINCE CIRCLN
~PARAMETER INFORMATION (zones)
#MNEM.UNIT                       Value     Description
#=========                       =====     ===========
#ZONATION                        SONIC:   ZONATION NAME
#ZONE                            RUN_1:   ZONE NAME
TOP .                       3012.0000:   TOP DEPTH
BOT .                       9049.5000:   BOTTOM DEPTH
RUN .                               1:   RUN NUMBER
LCCD.                             440:   LOGGING CONTRACTOR
SRVC.                    Schlumberger:   LOGGING CONT NAME
DICO.          QC Data Collectors Ltd:   DIG COMPANY NAME
LDAT.                      10/28/1971:   DATE LOGGED
ELD .F                        75.0000:   LOG DATUM ELEVATION
TDD .F                      7115.0000:   TOTAL DEPTH DRILLER
TDL .F                      7060.0000:   TOTAL DEPTH LOGGER
BOTL.F                      7050.0000:   BOTTOM DEPTH LOGGED
TOPL.F                      3012.0000:   TOP DEPTH LOGGED
CS1 .IN                       13.3750:   CASING SIZE 1
BS1 .IN                       12.2500:   BIT SIZE 1
DDB1.F                      7115.0000:   DEPTH DRILLED BIT 1
BHF .                              11:   FLUID CODE
DPT .         Caustic (high PH) (CLS):   DRILLING FLUID TYPE
MUDD.                         10.5000:   FLUID DENSITY
MUDV.                         40.0000:   FLUID VISCOSITY
DFPH.                          9.0000:   FLUID PH
FL  .                          4.4000:   FLUID LOSS
RM  .OHMM                       .9400:   RM
RMT .DEGF                     96.0000:   RM TEMP
RMF .OHMM                       .7600:   RMF
RMFT.DEGF                     96.0000:   RMF TEMP
FSC .                               M:   RMF CODE
RMC .OHMM                      1.2600:   RMC
RMCT.DEGF                     96.0000:   RMC TEMP
CMC .                               M:   RMC CODE
TMAX.DEGF                    155.0000:   MAX REC TEMP
TIMC.                          6.0000:   TIME SINCE CIRCLN
~Curve Information Block
#MNEM.UNIT                    API CODE    No Description
#=========                    ========    == ===========
DEPT.F                   00 001 00 00:     1  DEPTH
ASN.OHMM                             :     2  Short-Normal Resistivity
CILD.MMHO                            :     3  Deep Induction Conductivity
ILD.OHMM                             :     4  Deep Induction Resistivity
SP.MV                                :     5  Spontaneous Potential
CALI.IN                              :     6  Caliper
DT.US/F                              :     7  Sonic Transit Time
SP.MV                                :     8  Spontaneous Potential
~ASCII
# ...
 5833.0000      .6026  3784.8320      .4085  -124.2565    12.9728   100.8236  -150.8210
 5833.5000      .6116  3779.0742      .4270  -124.2959    12.9736   101.1084  -150.7969
 5834.0000      .6148  3760.3398      .4454  -124.0643    12.9726   101.3163  -150.1902
 5834.5000      .6180  3675.1563      .4638  -122.9977    12.9678   100.8545  -149.9429
 5835.0000      .6209  3514.6367      .4821  -121.3746    12.9631   100.3927  -150.3086
 5835.5000      .6291  3365.9023      .5005  -118.4929    12.9615    99.9308  -150.6746
 5836.0000      .6454  3082.5273      .5189  -111.8014    12.9930    99.5111  -151.0403
 5836.5000      .7743  2799.1562      .5235  -108.1437    13.0244    99.1178  -149.6682
 5837.0000     1.3083  2515.7812      .5250  -108.6239    13.0558    98.8856  -144.5120
 5837.5000     1.6437  2404.5938      .5093  -109.5197    13.0883    99.0261  -139.0554
 5838.0000     1.7690  2396.1641      .4835  -110.5988    13.1213    99.1664  -136.4941
 5838.5000     1.8944  2418.5820      .4576  -111.6528    13.1543    98.1768  -134.4326
 5839.0000     1.6657  2458.9766      .4359  -112.5436    13.1836    94.7512  -133.3826
 5839.5000     1.3259  2687.0430      .4180  -116.5120    13.1483    91.1753  -139.7883
 5840.0000      .9856  3153.8711      .4002  -117.8441    13.1129    83.7083  -144.0364
 5840.5000      .6648  3574.0391      .3823  -117.9481    13.0775    76.7842  -145.0730
 5841.0000      .6177  3619.2500      .3746  -117.6412    13.0421    92.3002  -144.5596
 5841.5000      .6055  3611.5078      .4091  -116.4496    13.0067    99.9224  -144.0466
 5842.0000      .6088  3472.3203      .4436  -114.4386    13.0023   103.1031  -143.6592
 5842.5000      .6158  3207.0313      .4835  -110.5887    13.0093   102.2557  -143.3792
 5843.0000      .6284  2984.4063      .5345  -103.7150    13.0163   101.2800  -142.2632
 5843.5000      .6461  2761.9844      .5854  -100.1198    13.0233   100.3745  -125.9872
 5844.0000      .6606  2539.3633      .6364   -72.3752    13.0303    99.7241  -120.5619
 5844.5000      .6701  2316.9375      .6831   -68.2734    13.0379   100.6593  -101.6044
 5845.0000      .6792  1627.4961      .7271   -64.1766    13.0457   106.4839   -93.1035
 5845.5000      .7149  1535.0703      .7712   -60.2607    13.0535   107.4463   -84.4105
 5846.0000      .7399  1444.7422      .8143   -58.9570    13.0612   108.5930   -79.6099
 5846.5000      .7588  1226.7148      .8496   -57.6547    13.0690   109.7058   -76.8431
 5847.0000      .7750  1190.0449      .8850   -57.2797    13.0731   110.3452   -75.8710
 5847.5000      .7870  1164.0645      .9134   -57.0513    13.0764   110.8022   -75.7529
 5848.0000      .7973  1167.3496      .9381   -56.9762    13.0798   111.2587   -75.6350
 5848.5000      .8147  1203.1348      .9079   -57.0917    13.0791   111.8466   -75.1793
 5849.0000      .8279  1262.4375      .8038   -58.0015    13.0727   112.6266   -74.7045
 5849.5000      .8284  1349.9160      .7138   -59.3912    13.0663   113.4072   -74.8730
 5850.0000      .8157  1476.2656      .5933   -62.5574    13.0599   113.6802   -75.4226
 5850.5000      .7711  1847.1211      .5382   -67.0359    13.0660   113.0842   -75.9926
 5851.0000      .7309  1954.1855      .4884   -73.6925    13.0750   112.3539   -76.3047
 5851.5000      .6997  2276.5000      .4641   -80.4042    13.0839   111.6235   -78.6176
 5852.0000      .6725  2739.0000      .4398   -87.1107    13.0854   111.2676   -85.2467
 5852.5000      .6475  2932.1484      .4155   -93.8173    13.0749   111.2473   -89.5283
 5853.0000      .6235  3237.0078      .4036  -100.5089    13.0643   111.0837   -97.6014
 5853.5000      .6017  3361.2578      .3970  -107.2056    13.0538   110.8317  -105.6169
 5854.0000      .5789  3391.0820      .3904   -99.9401    13.0433   110.2301  -125.5979
 5854.5000      .5529  3321.0898      .3964   -89.2115    13.0409   109.4756  -134.4976
 5855.0000      .4924  3270.1797      .4134   -81.2974    13.0431   108.7209  -136.7332
 5855.5000      .4665  3232.6836      .4303   -76.8662    13.0454   108.6614  -119.7642
 5856.0000      .4572  3196.6367      .4413   -72.8342    13.0476   111.5205  -111.9889
 5856.5000      .4633  3171.4336      .4390   -80.3593    13.0499   114.7400  -100.7778
 5857.0000      .4774  3149.8008      .4307   -87.8842    13.0475   118.3572   -97.4020
 5857.5000      .4896  3173.4805      .4100   -95.4092    13.0405   119.4694   -95.3333
 5858.0000      .5017  3214.5234      .3893  -102.9341    13.0336   120.0300   -93.5541
 5858.5000      .4956  3670.6602      .3687  -110.4590    13.0266   116.9073  -113.1134
 5859.0000      .4640  4226.6094      .3480  -119.2888    13.0196   112.0295  -126.4244
 5859.5000      .4224  4513.5781      .3329  -121.8862    13.0126   109.4877  -139.4182
 5860.0000      .3915  4848.5859      .3354  -123.5868    13.0172   108.4536  -141.9050
 5860.5000      .3681  4931.5469      .3380  -123.8728    13.0219   107.6267  -143.8826
 5861.0000      .3544  4982.4297      .3461  -123.5441    13.0267   108.2719  -145.4324
 5861.5000      .3707  4948.8828      .3610  -122.6783    13.0314   110.2089  -146.6890
 5862.0000      .3865  4881.0859      .3759  -121.6816    13.0361   111.6260  -147.7004
 5862.5000      .4022  3887.8867      .3908  -120.6411    13.0379   112.4963  -148.2207
 5863.0000      .4179  3668.0625      .4057  -119.5983    13.0323   113.2793  -148.2292
 5863.5000      .4376  3582.9297      .4183  -118.5428    13.0267   111.7072  -148.0464
 5864.0000      .4576  3475.9141      .4228  -118.0498    13.0211   109.7653  -147.2920
 5864.5000      .4841  3421.0586      .4272  -117.8885    13.0156   107.4064  -146.5369
 5865.0000      .5107  3318.1406      .4317  -118.6945    13.0100   104.9044  -145.7561
 5865.5000      .5372  3130.0430      .4362  -123.2546    13.0113   102.3636  -144.9248
 5866.0000      .5629  3144.5313      .4380  -124.6656    13.0147   100.1466  -145.1284
 5866.5000      .5457  3184.8984      .4312  -125.6096    13.0181    99.7478  -147.9336
 5867.0000      .4685  3227.2148      .4244  -126.0286    13.0214   100.9818  -151.4104
 5867.5000      .4370  3424.0586      .4176  -125.2295    13.0248   101.2800  -153.4683
 5868.0000      .4207  3523.0781      .4108  -124.2015    13.0277    99.6180  -153.9175
 5868.5000      .4103  3716.2227      .4040  -123.6028    13.0238    97.9574  -154.6406
 5869.0000      .4045  3878.7930      .3977  -123.0494    13.0200    96.6143  -155.9802
 5869.5000      .3998  3968.7734      .3967  -122.4956    13.0162    95.3597  -152.9648
 5870.0000      .3951  4060.7188      .3957  -122.0867    13.0124    98.6908  -149.5698
 5870.5000      .3904  4054.2227      .3946  -121.9071    13.0085   100.9526  -148.3877
 5871.0000      .3866  4015.1289      .3936  -121.7274    13.0047   102.6412  -147.2056
 5871.5000      .3834  3998.0313      .3926  -120.4229    13.0013   103.6655  -146.5959
 5872.0000      .3803  3997.6797      .3934  -118.2235    13.0084   104.4353  -146.7886
 5872.5000      .3772  3997.3281      .3957  -114.6307    13.0156   105.2111  -147.7390
 5873.0000      .3741  3996.9766      .3980  -112.6771    13.0228   106.5323  -144.8293
 5873.5000      .3710  3996.6250      .4004  -108.3632    13.0300   108.1700  -137.5537
 5874.0000      .3682  3996.2734      .4027  -104.0469    13.0371   109.6913  -132.8350
 5874.5000      .3661  3995.9219      .4051  -107.9391    13.0428   110.7544  -128.7839
 5875.0000      .3744  3878.4961      .4091  -112.6097    13.0390   108.8076  -124.7041
 5875.5000      .3883  3788.0664      .4143  -117.1007    13.0353   106.5457  -123.7935
 5876.0000      .4048  3715.7266      .4196  -118.0420    13.0316   104.3286  -128.5388
 5876.5000      .4222  3484.4570      .4249  -117.5817    13.0278   103.4570  -133.1233
 5877.0000      .4395  3427.4531      .4301  -117.3444    13.0242   102.5842  -140.1392
 5877.5000      .4569  3262.6836      .4338  -117.9116    13.0312   101.7806  -145.3650
 5878.0000      .4771  3198.9844      .4364  -119.1205    13.0382    97.2264  -145.1375
