~VERSION INFORMATION
VERS.                             2.0:   CWLS Log ASCII Standard-VERSION 2.0
WRAP.                              NO:   One line per depth step
~Well Information Block
STRT.F                      2726.0000:   Top Depth
STOP.F                     13125.0000:   Bottom Depth
STEP.F                         .50000:   Depth Increment
NULL.                        -999.250:   Null Value
FLD .                      GA BLK 255:   Field Name
WELL.       OCSG01777  A007 ST00 BP00:   NAME
API .                  42706400190000:   WELL API
EDF .F                        92.0000:   ELEV DRILL FLOOR
COMP.       COASTAL STATES GAS PROD C:   OPERATOR
BN  .                             255:   BLOCK
CTRY.                             USA:   COUNTRY NAME
CNTY.                              GA:   COUNTY
CNTY.                        GLVSTN L:   COUNTY NAME
EKB .F                        93.0000:   ELEV KELLY BUSHING
TDD .F                      13136.000:   FINAL TD DRILLER
STAT.                           TEXAS:   STATE NAME
UWI .                  42706400190000:   WELL API
DICO.               IHS : Digitizing Company
~PARAMETER INFORMATION (zones)
#MNEM.UNIT                       Value     Description
#=========                       =====     ===========
#ZONATION                           IE:   ZONATION NAME
#ZONE                            RUN_1:   ZONE NAME
TOP .                       2726.0000:   TOP DEPTH
BOT .                       8780.5000:   BOTTOM DEPTH
RUN .                               1:   RUN NUMBER
LCCD.                             440:   LOGGING CONTRACTOR
SRVC.                    Schlumberger:   LOGGING CONT NAME
DICO.          QC Data Collectors Ltd:   DIG COMPANY NAME
LDAT.                      09/02/1973:   DATE LOGGED
ELD .F                        93.0000:   LOG DATUM ELEVATION
TDD .F                      8829.0000:   TOTAL DEPTH DRILLER
TDL .F                      8822.0000:   TOTAL DEPTH LOGGER
BOTL.F                      8821.0000:   BOTTOM DEPTH LOGGED
TOPL.F                      2726.0000:   TOP DEPTH LOGGED
CS1 .IN                       13.6250:   CASING SIZE 1
BS1 .IN                       12.2500:   BIT SIZE 1
DDB1.F                      8829.0000:   DEPTH DRILLED BIT 1
BHF .                              81:   FLUID CODE
DPT .          Lignosulfonate (Ligno):   DRILLING FLUID TYPE
MUDD.                         12.2000:   FLUID DENSITY
MUDV.                         44.0000:   FLUID VISCOSITY
DFPH.                         10.5000:   FLUID PH
FL  .                          2.0000:   FLUID LOSS
RM  .OHMM                       .9600:   RM
RMT .DEGF                     74.0000:   RM TEMP
RMF .OHMM                       .5900:   RMF
RMFT.DEGF                     71.0000:   RMF TEMP
FSC .                               M:   RMF CODE
RMC .OHMM                      1.8100:   RMC
RMCT.DEGF                     71.0000:   RMC TEMP
CMC .                               M:   RMC CODE
TMAX.DEGF                    160.0000:   MAX REC TEMP
TIMC.                         24.0000:   TIME SINCE CIRCLN
~PARAMETER INFORMATION (zones)
#MNEM.UNIT                       Value     Description
#=========                       =====     ===========
#ZONATION                           IE:   ZONATION NAME
#ZONE                            RUN_2:   ZONE NAME
TOP .                       8780.0000:   TOP DEPTH
BOT .                       9333.5000:   BOTTOM DEPTH
RUN .                               2:   RUN NUMBER
LCCD.                             440:   LOGGING CONTRACTOR
SRVC.                    Schlumberger:   LOGGING CONT NAME
DICO.          QC Data Collectors Ltd:   DIG COMPANY NAME
LDAT.                      09/09/1973:   DATE LOGGED
ELD .F                        93.0000:   LOG DATUM ELEVATION
TDD .F                      9340.0000:   TOTAL DEPTH DRILLER
TDL .F                      9334.0000:   TOTAL DEPTH LOGGER
BOTL.F                      9333.0000:   BOTTOM DEPTH LOGGED
TOPL.F                      8821.0000:   TOP DEPTH LOGGED
CS1 .IN                       13.3750:   CASING SIZE 1
BS1 .IN                       12.2500:   BIT SIZE 1
DDB1.F                      9340.0000:   DEPTH DRILLED BIT 1
BHF .                              99:   FLUID CODE
DPT .                   Miscellaneous:   DRILLING FLUID TYPE
MUDD.                         12.3000:   FLUID DENSITY
MUDV.                         46.0000:   FLUID VISCOSITY
DFPH.                         10.5000:   FLUID PH
FL  .                          3.2000:   FLUID LOSS
RM  .OHMM                       .6500:   RM
RMT .DEGF                     82.0000:   RM TEMP
RMF .OHMM                       .5000:   RMF
RMFT.DEGF                     82.0000:   RMF TEMP
FSC .                               M:   RMF CODE
RMC .OHMM                       .9600:   RMC
RMCT.DEGF                     82.0000:   RMC TEMP
CMC .                               M:   RMC CODE
TMAX.DEGF                    160.0000:   MAX REC TEMP
TIMC.                          4.0000:   TIME SINCE CIRCLN
~PARAMETER INFORMATION (zones)
#MNEM.UNIT                       Value     Description
#=========                       =====     ===========
#ZONATION                           IE:   ZONATION NAME
#ZONE                            RUN_3:   ZONE NAME
TOP .                       9343.0000:   TOP DEPTH
BOT .                      13125.5000:   BOTTOM DEPTH
RUN .                               3:   RUN NUMBER
LCCD.                             440:   LOGGING CONTRACTOR
SRVC.                    Schlumberger:   LOGGING CONT NAME
DICO.          QC Data Collectors Ltd:   DIG COMPANY NAME
LDAT.                      09/22/1973:   DATE LOGGED
ELD .F                        93.0000:   LOG DATUM ELEVATION
TDD .F                     13136.0000:   TOTAL DEPTH DRILLER
TDL .F                     13126.0000:   TOTAL DEPTH LOGGER
BOTL.F                     13125.0000:   BOTTOM DEPTH LOGGED
TOPL.F                      9343.0000:   TOP DEPTH LOGGED
CS1 .IN                        9.6250:   CASING SIZE 1
BS1 .IN                        8.5000:   BIT SIZE 1
DDB1.F                     13136.0000:   DEPTH DRILLED BIT 1
BHF .                              99:   FLUID CODE
DPT .                   Miscellaneous:   DRILLING FLUID TYPE
MUDD.                         16.5000:   FLUID DENSITY
MUDV.                         46.0000:   FLUID VISCOSITY
DFPH.                         11.0000:   FLUID PH
FL  .                          2.2000:   FLUID LOSS
RM  .OHMM                       .6100:   RM
RMT .DEGF                     80.0000:   RM TEMP
RMF .OHMM                       .2300:   RMF
RMFT.DEGF                     80.0000:   RMF TEMP
FSC .                               M:   RMF CODE
RMC .OHMM                      1.0000:   RMC
RMCT.DEGF                     80.0000:   RMC TEMP
CMC .                               M:   RMC CODE
TMAX.DEGF                    232.0000:   MAX REC TEMP
TIMC.                          7.0000:   TIME SINCE CIRCLN
~PARAMETER INFORMATION (zones)
#MNEM.UNIT                       Value     Description
#=========                       =====     ===========
#ZONATION                        SONIC:   ZONATION NAME
#ZONE                            RUN_1:   ZONE NAME
TOP .                       9343.0000:   TOP DEPTH
BOT .                      13014.5000:   BOTTOM DEPTH
RUN .                               1:   RUN NUMBER
LCCD.                             440:   LOGGING CONTRACTOR
SRVC.                    Schlumberger:   LOGGING CONT NAME
DICO.          QC Data Collectors Ltd:   DIG COMPANY NAME
LDAT.                      09/22/1973:   DATE LOGGED
ELD .F                        93.0000:   LOG DATUM ELEVATION
TDD .F                     13136.0000:   TOTAL DEPTH DRILLER
TDL .F                     13126.0000:   TOTAL DEPTH LOGGER
BOTL.F                     13014.0000:   BOTTOM DEPTH LOGGED
TOPL.F                      9343.0000:   TOP DEPTH LOGGED
CS1 .IN                        9.6250:   CASING SIZE 1
BS1 .IN                        8.5000:   BIT SIZE 1
DDB1.F                     13136.0000:   DEPTH DRILLED BIT 1
BHF .                              99:   FLUID CODE
DPT .                   Miscellaneous:   DRILLING FLUID TYPE
MUDD.                         16.5000:   FLUID DENSITY
MUDV.                         46.0000:   FLUID VISCOSITY
DFPH.                         11.0000:   FLUID PH
FL  .                          2.2000:   FLUID LOSS
RM  .OHMM                       .6100:   RM
RMT .DEGF                     80.0000:   RM TEMP
RMF .OHMM                       .2400:   RMF
RMFT.DEGF                     80.0000:   RMF TEMP
FSC .                               M:   RMF CODE
RMC .OHMM                      1.0000:   RMC
RMCT.DEGF                     80.0000:   RMC TEMP
CMC .                               M:   RMC CODE
TMAX.DEGF                    232.0000:   MAX REC TEMP
TIMC.                          6.0000:   TIME SINCE CIRCLN
~Curve Information Block
#MNEM.UNIT                    API CODE    No Description
#=========                    ========    == ===========
DEPT.F                   00 001 00 00:     1  DEPTH
ASN.OHMM                             :     2  Short-Normal Resistivity
ILD.OHMM                             :     3  Deep Induction Resistivity
SP.MV                                :     4  Spontaneous Potential
CALI.IN                              :     5  Caliper
DT.US/F                              :     6  Sonic Transit Time
~ASCII
# ...
 3397.0000      .7277      .7271   -60.7635  -999.2500  -999.2500
 3397.5000      .7164      .7243   -61.1244  -999.2500  -999.2500
 3398.0000      .7087      .7216   -61.5233  -999.2500  -999.2500
 3398.5000      .7076      .7178   -61.8171  -999.2500  -999.2500
 3399.0000      .7088      .7139   -62.0746  -999.2500  -999.2500
 3399.5000      .7116      .7094   -62.2219  -999.2500  -999.2500
 3400.0000      .7069      .7083   -62.3572  -999.2500  -999.2500
 3400.5000      .7002      .7106   -62.2548  -999.2500  -999.2500
 3401.0000      .6934      .7158   -62.0754  -999.2500  -999.2500
 3401.5000      .6916      .7218   -61.7371  -999.2500  -999.2500
 3402.0000      .6961      .7293   -61.2813  -999.2500  -999.2500
 3402.5000      .7092      .7397   -60.7609  -999.2500  -999.2500
 3403.0000      .7271      .7479   -60.2220  -999.2500  -999.2500
 3403.5000      .7470      .7552   -59.6446  -999.2500  -999.2500
 3404.0000      .7698      .7626   -59.1149  -999.2500  -999.2500
 3404.5000      .7863      .7701   -58.6445  -999.2500  -999.2500
 3405.0000      .7973      .7755   -58.8988  -999.2500  -999.2500
 3405.5000      .8041      .7797   -59.6982  -999.2500  -999.2500
 3406.0000      .8065      .7823   -60.1046  -999.2500  -999.2500
 3406.5000      .8073      .7828   -60.5112  -999.2500  -999.2500
 3407.0000      .8061      .7861   -60.6924  -999.2500  -999.2500
 3407.5000      .8046      .7879   -60.8333  -999.2500  -999.2500
 3408.0000      .7992      .7897   -60.9357  -999.2500  -999.2500
 3408.5000      .7930      .7932   -60.9098  -999.2500  -999.2500
 3409.0000      .7851      .7988   -60.8839  -999.2500  -999.2500
 3409.5000      .7776      .8031   -60.7340  -999.2500  -999.2500
 3410.0000      .7703      .8061   -60.5493  -999.2500  -999.2500
 3410.5000      .7665      .8053   -60.6199  -999.2500  -999.2500
 3411.0000      .7646      .8037   -60.7433  -999.2500  -999.2500
 3411.5000      .7656      .8042   -61.1002  -999.2500  -999.2500
 3412.0000      .7686      .8047   -61.4644  -999.2500  -999.2500
 3412.5000      .7705      .8053   -61.8528  -999.2500  -999.2500
 3413.0000      .7719      .8058   -62.2342  -999.2500  -999.2500
 3413.5000      .7715      .8061   -62.4790  -999.2500  -999.2500
 3414.0000      .7700      .8046   -62.7121  -999.2500  -999.2500
 3414.5000      .7653      .8025   -62.6040  -999.2500  -999.2500
 3415.0000      .7603      .7991   -62.4890  -999.2500  -999.2500
 3415.5000      .7548      .7957   -62.1095  -999.2500  -999.2500
 3416.0000      .7530      .7923   -61.7172  -999.2500  -999.2500
 3416.5000      .7531      .7881   -61.2137  -999.2500  -999.2500
 3417.0000      .7596      .7823   -60.8641  -999.2500  -999.2500
 3417.5000      .7681      .7738   -60.6660  -999.2500  -999.2500
 3418.0000      .7777      .7619   -60.6899  -999.2500  -999.2500
 3418.5000      .7833      .7512   -60.8505  -999.2500  -999.2500
 3419.0000      .7808      .7417   -61.2089  -999.2500  -999.2500
 3419.5000      .7737      .7307   -61.6266  -999.2500  -999.2500
 3420.0000      .7586      .7185   -61.9449  -999.2500  -999.2500
 3420.5000      .7447      .7109   -62.2432  -999.2500  -999.2500
 3421.0000      .7353      .7053   -62.2919  -999.2500  -999.2500
 3421.5000      .7260      .7060   -62.2076  -999.2500  -999.2500
 3422.0000      .7230      .7085   -62.1229  -999.2500  -999.2500
 3422.5000      .7216      .7211   -61.8317  -999.2500  -999.2500
 3423.0000      .7202      .7370   -61.5589  -999.2500  -999.2500
 3423.5000      .7261      .7551   -61.3923  -999.2500  -999.2500
 3424.0000      .7346      .7738   -61.3245  -999.2500  -999.2500
 3424.5000      .7439      .7932   -61.2751  -999.2500  -999.2500
 3425.0000      .7598      .8051   -60.8992  -999.2500  -999.2500
 3425.5000      .7779      .8092   -60.5468  -999.2500  -999.2500
 3426.0000      .7938      .8093   -60.5757  -999.2500  -999.2500
 3426.5000      .8045      .7989   -60.8995  -999.2500  -999.2500
 3427.0000      .8030      .7880   -61.1908  -999.2500  -999.2500
 3427.5000      .7806      .7715   -61.1781  -999.2500  -999.2500
 3428.0000      .7536      .7552   -61.0475  -999.2500  -999.2500
 3428.5000      .7385      .7539   -60.7264  -999.2500  -999.2500
 3429.0000      .7331      .7526   -60.1557  -999.2500  -999.2500
 3429.5000      .7369      .7609   -59.6091  -999.2500  -999.2500
 3430.0000      .7535      .7711   -59.4105  -999.2500  -999.2500
 3430.5000      .7708      .7751   -59.4899  -999.2500  -999.2500
 3431.0000      .7916      .7774   -59.8065  -999.2500  -999.2500
 3431.5000      .8083      .7818   -60.1875  -999.2500  -999.2500
 3432.0000      .8183      .7890   -60.2867  -999.2500  -999.2500
 3432.5000      .8179      .7962   -60.3770  -999.2500  -999.2500
 3433.0000      .8062      .8025   -60.1940  -999.2500  -999.2500
 3433.5000      .7970      .8088   -60.0104  -999.2500  -999.2500
 3434.0000      .7919      .8093   -59.7241  -999.2500  -999.2500
 3434.5000      .8016      .8099   -59.4572  -999.2500  -999.2500
 3435.0000      .8127      .8041   -59.2552  -999.2500  -999.2500
 3435.5000      .8246      .7975   -59.3021  -999.2500  -999.2500
 3436.0000      .8154      .7896   -61.0236  -999.2500  -999.2500
 3436.5000      .8139      .7811   -63.1088  -999.2500  -999.2500
 3437.0000      .8222      .7724   -64.3827  -999.2500  -999.2500
 3437.5000      .8255      .7635   -63.5854  -999.2500  -999.2500
 3438.0000      .8135      .7549   -62.5378  -999.2500  -999.2500
 3438.5000      .7968      .7467   -62.2886  -999.2500  -999.2500
 3439.0000      .7759      .7405   -61.9825  -999.2500  -999.2500
 3439.5000      .7559      .7356   -61.6383  -999.2500  -999.2500
 3440.0000      .7414      .7293   -61.2199  -999.2500  -999.2500
 3440.5000      .7273      .7227   -60.6678  -999.2500  -999.2500
 3441.0000      .7213      .7156   -60.1545  -999.2500  -999.2500
 3441.5000      .7159      .7089   -59.7247  -999.2500  -999.2500
 3442.0000      .7151      .7035   -59.3488  -999.2500  -999.2500
 3442.5000      .7149      .7008   -59.0411  -999.2500  -999.2500
 3443.0000      .7164      .7036   -58.7902  -999.2500  -999.2500
 3443.5000      .7179      .7041   -58.5616  -999.2500  -999.2500
 3444.0000      .7197      .7029   -58.4875  -999.2500  -999.2500
 3444.5000      .7214      .7018   -58.3807  -999.2500  -999.2500
 3445.0000      .7220      .7005   -58.1650  -999.2500  -999.2500
 3445.5000      .7218      .6994   -58.0116  -999.2500  -999.2500
 3446.0000      .7207      .6999   -57.9034  -999.2500  -999.2500
 3446.5000      .7178      .7005   -57.9760  -999.2500  -999.2500
 3447.0000      .7135      .7011   -58.0636  -999.2500  -999.2500
 3447.5000      .7074      .7025   -58.2046  -999.2500  -999.2500
 3448.0000      .7013      .7062   -58.2100  -999.2500  -999.2500
 3448.5000      .7002      .7099   -58.1200  -999.2500  -999.2500
 3449.0000      .7059      .7135   -58.0065  -999.2500  -999.2500
 3449.5000      .7112      .7170   -58.2946  -999.2500  -999.2500
 3450.0000      .7149      .7200   -58.7903  -999.2500  -999.2500
 3450.5000      .7093      .7189   -59.1653  -999.2500  -999.2500
 3451.0000      .6990      .7178   -59.4758  -999.2500  -999.2500
 3451.5000      .6913      .7149   -59.6713  -999.2500  -999.2500
 3452.0000      .6868      .7116   -59.7698  -999.2500  -999.2500
 3452.5000      .6918      .7117   -59.7332  -999.2500  -999.2500
 3453.0000      .6970      .7124   -59.6334  -999.2500  -999.2500
 3453.5000      .6988      .7111   -59.3680  -999.2500  -999.2500
 3454.0000      .6829      .7096   -58.9630  -999.2500  -999.2500
 3454.5000      .6748      .7082   -58.4614  -999.2500  -999.2500
 3455.0000      .6708      .7077   -57.9434  -999.2500  -999.2500
 3455.5000      .6728      .7120   -57.5368  -999.2500  -999.2500
 3456.0000      .6812      .7164   -57.1768  -999.2500  -999.2500
 3456.5000      .6930      .7282   -57.1287  -999.2500  -999.2500
 3457.0000      .7184      .7412   -57.1211  -999.2500  -999.2500
 3457.5000      .7571      .7582   -57.4747  -999.2500  -999.2500
