~VERSION INFORMATION
VERS.                             2.0:   CWLS Log ASCII Standard-VERSION 2.0
WRAP.                              NO:   One line per depth step
~Well Information Block
STRT.F                      3012.0000:   Top Depth
STOP.F                      9049.0000:   Bottom Depth
STEP.F                         .50000:   Depth Increment
NULL.                        -999.250:   Null Value
FLD .                      GA BLK 210:   Field Name
WELL.       OCSG01759   002 ST00 BP00:   NAME
API .                  42706400060000:   WELL API
R1  .                      TEXACO INC:   COMMENT  1
EDF .F                        74.0000:   ELEV DRILL FLOOR
COMP.                      TEXACO INC:   OPERATOR
BN  .                             210:   BLOCK
CTRY.                             USA:   COUNTRY NAME
CNTY.                              GA:   COUNTY
CNTY.                        GLVSTN L:   COUNTY NAME
EKB .F                        75.0000:   ELEV KELLY BUSHING
TDD .F                       9050.000:   FINAL TD DRILLER
STAT.                           TEXAS:   STATE NAME
UWI .                  42706400060000:   WELL API
DICO.               IHS : Digitizing Company
~PARAMETER INFORMATION (zones)
#MNEM.UNIT                       Value     Description
#=========                       =====     ===========
#ZONATION                           IE:   ZONATION NAME
#ZONE                            RUN_2:   ZONE NAME
TOP .                       9049.0000:   TOP DEPTH
BOT .                       9050.0000:   BOTTOM DEPTH
RUN .                               2:   RUN NUMBER
LCCD.                             440:   LOGGING CONTRACTOR
SRVC.                    Schlumberger:   LOGGING CONT NAME
DICO.          QC Data Collectors Ltd:   DIG COMPANY NAME
LDAT.                      11/07/1971:   DATE LOGGED
ELD .F                        75.0000:   LOG DATUM ELEVATION
TDD .F                      9050.0000:   TOTAL DEPTH DRILLER
TDL .F                      9050.0000:   TOTAL DEPTH LOGGER
BOTL.F                      9049.0000:   BOTTOM DEPTH LOGGED
TOPL.F                      7103.0000:   TOP DEPTH LOGGED
CS1 .IN                        9.6250:   CASING SIZE 1
BS1 .IN                        8.6250:   BIT SIZE 1
DDB1.F                      9050.0000:   DEPTH DRILLED BIT 1
BHF .                              99:   FLUID CODE
DPT .                   Miscellaneous:   DRILLING FLUID TYPE
MUDD.                         15.0000:   FLUID DENSITY
MUDV.                         45.0000:   FLUID VISCOSITY
DFPH.                         10.5000:   FLUID PH
FL  .                          4.0000:   FLUID LOSS
RM  .OHMM                       .7700:   RM
RMT .DEGF                    100.0000:   RM TEMP
RMF .OHMM                       .5300:   RMF
RMFT.DEGF                     77.0000:   RMF TEMP
FSC .                               M:   RMF CODE
RMC .OHMM                      1.4300:   RMC
RMCT.DEGF                     75.0000:   RMC TEMP
CMC .                               M:   RMC CODE
TMAX.DEGF                    194.0000:   MAX REC TEMP
TIMC.                          4.0000:   TIME SINCE CIRCLN
~PARAMETER INFORMATION (zones)
#MNEM.UNIT                       Value     Description
#=========                       =====     ===========
#ZONATION                           IE:   ZONATION NAME
#ZONE                            RUN_1:   ZONE NAME
TOP .                       3012.0000:   TOP DEPTH
BOT .                       9049.5000:   BOTTOM DEPTH
RUN .                               1:   RUN NUMBER
LCCD.                             440:   LOGGING CONTRACTOR
SRVC.                    Schlumberger:   LOGGING CONT NAME
DICO.          QC Data Collectors Ltd:   DIG COMPANY NAME
LDAT.                      10/28/1971:   DATE LOGGED
ELD .F                        75.0000:   LOG DATUM ELEVATION
TDD .F                      7115.0000:   TOTAL DEPTH DRILLER
TDL .F                      7061.0000:   TOTAL DEPTH LOGGER
BOTL.F                      7060.0000:   BOTTOM DEPTH LOGGED
TOPL.F                      3012.0000:   TOP DEPTH LOGGED
CS1 .IN                       13.3750:   CASING SIZE 1
BS1 .IN                       12.2500:   BIT SIZE 1
DDB1.F                      7115.0000:   DEPTH DRILLED BIT 1
BHF .                              11:   FLUID CODE
DPT .         Caustic (high PH) (CLS):   DRILLING FLUID TYPE
MUDD.                         10.5000:   FLUID DENSITY
MUDV.                         40.0000:   FLUID VISCOSITY
DFPH.                          9.0000:   FLUID PH
FL  .                          4.4000:   FLUID LOSS
RM  .OHMM                       .9400:   RM
RMT .DEGF                     96.0000:   RM TEMP
RMF .OHMM                       .7600:   RMF
RMFT.DEGF                     96.0000:   RMF TEMP
FSC .                               M:   RMF CODE
RMC .OHMM                      1.2600:   RMC
RMCT.DEGF                     96.0000:   RMC TEMP
CMC .                               M:   RMC CODE
TMAX.DEGF                    155.0000:   MAX REC TEMP
TIMC.                          4.0000:   TIME SINCE CIRCLN
~PARAMETER INFORMATION (zones)
#MNEM.UNIT                       Value     Description
#=========                       =====     ===========
#ZONATION                        SONIC:   ZONATION NAME
#ZONE                            RUN_1:   ZONE NAME
TOP .                       3012.0000:   TOP DEPTH
BOT .                       9049.5000:   BOTTOM DEPTH
RUN .                               1:   RUN NUMBER
LCCD.                             440:   LOGGING CONTRACTOR
SRVC.                    Schlumberger:   LOGGING CONT NAME
DICO.          QC Data Collectors Ltd:   DIG COMPANY NAME
LDAT.                      10/28/1971:   DATE LOGGED
ELD .F                        75.0000:   LOG DATUM ELEVATION
TDD .F                      7115.0000:   TOTAL DEPTH DRILLER
TDL .F                      7060.0000:   TOTAL DEPTH LOGGER
BOTL.F                      7050.0000:   BOTTOM DEPTH LOGGED
TOPL.F                      3012.0000:   TOP DEPTH LOGGED
CS1 .IN                       13.3750:   CASING SIZE 1
BS1 .IN                       12.2500:   BIT SIZE 1
DDB1.F                      7115.0000:   DEPTH DRILLED BIT 1
BHF .                              11:   FLUID CODE
DPT .         Caustic (high PH) (CLS):   DRILLING FLUID TYPE
MUDD.                         10.5000:   FLUID DENSITY
MUDV.                         40.0000:   FLUID VISCOSITY
DFPH.                          9.0000:   FLUID PH
FL  .                          4.4000:   FLUID LOSS
RM  .OHMM                       .9400:   RM
RMT .DEGF                     96.0000:   RM TEMP
RMF .OHMM                       .7600:   RMF
RMFT.DEGF                     96.0000:   RMF TEMP
FSC .                               M:   RMF CODE
RMC .OHMM                      1.2600:   RMC
RMCT.DEGF                     96.0000:   RMC TEMP
CMC .                               M:   RMC CODE
TMAX.DEGF                    155.0000:   MAX REC TEMP
TIMC.                          6.0000:   TIME SINCE CIRCLN
~Curve Information Block
#MNEM.UNIT                    API CODE    No Description
#=========                    ========    == ===========
DEPT.F                   00 001 00 00:     1  DEPTH
ASN.OHMM                             :     2  Short-Normal Resistivity
CILD.MMHO                            :     3  Deep Induction Conductivity
ILD.OHMM                             :     4  Deep Induction Resistivity
SP.MV                                :     5  Spontaneous Potential
CALI.IN                              :     6  Caliper
DT.US/F                              :     7  Sonic Transit Time
SP.MV                                :     8  Spontaneous Potential
~ASCII
# ...
 7425.5000     1.0158  1003.7197     1.0271   -56.6452     8.6333   142.9077   -49.4838
 7426.0000     1.0166  1012.4268     1.0263   -56.1586     8.6321   141.1453   -48.9603
 7426.5000     1.0175  1014.6973     1.0255   -55.3685     8.6310   138.4353   -48.4363
 7427.0000     1.0183  1002.6660     1.0247   -54.5579     8.6299   135.8196   -47.9099
 7427.5000     1.0228   990.6475     1.0239   -53.8079     8.6287   133.9580   -47.7643
 7428.0000     1.0345   981.8145     1.0231   -53.1887     8.6276   132.4380   -47.7862
 7428.5000     1.0462   974.3125     1.0224   -53.0417     8.6265   131.6150   -47.8081
 7429.0000     1.0580   966.8096     1.0216   -53.3569     8.6254   130.8777   -47.8300
 7429.5000     1.0675   959.2949     1.0231   -53.6722     8.6242   131.0110   -47.8519
 7430.0000     1.0749   951.7920     1.0282   -53.9955     8.6236   131.1443   -47.6848
 7430.5000     1.0823   944.2900     1.0332   -54.4053     8.6232   131.2776   -47.4841
 7431.0000     1.0866   940.6230     1.0383   -54.8150     8.6227   131.3962   -47.2835
 7431.5000     1.0878   940.6309     1.0433   -55.2247     8.6222   131.0134   -47.0828
 7432.0000     1.0889   940.6387     1.0484   -55.1429     8.6218   130.8193   -46.8822
 7432.5000     1.0900   940.6465     1.0534   -54.9882     8.6213   131.1763   -46.7266
 7433.0000     1.0900   940.6553     1.0585   -54.8336     8.6208   131.5332   -46.5992
 7433.5000     1.0900   940.6631     1.0619   -54.6790     8.6204   131.7170   -46.4719
 7434.0000     1.0840   943.2549     1.0627   -54.5076     8.6199   131.8457   -46.3444
 7434.5000     1.0717   948.1914     1.0635   -54.3149     8.6194   131.9741   -46.4275
 7435.0000     1.0664   953.1348     1.0644   -54.1226     8.6190   132.1028   -46.5247
 7435.5000     1.0644   958.0713     1.0652   -53.9299     8.6185   132.3049   -46.6218
 7436.0000     1.0632   963.0146     1.0660   -53.7375     8.6184   132.5393   -46.4168
 7436.5000     1.0640   967.9580     1.0668   -53.5449     8.6182   132.9944   -46.1497
 7437.0000     1.0647   972.8945     1.0676   -53.3450     8.6180   133.8040   -45.8825
 7437.5000     1.0655   977.8379     1.0684   -53.1452     8.6179   134.1265   -45.4556
 7438.0000     1.0662   982.4229     1.0693   -53.2612     8.6177   133.9456   -45.9857
 7438.5000     1.0670   986.7080     1.0701   -53.4736     8.6175   133.7644   -46.5579
 7439.0000     1.0658   990.9980     1.0667   -53.7513     8.6174   133.2598   -47.1295
 7439.5000     1.0643   995.2822     1.0599   -54.0291     8.6172   131.2490   -47.7017
 7440.0000     1.0612   999.5674     1.0531   -54.3068     8.6170   130.1001   -47.6904
 7440.5000     1.0537  1003.8516     1.0463   -54.5845     8.6169   131.6721   -47.5892
 7441.0000     1.0434  1008.1426     1.0395   -54.8622     8.6174   132.8394   -47.2017
 7441.5000     1.0246  1012.4268     1.0326   -55.1390     8.6187   133.5884   -46.7925
 7442.0000     1.0119  1016.7109     1.0258   -55.4117     8.6199   134.3374   -46.3834
 7442.5000     1.0003  1020.9951     1.0190   -54.8882     8.6212   135.0913   -45.9742
 7443.0000      .9911  1026.1016     1.0122   -54.2889     8.6224   136.0571   -45.7192
 7443.5000      .9894  1031.2207     1.0054   -53.7285     8.6236   137.2766   -45.5383
 7444.0000      .9877  1036.3457      .9997   -53.3604     8.6249   134.9810   -45.4781
 7444.5000      .9890  1041.4707      .9945   -53.0670     8.6261   133.2114   -45.4609
 7445.0000      .9848  1046.5879      .9893   -52.7733     8.6273   133.9871   -45.4607
 7445.5000      .9807  1051.7129      .9841   -52.5186     8.6286   134.7627   -45.5222
 7446.0000      .9766  1056.8379      .9788   -52.3538     8.6298   135.3748   -45.5838
 7446.5000      .9725  1061.6113      .9736   -52.1891     8.6310   135.8821   -45.6453
 7447.0000      .9688  1066.1484      .9684   -52.0243     8.6322   136.3894   -45.7069
 7447.5000      .9667  1070.6836      .9632   -52.1289     8.6334   136.9153   -45.7479
 7448.0000      .9646  1075.2246      .9580   -52.2709     8.6346   136.5935   -45.7528
 7448.5000      .9632  1079.7598      .9576   -52.4130     8.6358   136.0312   -45.7577
 7449.0000      .9644  1082.3535      .9595   -52.5551     8.6370   135.1506   -45.7626
 7449.5000      .9656  1084.4922      .9613   -52.6970     8.6382   135.2051   -45.7675
 7450.0000      .9668  1086.6289      .9632   -52.8392     8.6395   135.6003   -45.7725
 7450.5000      .9680  1087.3105      .9650   -52.9355     8.6406   135.7017   -45.6518
 7451.0000      .9692  1085.9785      .9669   -52.9743     8.6418   135.6743   -45.4861
 7451.5000      .9703  1084.6465      .9687   -53.0131     8.6431   136.1167   -45.3206
 7452.0000      .9713  1078.6563      .9705   -53.0519     8.6443   136.9382   -45.0949
 7452.5000      .9724  1066.3613      .9724   -53.0148     8.6454   137.3599   -44.7944
 7453.0000      .9734  1054.0664      .9761   -52.8717     8.6466   136.2244   -44.4941
 7453.5000      .9794  1042.3730      .9807   -52.7288     8.6478   134.5083   -44.5691
 7454.0000      .9988  1031.5215      .9853   -52.5857     8.6489   133.2659   -44.7794
 7454.5000     1.0050  1020.6689      .9898   -52.4591     8.6501   132.3022   -44.9896
 7455.0000     1.0057  1009.9990      .9944   -52.4028     8.6513   131.6223   -45.1999
 7455.5000     1.0064  1007.1914      .9990   -52.3466     8.6524   131.6477   -45.4105
 7456.0000     1.0070  1004.5791     1.0036   -52.2903     8.6536   132.0527   -45.5485
 7456.5000     1.0077  1009.3779     1.0082   -52.2867     8.6548   132.8125   -45.5121
 7457.0000     1.0084  1014.1826     1.0128   -52.3229     8.6559   133.6089   -45.4756
 7457.5000     1.0091  1018.9814     1.0128   -52.3593     8.6571   134.4487   -45.4391
 7458.0000     1.0097  1023.7871     1.0119   -52.4437     8.6581   133.8264   -45.4027
 7458.5000     1.0099  1029.0371     1.0110   -52.6168     8.6583   133.8010   -45.2432
 7459.0000     1.0074  1034.3809     1.0101   -52.7899     8.6585   134.3938   -45.0591
 7459.5000     1.0048  1039.7188     1.0092   -52.9630     8.6587   134.8828   -44.8750
 7460.0000     1.0022  1045.0645     1.0082   -53.1363     8.6589   135.3596   -44.6909
 7460.5000     1.0003  1050.4023     1.0073   -53.2667     8.6590   135.6155   -44.4980
 7461.0000     1.0019  1055.7461     1.0064   -53.3586     8.6592   135.8713   -44.2667
 7461.5000     1.0036  1061.0859     1.0088   -53.4504     8.6594   136.4148   -44.0354
 7462.0000     1.0084  1060.5020     1.0119   -53.2450     8.6596   137.1384   -44.1545
 7462.5000     1.0144  1053.0254     1.0151   -52.7471     8.6598   138.4353   -44.4496
 7463.0000     1.0204  1045.5352     1.0182   -52.2491     8.6600   138.4038   -44.7448
 7463.5000     1.0263  1038.6465     1.0213   -51.7513     8.6602   136.9807   -44.8143
 7464.0000     1.0311  1032.4551     1.0245   -51.2534     8.6604   135.2986   -44.8702
 7464.5000     1.0334  1026.2637     1.0276   -50.9284     8.6606   133.3567   -44.9261
 7465.0000     1.0356  1020.0732     1.0307   -50.6888     8.6608   131.8975   -44.9821
 7465.5000     1.0378  1013.8818     1.0369   -50.7589     8.6610   131.7473   -45.0433
 7466.0000     1.0397  1007.6904     1.0430   -50.9365     8.6612   132.2400   -45.1177
 7466.5000     1.0415  1001.4990     1.0492   -51.0493     8.6614   132.7327   -45.1921
 7467.0000     1.0434   997.1553     1.0553   -51.1620     8.6615   132.4441   -45.0735
 7467.5000     1.0452   994.9121     1.0615   -51.8983     8.6617   132.1035   -44.8952
 7468.0000     1.0480   992.6670     1.0676   -52.3680     8.6619   132.3635   -44.7165
 7468.5000     1.0531   990.4238     1.0738   -52.7111     8.6621   132.8010   -44.5206
 7469.0000     1.0583   988.1816     1.0764   -52.8204     8.6623   133.2380   -44.2803
 7469.5000     1.0635   983.6836     1.0779   -52.7862     8.6621   131.9727   -44.0396
 7470.0000     1.0705   976.7090     1.0795   -52.7521     8.6619   130.4092   -43.7993
 7470.5000     1.0779   969.7334     1.0810   -52.7179     8.6617   129.0396   -43.7577
