~VERSION INFORMATION
VERS.                             2.0:   CWLS Log ASCII Standard-VERSION 2.0
WRAP.                              NO:   One line per depth step
~Well Information Block
STRT.F                      2500.0000:   Top Depth
STOP.F                     12867.0000:   Bottom Depth
STEP.F                         .50000:   Depth Increment
NULL.                        -999.250:   Null Value
FLD .                      GA BLK 255:   Field Name
WELL.       OCSG01777  A004 ST00 BP00:   NAME
API .                  42706400140000:   WELL API
EDF .F                        91.0000:   ELEV DRILL FLOOR
COMP.       COASTAL STATES GAS PROD C:   OPERATOR
BN  .                             255:   BLOCK
CTRY.                             USA:   COUNTRY NAME
CNTY.                              GA:   COUNTY
CNTY.                        GLVSTN L:   COUNTY NAME
EKB .F                        92.0000:   ELEV KELLY BUSHING
TDD .F                      12868.000:   FINAL TD DRILLER
STAT.                           TEXAS:   STATE NAME
UWI .                  42706400140000:   WELL API
DICO.               IHS : Digitizing Company
~PARAMETER INFORMATION (zones)
#MNEM.UNIT                       Value     Description
#=========                       =====     ===========
#ZONATION                           IE:   ZONATION NAME
#ZONE                            RUN_1:   ZONE NAME
TOP .                       2500.0000:   TOP DEPTH
BOT .                       8267.5000:   BOTTOM DEPTH
RUN .                               1:   RUN NUMBER
LCCD.                             440:   LOGGING CONTRACTOR
SRVC.                    Schlumberger:   LOGGING CONT NAME
DICO.          QC Data Collectors Ltd:   DIG COMPANY NAME
LDAT.                      05/23/1973:   DATE LOGGED
ELD .F                        92.0000:   LOG DATUM ELEVATION
TDD .F                      8274.0000:   TOTAL DEPTH DRILLER
TDL .F                      8268.0000:   TOTAL DEPTH LOGGER
BOTL.F                      8267.0000:   BOTTOM DEPTH LOGGED
TOPL.F                      2500.0000:   TOP DEPTH LOGGED
CS1 .IN                       13.3750:   CASING SIZE 1
BS1 .IN                       12.2500:   BIT SIZE 1
DDB1.F                      8274.0000:   DEPTH DRILLED BIT 1
BHF .                              99:   FLUID CODE
DPT .                   Miscellaneous:   DRILLING FLUID TYPE
MUDV.                         45.0000:   FLUID VISCOSITY
FL  .                          3.4000:   FLUID LOSS
RM  .OHMM                       .7100:   RM
RMT .DEGF                     82.0000:   RM TEMP
RMF .OHMM                       .4200:   RMF
RMFT.DEGF                     82.0000:   RMF TEMP
FSC .                               M:   RMF CODE
RMC .OHMM                      1.2500:   RMC
RMCT.DEGF                     82.0000:   RMC TEMP
CMC .                               M:   RMC CODE
TMAX.DEGF                     82.0000:   MAX REC TEMP
TIMC.                          6.0000:   TIME SINCE CIRCLN
MUDD.                            NULL:   FLUID DENSITY
DFPH.                            NULL:   FLUID PH
~PARAMETER INFORMATION (zones)
#MNEM.UNIT                       Value     Description
#=========                       =====     ===========
#ZONATION                           IE:   ZONATION NAME
#ZONE                            RUN_2:   ZONE NAME
TOP .                       8273.0000:   TOP DEPTH
BOT .                      12867.5000:   BOTTOM DEPTH
RUN .                               2:   RUN NUMBER
LCCD.                             440:   LOGGING CONTRACTOR
SRVC.                    Schlumberger:   LOGGING CONT NAME
DICO.          QC Data Collectors Ltd:   DIG COMPANY NAME
LDAT.                      06/12/1973:   DATE LOGGED
ELD .F                        92.0000:   LOG DATUM ELEVATION
TDD .F                     12865.0000:   TOTAL DEPTH DRILLER
TDL .F                     12868.0000:   TOTAL DEPTH LOGGER
BOTL.F                     12867.0000:   BOTTOM DEPTH LOGGED
TOPL.F                      8272.0000:   TOP DEPTH LOGGED
CS1 .IN                        9.6250:   CASING SIZE 1
BS1 .IN                        8.5000:   BIT SIZE 1
DDB1.F                     12865.0000:   DEPTH DRILLED BIT 1
BHF .                              11:   FLUID CODE
DPT .         Caustic (high PH) (CLS):   DRILLING FLUID TYPE
MUDV.                         44.0000:   FLUID VISCOSITY
FL  .                          2.6000:   FLUID LOSS
RM  .OHMM                       .9100:   RM
RMT .DEGF                     76.0000:   RM TEMP
RMF .OHMM                       .4600:   RMF
RMFT.DEGF                     78.0000:   RMF TEMP
FSC .                               M:   RMF CODE
RMC .OHMM                      1.3200:   RMC
RMCT.DEGF                     76.0000:   RMC TEMP
CMC .                               C:   RMC CODE
TMAX.DEGF                    248.0000:   MAX REC TEMP
TIMC.                          5.0000:   TIME SINCE CIRCLN
MUDD.                         16.3000:   FLUID DENSITY
DFPH.                         10.5000:   FLUID PH
~PARAMETER INFORMATION (zones)
#MNEM.UNIT                       Value     Description
#=========                       =====     ===========
#ZONATION                        SONIC:   ZONATION NAME
#ZONE                            RUN_1:   ZONE NAME
TOP .                       8272.0000:   TOP DEPTH
BOT .                      12860.5000:   BOTTOM DEPTH
RUN .                               1:   RUN NUMBER
LCCD.                             440:   LOGGING CONTRACTOR
SRVC.                    Schlumberger:   LOGGING CONT NAME
DICO.          QC Data Collectors Ltd:   DIG COMPANY NAME
LDAT.                      06/12/1973:   DATE LOGGED
ELD .F                        92.0000:   LOG DATUM ELEVATION
TDD .F                     12865.0000:   TOTAL DEPTH DRILLER
BOTL.F                     12860.0000:   BOTTOM DEPTH LOGGED
TOPL.F                      8272.0000:   TOP DEPTH LOGGED
CS1 .IN                        9.6250:   CASING SIZE 1
BS1 .IN                        8.5000:   BIT SIZE 1
DDB1.F                     12865.0000:   DEPTH DRILLED BIT 1
BHF .                              11:   FLUID CODE
DPT .         Caustic (high PH) (CLS):   DRILLING FLUID TYPE
MUDD.                         16.3000:   FLUID DENSITY
MUDV.                         44.0000:   FLUID VISCOSITY
DFPH.                         10.5000:   FLUID PH
FL  .                          2.6000:   FLUID LOSS
RM  .OHMM                       .9100:   RM
RMT .DEGF                     76.0000:   RM TEMP
RMF .OHMM                       .4600:   RMF
RMFT.DEGF                     78.0000:   RMF TEMP
FSC .                               M:   RMF CODE
RMC .OHMM                      1.3200:   RMC
RMCT.DEGF                     76.0000:   RMC TEMP
CMC .                               C:   RMC CODE
TMAX.DEGF                    248.0000:   MAX REC TEMP
TIMC.                         10.0000:   TIME SINCE CIRCLN
~Curve Information Block
#MNEM.UNIT                    API CODE    No Description
#=========                    ========    == ===========
DEPT.F                   00 001 00 00:     1  DEPTH
ASN.OHMM                             :     2  Short-Normal Resistivity
ILD.OHMM                             :     3  Deep Induction Resistivity
SP.MV                                :     4  Spontaneous Potential
CALI.IN                              :     5  Caliper
DT.US/F                              :     6  Sonic Transit Time
~ASCII
# ...
 7990.0000      .9069      .6814   -40.5446  -999.2500  -999.2500
 7990.5000      .9163      .6904   -40.5485  -999.2500  -999.2500
 7991.0000      .9300      .6947   -40.8948  -999.2500  -999.2500
 7991.5000      .9459      .6959   -41.2355  -999.2500  -999.2500
 7992.0000      .9621      .6928   -41.5683  -999.2500  -999.2500
 7992.5000      .9712      .6844   -41.8467  -999.2500  -999.2500
 7993.0000      .9659      .6707   -41.8979  -999.2500  -999.2500
 7993.5000      .9487      .6558   -41.9305  -999.2500  -999.2500
 7994.0000      .9240      .6367   -41.9405  -999.2500  -999.2500
 7994.5000      .8994      .6168   -42.0217  -999.2500  -999.2500
 7995.0000      .8845      .6055   -42.3605  -999.2500  -999.2500
 7995.5000      .8728      .5996   -42.7064  -999.2500  -999.2500
 7996.0000      .8665      .6003   -43.0771  -999.2500  -999.2500
 7996.5000      .8695      .6026   -43.2532  -999.2500  -999.2500
 7997.0000      .8805      .6072   -43.1244  -999.2500  -999.2500
 7997.5000      .8988      .6120   -42.9178  -999.2500  -999.2500
 7998.0000      .9078      .6231   -42.5110  -999.2500  -999.2500
 7998.5000      .9088      .6341   -42.1454  -999.2500  -999.2500
 7999.0000      .9187      .6467   -41.8301  -999.2500  -999.2500
 7999.5000      .9307      .6603   -41.5351  -999.2500  -999.2500
 8000.0000      .9443      .6754   -41.2745  -999.2500  -999.2500
 8000.5000      .9604      .6912   -41.0670  -999.2500  -999.2500
 8001.0000      .9781      .7020   -41.0674  -999.2500  -999.2500
 8001.5000      .9907      .7082   -41.2087  -999.2500  -999.2500
 8002.0000      .9963      .7041   -41.5115  -999.2500  -999.2500
 8002.5000      .9976      .6957   -41.8531  -999.2500  -999.2500
 8003.0000      .9848      .6779   -42.1953  -999.2500  -999.2500
 8003.5000      .9571      .6612   -42.5042  -999.2500  -999.2500
 8004.0000      .9273      .6477   -42.8116  -999.2500  -999.2500
 8004.5000      .9070      .6355   -42.7142  -999.2500  -999.2500
 8005.0000      .9101      .6250   -42.4963  -999.2500  -999.2500
 8005.5000      .9152      .6140   -42.2424  -999.2500  -999.2500
 8006.0000      .9181      .6030   -42.2530  -999.2500  -999.2500
 8006.5000      .9139      .5977   -42.7202  -999.2500  -999.2500
 8007.0000      .9025      .5925   -44.1606  -999.2500  -999.2500
 8007.5000      .8977      .5910   -45.7469  -999.2500  -999.2500
 8008.0000      .8930      .5909   -46.5197  -999.2500  -999.2500
 8008.5000      .8933      .6028   -46.1596  -999.2500  -999.2500
 8009.0000      .8918      .6222   -45.7496  -999.2500  -999.2500
 8009.5000      .8856      .6321   -45.7792  -999.2500  -999.2500
 8010.0000      .8742      .6358   -46.7238  -999.2500  -999.2500
 8010.5000      .8696      .6327   -47.5539  -999.2500  -999.2500
 8011.0000      .8700      .6272   -48.2916  -999.2500  -999.2500
 8011.5000      .8797      .6245   -48.9066  -999.2500  -999.2500
 8012.0000      .8899      .6178   -49.3147  -999.2500  -999.2500
 8012.5000      .8994      .6061   -48.7902  -999.2500  -999.2500
 8013.0000      .8815      .5977   -47.3683  -999.2500  -999.2500
 8013.5000      .8680      .5927   -45.9408  -999.2500  -999.2500
 8014.0000      .8639      .5917   -45.4283  -999.2500  -999.2500
 8014.5000      .8641      .5993   -45.9685  -999.2500  -999.2500
 8015.0000      .8636      .6060   -47.6249  -999.2500  -999.2500
 8015.5000      .8594      .6054   -49.4384  -999.2500  -999.2500
 8016.0000      .8511      .5995   -51.3073  -999.2500  -999.2500
 8016.5000      .8393      .5887   -53.0967  -999.2500  -999.2500
 8017.0000      .8232      .5690   -54.5759  -999.2500  -999.2500
 8017.5000      .8066      .5445   -55.5315  -999.2500  -999.2500
 8018.0000      .7884      .5167   -54.7891  -999.2500  -999.2500
 8018.5000      .7702      .4925   -54.7646  -999.2500  -999.2500
 8019.0000      .7512      .4782   -55.6543  -999.2500  -999.2500
 8019.5000      .7323      .4675   -57.4880  -999.2500  -999.2500
 8020.0000      .7315      .4649   -60.2101  -999.2500  -999.2500
 8020.5000      .7441      .4662   -63.0945  -999.2500  -999.2500
 8021.0000      .7391      .4720   -64.0732  -999.2500  -999.2500
 8021.5000      .7370      .4834   -62.2635  -999.2500  -999.2500
 8022.0000      .7375      .5000   -59.6006  -999.2500  -999.2500
 8022.5000      .7450      .5162   -57.0153  -999.2500  -999.2500
 8023.0000      .7599      .5354   -54.5260  -999.2500  -999.2500
 8023.5000      .7864      .5617   -51.9481  -999.2500  -999.2500
 8024.0000      .8059      .5762   -52.6534  -999.2500  -999.2500
 8024.5000      .8016      .5783   -54.2301  -999.2500  -999.2500
 8025.0000      .7994      .5751   -54.1271  -999.2500  -999.2500
 8025.5000      .8056      .5684   -53.9055  -999.2500  -999.2500
 8026.0000      .8149      .5661   -56.6091  -999.2500  -999.2500
 8026.5000      .8172      .5639   -60.3984  -999.2500  -999.2500
 8027.0000      .8040      .5617   -59.8038  -999.2500  -999.2500
 8027.5000      .7891      .5595   -56.9119  -999.2500  -999.2500
 8028.0000      .7737      .5611   -53.4475  -999.2500  -999.2500
 8028.5000      .7629      .5628   -52.7236  -999.2500  -999.2500
 8029.0000      .7759      .5660   -56.2988  -999.2500  -999.2500
 8029.5000      .7864      .5694   -54.9637  -999.2500  -999.2500
 8030.0000      .7822      .5729   -53.3054  -999.2500  -999.2500
 8030.5000      .7754      .5763   -51.4088  -999.2500  -999.2500
 8031.0000      .7791      .5794   -50.4633  -999.2500  -999.2500
 8031.5000      .7854      .5811   -53.6507  -999.2500  -999.2500
 8032.0000      .7987      .5828   -57.0005  -999.2500  -999.2500
 8032.5000      .8174      .5888   -59.6708  -999.2500  -999.2500
 8033.0000      .8434      .5964   -60.0439  -999.2500  -999.2500
 8033.5000      .8319      .6044   -56.7568  -999.2500  -999.2500
 8034.0000      .8268      .6267   -52.6646  -999.2500  -999.2500
 8034.5000      .8421      .6491   -49.2482  -999.2500  -999.2500
 8035.0000      .8555      .6735   -46.7884  -999.2500  -999.2500
 8035.5000      .8690      .6990   -43.9814  -999.2500  -999.2500
 8036.0000      .8827      .7020   -41.7821  -999.2500  -999.2500
 8036.5000      .8965      .7019   -40.8781  -999.2500  -999.2500
 8037.0000      .9086      .7061   -40.7853  -999.2500  -999.2500
 8037.5000      .9091      .7133   -40.8602  -999.2500  -999.2500
 8038.0000      .8952      .7206   -40.9072  -999.2500  -999.2500
 8038.5000      .8899      .7306   -40.9019  -999.2500  -999.2500
 8039.0000      .9108      .7410   -40.7988  -999.2500  -999.2500
 8039.5000      .9450      .7545   -40.7333  -999.2500  -999.2500
 8040.0000      .9808      .7703   -40.6926  -999.2500  -999.2500
 8040.5000     1.0136      .7860   -40.7037  -999.2500  -999.2500
 8041.0000     1.0424      .8017   -40.6704  -999.2500  -999.2500
 8041.5000     1.0654      .8176   -40.5504  -999.2500  -999.2500
 8042.0000     1.0752      .8346   -40.6651  -999.2500  -999.2500
 8042.5000     1.0803      .8521   -41.0443  -999.2500  -999.2500
 8043.0000     1.0787      .8708   -41.6593  -999.2500  -999.2500
 8043.5000     1.0789      .8786   -42.3213  -999.2500  -999.2500
 8044.0000     1.0798      .8806   -43.0489  -999.2500  -999.2500
 8044.5000     1.0830      .8663   -43.4072  -999.2500  -999.2500
 8045.0000     1.0869      .8480   -43.7026  -999.2500  -999.2500
 8045.5000     1.0930      .8283   -43.8395  -999.2500  -999.2500
 8046.0000     1.1009      .8116   -44.4191  -999.2500  -999.2500
 8046.5000     1.1148      .7960   -45.0720  -999.2500  -999.2500
 8047.0000     1.1332      .7817   -45.7866  -999.2500  -999.2500
 8047.5000     1.1370      .7719   -46.5004  -999.2500  -999.2500
 8048.0000     1.0962      .7621   -47.1522  -999.2500  -999.2500
 8048.5000     1.0654      .7646   -46.1255  -999.2500  -999.2500
 8049.0000     1.0593      .7696   -44.3213  -999.2500  -999.2500
 8049.5000     1.0804      .7798   -43.3314  -999.2500  -999.2500
 8050.0000     1.1110      .7972   -42.9009  -999.2500  -999.2500
 8050.5000     1.1451      .8161   -42.7576  -999.2500  -999.2500
