~VERSION INFORMATION
VERS.                             2.0:   CWLS Log ASCII Standard-VERSION 2.0
WRAP.                              NO:   One line per depth step
~Well Information Block
STRT.F                      2726.0000:   Top Depth
STOP.F                     13125.0000:   Bottom Depth
STEP.F                         .50000:   Depth Increment
NULL.                        -999.250:   Null Value
FLD .                      GA BLK 255:   Field Name
WELL.       OCSG01777  A007 ST00 BP00:   NAME
API .                  42706400190000:   WELL API
EDF .F                        92.0000:   ELEV DRILL FLOOR
COMP.       COASTAL STATES GAS PROD C:   OPERATOR
BN  .                             255:   BLOCK
CTRY.                             USA:   COUNTRY NAME
CNTY.                              GA:   COUNTY
CNTY.                        GLVSTN L:   COUNTY NAME
EKB .F                        93.0000:   ELEV KELLY BUSHING
TDD .F                      13136.000:   FINAL TD DRILLER
STAT.                           TEXAS:   STATE NAME
UWI .                  42706400190000:   WELL API
DICO.               IHS : Digitizing Company
~PARAMETER INFORMATION (zones)
#MNEM.UNIT                       Value     Description
#=========                       =====     ===========
#ZONATION                           IE:   ZONATION NAME
#ZONE                            RUN_1:   ZONE NAME
TOP .                       2726.0000:   TOP DEPTH
BOT .                       8780.5000:   BOTTOM DEPTH
RUN .                               1:   RUN NUMBER
LCCD.                             440:   LOGGING CONTRACTOR
SRVC.                    Schlumberger:   LOGGING CONT NAME
DICO.          QC Data Collectors Ltd:   DIG COMPANY NAME
LDAT.                      09/02/1973:   DATE LOGGED
ELD .F                        93.0000:   LOG DATUM ELEVATION
TDD .F                      8829.0000:   TOTAL DEPTH DRILLER
TDL .F                      8822.0000:   TOTAL DEPTH LOGGER
BOTL.F                      8821.0000:   BOTTOM DEPTH LOGGED
TOPL.F                      2726.0000:   TOP DEPTH LOGGED
CS1 .IN                       13.6250:   CASING SIZE 1
BS1 .IN                       12.2500:   BIT SIZE 1
DDB1.F                      8829.0000:   DEPTH DRILLED BIT 1
BHF .                              81:   FLUID CODE
DPT .          Lignosulfonate (Ligno):   DRILLING FLUID TYPE
MUDD.                         12.2000:   FLUID DENSITY
MUDV.                         44.0000:   FLUID VISCOSITY
DFPH.                         10.5000:   FLUID PH
FL  .                          2.0000:   FLUID LOSS
RM  .OHMM                       .9600:   RM
RMT .DEGF                     74.0000:   RM TEMP
RMF .OHMM                       .5900:   RMF
RMFT.DEGF                     71.0000:   RMF TEMP
FSC .                               M:   RMF CODE
RMC .OHMM                      1.8100:   RMC
RMCT.DEGF                     71.0000:   RMC TEMP
CMC .                               M:   RMC CODE
TMAX.DEGF                    160.0000:   MAX REC TEMP
TIMC.                         24.0000:   TIME SINCE CIRCLN
~PARAMETER INFORMATION (zones)
#MNEM.UNIT                       Value     Description
#=========                       =====     ===========
#ZONATION                           IE:   ZONATION NAME
#ZONE                            RUN_2:   ZONE NAME
TOP .                       8780.0000:   TOP DEPTH
BOT .                       9333.5000:   BOTTOM DEPTH
RUN .                               2:   RUN NUMBER
LCCD.                             440:   LOGGING CONTRACTOR
SRVC.                    Schlumberger:   LOGGING CONT NAME
DICO.          QC Data Collectors Ltd:   DIG COMPANY NAME
LDAT.                      09/09/1973:   DATE LOGGED
ELD .F                        93.0000:   LOG DATUM ELEVATION
TDD .F                      9340.0000:   TOTAL DEPTH DRILLER
TDL .F                      9334.0000:   TOTAL DEPTH LOGGER
BOTL.F                      9333.0000:   BOTTOM DEPTH LOGGED
TOPL.F                      8821.0000:   TOP DEPTH LOGGED
CS1 .IN                       13.3750:   CASING SIZE 1
BS1 .IN                       12.2500:   BIT SIZE 1
DDB1.F                      9340.0000:   DEPTH DRILLED BIT 1
BHF .                              99:   FLUID CODE
DPT .                   Miscellaneous:   DRILLING FLUID TYPE
MUDD.                         12.3000:   FLUID DENSITY
MUDV.                         46.0000:   FLUID VISCOSITY
DFPH.                         10.5000:   FLUID PH
FL  .                          3.2000:   FLUID LOSS
RM  .OHMM                       .6500:   RM
RMT .DEGF                     82.0000:   RM TEMP
RMF .OHMM                       .5000:   RMF
RMFT.DEGF                     82.0000:   RMF TEMP
FSC .                               M:   RMF CODE
RMC .OHMM                       .9600:   RMC
RMCT.DEGF                     82.0000:   RMC TEMP
CMC .                               M:   RMC CODE
TMAX.DEGF                    160.0000:   MAX REC TEMP
TIMC.                          4.0000:   TIME SINCE CIRCLN
~PARAMETER INFORMATION (zones)
#MNEM.UNIT                       Value     Description
#=========                       =====     ===========
#ZONATION                           IE:   ZONATION NAME
#ZONE                            RUN_3:   ZONE NAME
TOP .                       9343.0000:   TOP DEPTH
BOT .                      13125.5000:   BOTTOM DEPTH
RUN .                               3:   RUN NUMBER
LCCD.                             440:   LOGGING CONTRACTOR
SRVC.                    Schlumberger:   LOGGING CONT NAME
DICO.          QC Data Collectors Ltd:   DIG COMPANY NAME
LDAT.                      09/22/1973:   DATE LOGGED
ELD .F                        93.0000:   LOG DATUM ELEVATION
TDD .F                     13136.0000:   TOTAL DEPTH DRILLER
TDL .F                     13126.0000:   TOTAL DEPTH LOGGER
BOTL.F                     13125.0000:   BOTTOM DEPTH LOGGED
TOPL.F                      9343.0000:   TOP DEPTH LOGGED
CS1 .IN                        9.6250:   CASING SIZE 1
BS1 .IN                        8.5000:   BIT SIZE 1
DDB1.F                     13136.0000:   DEPTH DRILLED BIT 1
BHF .                              99:   FLUID CODE
DPT .                   Miscellaneous:   DRILLING FLUID TYPE
MUDD.                         16.5000:   FLUID DENSITY
MUDV.                         46.0000:   FLUID VISCOSITY
DFPH.                         11.0000:   FLUID PH
FL  .                          2.2000:   FLUID LOSS
RM  .OHMM                       .6100:   RM
RMT .DEGF                     80.0000:   RM TEMP
RMF .OHMM                       .2300:   RMF
RMFT.DEGF                     80.0000:   RMF TEMP
FSC .                               M:   RMF CODE
RMC .OHMM                      1.0000:   RMC
RMCT.DEGF                     80.0000:   RMC TEMP
CMC .                               M:   RMC CODE
TMAX.DEGF                    232.0000:   MAX REC TEMP
TIMC.                          7.0000:   TIME SINCE CIRCLN
~PARAMETER INFORMATION (zones)
#MNEM.UNIT                       Value     Description
#=========                       =====     ===========
#ZONATION                        SONIC:   ZONATION NAME
#ZONE                            RUN_1:   ZONE NAME
TOP .                       9343.0000:   TOP DEPTH
BOT .                      13014.5000:   BOTTOM DEPTH
RUN .                               1:   RUN NUMBER
LCCD.                             440:   LOGGING CONTRACTOR
SRVC.                    Schlumberger:   LOGGING CONT NAME
DICO.          QC Data Collectors Ltd:   DIG COMPANY NAME
LDAT.                      09/22/1973:   DATE LOGGED
ELD .F                        93.0000:   LOG DATUM ELEVATION
TDD .F                     13136.0000:   TOTAL DEPTH DRILLER
TDL .F                     13126.0000:   TOTAL DEPTH LOGGER
BOTL.F                     13014.0000:   BOTTOM DEPTH LOGGED
TOPL.F                      9343.0000:   TOP DEPTH LOGGED
CS1 .IN                        9.6250:   CASING SIZE 1
BS1 .IN                        8.5000:   BIT SIZE 1
DDB1.F                     13136.0000:   DEPTH DRILLED BIT 1
BHF .                              99:   FLUID CODE
DPT .                   Miscellaneous:   DRILLING FLUID TYPE
MUDD.                         16.5000:   FLUID DENSITY
MUDV.                         46.0000:   FLUID VISCOSITY
DFPH.                         11.0000:   FLUID PH
FL  .                          2.2000:   FLUID LOSS
RM  .OHMM                       .6100:   RM
RMT .DEGF                     80.0000:   RM TEMP
RMF .OHMM                       .2400:   RMF
RMFT.DEGF                     80.0000:   RMF TEMP
FSC .                               M:   RMF CODE
RMC .OHMM                      1.0000:   RMC
RMCT.DEGF                     80.0000:   RMC TEMP
CMC .                               M:   RMC CODE
TMAX.DEGF                    232.0000:   MAX REC TEMP
TIMC.                          6.0000:   TIME SINCE CIRCLN
~Curve Information Block
#MNEM.UNIT                    API CODE    No Description
#=========                    ========    == ===========
DEPT.F                   00 001 00 00:     1  DEPTH
ASN.OHMM                             :     2  Short-Normal Resistivity
ILD.OHMM                             :     3  Deep Induction Resistivity
SP.MV                                :     4  Spontaneous Potential
CALI.IN                              :     5  Caliper
DT.US/F                              :     6  Sonic Transit Time
~ASCII
# ...
10290.0000      .6286      .6432   -44.5007    10.0088   119.8221
10290.5000      .7002      .6588   -44.5950    10.0232   114.5314
10291.0000      .7374      .6741   -44.7798    10.0327   111.4871
10291.5000      .7602      .6837   -44.9669    10.0384   109.6250
10292.0000      .7702      .6878   -45.2037    10.0440   109.3627
10292.5000      .7599      .6869   -45.4466    10.0423   112.4329
10293.0000      .7417      .6675   -45.7402    10.0394   114.9255
10293.5000      .7259      .6445   -45.9670    10.0356   116.5167
10294.0000      .7093      .6187   -45.9872    10.0175   117.9650
10294.5000      .6975      .6056   -45.8671    10.0001   119.1152
10295.0000      .6888      .5934   -45.6984     9.9904   119.4773
10295.5000      .6879      .5904   -45.4764     9.9932   118.1226
10296.0000      .6924      .5909   -45.2948    10.0132   115.9797
10296.5000      .6983      .6005   -45.1525    10.0410   115.8171
10297.0000      .7044      .6151   -45.0782    10.0606   117.1768
10297.5000      .7113      .6343   -45.0619    10.0717   117.7944
10298.0000      .7202      .6473   -45.0813    10.0774   117.0831
10298.5000      .7292      .6527   -45.2435    10.0748   114.8615
10299.0000      .7375      .6522   -45.4855    10.0882   112.2198
10299.5000      .7440      .6455   -45.8549    10.1087   111.8073
10300.0000      .7342      .6316   -46.3322    10.1347   115.3394
10300.5000      .7110      .6147   -46.6051    10.1619   117.4945
10301.0000      .6897      .5953   -46.4800    10.1678   118.5475
10301.5000      .6753      .5828   -46.2932    10.1750   119.4120
10302.0000      .6672      .5726   -46.0705    10.1749   118.5734
10302.5000      .6681      .5681   -45.9955    10.1587   117.6411
10303.0000      .6762      .5706   -46.0128    10.1338   117.1312
10303.5000      .6851      .5765   -46.0300    10.1053   117.7544
10304.0000      .6945      .5838   -46.0473    10.0843   117.4601
10304.5000      .7023      .5906   -46.0646    10.0656   116.1644
10305.0000      .7064      .5961   -46.0610    10.0621   115.0720
10305.5000      .7075      .5967   -45.9806    10.0964   114.2617
10306.0000      .7032      .5949   -45.9040    10.1156   114.7285
10306.5000      .6958      .5911   -45.8414    10.0913   117.3936
10307.0000      .6876      .5872   -45.7644    10.0459   118.4847
10307.5000      .6802      .5834   -45.6403    10.0391   119.2174
10308.0000      .6773      .5786   -45.5153    10.0453   119.9047
10308.5000      .6776      .5726   -45.3098    10.0689   120.4803
10309.0000      .6796      .5694   -45.1224    10.1016   120.8197
10309.5000      .6837      .5677   -44.9886    10.1357   118.1177
10310.0000      .6885      .5706   -44.9770    10.1637   115.6669
10310.5000      .6936      .5735   -45.0383    10.1825   114.5597
10311.0000      .6971      .5762   -45.3856    10.1656   116.0487
10311.5000      .6961      .5789   -45.5245    10.1021   117.0782
10312.0000      .6786      .5814   -45.4733    10.0605   118.4354
10312.5000      .6699      .5801   -45.1684    10.0706   118.7483
10313.0000      .6689      .5763   -44.9213    10.0778   118.9601
10313.5000      .6690      .5708   -44.9002    10.0686   119.0906
10314.0000      .6700      .5648   -44.8499    10.0325   118.2482
10314.5000      .6708      .5537   -44.7917    10.0119   117.5167
10315.0000      .6704      .5437   -45.2451     9.9967   118.5364
10315.5000      .6678      .5364   -45.4897    10.0004   119.1646
10316.0000      .6613      .5304   -45.5233     9.9613   117.9698
10316.5000      .6512      .5288   -45.2945     9.9434   118.3984
10317.0000      .6411      .5271   -45.1900     9.9296   119.4650
10317.5000      .6432      .5271   -45.1877     9.8884   120.8098
10318.0000      .6486      .5305   -45.4352     9.7731   121.5143
10318.5000      .6476      .5340   -45.8671     9.8146   119.6399
10319.0000      .6414      .5389   -45.9898     9.8952   118.7051
10319.5000      .6399      .5422   -45.6107     9.9558   117.2285
10320.0000      .6402      .5456   -45.2905     9.9970   114.3689
10320.5000      .6388      .5540   -45.0341    10.0199   115.4329
10321.0000      .6332      .5609   -45.2476    10.0244   118.0143
10321.5000      .6231      .5563   -45.7064     9.9639   120.9207
10322.0000      .6155      .5472   -46.1874     9.8860   123.1178
10322.5000      .5970      .5350   -46.4508     9.8480   122.3665
10323.0000      .5811      .5209   -46.3505     9.8516   121.5907
10323.5000      .5687      .5034   -46.0959     9.8687   122.6276
10324.0000      .5586      .4853   -45.8546     9.8899   122.4503
10324.5000      .5543      .4679   -45.6871     9.8849   121.5562
10325.0000      .5529      .4563   -45.6784     9.8803   120.8973
10325.5000      .5530      .4476   -45.7834     9.8814   120.7858
10326.0000      .5541      .4440   -45.9042     9.8848   121.6399
10326.5000      .5558      .4406   -45.9215     9.9072   123.1423
10327.0000      .5581      .4409   -45.9156     9.9319   123.8167
10327.5000      .5600      .4412   -45.8549     9.9591   123.7465
10328.0000      .5601      .4419   -45.7355     9.9866   123.3634
10328.5000      .5588      .4430   -45.6006    10.0160   122.8049
10329.0000      .5575      .4440   -45.4423    10.0271   122.2347
10329.5000      .5558      .4424   -45.3970    10.0239   122.4637
10330.0000      .5526      .4427   -45.4861    10.0170   122.9084
10330.5000      .5483      .4430   -45.6227    10.0124   122.1448
10331.0000      .5436      .4414   -45.5357    10.0103   121.1215
10331.5000      .5387      .4397   -45.4578    10.0126   121.2532
10332.0000      .5350      .4386   -45.4244    10.0038   122.5980
10332.5000      .5356      .4381   -45.5107     9.9818   123.6411
10333.0000      .5370      .4377   -45.6727     9.9082   124.4355
10333.5000      .5391      .4376   -45.7552     9.8624   124.8271
10334.0000      .5396      .4386   -45.8021     9.8628   124.1437
10334.5000      .5387      .4396   -45.6439     9.8616   124.8518
10335.0000      .5358      .4399   -45.4445     9.8502   125.7489
10335.5000      .5345      .4383   -45.3077     9.8244   125.9042
10336.0000      .5339      .4362   -45.2729     9.8210   126.8148
10336.5000      .5345      .4318   -45.1525     9.8416   127.3986
10337.0000      .5376      .4361   -44.9739     9.8643   126.9208
10337.5000      .5417      .4439   -44.7537     9.8691   124.2212
10338.0000      .5458      .4533   -44.4745     9.8737   121.8665
10338.5000      .5488      .4629   -44.2255     9.8788   120.9257
10339.0000      .5495      .4716   -44.0861     9.8838   121.4034
10339.5000      .5489      .4773   -44.1541     9.8888   122.2667
10340.0000      .5479      .4785   -44.2746     9.8946   122.4846
10340.5000      .5467      .4710   -44.4230     9.9030   122.8751
10341.0000      .5453      .4654   -44.3992     9.9114   123.2089
10341.5000      .5443      .4608   -44.3034     9.9180   122.3492
10342.0000      .5455      .4563   -44.0090     9.9264   121.1904
10342.5000      .5496      .4574   -43.7504     9.9384   120.4095
10343.0000      .5519      .4585   -43.5698     9.9495   119.8523
10343.5000      .5531      .4595   -43.5045     9.9435   119.4293
10344.0000      .5530      .4607   -43.4794     9.9099   118.8713
10344.5000      .5518      .4622   -43.4922     9.8865   118.3412
10345.0000      .5538      .4652   -43.5336     9.8672   118.2605
10345.5000      .5573      .4708   -43.5721     9.8399   119.1510
10346.0000      .5646      .4806   -43.6102     9.8466   119.7815
10346.5000      .5756      .4939   -43.7162     9.8660   120.3604
10347.0000      .5926      .5156   -43.8394     9.8902   121.1559
10347.5000      .6137      .5449   -44.0059     9.9104   120.5709
10348.0000      .6365      .5830   -44.1614     9.9204   116.8369
10348.5000      .6583      .6158   -44.3007     9.9349   112.9353
10349.0000      .6837      .6471   -44.4519     9.9568   108.9648
10349.5000      .7102      .6694   -44.6685    10.0036   107.2727
10350.0000      .7315      .6763   -44.8718    10.0362   107.1176
10350.5000      .7382      .6691   -44.9684    10.0565   112.6201
