~VERSION INFORMATION
VERS.                             2.0:   CWLS Log ASCII Standard-VERSION 2.0
WRAP.                              NO:   One line per depth step
~Well Information Block
STRT.F                      3576.0000:   Top Depth
STOP.F                      7908.0000:   Bottom Depth
STEP.F                         .50000:   Depth Increment
NULL.                        -999.250:   Null Value
FLD .                      BA BLK 431:   Field Name
WELL.       OCSG09017   001 ST00 BP00:   NAME
API .                  42704401710000:   WELL API
EDF .F                        80.0000:   ELEV DRILL FLOOR
COMP.        WOLVERINE EXPLORATION CO:   OPERATOR
BN  .                             431:   BLOCK
CTRY.                             USA:   COUNTRY NAME
CNTY.                        BRAZOS L:   COUNTY NAME
EKB .F                        81.0000:   ELEV KELLY BUSHING
TDD .F                       7953.000:   FINAL TD DRILLER
STAT.                           TEXAS:   STATE NAME
UWI .                  42704401710000:   WELL API
DICO.               IHS : Digitizing Company
~PARAMETER INFORMATION (zones)
#MNEM.UNIT                       Value     Description
#=========                       =====     ===========
#ZONATION                          DIL:   ZONATION NAME
#ZONE                            RUN_1:   ZONE NAME
TOP .                       3576.0000:   TOP DEPTH
BOT .                       7908.5000:   BOTTOM DEPTH
RUN .                               1:   RUN NUMBER
LCCD.                             440:   LOGGING CONTRACTOR
SRVC.                    Schlumberger:   LOGGING CONT NAME
DICO.          QC Data Collectors Ltd:   DIG COMPANY NAME
LDAT.                      05/13/1988:   DATE LOGGED
ELD .F                        81.0000:   LOG DATUM ELEVATION
TDD .F                      7953.0000:   TOTAL DEPTH DRILLER
TDL .F                      7911.0000:   TOTAL DEPTH LOGGER
BOTL.F                      7908.0000:   BOTTOM DEPTH LOGGED
TOPL.F                      3608.0000:   TOP DEPTH LOGGED
CS1 .IN                       10.7500:   CASING SIZE 1
BS1 .IN                        9.8750:   BIT SIZE 1
DDB1.F                      7953.0000:   DEPTH DRILLED BIT 1
BHF .                              99:   FLUID CODE
DPT .                   Miscellaneous:   DRILLING FLUID TYPE
MUDD.                         10.0000:   FLUID DENSITY
MUDV.                         43.0000:   FLUID VISCOSITY
DFPH.                         11.3000:   FLUID PH
FL  .                          6.2000:   FLUID LOSS
RM  .OHMM                       .7340:   RM
RMT .DEGF                     73.0000:   RM TEMP
RMF .OHMM                       .5760:   RMF
RMFT.DEGF                     73.0000:   RMF TEMP
FSC .                               M:   RMF CODE
RMC .OHMM                       .8300:   RMC
RMCT.DEGF                     73.0000:   RMC TEMP
CMC .                               M:   RMC CODE
TMAX.DEGF                    164.0000:   MAX REC TEMP
TIMC.                          5.0000:   TIME SINCE CIRCLN
~Curve Information Block
#MNEM.UNIT                    API CODE    No Description
#=========                    ========    == ===========
DEPT.F                   00 001 00 00:     1  DEPTH
DCAL.IN                              :     2  Differential Caliper
DT.US/F                              :     3  Sonic Transit Time
GR.GAPI                              :     4  Gamma Ray
ILD.OHMM                             :     5  Deep Induction Resistivity
ILM.OHMM                             :     6  Medium Induction Resistivity
SFL.OHMM                             :     7  Medium Resistivity
SP.MV                                :     8  Spontaneous Potential
~ASCII
# ...
 6715.5000     1.1017   111.9269    75.2137      .7864      .7712     1.0087   -42.3846
 6716.0000     1.1021   111.8997    75.5879      .7854      .7701      .9999   -42.3122
 6716.5000     1.0947   112.1565    75.5330      .7847      .7700      .9984   -42.3421
 6717.0000     1.0874   112.5417    74.8236      .7847      .7710      .9998   -42.3810
 6717.5000     1.0820   113.0615    74.1642      .7873      .7733     1.0028   -42.4604
 6718.0000     1.0799   113.1083    77.8142      .7898      .7775     1.0058   -42.6227
 6718.5000     1.0778   113.0032    80.7531      .7935      .7824     1.0087   -42.5345
 6719.0000     1.0721   112.4067    79.6750      .7978      .7867     1.0112   -42.4332
 6719.5000     1.0664   111.5887    78.0439      .8023      .7920     1.0125   -42.4207
 6720.0000     1.0690   110.7496    76.1744      .8068      .7993     1.0138   -42.6349
 6720.5000     1.0741   109.9491    75.2644      .8098      .8049     1.0170   -42.6707
 6721.0000     1.1030   109.4828    74.6625      .8089      .8068     1.0417   -42.6464
 6721.5000     1.1499   109.9839    74.1920      .8078      .8037     1.0639   -42.5468
 6722.0000     1.2728   111.2164    74.1080      .8022      .7988     1.0488   -42.2790
 6722.5000     1.3445   112.1428    74.8755      .7967      .7903     1.0056   -42.0151
 6723.0000     1.3911   112.7946    75.6781      .7918      .7831      .9706   -42.0274
 6723.5000     1.3776   113.1786    75.6285      .7871      .7823      .9396   -42.2608
 6724.0000     1.3243   112.7074    75.5756      .7834      .7823      .9129   -42.5164
 6724.5000     1.3028   111.6149    76.6338      .7805      .7824      .9029   -42.8637
 6725.0000     1.2948   110.4171    79.9133      .7787      .7802      .9217   -43.2211
 6725.5000     1.2921   109.4685    82.5780      .7791      .7792      .9650   -43.5687
 6726.0000     1.2895   109.4773    83.7263      .7798      .7806     1.0032   -43.8593
 6726.5000     1.2963   109.6375    82.7694      .7819      .7813     1.0347   -44.1269
 6727.0000     1.3240   109.8921    81.9545      .7882      .7873     1.0424   -44.2105
 6727.5000     1.3710   109.8735    81.0913      .8018      .8013     1.0267   -44.2443
 6728.0000     1.4275   109.7570    79.3726      .8171      .8271     1.0134   -44.1813
 6728.5000     1.4825   109.5052    77.1327      .8250      .8373     1.0119   -43.9904
 6729.0000     1.5218   109.3820    74.4902      .8243      .8333     1.0110   -43.7187
 6729.5000     1.6029   109.6422    71.9441      .8164      .8145     1.0106   -43.3947
 6730.0000     1.6051   110.4097    71.6039      .8087      .7972     1.0074   -43.0421
 6730.5000     1.4173   111.1642    72.0596      .8029      .7915      .9993   -42.7510
 6731.0000     1.2344   111.6538    72.4966      .7973      .7887      .9896   -42.4809
 6731.5000     1.2168   111.7864    74.5692      .7927      .7840      .9782   -42.5429
 6732.0000     1.2221   112.1396    78.4020      .7881      .7771      .9790   -42.6016
 6732.5000     1.2335   112.8113    81.6298      .7813      .7673      .9762   -42.6308
 6733.0000     1.2447   113.5359    81.5260      .7745      .7564      .9665   -42.6626
 6733.5000     1.2461   113.4780    79.5404      .7696      .7521      .9426   -42.8421
 6734.0000     1.2474   112.2959    77.1919      .7676      .7558      .9132   -43.1082
 6734.5000     1.2426   110.5330    75.0187      .7729      .7686      .9011   -43.3502
 6735.0000     1.2342   108.7600    73.4135      .7885      .7838      .9154   -43.4581
 6735.5000     1.2486   107.3507    72.5923      .8107      .8137      .9819   -43.3406
 6736.0000     1.2648   106.3260    72.4468      .8396      .8538     1.0376   -42.9779
 6736.5000     1.2893   105.5044    71.4230      .8647      .8857     1.0778   -42.5149
 6737.0000     1.3140   104.9142    68.7238      .8859      .9062     1.1366   -42.4581
 6737.5000     1.3413   104.5099    66.8617      .9008      .9167     1.2105   -42.5179
 6738.0000     1.2614   105.5753    68.4941      .9122      .9254     1.2632   -42.6318
 6738.5000     1.1081   107.6594    72.5343      .9110      .9032     1.2295   -42.7847
 6739.0000     1.0093   109.1510    75.3715      .9080      .8821     1.1309   -42.9695
 6739.5000      .9105   109.8899    75.6624      .9025      .8632     1.0606   -43.1884
 6740.0000      .8934   108.9791    75.5199      .8977      .8545     1.0080   -43.3368
 6740.5000      .8832   107.2997    75.5424      .8941      .8551      .9972   -43.3984
 6741.0000      .9077   105.9418    75.4154      .8908      .8604     1.0184   -43.4103
 6741.5000      .9322   106.0011    73.5962      .8881      .8679     1.0753   -43.3156
 6742.0000      .9589   106.7830    71.6885      .8866      .8768     1.1539   -43.2493
 6742.5000      .9858   107.6010    70.8075      .8879      .8838     1.1734   -43.2371
 6743.0000      .9991   108.4276    70.4650      .8879      .8866     1.1199   -43.2902
 6743.5000     1.0085   108.8951    70.4136      .8863      .8735     1.0993   -43.3380
 6744.0000     1.0116   109.5220    70.7457      .8624      .8492     1.0847   -43.2079
 6744.5000     1.0129   110.3811    71.3810      .8383      .8264     1.0774   -42.8384
 6745.0000      .9986   111.6560    72.6318      .8211      .8070     1.0431   -42.2413
 6745.5000      .9803   112.8885    74.5470      .8082      .7921      .9939   -41.9816
 6746.0000      .9772   113.9269    76.7178      .7984      .7886      .9477   -41.9777
 6746.5000      .9785   111.9921    78.5958      .7927      .7889      .9068   -42.2213
 6747.0000      .9824   109.2281    79.0206      .7915      .7925      .8919   -42.5958
 6747.5000      .9877   107.4678    77.5624      .7925      .8000      .9707   -42.9662
 6748.0000      .9711   106.0845    77.8488      .7973      .8088     1.0568   -43.2687
 6748.5000      .9420   105.4231    80.9851      .8117      .8237     1.1125   -43.3859
 6749.0000      .9105   105.1526    83.5894      .8267      .8417     1.1426   -43.3653
 6749.5000      .8836   105.4333    82.2965      .8414      .8570     1.1692   -43.2081
 6750.0000      .8611   106.9473    79.2417      .8456      .8616     1.1985   -42.9736
 6750.5000      .8840   108.9493    75.9867      .8427      .8494     1.2040   -42.6667
 6751.0000      .9112   110.2777    72.1985      .8430      .8360     1.0766   -42.2648
 6751.5000      .9153   109.0962    69.2473      .8433      .8301      .9854   -41.7456
 6752.0000      .8964   106.7631    68.4941      .8436      .8363      .9528   -41.1918
 6752.5000      .8830   106.0254    70.3018      .8396      .8481      .9830   -41.0063
 6753.0000      .8715   107.4429    73.4530      .8346      .8457     1.0707   -41.2646
 6753.5000      .8486   109.2432    76.4832      .8306      .8384     1.1551   -41.5696
 6754.0000      .8335   111.2351    77.5049      .8262      .8312     1.1179   -42.0728
 6754.5000      .8351   112.7255    77.9186      .8212      .8206     1.0454   -42.4318
 6755.0000      .8884   112.5088    78.7810      .8177      .8121      .9815   -42.5683
 6755.5000     1.0157   111.3945    79.6139      .8150      .8064      .9410   -42.2950
 6756.0000     1.1867   109.7286    79.0713      .8146      .8075      .9337   -41.9231
 6756.5000     1.2170   108.1799    77.0265      .8157      .8156      .9704   -42.0166
 6757.0000     1.1337   106.7207    74.5050      .8247      .8343     1.0095   -42.5303
 6757.5000     1.1286   105.2653    72.8085      .8421      .8534     1.0498   -43.0446
 6758.0000     1.1471   103.5808    72.3145      .8685      .8843     1.0843   -43.5219
 6758.5000     1.1656   101.8030    72.2732      .9137      .9293     1.1203   -43.7039
 6759.0000     1.1981    99.8706    72.0200      .9708      .9875     1.1602   -43.5937
 6759.5000     1.2209    97.8425    70.7205     1.0150     1.0335     1.2153   -43.4011
 6760.0000     1.2119    96.9661    70.5883     1.0465     1.0510     1.3083   -43.2800
 6760.5000     1.2070    99.1710    73.0332     1.0638     1.0659     1.5038   -43.1782
