~VERSION INFORMATION
VERS.                             2.0:   CWLS Log ASCII Standard-VERSION 2.0
WRAP.                              NO:   One line per depth step
~Well Information Block
STRT.F                      3138.0000:   Top Depth
STOP.F                      8628.0000:   Bottom Depth
STEP.F                         .50000:   Depth Increment
NULL.                        -999.250:   Null Value
FLD .                      BA BLK 376:   Field Name
WELL.       OCSG07215   003 ST00 BP00:   NAME
API .                  42704401900000:   WELL API
EDF .F                        90.0000:   ELEV DRILL FLOOR
COMP.         UNION EXPL PARTNERS LTD:   OPERATOR
BN  .                             376:   BLOCK
CTRY.                             USA:   COUNTRY NAME
CNTY.                        BRAZOS L:   COUNTY NAME
EKB .F                        91.0000:   ELEV KELLY BUSHING
TDD .F                       8678.000:   FINAL TD DRILLER
STAT.                           TEXAS:   STATE NAME
UWI .                  42704401900000:   WELL API
DICO.               IHS : Digitizing Company
~PARAMETER INFORMATION (zones)
#MNEM.UNIT                       Value     Description
#=========                       =====     ===========
#ZONATION                          DIL:   ZONATION NAME
#ZONE                            RUN_1:   ZONE NAME
TOP .                       3138.0000:   TOP DEPTH
BOT .                       5660.5000:   BOTTOM DEPTH
RUN .                               1:   RUN NUMBER
SRVC.                               0:   LOGGING CONTRACTOR
SRVC.                         UNKNOWN:   LOGGING CONT NAME
DICO.          QC Data Collectors Ltd:   DIG COMPANY NAME
LDAT.                      06/22/1989:   DATE LOGGED
ELD .F                        91.0000:   LOG DATUM ELEVATION
TDD .F                      5675.0000:   TOTAL DEPTH DRILLER
TDL .F                      5662.0000:   TOTAL DEPTH LOGGER
BOTL.F                      5660.0000:   BOTTOM DEPTH LOGGED
TOPL.F                      3220.0000:   TOP DEPTH LOGGED
CS1 .IN                       10.7500:   CASING SIZE 1
BS1 .IN                        9.8750:   BIT SIZE 1
DDB1.F                      5675.0000:   DEPTH DRILLED BIT 1
BHF .                              20:   FLUID CODE
DPT .                    Gel (Gelchem:   DRILLING FLUID TYPE
MUDD.                          9.0000:   FLUID DENSITY
MUDV.                         68.0000:   FLUID VISCOSITY
DFPH.                          9.0000:   FLUID PH
FL  .                         12.0000:   FLUID LOSS
RM  .OHMM                      1.0500:   RM
RMT .DEGF                     75.0000:   RM TEMP
RMF .OHMM                       .8200:   RMF
RMFT.DEGF                     75.0000:   RMF TEMP
FSC .                               M:   RMF CODE
RMC .OHMM                      1.2200:   RMC
RMCT.DEGF                     75.0000:   RMC TEMP
CMC .                               M:   RMC CODE
TMAX.DEGF                    128.0000:   MAX REC TEMP
TIMC.                          7.0000:   TIME SINCE CIRCLN
~PARAMETER INFORMATION (zones)
#MNEM.UNIT                       Value     Description
#=========                       =====     ===========
#ZONATION                          DIL:   ZONATION NAME
#ZONE                            RUN_2:   ZONE NAME
TOP .                       5664.0000:   TOP DEPTH
BOT .                       8628.5000:   BOTTOM DEPTH
RUN .                               2:   RUN NUMBER
SRVC.                               0:   LOGGING CONTRACTOR
SRVC.                         UNKNOWN:   LOGGING CONT NAME
DICO.          QC Data Collectors Ltd:   DIG COMPANY NAME
LDAT.                      07/04/1989:   DATE LOGGED
ELD .F                        91.0000:   LOG DATUM ELEVATION
TDD .F                      8678.0000:   TOTAL DEPTH DRILLER
TDL .F                      8630.0000:   TOTAL DEPTH LOGGER
BOTL.F                      8628.0000:   BOTTOM DEPTH LOGGED
TOPL.F                      5664.0000:   TOP DEPTH LOGGED
CS1 .IN                        7.6250:   CASING SIZE 1
BS1 .IN                        6.5000:   BIT SIZE 1
DDB1.F                      8678.0000:   DEPTH DRILLED BIT 1
BHF .                              81:   FLUID CODE
DPT .          Lignosulfonate (Ligno):   DRILLING FLUID TYPE
MUDD.                         11.8000:   FLUID DENSITY
MUDV.                         48.0000:   FLUID VISCOSITY
DFPH.                         10.5000:   FLUID PH
FL  .                          6.6000:   FLUID LOSS
RM  .OHMM                       .7200:   RM
RMT .DEGF                     70.0000:   RM TEMP
RMF .OHMM                       .5900:   RMF
RMFT.DEGF                     70.0000:   RMF TEMP
FSC .                               M:   RMF CODE
RMC .OHMM                       .9000:   RMC
RMCT.DEGF                     70.0000:   RMC TEMP
CMC .                               C:   RMC CODE
TMAX.DEGF                    191.0000:   MAX REC TEMP
TIMC.                          5.0000:   TIME SINCE CIRCLN
~Curve Information Block
#MNEM.UNIT                    API CODE    No Description
#=========                    ========    == ===========
DEPT.F                   00 001 00 00:     1  DEPTH
DT.US/F                              :     2  Sonic Transit Time
GR.GAPI                              :     3  Gamma Ray
ILD.OHMM                             :     4  Deep Induction Resistivity
ILM.OHMM                             :     5  Medium Induction Resistivity
RFOC.OHMM                            :     6  Medium Resistivity
SP.MV                                :     7  Spontaneous Potential
~ASCII
# ...
 6414.0000   120.3949    81.5490      .7451      .7433      .9872   -55.5093
 6414.5000   120.3041    81.2667      .7354      .7410      .9970   -55.4940
 6415.0000   120.3163    79.9340      .7332      .7384      .9971   -55.4274
 6415.5000   120.3539    77.5199      .7319      .7394      .9954   -55.1770
 6416.0000   120.4767    75.8009      .7301      .7383      .9920   -54.8768
 6416.5000   120.6426    74.5742      .7255      .7342     1.0023   -54.5851
 6417.0000   120.6897    74.6194      .7195      .7275     1.0145   -54.4016
 6417.5000   120.7251    75.7760      .7121      .7197     1.0284   -54.2790
 6418.0000   120.7556    77.2069      .7032      .7117     1.0384   -54.2142
 6418.5000   120.8281    78.1053      .6923      .7038      .9939   -54.1510
 6419.0000   121.1713    77.4937      .6898      .6979      .9685   -54.0898
 6419.5000   121.8655    74.0819      .6876      .6932      .9640   -54.0436
 6420.0000   122.6790    71.0081      .6836      .6867      .9669   -54.0398
 6420.5000   123.2649    70.1420      .6702      .6807      .9709   -54.0360
 6421.0000   123.3298    71.1926      .6558      .6742      .9694   -53.9852
 6421.5000   123.2677    73.1157      .6433      .6680      .9659   -53.9496
 6422.0000   123.3508    75.3099      .6325      .6638      .9595   -53.9675
 6422.5000   124.0070    78.0461      .6243      .6628      .9529   -53.9922
 6423.0000   124.7784    80.5519      .6242      .6635      .9435   -54.0328
 6423.5000   125.4713    82.8273      .6282      .6661      .9293   -54.0953
 6424.0000   125.8431    84.1947      .6421      .6733      .9235   -54.2161
 6424.5000   125.5304    82.5759      .6599      .6887      .9527   -54.5349
 6425.0000   124.4938    81.1620      .6791      .7071      .9903   -55.0212
 6425.5000   123.5667    81.4310      .7015      .7288     1.0294   -55.5082
 6426.0000   122.7413    82.1255      .7241      .7471     1.0489   -55.9045
 6426.5000   122.1993    81.4945      .7459      .7617     1.0552   -56.1677
 6427.0000   122.1023    80.3202      .7661      .7745     1.0553   -56.2596
 6427.5000   122.2333    79.4856      .7842      .7852     1.0554   -56.3675
 6428.0000   122.0977    78.8650      .7952      .7923     1.0540   -56.4521
 6428.5000   121.6899    77.7896      .7982      .7938     1.0499   -56.5062
 6429.0000   120.8800    76.5942      .7971      .7939     1.0447   -56.5362
 6429.5000   119.9437    75.3348      .7936      .7922     1.0392   -56.5568
 6430.0000   119.2896    74.1893      .7877      .7881     1.0365   -56.4618
 6430.5000   118.8500    73.2650      .7779      .7802     1.0380   -56.2276
 6431.0000   119.5940    74.8046      .7632      .7709     1.0304   -55.8545
 6431.5000   120.3794    76.3875      .7477      .7624     1.0140   -55.2994
 6432.0000   120.9135    76.9696      .7379      .7548     1.0023   -54.8019
 6432.5000   121.2039    77.0944      .7283      .7473      .9915   -54.3777
 6433.0000   121.0519    77.7568      .7196      .7399      .9905   -54.4025
 6433.5000   120.7972    79.2991      .7113      .7322      .9899   -54.3954
 6434.0000   121.0282    80.3673      .7056      .7250      .9900   -54.3638
 6434.5000   122.1213    80.1899      .7000      .7200      .9925   -54.2707
 6435.0000   122.8168    79.3160      .6989      .7184      .9955   -54.2121
 6435.5000   123.4374    77.9375      .6978      .7176      .9944   -54.5388
 6436.0000   123.8990    78.0736      .7000      .7169      .9874   -54.9476
 6436.5000   123.4939    79.4194      .7038      .7167      .9780   -55.1613
 6437.0000   123.0260    80.8478      .7070      .7167      .9693   -55.1683
 6437.5000   122.6560    81.6882      .7097      .7178      .9663   -55.1398
 6438.0000   122.4021    81.6935      .7127      .7199      .9659   -55.0591
 6438.5000   122.2955    81.4435      .7162      .7216      .9691   -54.9753
 6439.0000   122.0527    80.0204      .7193      .7229      .9742   -54.8909
 6439.5000   121.7405    76.3887      .7215      .7241      .9805   -54.8101
 6440.0000   120.9115    73.0818      .7228      .7242      .9860   -54.7283
 6440.5000   120.1819    71.9713      .7229      .7243      .9905   -54.6454
 6441.0000   119.6942    72.1074      .7228      .7244      .9947   -54.4379
 6441.5000   119.7982    72.3339      .7223      .7244      .9915   -54.2049
 6442.0000   119.9041    72.3639      .7218      .7241      .9862   -53.8927
 6442.5000   120.0315    72.1761      .7197      .7220      .9803   -53.6776
 6443.0000   120.1067    71.5559      .7173      .7201      .9763   -53.6132
 6443.5000   120.0973    70.5157      .7149      .7188      .9779   -53.5815
 6444.0000   119.8741    69.1542      .7125      .7179      .9824   -53.5781
 6444.5000   119.6923    68.6069      .7117      .7180      .9899   -53.5965
 6445.0000   119.5271    69.2472      .7131      .7181      .9961   -53.5856
 6445.5000   119.5085    70.0497      .7145      .7213      .9947   -53.5605
 6446.0000   119.5681    70.9288      .7174      .7260      .9779   -53.5276
 6446.5000   119.9562    71.6665      .7230      .7314      .9604   -53.5143
 6447.0000   120.7238    72.7859      .7345      .7398      .9592   -53.5332
 6447.5000   121.1956    74.0558      .7476      .7481      .9733   -53.5657
 6448.0000   121.5616    75.1719      .7634      .7558     1.0200   -53.7336
 6448.5000   121.0649    75.6039      .7688      .7610     1.0899   -54.2736
 6449.0000   120.5328    75.9266      .7645      .7635     1.1174   -55.3550
 6449.5000   120.0985    76.5792      .7618      .7635     1.0936   -57.0569
 6450.0000   120.0200    77.9336      .7591      .7620     1.0545   -59.2171
 6450.5000   119.8688    80.1251      .7589      .7605     1.0263   -61.6207
 6451.0000   119.6827    80.5171      .7590      .7605     1.0152   -63.4641
 6451.5000   119.3916    80.7094      .7592      .7609     1.0126   -64.4391
 6452.0000   119.0813    80.9847      .7626      .7636     1.0111   -64.4089
 6452.5000   118.7742    80.5022      .7659      .7668     1.0101   -64.2491
 6453.0000   118.4691    78.9993      .7677      .7703     1.0124   -64.0492
 6453.5000   118.3521    77.3352      .7669      .7713     1.0149   -63.6922
 6454.0000   118.3591    75.3074      .7640      .7689     1.0180   -63.2769
 6454.5000   118.5397    75.9553      .7604      .7626     1.0118   -62.7964
 6455.0000   119.0665    77.6089      .7566      .7558      .9981   -62.4687
 6455.5000   119.7909    79.6460      .7513      .7511      .9846   -62.1581
 6456.0000   120.5460    80.7614      .7465      .7489      .9833   -61.8643
 6456.5000   121.1005    80.7024      .7430      .7474      .9948   -61.6466
 6457.0000   121.4357    80.3221      .7400      .7458     1.0149   -61.5543
 6457.5000   121.5443    79.8783      .7379      .7443     1.0305   -61.4155
 6458.0000   121.6299    79.6804      .7350      .7414     1.0193   -61.2560
 6458.5000   121.6240    79.6562      .7306      .7376     1.0080   -60.8647
 6459.0000   121.6182    80.3817      .7247      .7322      .9989   -60.3626
 6459.5000   121.4982    82.3088      .7172      .7265      .9900   -59.7139
 6460.0000   121.3240    83.9021      .7100      .7208      .9856   -59.2563
 6460.5000   121.0850    84.6096      .7029      .7151      .9828   -58.9235
 6461.0000   120.7546    84.3145      .6964      .7092      .9805   -58.9019
 6461.5000   121.8877    83.3391      .6917      .7033      .9796   -59.1343
 6462.0000   122.9775    82.0129      .6870      .6976      .9777   -59.4894
 6462.5000   123.3705    80.8511      .6809      .6919      .9746   -59.9044
 6463.0000   123.5962    80.2795      .6750      .6873      .9731   -60.2396
 6463.5000   123.6953    80.3889      .6709      .6833      .9722   -60.0268
 6464.0000   123.7250    81.1869      .6676      .6806      .9704   -59.1294
 6464.5000   123.8182    81.8617      .6666      .6784      .9689   -58.0539
 6465.0000   123.9950    82.3965      .6656      .6778      .9691   -57.6274
 6465.5000   124.1373    83.0524      .6670      .6774      .9696   -57.5819
