~VERSION INFORMATION
VERS.                             2.0:   CWLS Log ASCII Standard-VERSION 2.0
WRAP.                              NO:   One line per depth step
~Well Information Block
STRT.F                      3576.0000:   Top Depth
STOP.F                      7908.0000:   Bottom Depth
STEP.F                         .50000:   Depth Increment
NULL.                        -999.250:   Null Value
FLD .                      BA BLK 431:   Field Name
WELL.       OCSG09017   001 ST00 BP00:   NAME
API .                  42704401710000:   WELL API
EDF .F                        80.0000:   ELEV DRILL FLOOR
COMP.        WOLVERINE EXPLORATION CO:   OPERATOR
BN  .                             431:   BLOCK
CTRY.                             USA:   COUNTRY NAME
CNTY.                        BRAZOS L:   COUNTY NAME
EKB .F                        81.0000:   ELEV KELLY BUSHING
TDD .F                       7953.000:   FINAL TD DRILLER
STAT.                           TEXAS:   STATE NAME
UWI .                  42704401710000:   WELL API
DICO.               IHS : Digitizing Company
~PARAMETER INFORMATION (zones)
#MNEM.UNIT                       Value     Description
#=========                       =====     ===========
#ZONATION                          DIL:   ZONATION NAME
#ZONE                            RUN_1:   ZONE NAME
TOP .                       3576.0000:   TOP DEPTH
BOT .                       7908.5000:   BOTTOM DEPTH
RUN .                               1:   RUN NUMBER
LCCD.                             440:   LOGGING CONTRACTOR
SRVC.                    Schlumberger:   LOGGING CONT NAME
DICO.          QC Data Collectors Ltd:   DIG COMPANY NAME
LDAT.                      05/13/1988:   DATE LOGGED
ELD .F                        81.0000:   LOG DATUM ELEVATION
TDD .F                      7953.0000:   TOTAL DEPTH DRILLER
TDL .F                      7911.0000:   TOTAL DEPTH LOGGER
BOTL.F                      7908.0000:   BOTTOM DEPTH LOGGED
TOPL.F                      3608.0000:   TOP DEPTH LOGGED
CS1 .IN                       10.7500:   CASING SIZE 1
BS1 .IN                        9.8750:   BIT SIZE 1
DDB1.F                      7953.0000:   DEPTH DRILLED BIT 1
BHF .                              99:   FLUID CODE
DPT .                   Miscellaneous:   DRILLING FLUID TYPE
MUDD.                         10.0000:   FLUID DENSITY
MUDV.                         43.0000:   FLUID VISCOSITY
DFPH.                         11.3000:   FLUID PH
FL  .                          6.2000:   FLUID LOSS
RM  .OHMM                       .7340:   RM
RMT .DEGF                     73.0000:   RM TEMP
RMF .OHMM                       .5760:   RMF
RMFT.DEGF                     73.0000:   RMF TEMP
FSC .                               M:   RMF CODE
RMC .OHMM                       .8300:   RMC
RMCT.DEGF                     73.0000:   RMC TEMP
CMC .                               M:   RMC CODE
TMAX.DEGF                    164.0000:   MAX REC TEMP
TIMC.                          5.0000:   TIME SINCE CIRCLN
~Curve Information Block
#MNEM.UNIT                    API CODE    No Description
#=========                    ========    == ===========
DEPT.F                   00 001 00 00:     1  DEPTH
DCAL.IN                              :     2  Differential Caliper
DT.US/F                              :     3  Sonic Transit Time
GR.GAPI                              :     4  Gamma Ray
ILD.OHMM                             :     5  Deep Induction Resistivity
ILM.OHMM                             :     6  Medium Induction Resistivity
SFL.OHMM                             :     7  Medium Resistivity
SP.MV                                :     8  Spontaneous Potential
~ASCII
# ...
 7307.0000      .4554   108.9928    72.4934      .8447      .8496     1.0734   -41.6147
 7307.5000      .4615   107.9722    71.6545      .8500      .8510     1.0723   -41.7786
 7308.0000      .4678   106.2777    71.2091      .8524      .8507     1.0708   -41.7459
 7308.5000      .4747   105.5240    71.2986      .8517      .8458     1.0752   -41.6552
 7309.0000      .4691   105.5637    72.0881      .8450      .8406     1.0645   -41.4659
 7309.5000      .4578   106.6865    73.6692      .8253      .8346     1.0329   -41.2174
 7310.0000      .4465   107.5653    75.4138      .8084      .8239     1.0054   -40.9323
 7310.5000      .4424   107.8018    76.5835      .7927      .8103      .9802   -40.7278
 7311.0000      .4555   107.8781    76.4261      .7873      .7945      .9663   -40.9779
 7311.5000      .4686   107.8903    75.8550      .7913      .7905      .9646   -41.2993
 7312.0000      .4850   107.4928    75.6521      .8076      .8117      .9820   -41.2079
 7312.5000      .4984   106.4921    75.7139      .8278      .8317     1.0216   -41.4520
 7313.0000      .5053   105.7068    75.8114      .8463      .8471     1.0521   -41.7663
 7313.5000      .5100   106.5330    75.0173      .8553      .8442     1.0635   -42.0259
 7314.0000      .5126   108.2694    73.1339      .8606      .8437     1.0651   -42.0855
 7314.5000      .5151   109.2628    71.8973      .8611      .8440     1.0680   -42.1027
 7315.0000      .5177   107.6724    71.2023      .8570      .8455     1.0761   -42.0500
 7315.5000      .5060   103.8253    70.9722      .8519      .8389     1.0951   -41.9134
 7316.0000      .4857   104.5140    71.1239      .8427      .8275     1.1012   -41.6760
 7316.5000      .4687   106.5824    72.2976      .8329      .8154     1.0573   -41.2305
 7317.0000      .4654   107.7046    74.5514      .8233      .8032     1.0321   -40.3995
 7317.5000      .4622   108.0780    76.1635      .8138      .7907     1.0082   -40.0060
 7318.0000      .4602   108.0074    76.2979      .8047      .7780      .9981   -40.2922
 7318.5000      .4596   107.9410    75.8135      .7972      .7738      .9895   -40.7315
 7319.0000      .4590   107.9283    75.4485      .7945      .8044      .9839   -40.7349
 7319.5000      .4645   107.2092    75.7471      .8147      .8375      .9996   -40.8063
 7320.0000      .4707   105.9260    75.4910      .8365      .8437     1.0404   -41.2056
 7320.5000      .4818   106.2529    74.2169      .8471      .8469     1.0584   -41.6270
 7321.0000      .4938   108.0836    72.7225      .8548      .8490     1.0533   -41.8243
 7321.5000      .5030   109.2714    71.6632      .8569      .8502     1.0525   -41.7596
 7322.0000      .4717   107.4445    70.9805      .8531      .8507     1.0559   -41.7028
 7322.5000      .4402   104.6527    70.8293      .8389      .8447     1.0690   -41.6464
 7323.0000      .4088   103.2482    71.7599      .8246      .8322     1.0565   -41.4906
 7323.5000      .3995   105.8096    73.3595      .8110      .8183     1.0326   -41.2506
 7324.0000      .3910   107.3058    75.3840      .7986      .8047     1.0092   -40.9745
 7324.5000      .3844   107.7628    76.8772      .7894      .7943      .9881   -40.8600
 7325.0000      .3955   107.9357    76.4199      .7847      .7877      .9758   -41.0275
 7325.5000      .4054   108.0359    76.0023      .8009      .7951      .9742   -41.2548
 7326.0000      .4113   107.9237    75.8451      .8186      .8150     1.0013   -41.2903
 7326.5000      .4173   106.9689    75.8314      .8340      .8319     1.0422   -41.0737
 7327.0000      .4351   106.1409    75.6754      .8448      .8374     1.0603   -41.2252
 7327.5000      .4535   106.2803    74.7559      .8516      .8424     1.0582   -41.6456
 7328.0000      .4663   108.0762    73.3942      .8570      .8544     1.0582   -41.9509
 7328.5000      .4725   109.7632    72.2567      .8605      .8645     1.0609   -42.1106
 7329.0000      .4766   106.7261    71.4191      .8623      .8689     1.0680   -42.0657
 7329.5000      .4751   104.0681    71.0659      .8527      .8628     1.0802   -41.9941
 7330.0000      .4739   105.3092    71.5349      .8400      .8487     1.0762   -41.8330
 7330.5000      .4734   106.6023    72.4525      .8280      .8334     1.0465   -41.6276
 7331.0000      .4728   107.6179    74.5118      .8168      .8146     1.0184   -41.2193
 7331.5000      .4685   108.0366    75.9392      .8094      .7989      .9959   -41.0111
 7332.0000      .4626   108.2332    76.1659      .8029      .7879      .9940   -41.2422
 7332.5000      .4567   108.1279    75.6686      .8083      .7880     1.0043   -41.7554
 7333.0000      .4483   107.5052    75.5327      .8178      .8009     1.0270   -41.5544
 7333.5000      .4396   106.5243    75.5878      .8338      .8259     1.0517   -41.2878
 7334.0000      .4396   105.7247    75.1908      .8489      .8465     1.0645   -41.7660
 7334.5000      .4422   106.0103    74.1327      .8592      .8547     1.0651   -42.1824
 7335.0000      .4507   106.0604    72.8391      .8607      .8603     1.0646   -42.4995
 7335.5000      .4609   105.8359    71.7921      .8520      .8628     1.0682   -42.5608
 7336.0000      .4795   105.1630    71.1453      .8443      .8571     1.0762   -42.4983
 7336.5000      .4666   103.3101    71.1676      .8349      .8446     1.0703   -42.3358
 7337.0000      .4224   104.3331    71.8812      .8253      .8317     1.0554   -42.0124
 7337.5000      .4193   107.8013    73.4288      .8155      .8162     1.0207   -41.6376
 7338.0000      .4161   109.9490    75.3395      .8051      .7997      .9933   -41.2081
 7338.5000      .4149   110.4036    75.9467      .7940      .7874      .9759   -41.2987
 7339.0000      .4174   109.9347    75.2273      .7879      .7837      .9664   -41.8566
 7339.5000      .4350   109.3322    74.8278      .7831      .7819      .9705   -42.1231
 7340.0000      .4489   107.9746    75.3519      .7814      .7816      .9817   -41.9624
 7340.5000      .4563   106.8066    75.5743      .7818      .7855      .9987   -41.7300
 7341.0000      .4455   106.1093    75.2750      .7865      .7903     1.0207   -41.3884
 7341.5000      .4359   105.9984    75.8264      .7935      .7963     1.0424   -41.1692
 7342.0000      .4298   106.1195    76.9354      .8053      .8050     1.0586   -41.0812
 7342.5000      .4333   106.2451    78.3207      .8186      .8182     1.0615   -41.2599
 7343.0000      .4504   106.1012    77.7568      .8342      .8344     1.0528   -41.4405
 7343.5000      .4795   105.7717    76.3232      .8491      .8461     1.0320   -41.6071
 7344.0000      .5157   105.3104    74.7299      .8613      .8565     1.0200   -41.7800
 7344.5000      .5642   104.7493    72.8911      .8691      .8560     1.0420   -41.9673
 7345.0000      .5887   104.6771    71.6707      .8731      .8574     1.0837   -42.2770
 7345.5000      .5852   104.8917    71.7283      .8749      .8607     1.1346   -42.5743
 7346.0000      .5877   105.1605    72.2263      .8748      .8646     1.1556   -42.5936
 7346.5000      .5574   105.3977    72.7678      .8746      .8682     1.1277   -42.5203
 7347.0000      .5070   105.4010    73.1925      .8758      .8687     1.1074   -42.3068
 7347.5000      .4436   105.0571    73.4240      .8770      .8692     1.0936   -42.0723
 7348.0000      .3626   104.5815    73.0950      .8798      .8764     1.1047   -41.8262
 7348.5000      .3079   104.2025    72.8210      .8830      .8887     1.1137   -41.6509
 7349.0000      .2608   103.9170    72.6021      .8854      .8932     1.1168   -41.6078
 7349.5000      .2405   104.2681    72.4100      .8867      .8854     1.1313   -41.6414
 7350.0000      .2243   105.1023    72.1920      .8843      .8772     1.1502   -41.6244
 7350.5000      .2259   106.1068    73.7288      .8726      .8682     1.1427   -41.5941
 7351.0000      .2308   106.7355    77.1733      .8592      .8549     1.1051   -41.5704
 7351.5000      .2254   107.0138    79.1812      .8491      .8417     1.0568   -41.5549
 7352.0000      .2207   107.2999    79.2004      .8384      .8311     1.0265   -41.5394
