~VERSION INFORMATION
VERS.                             2.0:   CWLS Log ASCII Standard-VERSION 2.0
WRAP.                              NO:   One line per depth step
~Well Information Block
STRT.F                      2500.0000:   Top Depth
STOP.F                     12867.0000:   Bottom Depth
STEP.F                         .50000:   Depth Increment
NULL.                        -999.250:   Null Value
FLD .                      GA BLK 255:   Field Name
WELL.       OCSG01777  A004 ST00 BP00:   NAME
API .                  42706400140000:   WELL API
EDF .F                        91.0000:   ELEV DRILL FLOOR
COMP.       COASTAL STATES GAS PROD C:   OPERATOR
BN  .                             255:   BLOCK
CTRY.                             USA:   COUNTRY NAME
CNTY.                              GA:   COUNTY
CNTY.                        GLVSTN L:   COUNTY NAME
EKB .F                        92.0000:   ELEV KELLY BUSHING
TDD .F                      12868.000:   FINAL TD DRILLER
STAT.                           TEXAS:   STATE NAME
UWI .                  42706400140000:   WELL API
DICO.               IHS : Digitizing Company
~PARAMETER INFORMATION (zones)
#MNEM.UNIT                       Value     Description
#=========                       =====     ===========
#ZONATION                           IE:   ZONATION NAME
#ZONE                            RUN_1:   ZONE NAME
TOP .                       2500.0000:   TOP DEPTH
BOT .                       8267.5000:   BOTTOM DEPTH
RUN .                               1:   RUN NUMBER
LCCD.                             440:   LOGGING CONTRACTOR
SRVC.                    Schlumberger:   LOGGING CONT NAME
DICO.          QC Data Collectors Ltd:   DIG COMPANY NAME
LDAT.                      05/23/1973:   DATE LOGGED
ELD .F                        92.0000:   LOG DATUM ELEVATION
TDD .F                      8274.0000:   TOTAL DEPTH DRILLER
TDL .F                      8268.0000:   TOTAL DEPTH LOGGER
BOTL.F                      8267.0000:   BOTTOM DEPTH LOGGED
TOPL.F                      2500.0000:   TOP DEPTH LOGGED
CS1 .IN                       13.3750:   CASING SIZE 1
BS1 .IN                       12.2500:   BIT SIZE 1
DDB1.F                      8274.0000:   DEPTH DRILLED BIT 1
BHF .                              99:   FLUID CODE
DPT .                   Miscellaneous:   DRILLING FLUID TYPE
MUDV.                         45.0000:   FLUID VISCOSITY
FL  .                          3.4000:   FLUID LOSS
RM  .OHMM                       .7100:   RM
RMT .DEGF                     82.0000:   RM TEMP
RMF .OHMM                       .4200:   RMF
RMFT.DEGF                     82.0000:   RMF TEMP
FSC .                               M:   RMF CODE
RMC .OHMM                      1.2500:   RMC
RMCT.DEGF                     82.0000:   RMC TEMP
CMC .                               M:   RMC CODE
TMAX.DEGF                     82.0000:   MAX REC TEMP
TIMC.                          6.0000:   TIME SINCE CIRCLN
MUDD.                            NULL:   FLUID DENSITY
DFPH.                            NULL:   FLUID PH
~PARAMETER INFORMATION (zones)
#MNEM.UNIT                       Value     Description
#=========                       =====     ===========
#ZONATION                           IE:   ZONATION NAME
#ZONE                            RUN_2:   ZONE NAME
TOP .                       8273.0000:   TOP DEPTH
BOT .                      12867.5000:   BOTTOM DEPTH
RUN .                               2:   RUN NUMBER
LCCD.                             440:   LOGGING CONTRACTOR
SRVC.                    Schlumberger:   LOGGING CONT NAME
DICO.          QC Data Collectors Ltd:   DIG COMPANY NAME
LDAT.                      06/12/1973:   DATE LOGGED
ELD .F                        92.0000:   LOG DATUM ELEVATION
TDD .F                     12865.0000:   TOTAL DEPTH DRILLER
TDL .F                     12868.0000:   TOTAL DEPTH LOGGER
BOTL.F                     12867.0000:   BOTTOM DEPTH LOGGED
TOPL.F                      8272.0000:   TOP DEPTH LOGGED
CS1 .IN                        9.6250:   CASING SIZE 1
BS1 .IN                        8.5000:   BIT SIZE 1
DDB1.F                     12865.0000:   DEPTH DRILLED BIT 1
BHF .                              11:   FLUID CODE
DPT .         Caustic (high PH) (CLS):   DRILLING FLUID TYPE
MUDV.                         44.0000:   FLUID VISCOSITY
FL  .                          2.6000:   FLUID LOSS
RM  .OHMM                       .9100:   RM
RMT .DEGF                     76.0000:   RM TEMP
RMF .OHMM                       .4600:   RMF
RMFT.DEGF                     78.0000:   RMF TEMP
FSC .                               M:   RMF CODE
RMC .OHMM                      1.3200:   RMC
RMCT.DEGF                     76.0000:   RMC TEMP
CMC .                               C:   RMC CODE
TMAX.DEGF                    248.0000:   MAX REC TEMP
TIMC.                          5.0000:   TIME SINCE CIRCLN
MUDD.                         16.3000:   FLUID DENSITY
DFPH.                         10.5000:   FLUID PH
~PARAMETER INFORMATION (zones)
#MNEM.UNIT                       Value     Description
#=========                       =====     ===========
#ZONATION                        SONIC:   ZONATION NAME
#ZONE                            RUN_1:   ZONE NAME
TOP .                       8272.0000:   TOP DEPTH
BOT .                      12860.5000:   BOTTOM DEPTH
RUN .                               1:   RUN NUMBER
LCCD.                             440:   LOGGING CONTRACTOR
SRVC.                    Schlumberger:   LOGGING CONT NAME
DICO.          QC Data Collectors Ltd:   DIG COMPANY NAME
LDAT.                      06/12/1973:   DATE LOGGED
ELD .F                        92.0000:   LOG DATUM ELEVATION
TDD .F                     12865.0000:   TOTAL DEPTH DRILLER
BOTL.F                     12860.0000:   BOTTOM DEPTH LOGGED
TOPL.F                      8272.0000:   TOP DEPTH LOGGED
CS1 .IN                        9.6250:   CASING SIZE 1
BS1 .IN                        8.5000:   BIT SIZE 1
DDB1.F                     12865.0000:   DEPTH DRILLED BIT 1
BHF .                              11:   FLUID CODE
DPT .         Caustic (high PH) (CLS):   DRILLING FLUID TYPE
MUDD.                         16.3000:   FLUID DENSITY
MUDV.                         44.0000:   FLUID VISCOSITY
DFPH.                         10.5000:   FLUID PH
FL  .                          2.6000:   FLUID LOSS
RM  .OHMM                       .9100:   RM
RMT .DEGF                     76.0000:   RM TEMP
RMF .OHMM                       .4600:   RMF
RMFT.DEGF                     78.0000:   RMF TEMP
FSC .                               M:   RMF CODE
RMC .OHMM                      1.3200:   RMC
RMCT.DEGF                     76.0000:   RMC TEMP
CMC .                               C:   RMC CODE
TMAX.DEGF                    248.0000:   MAX REC TEMP
TIMC.                         10.0000:   TIME SINCE CIRCLN
~Curve Information Block
#MNEM.UNIT                    API CODE    No Description
#=========                    ========    == ===========
DEPT.F                   00 001 00 00:     1  DEPTH
ASN.OHMM                             :     2  Short-Normal Resistivity
ILD.OHMM                             :     3  Deep Induction Resistivity
SP.MV                                :     4  Spontaneous Potential
CALI.IN                              :     5  Caliper
DT.US/F                              :     6  Sonic Transit Time
~ASCII
# ...
 3903.0000      .5641      .2542  -109.1445  -999.2500  -999.2500
 3903.5000      .5648      .2602  -107.0369  -999.2500  -999.2500
 3904.0000      .5536      .2662  -103.4917  -999.2500  -999.2500
 3904.5000      .5499      .2650  -102.4152  -999.2500  -999.2500
 3905.0000      .5545      .2618  -103.9008  -999.2500  -999.2500
 3905.5000      .5551      .2582  -101.8773  -999.2500  -999.2500
 3906.0000      .5455      .2557   -98.0137  -999.2500  -999.2500
 3906.5000      .5315      .2547   -94.8860  -999.2500  -999.2500
 3907.0000      .5229      .2564   -97.6953  -999.2500  -999.2500
 3907.5000      .5183      .2608  -104.0674  -999.2500  -999.2500
 3908.0000      .5173      .2669  -109.1603  -999.2500  -999.2500
 3908.5000      .5318      .2818  -110.4729  -999.2500  -999.2500
 3909.0000      .5542      .3149  -112.1427  -999.2500  -999.2500
 3909.5000      .5798      .3546  -113.0825  -999.2500  -999.2500
 3910.0000      .6065      .3927  -111.6929  -999.2500  -999.2500
 3910.5000      .5993      .4311  -108.1680  -999.2500  -999.2500
 3911.0000      .5947      .4621  -102.2272  -999.2500  -999.2500
 3911.5000      .5984      .4764   -95.0850  -999.2500  -999.2500
 3912.0000      .6160      .4722   -87.9390  -999.2500  -999.2500
 3912.5000      .6397      .4529   -82.2593  -999.2500  -999.2500
 3913.0000      .6436      .4354   -77.7958  -999.2500  -999.2500
 3913.5000      .6471      .4216   -75.5270  -999.2500  -999.2500
 3914.0000      .6601      .4119   -75.8635  -999.2500  -999.2500
 3914.5000      .6846      .4083   -77.9087  -999.2500  -999.2500
 3915.0000      .7229      .4154   -83.5959  -999.2500  -999.2500
 3915.5000      .7717      .4307   -89.5940  -999.2500  -999.2500
 3916.0000      .8262      .4489   -95.5922  -999.2500  -999.2500
 3916.5000      .8838      .4897  -101.5903  -999.2500  -999.2500
 3917.0000      .9302      .5325  -105.8446  -999.2500  -999.2500
 3917.5000      .9752      .5780  -108.1782  -999.2500  -999.2500
 3918.0000     1.0554      .6168  -108.2958  -999.2500  -999.2500
 3918.5000     1.1260      .6431  -107.6941  -999.2500  -999.2500
 3919.0000     1.1933      .6507  -107.2849  -999.2500  -999.2500
 3919.5000     1.2561      .6228  -106.9767  -999.2500  -999.2500
 3920.0000     1.2984      .5916  -106.6648  -999.2500  -999.2500
 3920.5000     1.3135      .5599  -106.0867  -999.2500  -999.2500
 3921.0000     1.3047      .5260  -104.6523  -999.2500  -999.2500
 3921.5000     1.2278      .4933  -101.3867  -999.2500  -999.2500
 3922.0000     1.1088      .4614   -97.2806  -999.2500  -999.2500
 3922.5000      .9618      .4361   -93.1708  -999.2500  -999.2500
 3923.0000      .8482      .4269   -89.0646  -999.2500  -999.2500
 3923.5000      .7727      .4288   -84.9547  -999.2500  -999.2500
 3924.0000      .7133      .4438   -80.3118  -999.2500  -999.2500
 3924.5000      .6739      .4766   -79.1996  -999.2500  -999.2500
 3925.0000      .6600      .5265   -78.5054  -999.2500  -999.2500
 3925.5000      .6756      .5684   -77.8143  -999.2500  -999.2500
 3926.0000      .7115      .6002   -77.2668  -999.2500  -999.2500
 3926.5000      .7515      .6274   -77.1060  -999.2500  -999.2500
 3927.0000      .7825      .6499   -77.0630  -999.2500  -999.2500
 3927.5000      .8023      .6673   -76.3750  -999.2500  -999.2500
 3928.0000      .8164      .6794   -75.3429  -999.2500  -999.2500
 3928.5000      .8210      .6864   -73.9832  -999.2500  -999.2500
 3929.0000      .8182      .6910   -72.5696  -999.2500  -999.2500
 3929.5000      .8104      .6923   -71.6787  -999.2500  -999.2500
 3930.0000      .8007      .6913   -70.9563  -999.2500  -999.2500
 3930.5000      .8046      .6904   -70.7555  -999.2500  -999.2500
 3931.0000      .8177      .6908   -71.4196  -999.2500  -999.2500
 3931.5000      .8300      .6913   -72.4873  -999.2500  -999.2500
 3932.0000      .8369      .6929   -73.6572  -999.2500  -999.2500
 3932.5000      .8369      .6962   -74.9911  -999.2500  -999.2500
 3933.0000      .8286      .6995   -76.9127  -999.2500  -999.2500
 3933.5000      .8248      .6990   -77.5829  -999.2500  -999.2500
 3934.0000      .8233      .6965   -75.4669  -999.2500  -999.2500
 3934.5000      .8133      .6940   -73.8109  -999.2500  -999.2500
 3935.0000      .7951      .6896   -72.6974  -999.2500  -999.2500
 3935.5000      .7785      .6851   -72.1089  -999.2500  -999.2500
 3936.0000      .7666      .6842   -72.0328  -999.2500  -999.2500
 3936.5000      .7597      .6850   -72.1422  -999.2500  -999.2500
 3937.0000      .7592      .6830   -72.4305  -999.2500  -999.2500
 3937.5000      .7602      .6785   -72.7344  -999.2500  -999.2500
 3938.0000      .7590      .6744   -72.7039  -999.2500  -999.2500
 3938.5000      .7566      .6713   -72.5948  -999.2500  -999.2500
 3939.0000      .7520      .6679   -72.4949  -999.2500  -999.2500
 3939.5000      .7454      .6640   -72.5127  -999.2500  -999.2500
 3940.0000      .7404      .6629   -72.9774  -999.2500  -999.2500
 3940.5000      .7360      .5992   -73.9210  -999.2500  -999.2500
 3941.0000      .7311      .5037   -74.4495  -999.2500  -999.2500
 3941.5000      .7267      .4150   -74.6996  -999.2500  -999.2500
 3942.0000      .7233      .3491   -78.6049  -999.2500  -999.2500
 3942.5000      .7170      .3146   -83.6293  -999.2500  -999.2500
 3943.0000      .7102      .2906   -89.3756  -999.2500  -999.2500
 3943.5000      .7022      .2688   -94.9294  -999.2500  -999.2500
 3944.0000      .6879      .2480  -100.4871  -999.2500  -999.2500
 3944.5000      .6622      .2366  -106.0409  -999.2500  -999.2500
 3945.0000      .6325      .2306  -111.4485  -999.2500  -999.2500
 3945.5000      .6051      .2257  -117.5632  -999.2500  -999.2500
 3946.0000      .5885      .2212  -120.2208  -999.2500  -999.2500
 3946.5000      .5790      .2220  -121.7518  -999.2500  -999.2500
 3947.0000      .5739      .2229  -122.3250  -999.2500  -999.2500
 3947.5000      .5739      .2168  -122.9672  -999.2500  -999.2500
 3948.0000      .5894      .2105  -123.8079  -999.2500  -999.2500
 3948.5000      .6071      .2066  -123.6096  -999.2500  -999.2500
 3949.0000      .5942      .2036  -123.6714  -999.2500  -999.2500
 3949.5000      .5587      .1996  -123.7721  -999.2500  -999.2500
 3950.0000      .5361      .1954  -123.9998  -999.2500  -999.2500
 3950.5000      .5287      .1934  -124.4269  -999.2500  -999.2500
 3951.0000      .5241      .1967  -124.8374  -999.2500  -999.2500
 3951.5000      .5175      .1981  -123.9489  -999.2500  -999.2500
 3952.0000      .5136      .1971  -123.8567  -999.2500  -999.2500
 3952.5000      .5176      .1964  -124.3752  -999.2500  -999.2500
 3953.0000      .5235      .1971  -124.1616  -999.2500  -999.2500
 3953.5000      .5294      .1979  -124.0502  -999.2500  -999.2500
 3954.0000      .5346      .1985  -123.4841  -999.2500  -999.2500
 3954.5000      .5304      .1991  -122.8524  -999.2500  -999.2500
 3955.0000      .5136      .1999  -123.0465  -999.2500  -999.2500
 3955.5000      .4977      .2010  -122.7894  -999.2500  -999.2500
 3956.0000      .4901      .2031  -122.5055  -999.2500  -999.2500
 3956.5000      .4861      .2066  -122.5183  -999.2500  -999.2500
 3957.0000      .4820      .1947  -122.9031  -999.2500  -999.2500
 3957.5000      .4765      .2089  -123.3485  -999.2500  -999.2500
 3958.0000      .4694      .2228  -124.0654  -999.2500  -999.2500
 3958.5000      .4631      .2407  -123.8502  -999.2500  -999.2500
 3959.0000      .4608      .2648  -122.8617  -999.2500  -999.2500
 3959.5000      .4719      .2949  -121.7416  -999.2500  -999.2500
 3960.0000      .4889      .3260  -120.7327  -999.2500  -999.2500
 3960.5000      .5076      .3370  -120.4142  -999.2500  -999.2500
 3961.0000      .5236      .3286  -121.3344  -999.2500  -999.2500
 3961.5000      .5413      .3184  -122.4507  -999.2500  -999.2500
 3962.0000      .5595      .3066  -122.3975  -999.2500  -999.2500
 3962.5000      .5839      .2891  -121.4912  -999.2500  -999.2500
 3963.0000      .6062      .2694  -120.6030  -999.2500  -999.2500
 3963.5000      .6278      .2516  -119.8755  -999.2500  -999.2500
