~VERSION INFORMATION
VERS.                             2.0:   CWLS Log ASCII Standard-VERSION 2.0
WRAP.                              NO:   One line per depth step
~Well Information Block
STRT.F                      2500.0000:   Top Depth
STOP.F                     12867.0000:   Bottom Depth
STEP.F                         .50000:   Depth Increment
NULL.                        -999.250:   Null Value
FLD .                      GA BLK 255:   Field Name
WELL.       OCSG01777  A004 ST00 BP00:   NAME
API .                  42706400140000:   WELL API
EDF .F                        91.0000:   ELEV DRILL FLOOR
COMP.       COASTAL STATES GAS PROD C:   OPERATOR
BN  .                             255:   BLOCK
CTRY.                             USA:   COUNTRY NAME
CNTY.                              GA:   COUNTY
CNTY.                        GLVSTN L:   COUNTY NAME
EKB .F                        92.0000:   ELEV KELLY BUSHING
TDD .F                      12868.000:   FINAL TD DRILLER
STAT.                           TEXAS:   STATE NAME
UWI .                  42706400140000:   WELL API
DICO.               IHS : Digitizing Company
~PARAMETER INFORMATION (zones)
#MNEM.UNIT                       Value     Description
#=========                       =====     ===========
#ZONATION                           IE:   ZONATION NAME
#ZONE                            RUN_1:   ZONE NAME
TOP .                       2500.0000:   TOP DEPTH
BOT .                       8267.5000:   BOTTOM DEPTH
RUN .                               1:   RUN NUMBER
LCCD.                             440:   LOGGING CONTRACTOR
SRVC.                    Schlumberger:   LOGGING CONT NAME
DICO.          QC Data Collectors Ltd:   DIG COMPANY NAME
LDAT.                      05/23/1973:   DATE LOGGED
ELD .F                        92.0000:   LOG DATUM ELEVATION
TDD .F                      8274.0000:   TOTAL DEPTH DRILLER
TDL .F                      8268.0000:   TOTAL DEPTH LOGGER
BOTL.F                      8267.0000:   BOTTOM DEPTH LOGGED
TOPL.F                      2500.0000:   TOP DEPTH LOGGED
CS1 .IN                       13.3750:   CASING SIZE 1
BS1 .IN                       12.2500:   BIT SIZE 1
DDB1.F                      8274.0000:   DEPTH DRILLED BIT 1
BHF .                              99:   FLUID CODE
DPT .                   Miscellaneous:   DRILLING FLUID TYPE
MUDV.                         45.0000:   FLUID VISCOSITY
FL  .                          3.4000:   FLUID LOSS
RM  .OHMM                       .7100:   RM
RMT .DEGF                     82.0000:   RM TEMP
RMF .OHMM                       .4200:   RMF
RMFT.DEGF                     82.0000:   RMF TEMP
FSC .                               M:   RMF CODE
RMC .OHMM                      1.2500:   RMC
RMCT.DEGF                     82.0000:   RMC TEMP
CMC .                               M:   RMC CODE
TMAX.DEGF                     82.0000:   MAX REC TEMP
TIMC.                          6.0000:   TIME SINCE CIRCLN
MUDD.                            NULL:   FLUID DENSITY
DFPH.                            NULL:   FLUID PH
~PARAMETER INFORMATION (zones)
#MNEM.UNIT                       Value     Description
#=========                       =====     ===========
#ZONATION                           IE:   ZONATION NAME
#ZONE                            RUN_2:   ZONE NAME
TOP .                       8273.0000:   TOP DEPTH
BOT .                      12867.5000:   BOTTOM DEPTH
RUN .                               2:   RUN NUMBER
LCCD.                             440:   LOGGING CONTRACTOR
SRVC.                    Schlumberger:   LOGGING CONT NAME
DICO.          QC Data Collectors Ltd:   DIG COMPANY NAME
LDAT.                      06/12/1973:   DATE LOGGED
ELD .F                        92.0000:   LOG DATUM ELEVATION
TDD .F                     12865.0000:   TOTAL DEPTH DRILLER
TDL .F                     12868.0000:   TOTAL DEPTH LOGGER
BOTL.F                     12867.0000:   BOTTOM DEPTH LOGGED
TOPL.F                      8272.0000:   TOP DEPTH LOGGED
CS1 .IN                        9.6250:   CASING SIZE 1
BS1 .IN                        8.5000:   BIT SIZE 1
DDB1.F                     12865.0000:   DEPTH DRILLED BIT 1
BHF .                              11:   FLUID CODE
DPT .         Caustic (high PH) (CLS):   DRILLING FLUID TYPE
MUDV.                         44.0000:   FLUID VISCOSITY
FL  .                          2.6000:   FLUID LOSS
RM  .OHMM                       .9100:   RM
RMT .DEGF                     76.0000:   RM TEMP
RMF .OHMM                       .4600:   RMF
RMFT.DEGF                     78.0000:   RMF TEMP
FSC .                               M:   RMF CODE
RMC .OHMM                      1.3200:   RMC
RMCT.DEGF                     76.0000:   RMC TEMP
CMC .                               C:   RMC CODE
TMAX.DEGF                    248.0000:   MAX REC TEMP
TIMC.                          5.0000:   TIME SINCE CIRCLN
MUDD.                         16.3000:   FLUID DENSITY
DFPH.                         10.5000:   FLUID PH
~PARAMETER INFORMATION (zones)
#MNEM.UNIT                       Value     Description
#=========                       =====     ===========
#ZONATION                        SONIC:   ZONATION NAME
#ZONE                            RUN_1:   ZONE NAME
TOP .                       8272.0000:   TOP DEPTH
BOT .                      12860.5000:   BOTTOM DEPTH
RUN .                               1:   RUN NUMBER
LCCD.                             440:   LOGGING CONTRACTOR
SRVC.                    Schlumberger:   LOGGING CONT NAME
DICO.          QC Data Collectors Ltd:   DIG COMPANY NAME
LDAT.                      06/12/1973:   DATE LOGGED
ELD .F                        92.0000:   LOG DATUM ELEVATION
TDD .F                     12865.0000:   TOTAL DEPTH DRILLER
BOTL.F                     12860.0000:   BOTTOM DEPTH LOGGED
TOPL.F                      8272.0000:   TOP DEPTH LOGGED
CS1 .IN                        9.6250:   CASING SIZE 1
BS1 .IN                        8.5000:   BIT SIZE 1
DDB1.F                     12865.0000:   DEPTH DRILLED BIT 1
BHF .                              11:   FLUID CODE
DPT .         Caustic (high PH) (CLS):   DRILLING FLUID TYPE
MUDD.                         16.3000:   FLUID DENSITY
MUDV.                         44.0000:   FLUID VISCOSITY
DFPH.                         10.5000:   FLUID PH
FL  .                          2.6000:   FLUID LOSS
RM  .OHMM                       .9100:   RM
RMT .DEGF                     76.0000:   RM TEMP
RMF .OHMM                       .4600:   RMF
RMFT.DEGF                     78.0000:   RMF TEMP
FSC .                               M:   RMF CODE
RMC .OHMM                      1.3200:   RMC
RMCT.DEGF                     76.0000:   RMC TEMP
CMC .                               C:   RMC CODE
TMAX.DEGF                    248.0000:   MAX REC TEMP
TIMC.                         10.0000:   TIME SINCE CIRCLN
~Curve Information Block
#MNEM.UNIT                    API CODE    No Description
#=========                    ========    == ===========
DEPT.F                   00 001 00 00:     1  DEPTH
ASN.OHMM                             :     2  Short-Normal Resistivity
ILD.OHMM                             :     3  Deep Induction Resistivity
SP.MV                                :     4  Spontaneous Potential
CALI.IN                              :     5  Caliper
DT.US/F                              :     6  Sonic Transit Time
~ASCII
# ...
12809.0000     1.0559      .6574   -41.2970    10.1573    91.1965
12809.5000     1.0937      .6507   -41.5004    10.2895    91.1925
12810.0000     1.1074      .6427   -42.7814    10.9099    91.2034
12810.5000     1.1144      .6338   -41.8381    11.2716    91.2242
12811.0000     1.1315      .6277   -40.9321    11.2678    91.2456
12811.5000     1.1574      .6240   -41.0806    11.2392    91.3484
12812.0000     1.1889      .6361   -40.8058    11.2100    92.6736
12812.5000     1.1936      .6529   -40.0656    11.1833    94.2283
12813.0000     1.1765      .6808   -41.0197    11.1683    77.9409
12813.5000     1.1787      .7128   -41.3525    11.1586    89.5889
12814.0000     1.1989      .7590   -41.2280    11.1533    96.3925
12814.5000     1.2242      .7890   -41.4542    11.1476    97.4265
12815.0000     1.2495      .8445   -41.7672    11.1473   101.5724
12815.5000     1.2764      .9704   -42.1105    11.1570   104.1759
12816.0000     1.3056     1.0124   -41.7999    11.1684   103.9957
12816.5000     1.3393     1.0329   -41.1713    11.1770    96.9724
12817.0000     1.3468     1.0374   -41.1774    11.1839    82.6791
12817.5000     1.2617     1.0434   -42.2794    11.1949    73.6372
12818.0000     1.2370     1.0520   -42.5521    11.0967    72.3564
12818.5000     1.2644     1.0589   -42.2018    10.1492    73.1227
12819.0000     1.2902     1.0626   -41.6422     9.5125    73.6643
12819.5000     1.3135     1.0664   -41.0825     9.5117    74.0776
12820.0000     1.2758     1.0682   -40.4662     9.6219    74.3047
12820.5000     1.2367     1.0699   -39.8301     9.6851    77.2302
12821.0000     1.2104     1.0826   -39.3136     9.7061    90.7339
12821.5000     1.1985     1.1350   -41.3235     9.7741   107.6382
12822.0000     1.2066     1.1581   -41.2650     9.9907    97.4857
12822.5000     1.2217     1.1810   -40.6597    10.0217    97.3623
12823.0000     1.2453     1.2037   -41.1577     9.6711    98.9886
12823.5000     1.2904     1.2114   -41.8652     9.0714    98.2113
12824.0000     1.3578     1.2072   -42.2954     8.5261    92.8562
12824.5000     1.4448     1.1941   -42.7244     8.4110    84.2584
12825.0000     1.5484     1.1781   -43.2187     8.3898    74.6638
12825.5000     1.6317     1.1595   -43.8362     8.3914    69.6295
12826.0000     1.7077     1.1367   -45.4424     8.3893    71.8826
12826.5000     1.7842     1.1118   -47.6218     8.3843    72.6464
12827.0000     1.8512     1.0759   -47.5071     8.3796    73.1091
12827.5000     1.7665     1.0405   -46.2683     8.3750    73.8198
12828.0000     1.6341     1.0150   -44.9001     8.3716    74.7131
12828.5000     1.5344     1.0186   -45.2150     8.3691    76.2135
12829.0000     1.4373     1.0543   -44.7842     8.3685    78.2742
12829.5000     1.3971     1.1096   -43.8770     8.3679    79.1564
12830.0000     1.3960     1.2001   -43.7808     8.3717    79.4858
12830.5000     1.4000     1.2968   -44.6658     8.3794    79.7313
12831.0000     1.4300     1.4053   -46.2708     8.3854    80.5297
12831.5000     1.5600     1.5239   -50.3188     8.3656    82.1904
12832.0000     1.7500     1.6502   -54.1648     8.4910    83.9821
12832.5000     1.9491     1.7636   -58.1685     8.8442    85.5959
12833.0000     2.0010     1.7539   -62.7145     9.2078    86.8595
12833.5000     2.3006     1.6729   -69.0061     9.5056    87.4912
12834.0000     2.7346     1.5727   -74.9426     9.5383    87.4604
12834.5000     3.0551     1.4492   -77.5090     9.4476    87.1423
12835.0000     2.9754     1.3106   -79.8782     9.3490    87.1017
12835.5000     2.7174     1.2047   -81.6829     9.2762    87.3136
12836.0000     2.3472     1.1437   -82.0366     9.2242    89.3323
12836.5000     2.0800     1.1592   -81.6323     9.1995    93.7841
12837.0000     2.0040     1.1884   -80.9863     9.1871    98.5420
12837.5000     1.9970     1.2421   -80.1888     9.1818   101.6563
12838.0000     1.9692     1.2960   -79.1509     9.1912   102.2164
12838.5000     1.9106     1.3530   -78.2770     9.2609   101.9672
12839.0000     1.8634     1.4132   -77.7284     9.3385    94.8206
12839.5000     1.8164     1.4758   -75.5343     9.4157    88.7202
12840.0000     1.7432     1.5087   -70.5149     9.4434    97.8411
12840.5000     1.5745     1.4181   -65.3672     9.2925    87.1803
12841.0000     1.4318     1.3123   -60.2197     9.1815    98.3939
12841.5000     1.2833     1.1979   -55.0622     9.2230   101.2021
12842.0000     1.1668     1.0881   -50.3484     9.3024   100.5161
12842.5000     1.0711     1.0086   -45.3093     9.2375   101.4910
12843.0000     1.0063      .9415   -41.5608     9.1753   100.7321
12843.5000     1.0008      .9102   -42.4692     9.1521   100.6097
12844.0000     1.0313      .9245   -43.0276     9.1464   100.6846
12844.5000     1.0653      .9510   -42.8661     9.2438   100.9067
12845.0000     1.0872      .9840   -41.8923     9.3316   101.0896
12845.5000     1.1037     1.0166   -40.6104     9.3335   100.7926
12846.0000     1.1245     1.0450   -39.2274     9.4212   100.4946
12846.5000     1.1580     1.0520   -38.8970     9.4520    99.6747
12847.0000     1.2371     1.0529   -40.3713     9.3636    99.5389
12847.5000     1.3720     1.0472   -41.9047     9.3266   100.3915
12848.0000     1.5862     1.0316   -43.2606     9.3232   100.4351
12848.5000     1.8201     1.0145   -44.1946     9.3232   100.3671
12849.0000     1.8950      .9854   -44.1235     9.3256   100.2700
12849.5000     1.9120      .9535   -42.9845     9.3377   100.1666
12850.0000     1.8962      .9308   -41.8652     9.3519   100.0634
12850.5000     1.7031      .9259   -40.8052     9.3651   100.0360
12851.0000     1.5442      .9344   -42.5038     9.3744   100.0419
12851.5000     1.4179      .9569   -42.9574     9.3950   100.0479
12852.0000     1.3175      .9990   -41.9072     9.4972   100.0127
12852.5000     1.2137     1.0546   -40.7928     9.5754    99.9518
12853.0000     1.1845     1.1198   -40.6498     9.5912    99.8910
12853.5000     1.1547     1.2132   -41.4399     9.5860    99.8340
12854.0000     1.0966     1.3143   -40.7780     9.5784    99.7838
12854.5000     1.0353     1.4519   -40.1752     9.5697    99.7336
12855.0000     1.0389     1.5779   -39.6631     9.5573    99.6832
12855.5000     1.0640     1.6715   -40.0680     9.5486    99.6313
12856.0000     1.0602     1.6973   -40.8791     9.5534    99.5797
12856.5000     1.0386     1.5927   -40.7645     9.5631    99.4377
12857.0000     1.0169     1.4600   -40.2628     9.5751    99.3020
12857.5000     1.0095     1.2830   -39.4985     9.5814    99.2537
12858.0000     1.0040     1.1303   -39.2267     9.5841    99.2856
12858.5000      .9993     1.0476   -39.5324     9.5810    99.4507
12859.0000     1.0030      .9926   -39.5287     9.5752    99.5924
12859.5000     1.0095      .9660   -39.1928     9.5750    99.6406
12860.0000     1.0201      .9431   -39.6119     9.5565    99.6433
12860.5000     1.0433      .9301   -40.7336  -999.2500  -999.2500
12861.0000     1.0393      .9194   -39.9743  -999.2500  -999.2500
12861.5000     1.0285      .9085   -39.2301  -999.2500  -999.2500
12862.0000     1.0127      .8976   -39.4517  -999.2500  -999.2500
12862.5000      .9968      .8894   -40.2640  -999.2500  -999.2500
12863.0000      .9832      .8814   -40.8126  -999.2500  -999.2500
12863.5000      .9740      .8734   -41.0258  -999.2500  -999.2500
12864.0000      .9671      .8654   -40.4957  -999.2500  -999.2500
12864.5000      .9621      .8599   -39.8375  -999.2500  -999.2500
12865.0000      .9586      .8559   -39.4548  -999.2500  -999.2500
12865.5000      .9560      .8519   -38.9377  -999.2500  -999.2500
12866.0000      .9568      .8491   -38.3053  -999.2500  -999.2500
12866.5000      .9588      .8465   -39.1953  -999.2500  -999.2500
12867.0000      .9622      .8440   -39.7451  -999.2500  -999.2500
