~VERSION INFORMATION
VERS.                             2.0:   CWLS Log ASCII Standard-VERSION 2.0
WRAP.                              NO:   One line per depth step
~Well Information Block
STRT.F                      3012.0000:   Top Depth
STOP.F                      9049.0000:   Bottom Depth
STEP.F                         .50000:   Depth Increment
NULL.                        -999.250:   Null Value
FLD .                      GA BLK 210:   Field Name
WELL.       OCSG01759   002 ST00 BP00:   NAME
API .                  42706400060000:   WELL API
R1  .                      TEXACO INC:   COMMENT  1
EDF .F                        74.0000:   ELEV DRILL FLOOR
COMP.                      TEXACO INC:   OPERATOR
BN  .                             210:   BLOCK
CTRY.                             USA:   COUNTRY NAME
CNTY.                              GA:   COUNTY
CNTY.                        GLVSTN L:   COUNTY NAME
EKB .F                        75.0000:   ELEV KELLY BUSHING
TDD .F                       9050.000:   FINAL TD DRILLER
STAT.                           TEXAS:   STATE NAME
UWI .                  42706400060000:   WELL API
DICO.               IHS : Digitizing Company
~PARAMETER INFORMATION (zones)
#MNEM.UNIT                       Value     Description
#=========                       =====     ===========
#ZONATION                           IE:   ZONATION NAME
#ZONE                            RUN_2:   ZONE NAME
TOP .                       9049.0000:   TOP DEPTH
BOT .                       9050.0000:   BOTTOM DEPTH
RUN .                               2:   RUN NUMBER
LCCD.                             440:   LOGGING CONTRACTOR
SRVC.                    Schlumberger:   LOGGING CONT NAME
DICO.          QC Data Collectors Ltd:   DIG COMPANY NAME
LDAT.                      11/07/1971:   DATE LOGGED
ELD .F                        75.0000:   LOG DATUM ELEVATION
TDD .F                      9050.0000:   TOTAL DEPTH DRILLER
TDL .F                      9050.0000:   TOTAL DEPTH LOGGER
BOTL.F                      9049.0000:   BOTTOM DEPTH LOGGED
TOPL.F                      7103.0000:   TOP DEPTH LOGGED
CS1 .IN                        9.6250:   CASING SIZE 1
BS1 .IN                        8.6250:   BIT SIZE 1
DDB1.F                      9050.0000:   DEPTH DRILLED BIT 1
BHF .                              99:   FLUID CODE
DPT .                   Miscellaneous:   DRILLING FLUID TYPE
MUDD.                         15.0000:   FLUID DENSITY
MUDV.                         45.0000:   FLUID VISCOSITY
DFPH.                         10.5000:   FLUID PH
FL  .                          4.0000:   FLUID LOSS
RM  .OHMM                       .7700:   RM
RMT .DEGF                    100.0000:   RM TEMP
RMF .OHMM                       .5300:   RMF
RMFT.DEGF                     77.0000:   RMF TEMP
FSC .                               M:   RMF CODE
RMC .OHMM                      1.4300:   RMC
RMCT.DEGF                     75.0000:   RMC TEMP
CMC .                               M:   RMC CODE
TMAX.DEGF                    194.0000:   MAX REC TEMP
TIMC.                          4.0000:   TIME SINCE CIRCLN
~PARAMETER INFORMATION (zones)
#MNEM.UNIT                       Value     Description
#=========                       =====     ===========
#ZONATION                           IE:   ZONATION NAME
#ZONE                            RUN_1:   ZONE NAME
TOP .                       3012.0000:   TOP DEPTH
BOT .                       9049.5000:   BOTTOM DEPTH
RUN .                               1:   RUN NUMBER
LCCD.                             440:   LOGGING CONTRACTOR
SRVC.                    Schlumberger:   LOGGING CONT NAME
DICO.          QC Data Collectors Ltd:   DIG COMPANY NAME
LDAT.                      10/28/1971:   DATE LOGGED
ELD .F                        75.0000:   LOG DATUM ELEVATION
TDD .F                      7115.0000:   TOTAL DEPTH DRILLER
TDL .F                      7061.0000:   TOTAL DEPTH LOGGER
BOTL.F                      7060.0000:   BOTTOM DEPTH LOGGED
TOPL.F                      3012.0000:   TOP DEPTH LOGGED
CS1 .IN                       13.3750:   CASING SIZE 1
BS1 .IN                       12.2500:   BIT SIZE 1
DDB1.F                      7115.0000:   DEPTH DRILLED BIT 1
BHF .                              11:   FLUID CODE
DPT .         Caustic (high PH) (CLS):   DRILLING FLUID TYPE
MUDD.                         10.5000:   FLUID DENSITY
MUDV.                         40.0000:   FLUID VISCOSITY
DFPH.                          9.0000:   FLUID PH
FL  .                          4.4000:   FLUID LOSS
RM  .OHMM                       .9400:   RM
RMT .DEGF                     96.0000:   RM TEMP
RMF .OHMM                       .7600:   RMF
RMFT.DEGF                     96.0000:   RMF TEMP
FSC .                               M:   RMF CODE
RMC .OHMM                      1.2600:   RMC
RMCT.DEGF                     96.0000:   RMC TEMP
CMC .                               M:   RMC CODE
TMAX.DEGF                    155.0000:   MAX REC TEMP
TIMC.                          4.0000:   TIME SINCE CIRCLN
~PARAMETER INFORMATION (zones)
#MNEM.UNIT                       Value     Description
#=========                       =====     ===========
#ZONATION                        SONIC:   ZONATION NAME
#ZONE                            RUN_1:   ZONE NAME
TOP .                       3012.0000:   TOP DEPTH
BOT .                       9049.5000:   BOTTOM DEPTH
RUN .                               1:   RUN NUMBER
LCCD.                             440:   LOGGING CONTRACTOR
SRVC.                    Schlumberger:   LOGGING CONT NAME
DICO.          QC Data Collectors Ltd:   DIG COMPANY NAME
LDAT.                      10/28/1971:   DATE LOGGED
ELD .F                        75.0000:   LOG DATUM ELEVATION
TDD .F                      7115.0000:   TOTAL DEPTH DRILLER
TDL .F                      7060.0000:   TOTAL DEPTH LOGGER
BOTL.F                      7050.0000:   BOTTOM DEPTH LOGGED
TOPL.F                      3012.0000:   TOP DEPTH LOGGED
CS1 .IN                       13.3750:   CASING SIZE 1
BS1 .IN                       12.2500:   BIT SIZE 1
DDB1.F                      7115.0000:   DEPTH DRILLED BIT 1
BHF .                              11:   FLUID CODE
DPT .         Caustic (high PH) (CLS):   DRILLING FLUID TYPE
MUDD.                         10.5000:   FLUID DENSITY
MUDV.                         40.0000:   FLUID VISCOSITY
DFPH.                          9.0000:   FLUID PH
FL  .                          4.4000:   FLUID LOSS
RM  .OHMM                       .9400:   RM
RMT .DEGF                     96.0000:   RM TEMP
RMF .OHMM                       .7600:   RMF
RMFT.DEGF                     96.0000:   RMF TEMP
FSC .                               M:   RMF CODE
RMC .OHMM                      1.2600:   RMC
RMCT.DEGF                     96.0000:   RMC TEMP
CMC .                               M:   RMC CODE
TMAX.DEGF                    155.0000:   MAX REC TEMP
TIMC.                          6.0000:   TIME SINCE CIRCLN
~Curve Information Block
#MNEM.UNIT                    API CODE    No Description
#=========                    ========    == ===========
DEPT.F                   00 001 00 00:     1  DEPTH
ASN.OHMM                             :     2  Short-Normal Resistivity
CILD.MMHO                            :     3  Deep Induction Conductivity
ILD.OHMM                             :     4  Deep Induction Resistivity
SP.MV                                :     5  Spontaneous Potential
CALI.IN                              :     6  Caliper
DT.US/F                              :     7  Sonic Transit Time
SP.MV                                :     8  Spontaneous Potential
~ASCII
# ...
 5014.0000     1.0967  3886.5000      .3256  -117.0995    13.5345   119.6724  -139.5337
 5014.5000     1.0360  4475.0000      .3127  -126.9004    13.4620   117.4602  -144.1660
 5015.0000     1.0062  5063.0000      .2998  -127.1298    13.3958   114.5455  -147.5996
 5015.5000      .9773  5217.4297      .2869  -127.2289    13.3527   113.8635  -152.9216
 5016.0000      .9577  4880.7891      .2984  -126.8175    13.3095   113.7860  -154.2275
 5016.5000      .9445  4543.7578      .3136  -126.0615    13.2663   113.7085  -155.5334
 5017.0000      .9831  4207.1172      .3296  -124.6320    13.2259   113.0957  -156.3105
 5017.5000     1.0238  4069.5586      .3649  -123.3882    13.1950   112.3187  -156.8613
 5018.0000     1.0770  3980.4688      .4002  -121.7415    13.1891   111.6438  -157.0376
 5018.5000     1.1932  2942.2188      .4354  -118.5029    13.2628   111.3368  -157.2139
 5019.0000     1.3446  2145.7656      .4707  -114.2065    13.3364   112.2769  -157.1279
 5019.5000     1.3071  2122.1602      .5078  -108.1836    13.4073   113.3739  -156.9609
 5020.0000     1.1696  2056.6484      .5578   -97.7145    13.4702    98.3901  -156.2566
 5020.5000     1.0321  2021.9707      .6079   -87.2455    13.5331    86.5944  -153.0945
 5021.0000      .8833  2002.6094      .6579   -82.4250    13.5862    85.2174  -147.6885
 5021.5000      .8699  1982.2656      .6834   -79.9076    13.5154    86.2150  -143.4333
 5022.0000      .8675  1820.7109      .6960   -74.7679    13.4604    87.3193  -115.6122
 5022.5000      .8609  1782.0957      .6778   -72.6671    13.4053   107.6803  -108.8030
 5023.0000      .8447  1758.4629      .6597   -71.2350    13.3503   119.2057  -104.7448
 5023.5000      .8063  1766.5664      .6415   -69.9014    13.3218   122.3289  -100.9664
 5024.0000      .7564  1811.2383      .6169   -68.6245    13.3281   123.1665   -99.9585
 5024.5000      .7562  1966.1250      .5910   -67.8677    13.3345   122.1610   -99.1007
 5025.0000      .7560  2075.5000      .5651   -68.1782    13.3506   120.5094   -98.3926
 5025.5000      .7558  2184.7500      .5392   -69.3450    13.3867   109.3561   -97.6849
 5026.0000      .7556  2294.0000      .5133   -71.1776    13.4227   109.9131   -96.9773
 5026.5000      .7554  2403.2500      .4874   -74.5433    13.4587   112.0757   -95.9615
 5027.0000      .7541  2512.5000      .4735   -76.9673    13.4948   114.3206   -94.7242
 5027.5000      .7529  2621.7500      .4632   -77.6049    13.5251   120.9415   -93.2777
 5028.0000      .7516  2731.1250      .4528   -77.8459    13.5313   129.2000   -91.7622
 5028.5000      .7473  2822.8594      .4425   -78.0870    13.5376   130.5281   -93.5216
 5029.0000      .7411  2896.0000      .4321   -78.4933    13.5353   126.2073   -97.4092
 5029.5000      .7349  2969.1406      .4217   -78.9526    13.5289   127.5128   -98.9999
 5030.0000      .7179  3042.2812      .4114   -76.7751    14.0714   129.1030  -100.5905
 5030.5000      .6988  2977.0703      .4169   -77.3153    14.1519   130.6887  -101.7401
 5031.0000      .7146  2903.9766      .4307   -78.5328    14.0923   131.8547  -102.7301
 5031.5000      .7308  2830.8867      .4445   -79.7979    14.0266   132.0232  -103.6833
 5032.0000      .7470  2757.7930      .4583   -80.9518    13.9609   129.3171  -102.4261
 5032.5000      .7632  2684.7539      .4744   -82.0221    13.9004   130.8984  -100.4655
 5033.0000      .7804  2611.6602      .4938   -82.8923    13.8450   133.9895  -101.3113
 5033.5000      .7978  2423.1016      .5131   -78.6024    13.8304   135.3477  -104.7327
 5034.0000      .8203  2278.1133      .5325   -78.4396    13.9114   136.2749  -106.4435
 5034.5000      .8828  2276.8789      .5518   -78.5728    13.9502   137.2163  -107.8851
 5035.0000      .8844  2297.1094      .5712   -78.7620    13.9282   138.6091  -105.7251
 5035.5000      .8859  2317.3516      .5792   -79.5046    13.8008   130.7214  -102.6550
 5036.0000      .8875  2363.8711      .5780   -80.7197    13.6733   116.2419  -101.6909
 5036.5000      .8890  2398.2070      .5767   -82.3091    13.5455   115.8068  -101.2451
 5037.0000      .8934  2411.3477      .5755   -82.9104    13.4153   119.5693  -102.1173
 5037.5000      .8988  2420.7773      .5788   -82.4158    13.4129   128.6279  -102.9895
 5038.0000      .9041  2429.0898      .5900   -81.6760    13.4331   129.5173  -103.9579
 5038.5000      .9099  2335.0000      .6013   -79.3038    13.4393   129.9590  -105.3046
 5039.0000      .8360  2285.8438      .6311   -68.9819    13.4199   130.5947  -106.6512
 5039.5000      .8090  2015.4648      .6618   -65.3274    13.4055   133.0828  -107.9271
 5040.0000      .8002  1869.6250      .6925   -65.9094    13.3990   133.0681  -108.9747
 5040.5000      .8169  1718.2500      .7232   -67.8966    13.3984   126.7952  -105.0210
 5041.0000      .8337  1594.6074      .7540   -71.4845    13.5353   125.3745   -89.5223
 5041.5000      .8568  1550.4824      .7784   -74.5758    13.6720   124.4915   -88.3186
 5042.0000      .8852  1506.3594      .7947   -76.7789    14.1483   123.9574   -87.5750
 5042.5000      .9016  1459.5430      .8110   -76.5768    14.3223   123.8129   -87.8368
 5043.0000      .9179  1392.2344      .8273   -75.6948    14.1999   123.6964   -90.7537
 5043.5000      .9429  1368.1523      .8047   -74.8123    14.0810   123.2986   -94.1968
 5044.0000     1.0222  1391.5371      .7561   -73.9442    14.0584   122.5083   -98.5530
 5044.5000     1.0650  1611.5078      .7075   -73.9358    14.2031   123.9623  -102.8994
 5045.0000     1.0382  2093.2422      .6588   -75.1571    14.3762   126.9370  -102.5979
 5045.5000     1.0290  2296.0625      .6079   -88.3782    14.5156   128.2612   -99.3867
 5046.0000     1.0228  2498.8828      .5552   -92.5798    14.6014   115.8456   -96.9287
 5046.5000     1.0191  2701.5039      .5026   -96.7814    14.4782    99.8157   -96.2589
 5047.0000     1.0158  2904.3281      .4498  -100.9830    14.3340    90.6915   -99.6918
 5047.5000     1.0124  3105.5508      .4040  -105.1796    14.1899    89.2030  -104.9874
 5048.0000     1.0020  3197.1914      .3946  -107.6290    14.0401    87.4248  -107.2267
 5048.5000      .9859  3288.7305      .3851  -108.5310    13.9734    89.4781  -111.5804
 5049.0000      .9566  3380.3672      .3948  -109.4330    14.1381   117.4069  -116.3474
 5049.5000      .9037  3472.0039      .4048  -110.7111    14.2185   129.4390  -123.4884
 5050.0000      .8693  3544.8984      .4148  -111.3242    14.2990   133.2573  -128.8176
 5050.5000      .8537  3569.7266      .4248  -111.6788    14.3509   135.3750  -132.2510
 5051.0000      .8643  3524.3047      .4165  -111.7268    14.3812   129.9673  -134.8123
 5051.5000      .8740  3440.5938      .3911  -111.4426    14.4115   126.1145  -137.1719
 5052.0000      .8817  3356.8828      .3908  -111.1586    14.4634   126.0612  -137.6343
 5052.5000      .8894  3258.1172      .3941  -110.8744    14.5358   127.8303  -137.6328
 5053.0000      .8977  3140.2539      .4028  -110.5903    14.6031   129.3770  -137.6316
 5053.5000      .9083  3085.2852      .4115  -110.2750    14.6577   130.4329  -137.6301
 5054.0000      .9193  3057.1172      .4202  -109.8584    14.7042   130.9248  -137.5581
 5054.5000      .9304  3027.2773      .4289  -109.4417    14.7276   129.8728  -137.4333
 5055.0000      .9218  2993.3242      .4361  -109.6107    14.6955   127.8497  -137.3088
 5055.5000      .9131  2959.0469      .4432  -110.2220    14.5947   118.2893  -137.1841
 5056.0000      .9053  2923.9453      .4504  -112.1956    14.2395   113.0479  -137.0439
 5056.5000      .8978  2892.2617      .4484  -116.3223    14.1486   111.2017  -136.8892
 5057.0000      .8942  2914.2500      .4438  -117.8910    14.0699   108.7833  -136.9675
 5057.5000      .8929  3004.4414      .4391  -118.8622    14.0102   107.1578  -140.0693
 5058.0000      .8916  3097.7734      .4345  -119.5620    14.2754   107.6149  -142.4817
 5058.5000      .8883  3202.1758      .4298  -119.7012    14.4811   108.7179  -144.6011
 5059.0000      .8684  3435.0117      .4252  -119.8237    14.6253   118.4833  -146.9448
