~VERSION INFORMATION
VERS.                             2.0:   CWLS Log ASCII Standard-VERSION 2.0
WRAP.                              NO:   One line per depth step
~Well Information Block
STRT.F                      3138.0000:   Top Depth
STOP.F                      8628.0000:   Bottom Depth
STEP.F                         .50000:   Depth Increment
NULL.                        -999.250:   Null Value
FLD .                      BA BLK 376:   Field Name
WELL.       OCSG07215   003 ST00 BP00:   NAME
API .                  42704401900000:   WELL API
EDF .F                        90.0000:   ELEV DRILL FLOOR
COMP.         UNION EXPL PARTNERS LTD:   OPERATOR
BN  .                             376:   BLOCK
CTRY.                             USA:   COUNTRY NAME
CNTY.                        BRAZOS L:   COUNTY NAME
EKB .F                        91.0000:   ELEV KELLY BUSHING
TDD .F                       8678.000:   FINAL TD DRILLER
STAT.                           TEXAS:   STATE NAME
UWI .                  42704401900000:   WELL API
DICO.               IHS : Digitizing Company
~PARAMETER INFORMATION (zones)
#MNEM.UNIT                       Value     Description
#=========                       =====     ===========
#ZONATION                          DIL:   ZONATION NAME
#ZONE                            RUN_1:   ZONE NAME
TOP .                       3138.0000:   TOP DEPTH
BOT .                       5660.5000:   BOTTOM DEPTH
RUN .                               1:   RUN NUMBER
SRVC.                               0:   LOGGING CONTRACTOR
SRVC.                         UNKNOWN:   LOGGING CONT NAME
DICO.          QC Data Collectors Ltd:   DIG COMPANY NAME
LDAT.                      06/22/1989:   DATE LOGGED
ELD .F                        91.0000:   LOG DATUM ELEVATION
TDD .F                      5675.0000:   TOTAL DEPTH DRILLER
TDL .F                      5662.0000:   TOTAL DEPTH LOGGER
BOTL.F                      5660.0000:   BOTTOM DEPTH LOGGED
TOPL.F                      3220.0000:   TOP DEPTH LOGGED
CS1 .IN                       10.7500:   CASING SIZE 1
BS1 .IN                        9.8750:   BIT SIZE 1
DDB1.F                      5675.0000:   DEPTH DRILLED BIT 1
BHF .                              20:   FLUID CODE
DPT .                    Gel (Gelchem:   DRILLING FLUID TYPE
MUDD.                          9.0000:   FLUID DENSITY
MUDV.                         68.0000:   FLUID VISCOSITY
DFPH.                          9.0000:   FLUID PH
FL  .                         12.0000:   FLUID LOSS
RM  .OHMM                      1.0500:   RM
RMT .DEGF                     75.0000:   RM TEMP
RMF .OHMM                       .8200:   RMF
RMFT.DEGF                     75.0000:   RMF TEMP
FSC .                               M:   RMF CODE
RMC .OHMM                      1.2200:   RMC
RMCT.DEGF                     75.0000:   RMC TEMP
CMC .                               M:   RMC CODE
TMAX.DEGF                    128.0000:   MAX REC TEMP
TIMC.                          7.0000:   TIME SINCE CIRCLN
~PARAMETER INFORMATION (zones)
#MNEM.UNIT                       Value     Description
#=========                       =====     ===========
#ZONATION                          DIL:   ZONATION NAME
#ZONE                            RUN_2:   ZONE NAME
TOP .                       5664.0000:   TOP DEPTH
BOT .                       8628.5000:   BOTTOM DEPTH
RUN .                               2:   RUN NUMBER
SRVC.                               0:   LOGGING CONTRACTOR
SRVC.                         UNKNOWN:   LOGGING CONT NAME
DICO.          QC Data Collectors Ltd:   DIG COMPANY NAME
LDAT.                      07/04/1989:   DATE LOGGED
ELD .F                        91.0000:   LOG DATUM ELEVATION
TDD .F                      8678.0000:   TOTAL DEPTH DRILLER
TDL .F                      8630.0000:   TOTAL DEPTH LOGGER
BOTL.F                      8628.0000:   BOTTOM DEPTH LOGGED
TOPL.F                      5664.0000:   TOP DEPTH LOGGED
CS1 .IN                        7.6250:   CASING SIZE 1
BS1 .IN                        6.5000:   BIT SIZE 1
DDB1.F                      8678.0000:   DEPTH DRILLED BIT 1
BHF .                              81:   FLUID CODE
DPT .          Lignosulfonate (Ligno):   DRILLING FLUID TYPE
MUDD.                         11.8000:   FLUID DENSITY
MUDV.                         48.0000:   FLUID VISCOSITY
DFPH.                         10.5000:   FLUID PH
FL  .                          6.6000:   FLUID LOSS
RM  .OHMM                       .7200:   RM
RMT .DEGF                     70.0000:   RM TEMP
RMF .OHMM                       .5900:   RMF
RMFT.DEGF                     70.0000:   RMF TEMP
FSC .                               M:   RMF CODE
RMC .OHMM                       .9000:   RMC
RMCT.DEGF                     70.0000:   RMC TEMP
CMC .                               C:   RMC CODE
TMAX.DEGF                    191.0000:   MAX REC TEMP
TIMC.                          5.0000:   TIME SINCE CIRCLN
~Curve Information Block
#MNEM.UNIT                    API CODE    No Description
#=========                    ========    == ===========
DEPT.F                   00 001 00 00:     1  DEPTH
DT.US/F                              :     2  Sonic Transit Time
GR.GAPI                              :     3  Gamma Ray
ILD.OHMM                             :     4  Deep Induction Resistivity
ILM.OHMM                             :     5  Medium Induction Resistivity
RFOC.OHMM                            :     6  Medium Resistivity
SP.MV                                :     7  Spontaneous Potential
~ASCII
# ...
 6050.0000   119.7634    82.1440      .7149      .7119      .9952   -62.3169
 6050.5000   119.8545    82.4220      .7074      .7052     1.0005   -62.3951
 6051.0000   119.9480    83.2239      .7085      .7052     1.0000   -62.4741
 6051.5000   120.2390    84.2333      .7140      .7110      .9971   -62.6646
 6052.0000   120.4690    84.2019      .7223      .7195      .9921   -62.8147
 6052.5000   120.5217    82.9844      .7318      .7304      .9889   -62.9728
 6053.0000   120.4994    81.6752      .7406      .7404      .9943   -63.2336
 6053.5000   120.4534    80.8719      .7498      .7495     1.0133   -63.4684
 6054.0000   120.4214    80.4109      .7484      .7490     1.0338   -63.6877
 6054.5000   120.4357    80.2924      .7433      .7463     1.0600   -63.8613
 6055.0000   120.5435    80.1478      .7379      .7416     1.0665   -63.8735
 6055.5000   120.7406    79.7919      .7312      .7362     1.0209   -63.6224
 6056.0000   120.9803    79.2146      .7244      .7308      .9884   -63.3876
 6056.5000   121.4423    78.7826      .7183      .7260      .9738   -63.2745
 6057.0000   122.1633    78.9714      .7136      .7212      .9669   -63.3105
 6057.5000   123.0543    79.9379      .7090      .7154      .9668   -63.4052
 6058.0000   123.7727    81.0612      .7075      .7094      .9677   -63.4935
 6058.5000   124.2778    81.8964      .7065      .7076      .9647   -63.5699
 6059.0000   124.2484    81.2327      .7071      .7068      .9615   -63.5844
 6059.5000   123.5345    80.6324      .7078      .7090      .9679   -63.3109
 6060.0000   122.6573    81.1083      .7108      .7128      .9922   -62.4154
 6060.5000   121.8680    81.9343      .7146      .7187     1.0087   -60.8025
 6061.0000   121.3179    82.3538      .7215      .7269      .9961   -59.4730
 6061.5000   121.6299    81.8074      .7280      .7372      .9768   -59.2511
 6062.0000   122.0679    81.1521      .7345      .7462      .9722   -60.9321
 6062.5000   122.6035    80.7944      .7421      .7544      .9871   -62.8683
 6063.0000   122.6177    80.3319      .7488      .7581     1.0130   -64.5140
 6063.5000   122.0583    79.5255      .7540      .7604     1.0319   -65.1044
 6064.0000   121.3287    78.0907      .7564      .7601     1.0488   -64.1631
 6064.5000   120.7264    77.4908      .7545      .7583     1.0337   -62.4193
 6065.0000   120.3032    78.0468      .7518      .7583     1.0233   -60.3259
 6065.5000   120.1757    79.0005      .7487      .7574     1.0174   -58.8924
 6066.0000   120.4807    79.9517      .7446      .7551     1.0129   -58.3758
 6066.5000   120.8593    79.7965      .7416      .7520     1.0075   -58.5437
 6067.0000   121.3051    79.2146      .7393      .7480     1.0012   -58.7201
 6067.5000   121.7755    79.7821      .7382      .7444      .9939   -58.8880
 6068.0000   122.2236    82.8481      .7373      .7409      .9834   -58.9940
 6068.5000   122.6337    84.6365      .7364      .7393      .9788   -59.0859
 6069.0000   122.9916    84.6849      .7354      .7377      .9781   -59.1512
 6069.5000   123.3124    83.9348      .7365      .7361      .9792   -59.1021
 6070.0000   123.5201    83.2114      .7380      .7352      .9761   -59.0182
 6070.5000   123.6052    82.0640      .7380      .7351      .9706   -58.9114
 6071.0000   123.3828    80.0492      .7376      .7346      .9712   -58.7778
 6071.5000   123.1323    78.1077      .7357      .7332      .9723   -58.6425
 6072.0000   122.8669    76.8430      .7306      .7286      .9744   -58.4899
 6072.5000   122.6967    77.3942      .7216      .7219      .9742   -58.3321
 6073.0000   122.7532    78.8329      .7120      .7137      .9699   -58.1683
 6073.5000   123.0148    77.8733      .7039      .7090      .9649   -58.0009
 6074.0000   123.1949    74.7915      .6986      .7049      .9627   -57.8729
 6074.5000   123.2841    73.2584      .6942      .7010      .9632   -57.8130
 6075.0000   123.3248    73.6545      .6897      .6973      .9665   -57.9164
 6075.5000   123.3950    74.4335      .6851      .6937      .9682   -58.0490
 6076.0000   123.5084    75.3387      .6795      .6888      .9677   -58.2255
 6076.5000   123.7369    76.2290      .6714      .6828      .9661   -58.2969
 6077.0000   123.9823    75.4814      .6639      .6773      .9591   -58.2673
 6077.5000   124.2126    75.2714      .6598      .6736      .9425   -58.1802
 6078.0000   124.3975    75.7734      .6598      .6734      .9267   -57.8618
 6078.5000   124.5078    76.2919      .6597      .6767      .9155   -57.5315
 6079.0000   124.4585    76.9111      .6630      .6821      .9220   -57.1918
 6079.5000   124.1112    77.4240      .6729      .6907      .9377   -56.8802
 6080.0000   123.6664    77.8376      .6869      .7018      .9543   -56.6673
 6080.5000   123.2000    77.3647      .7066      .7171      .9748   -56.5281
 6081.0000   122.7137    76.3324      .7368      .7363      .9957   -56.4294
 6081.5000   122.0183    74.8478      .7707      .7614     1.0184   -56.3519
 6082.0000   121.2828    72.2229      .8062      .7928     1.0417   -56.2972
 6082.5000   120.4049    71.6934      .8421      .8278     1.0681   -56.5922
 6083.0000   119.0784    72.5443      .8735      .8590     1.0948   -57.2141
 6083.5000   117.1193    73.5243      .8944      .8854     1.1187   -57.5947
 6084.0000   114.8649    74.6003      .9114      .9053     1.1364   -57.5943
 6084.5000   113.3329    75.7283      .9274      .9188     1.1506   -57.3139
 6085.0000   113.1708    76.6296      .9361      .9104     1.1190   -57.0236
 6085.5000   114.8977    77.4570      .9309      .8942     1.0908   -56.9025
 6086.0000   116.4579    78.0753      .9117      .8891     1.0703   -57.0206
 6086.5000   117.6559    78.2842      .8919      .8858     1.0562   -57.2141
 6087.0000   118.4753    77.8026      .8690      .8679     1.0467   -57.4922
 6087.5000   118.7810    76.8378      .8475      .8484     1.0400   -57.7361
 6088.0000   118.7043    75.5784      .8285      .8282     1.0323   -57.9318
 6088.5000   118.5121    75.5437      .8104      .8129     1.0229   -57.9949
 6089.0000   118.7457    76.4019      .7939      .7982     1.0101   -57.9838
 6089.5000   119.3848    77.1079      .7768      .7830      .9952   -57.8929
 6090.0000   119.8289    76.9916      .7581      .7690      .9798   -57.7471
 6090.5000   120.1566    76.1177      .7422      .7558      .9730   -57.6373
 6091.0000   120.1674    74.6763      .7292      .7428      .9695   -57.5451
 6091.5000   120.1202    73.0699      .7167      .7324      .9683   -57.4670
 6092.0000   120.2729    73.0228      .7101      .7234      .9728   -57.3974
 6092.5000   120.5699    74.7078      .7075      .7166      .9783   -57.3119
 6093.0000   121.0591    76.4019      .7058      .7112      .9822   -57.2733
 6093.5000   121.5826    77.6233      .7033      .7063      .9804   -57.2931
 6094.0000   122.1823    77.7646      .7008      .7019      .9616   -57.2927
 6094.5000   122.7925    76.4698      .6991      .6975      .9353   -57.2707
 6095.0000   123.2859    74.9893      .6974      .6929      .9263   -57.2463
 6095.5000   123.5686    74.0688      .6959      .6886      .9268   -57.2185
 6096.0000   123.8018    73.9323      .6945      .6859      .9273   -57.2072
 6096.5000   123.9581    73.7815      .6902      .6818      .9290   -57.2100
 6097.0000   123.8942    73.7449      .6840      .6767      .9318   -57.2385
 6097.5000   123.9220    74.3831      .6751      .6697      .9362   -57.2478
 6098.0000   124.0840    75.3129      .6642      .6651      .9334   -57.2120
 6098.5000   124.3353    75.3923      .6544      .6612      .9202   -57.0999
 6099.0000   124.5807    75.6481      .6452      .6588      .8978   -56.9087
 6099.5000   124.8801    76.2584      .6369      .6593      .8874   -56.4724
 6100.0000   125.1239    77.2725      .6314      .6640      .8843   -56.2621
 6100.5000   125.2788    76.8888      .6324      .6742      .8846   -56.0872
 6101.0000   124.9530    75.2589      .6423      .6918      .8882   -55.9598
 6101.5000   123.7249    74.2010      .6552      .7183      .9034   -55.9951
