~VERSION INFORMATION
VERS.                             2.0:   CWLS Log ASCII Standard-VERSION 2.0
WRAP.                              NO:   One line per depth step
~Well Information Block
STRT.F                      3138.0000:   Top Depth
STOP.F                      8628.0000:   Bottom Depth
STEP.F                         .50000:   Depth Increment
NULL.                        -999.250:   Null Value
FLD .                      BA BLK 376:   Field Name
WELL.       OCSG07215   003 ST00 BP00:   NAME
API .                  42704401900000:   WELL API
EDF .F                        90.0000:   ELEV DRILL FLOOR
COMP.         UNION EXPL PARTNERS LTD:   OPERATOR
BN  .                             376:   BLOCK
CTRY.                             USA:   COUNTRY NAME
CNTY.                        BRAZOS L:   COUNTY NAME
EKB .F                        91.0000:   ELEV KELLY BUSHING
TDD .F                       8678.000:   FINAL TD DRILLER
STAT.                           TEXAS:   STATE NAME
UWI .                  42704401900000:   WELL API
DICO.               IHS : Digitizing Company
~PARAMETER INFORMATION (zones)
#MNEM.UNIT                       Value     Description
#=========                       =====     ===========
#ZONATION                          DIL:   ZONATION NAME
#ZONE                            RUN_1:   ZONE NAME
TOP .                       3138.0000:   TOP DEPTH
BOT .                       5660.5000:   BOTTOM DEPTH
RUN .                               1:   RUN NUMBER
SRVC.                               0:   LOGGING CONTRACTOR
SRVC.                         UNKNOWN:   LOGGING CONT NAME
DICO.          QC Data Collectors Ltd:   DIG COMPANY NAME
LDAT.                      06/22/1989:   DATE LOGGED
ELD .F                        91.0000:   LOG DATUM ELEVATION
TDD .F                      5675.0000:   TOTAL DEPTH DRILLER
TDL .F                      5662.0000:   TOTAL DEPTH LOGGER
BOTL.F                      5660.0000:   BOTTOM DEPTH LOGGED
TOPL.F                      3220.0000:   TOP DEPTH LOGGED
CS1 .IN                       10.7500:   CASING SIZE 1
BS1 .IN                        9.8750:   BIT SIZE 1
DDB1.F                      5675.0000:   DEPTH DRILLED BIT 1
BHF .                              20:   FLUID CODE
DPT .                    Gel (Gelchem:   DRILLING FLUID TYPE
MUDD.                          9.0000:   FLUID DENSITY
MUDV.                         68.0000:   FLUID VISCOSITY
DFPH.                          9.0000:   FLUID PH
FL  .                         12.0000:   FLUID LOSS
RM  .OHMM                      1.0500:   RM
RMT .DEGF                     75.0000:   RM TEMP
RMF .OHMM                       .8200:   RMF
RMFT.DEGF                     75.0000:   RMF TEMP
FSC .                               M:   RMF CODE
RMC .OHMM                      1.2200:   RMC
RMCT.DEGF                     75.0000:   RMC TEMP
CMC .                               M:   RMC CODE
TMAX.DEGF                    128.0000:   MAX REC TEMP
TIMC.                          7.0000:   TIME SINCE CIRCLN
~PARAMETER INFORMATION (zones)
#MNEM.UNIT                       Value     Description
#=========                       =====     ===========
#ZONATION                          DIL:   ZONATION NAME
#ZONE                            RUN_2:   ZONE NAME
TOP .                       5664.0000:   TOP DEPTH
BOT .                       8628.5000:   BOTTOM DEPTH
RUN .                               2:   RUN NUMBER
SRVC.                               0:   LOGGING CONTRACTOR
SRVC.                         UNKNOWN:   LOGGING CONT NAME
DICO.          QC Data Collectors Ltd:   DIG COMPANY NAME
LDAT.                      07/04/1989:   DATE LOGGED
ELD .F                        91.0000:   LOG DATUM ELEVATION
TDD .F                      8678.0000:   TOTAL DEPTH DRILLER
TDL .F                      8630.0000:   TOTAL DEPTH LOGGER
BOTL.F                      8628.0000:   BOTTOM DEPTH LOGGED
TOPL.F                      5664.0000:   TOP DEPTH LOGGED
CS1 .IN                        7.6250:   CASING SIZE 1
BS1 .IN                        6.5000:   BIT SIZE 1
DDB1.F                      8678.0000:   DEPTH DRILLED BIT 1
BHF .                              81:   FLUID CODE
DPT .          Lignosulfonate (Ligno):   DRILLING FLUID TYPE
MUDD.                         11.8000:   FLUID DENSITY
MUDV.                         48.0000:   FLUID VISCOSITY
DFPH.                         10.5000:   FLUID PH
FL  .                          6.6000:   FLUID LOSS
RM  .OHMM                       .7200:   RM
RMT .DEGF                     70.0000:   RM TEMP
RMF .OHMM                       .5900:   RMF
RMFT.DEGF                     70.0000:   RMF TEMP
FSC .                               M:   RMF CODE
RMC .OHMM                       .9000:   RMC
RMCT.DEGF                     70.0000:   RMC TEMP
CMC .                               C:   RMC CODE
TMAX.DEGF                    191.0000:   MAX REC TEMP
TIMC.                          5.0000:   TIME SINCE CIRCLN
~Curve Information Block
#MNEM.UNIT                    API CODE    No Description
#=========                    ========    == ===========
DEPT.F                   00 001 00 00:     1  DEPTH
DT.US/F                              :     2  Sonic Transit Time
GR.GAPI                              :     3  Gamma Ray
ILD.OHMM                             :     4  Deep Induction Resistivity
ILM.OHMM                             :     5  Medium Induction Resistivity
RFOC.OHMM                            :     6  Medium Resistivity
SP.MV                                :     7  Spontaneous Potential
~ASCII
# ...
 8234.0000    85.7711    57.5852     1.3031     1.2948     1.4764   -76.9198
 8234.5000    89.5642    57.6501     1.3100     1.3074     1.6157   -76.6370
 8235.0000    90.3063    57.1857     1.3157     1.3202     1.5931   -76.5814
 8235.5000    89.9332    56.9204     1.3272     1.3338     1.4064   -76.3931
 8236.0000    88.5765    57.8994     1.3362     1.3476     1.3936   -77.1074
 8236.5000    88.0012    58.0992     1.3444     1.3530     1.6482   -79.2643
 8237.0000    89.0782    57.4632     1.3518     1.3580     1.8485   -81.1003
 8237.5000    90.9801    55.7079     1.3581     1.3529     1.8630   -80.9075
 8238.0000    92.2264    54.8571     1.3596     1.3447     1.6546   -80.2509
 8238.5000    91.7484    54.8420     1.3578     1.3357     1.3868   -79.3666
 8239.0000    89.6167    55.0958     1.3492     1.3261     1.3280   -78.4023
 8239.5000    85.5714    55.0286     1.3364     1.3118     1.3576   -77.7816
 8240.0000    81.5024    55.3464     1.3201     1.2944     1.5251   -77.8605
 8240.5000    80.2659    56.1893     1.2944     1.2678     1.5798   -77.6604
 8241.0000    82.5927    57.9092     1.2760     1.2400     1.4422   -76.1104
 8241.5000    85.8079    60.2078     1.2572     1.2129     1.3064   -73.9589
 8242.0000    91.2874    62.6584     1.2380     1.1873     1.2237   -71.1619
 8242.5000   118.4816    63.7178     1.2058     1.1628     1.2042   -69.1296
 8243.0000   115.3280    63.3813     1.1625     1.1388     1.2404   -68.7236
 8243.5000   104.3479    62.3068     1.1044     1.1361     1.3691   -68.6807
 8244.0000    97.4814    61.2980     1.0656     1.1345     1.5238   -68.6840
 8244.5000    93.7382    61.2881     1.0630     1.1438     1.5923   -68.7606
 8245.0000    91.5317    61.6020     1.0755     1.1605     1.5788   -69.0306
 8245.5000    90.3995    61.4915     1.1040     1.1865     1.5570   -69.4518
 8246.0000    89.9855    61.0815     1.1477     1.2013     1.6710   -70.0441
 8246.5000    89.8859    60.5745     1.2011     1.2324     1.9896   -70.7460
 8247.0000    89.6476    60.1520     1.2629     1.2808     2.2181   -71.6761
 8247.5000    89.1774    59.7407     1.3330     1.3376     2.2181   -73.2399
 8248.0000    88.4071    59.0008     1.4100     1.4113     1.7985   -74.9822
 8248.5000    87.3602    57.9290     1.4925     1.5196     1.7517   -76.4725
 8249.0000    86.1073    56.0148     1.5795     1.6322     1.8976   -78.7893
 8249.5000    85.1327    52.5146     1.6641     1.7227     2.2643   -83.0216
 8250.0000    84.4720    49.2664     1.7521     1.7974     2.7424   -88.1591
 8250.5000    83.7327    48.6793     1.8120     1.8428     2.9339   -88.3231
 8251.0000    81.6338    48.7022     1.8490     1.8650     2.8411   -87.3228
 8251.5000    80.4530    49.2690     1.8655     1.8666     2.7954   -86.7212
 8252.0000    81.1124    50.5887     1.8685     1.8682     2.7913   -85.2518
 8252.5000    82.2721    52.9187     1.8636     1.8853     2.5639   -83.4781
 8253.0000    82.8680    55.5399     1.8793     1.9049     2.1564   -81.4945
 8253.5000    82.5480    56.9752     1.9041     1.9525     1.9237   -79.8756
 8254.0000    81.4473    55.9677     1.9475     2.0002     2.1276   -79.0477
 8254.5000    79.8765    55.9027     1.9923     2.0462     2.6234   -77.7319
 8255.0000    78.4330    56.1234     2.0396     2.0950     2.5957   -76.3662
 8255.5000    77.5800    55.6475     2.0880     2.1460     2.4163   -75.1475
 8256.0000    77.0809    53.9212     2.1305     2.1862     2.5412   -74.2645
 8256.5000    77.1666    54.5272     2.1723     2.2166     2.6768   -73.5692
 8257.0000    77.5096    56.5186     2.2088     2.2372     2.5495   -72.7886
 8257.5000    78.1428    58.6229     2.2437     2.2368     2.2951   -72.0408
 8258.0000    79.0050    58.8171     2.2763     2.2182     2.2176   -71.1599
 8258.5000    79.2644    53.9788     2.2849     2.1352     2.4749   -71.2484
 8259.0000    78.6169    51.8889     2.2748     2.0603     2.8692   -71.2130
 8259.5000    77.7140    51.6685     2.2536     2.0102     2.8983   -70.9515
 8260.0000    77.9247    52.6891     2.2420     2.0186     2.1632   -70.3865
 8260.5000    78.8940    54.9680     2.2141     2.0479     1.9929   -69.8033
 8261.0000    79.6138    57.0276     2.1811     2.0702     2.1601   -69.4852
 8261.5000    78.7285    57.5746     2.1232     2.0439     2.7742   -69.4406
 8262.0000    76.8832    55.8154     2.0322     1.9759     3.1325   -69.5627
 8262.5000    76.2400    55.0978     1.9232     1.8594     3.0878   -69.9581
 8263.0000    76.5610    55.7315     1.7998     1.7255     2.6510   -70.3130
 8263.5000    77.2706    57.9565     1.7095     1.6406     2.4415   -70.2031
 8264.0000    80.0551    60.6512     1.6397     1.5934     2.2746   -69.8158
 8264.5000    83.6066    61.9421     1.6108     1.5591     2.0360   -69.3284
 8265.0000    86.7640    61.9355     1.5983     1.5388     1.7375   -69.0385
 8265.5000    88.1575    61.5807     1.6025     1.5526     1.6919   -69.1271
 8266.0000    87.3682    60.7772     1.6309     1.6038     1.8898   -69.3593
 8266.5000    84.9725    59.6567     1.6888     1.6867     2.2100   -70.3524
 8267.0000    82.3352    58.3002     1.7833     1.8118     2.5075   -71.5580
 8267.5000    80.5804    56.6210     1.9207     1.9554     2.8664   -72.7532
 8268.0000    79.0596    53.6954     2.0903     2.0928     3.4994   -74.5282
 8268.5000    77.5833    52.1158     2.2162     2.2138     4.1750   -77.0839
 8269.0000    75.6499    52.2313     2.3146     2.2969     4.0834   -77.5377
 8269.5000    73.7980    53.6849     2.3779     2.3485     3.6018   -76.2914
 8270.0000    73.1166    55.7368     2.4080     2.3236     2.9745   -73.2871
 8270.5000    73.7402    57.2474     2.4016     2.2853     2.5498   -69.8368
 8271.0000    79.6899    56.6630     2.3283     2.2230     2.2485   -68.2520
 8271.5000    80.4858    55.3419     2.1799     2.1187     2.2531   -68.0328
 8272.0000    80.2074    55.0396     2.0199     1.9717     2.6434   -69.0808
 8272.5000    79.0280    55.8981     1.8383     1.8068     2.8504   -68.8411
 8273.0000    77.5638    57.8069     1.6457     1.6122     2.6612   -67.5146
 8273.5000    77.7251    59.3943     1.4202     1.4282     2.2768   -65.9916
 8274.0000    79.4956    60.0333     1.3347     1.3598     2.1684   -65.2372
 8274.5000    81.6023    61.5328     1.2897     1.3202     2.0858   -64.9785
 8275.0000    84.0374    63.6476     1.2705     1.2939     1.9526   -65.2333
 8275.5000    87.2841    65.0474     1.2596     1.2867     1.6902   -65.4773
 8276.0000    90.1829    64.8663     1.2660     1.2912     1.6178   -65.5658
 8276.5000    90.6871    64.3777     1.2723     1.2958     1.6766   -65.7277
 8277.0000    89.5996    63.8920     1.2844     1.3004     1.7743   -65.9561
 8277.5000    88.0327    63.6129     1.2981     1.2944     1.8916   -66.1704
 8278.0000    87.0530    63.4731     1.3069     1.2877     1.9839   -66.3121
 8278.5000    86.5238    63.4557     1.3000     1.2757     1.9970   -66.4558
 8279.0000    86.7377    63.5178     1.2818     1.2615     1.9423   -66.6035
 8279.5000    87.0225    62.7765     1.2640     1.2453     1.8172   -66.7026
 8280.0000    87.3035    61.5735     1.2465     1.2263     1.8073   -66.7573
 8280.5000    87.6223    60.9766     1.2280     1.2070     1.8633   -66.6827
 8281.0000    88.1884    60.2123     1.2080     1.1862     1.8837   -66.5732
 8281.5000    89.2003    59.6338     1.1832     1.1658     1.7615   -66.5353
 8282.0000    90.4796    58.7083     1.1589     1.1456     1.6177   -66.4935
 8282.5000    90.8605    57.5183     1.1352     1.1276     1.5636   -66.4298
 8283.0000    90.2288    56.6236     1.1132     1.1106     1.5597   -66.3667
 8283.5000    89.8452    56.0365     1.0936     1.0940     1.5650   -66.3271
 8284.0000    89.5490    55.7065     1.0761     1.0776     1.5707   -66.2837
 8284.5000    89.7350    55.4838     1.0611     1.0625     1.5740   -66.2286
 8285.0000    90.1670    55.3007     1.0487     1.0486     1.5724   -66.1315
 8285.5000    90.6201    55.2092     1.0386     1.0358     1.5732   -66.0126
