~VERSION INFORMATION
VERS.                             2.0:   CWLS Log ASCII Standard-VERSION 2.0
WRAP.                              NO:   One line per depth step
~Well Information Block
STRT.F                      3576.0000:   Top Depth
STOP.F                      7908.0000:   Bottom Depth
STEP.F                         .50000:   Depth Increment
NULL.                        -999.250:   Null Value
FLD .                      BA BLK 431:   Field Name
WELL.       OCSG09017   001 ST00 BP00:   NAME
API .                  42704401710000:   WELL API
EDF .F                        80.0000:   ELEV DRILL FLOOR
COMP.        WOLVERINE EXPLORATION CO:   OPERATOR
BN  .                             431:   BLOCK
CTRY.                             USA:   COUNTRY NAME
CNTY.                        BRAZOS L:   COUNTY NAME
EKB .F                        81.0000:   ELEV KELLY BUSHING
TDD .F                       7953.000:   FINAL TD DRILLER
STAT.                           TEXAS:   STATE NAME
UWI .                  42704401710000:   WELL API
DICO.               IHS : Digitizing Company
~PARAMETER INFORMATION (zones)
#MNEM.UNIT                       Value     Description
#=========                       =====     ===========
#ZONATION                          DIL:   ZONATION NAME
#ZONE                            RUN_1:   ZONE NAME
TOP .                       3576.0000:   TOP DEPTH
BOT .                       7908.5000:   BOTTOM DEPTH
RUN .                               1:   RUN NUMBER
LCCD.                             440:   LOGGING CONTRACTOR
SRVC.                    Schlumberger:   LOGGING CONT NAME
DICO.          QC Data Collectors Ltd:   DIG COMPANY NAME
LDAT.                      05/13/1988:   DATE LOGGED
ELD .F                        81.0000:   LOG DATUM ELEVATION
TDD .F                      7953.0000:   TOTAL DEPTH DRILLER
TDL .F                      7911.0000:   TOTAL DEPTH LOGGER
BOTL.F                      7908.0000:   BOTTOM DEPTH LOGGED
TOPL.F                      3608.0000:   TOP DEPTH LOGGED
CS1 .IN                       10.7500:   CASING SIZE 1
BS1 .IN                        9.8750:   BIT SIZE 1
DDB1.F                      7953.0000:   DEPTH DRILLED BIT 1
BHF .                              99:   FLUID CODE
DPT .                   Miscellaneous:   DRILLING FLUID TYPE
MUDD.                         10.0000:   FLUID DENSITY
MUDV.                         43.0000:   FLUID VISCOSITY
DFPH.                         11.3000:   FLUID PH
FL  .                          6.2000:   FLUID LOSS
RM  .OHMM                       .7340:   RM
RMT .DEGF                     73.0000:   RM TEMP
RMF .OHMM                       .5760:   RMF
RMFT.DEGF                     73.0000:   RMF TEMP
FSC .                               M:   RMF CODE
RMC .OHMM                       .8300:   RMC
RMCT.DEGF                     73.0000:   RMC TEMP
CMC .                               M:   RMC CODE
TMAX.DEGF                    164.0000:   MAX REC TEMP
TIMC.                          5.0000:   TIME SINCE CIRCLN
~Curve Information Block
#MNEM.UNIT                    API CODE    No Description
#=========                    ========    == ===========
DEPT.F                   00 001 00 00:     1  DEPTH
DCAL.IN                              :     2  Differential Caliper
DT.US/F                              :     3  Sonic Transit Time
GR.GAPI                              :     4  Gamma Ray
ILD.OHMM                             :     5  Deep Induction Resistivity
ILM.OHMM                             :     6  Medium Induction Resistivity
SFL.OHMM                             :     7  Medium Resistivity
SP.MV                                :     8  Spontaneous Potential
~ASCII
# ...
 5896.5000     1.8746   112.1615    56.7987      .3478      .4091      .7410   -71.0791
 5897.0000     1.8648   111.4561    51.6000      .2796      .3534      .7969   -86.7299
 5897.5000     1.8537   110.9119    48.5628      .2395      .3050      .8024   -90.0044
 5898.0000     1.8398   110.6168    47.2996      .2005      .2677      .7888   -92.0325
 5898.5000     1.8258   110.1691    47.0884      .1686      .2434      .7507   -91.2484
 5899.0000     1.8156   109.3060    47.3726      .1528      .2317      .6907   -88.3795
 5899.5000     1.8142   107.9645    48.4268      .1647      .2370      .5955   -84.3209
 5900.0000     1.8127   104.7402    50.3881      .1930      .2578      .4821   -77.7273
 5900.5000     1.8135   100.2007    52.8910      .2237      .3026      .4305   -65.3016
 5901.0000     1.8147   100.0642    56.6899      .2682      .3503      .4749   -58.6140
 5901.5000     1.8365   101.3225    62.2992      .3354      .4051      .5697   -50.5809
 5902.0000     1.8609   103.0104    65.5070      .4253      .4753      .6741   -44.8974
 5902.5000     1.8836   100.8236    63.8129      .5518      .5810      .6943   -42.1447
 5903.0000     1.9059    96.7134    58.1442      .7069      .7001      .6783   -42.4316
 5903.5000     1.9260    93.5240    54.4516      .8055      .7928      .7900   -44.2024
 5904.0000     1.9524    95.5940    52.3061      .8523      .8352     1.0252   -46.3541
 5904.5000     2.0031   101.7271    52.8366      .8513      .7993     1.4743   -49.1910
 5905.0000     2.0682   108.3889    55.4607      .8379      .7576     1.2734   -50.3221
 5905.5000     2.1239   107.2869    57.9191      .8214      .7173     1.0069   -50.6802
 5906.0000     2.1338    97.5573    59.4340      .7881      .6901      .7895   -52.6634
 5906.5000     2.0972    90.9303    58.6883      .7396      .6810      .6835   -57.1796
 5907.0000     2.0700    89.3418    55.8243      .6747      .6722      .6796   -61.5522
 5907.5000     2.0543    94.2463    53.7764      .6033      .6369      .7490   -67.5671
 5908.0000     2.0647    99.4337    51.4515      .5409      .5892      .8374   -77.8954
 5908.5000     2.1155   102.1913    48.1770      .4860      .5300      .8321   -81.5311
 5909.0000     2.1951   103.5985    44.4968      .4224      .4901      .7836   -86.9128
 5909.5000     2.2857   103.0624    41.0516      .3706      .4508      .7269   -90.6005
 5910.0000     2.3575   100.4923    38.3854      .3274      .4087      .6851   -92.3342
 5910.5000     2.3964    98.7561    36.5478      .2867      .3748      .6986   -93.2994
 5911.0000     2.4604    97.6641    35.5733      .2524      .3484      .7426   -93.9510
 5911.5000     2.6131    97.7993    35.3987      .2315      .3252      .7849   -94.5743
 5912.0000     2.8136    98.8628    36.2263      .2164      .3032      .7473   -95.1525
 5912.5000     2.8966    97.0857    37.3281      .2090      .2861      .6791   -95.5151
 5913.0000     2.8819    91.9281    38.1443      .2062      .2766      .6210   -95.7267
 5913.5000     2.6833    79.4385    38.7836      .2143      .2760      .5873   -95.8856
 5914.0000     2.3331    67.6042    40.0919      .2269      .2878      .5854   -96.0107
 5914.5000     1.9447    60.0638    41.2432      .2443      .3121      .6456   -96.0428
 5915.0000     1.7204    57.7332    42.1695      .2651      .3424      .7163   -96.0148
 5915.5000     1.7449    63.2260    42.7526      .2854      .3733      .8470   -96.0270
 5916.0000     1.8021    72.7073    43.2243      .2997      .3887      .9702   -96.0668
 5916.5000     1.9546    82.9829    44.0343      .3010      .3872      .9176   -96.1658
 5917.0000     2.1301    89.4312    45.6122      .2984      .3686      .8178   -96.3180
 5917.5000     2.2083    94.8966    47.2211      .2851      .3440      .7431   -96.4888
 5918.0000     2.2011    99.6670    46.4395      .2667      .3221      .6905   -96.5420
 5918.5000     2.2748   103.8964    44.4250      .2490      .3048      .6606   -96.5536
 5919.0000     2.5674   105.2249    41.4547      .2340      .2917      .6559   -96.5157
 5919.5000     3.2093   105.6189    38.6871      .2258      .2836      .6741   -96.4392
 5920.0000     3.8159   105.3726    37.6866      .2234      .2812      .6845   -96.4023
 5920.5000     3.6625   104.8030    37.7269      .2231      .2825      .6871   -96.4243
 5921.0000     3.2549   104.2606    36.7605      .2256      .2862      .6886   -96.4935
 5921.5000     2.9410   103.8151    34.8882      .2285      .2909      .6871   -96.5922
 5922.0000     2.7503   103.7205    32.6203      .2322      .2889      .6829   -96.6775
 5922.5000     2.6372   104.1447    32.0997      .2359      .2852      .6776   -96.8512
 5923.0000     2.5427   104.3416    34.9352      .2397      .2833      .6717   -97.0142
 5923.5000     2.4498   103.2238    38.4077      .2426      .2832      .6639   -97.1742
 5924.0000     2.3295    99.8010    37.7869      .2450      .2905      .6661   -97.1617
 5924.5000     2.1900    96.8003    36.5008      .2451      .2929      .6813   -96.8145
 5925.0000     2.0220   100.8137    35.5029      .2451      .2935      .7040   -96.3539
 5925.5000     1.8854   104.6360    36.5428      .2429      .2935      .7350   -95.7449
 5926.0000     1.8321   105.6393    39.0928      .2395      .2898      .6990   -95.1865
 5926.5000     1.8325   105.6750    41.0522      .2362      .2835      .6507   -94.7484
 5927.0000     1.9681   105.3645    41.1919      .2337      .2758      .6145   -94.5776
 5927.5000     2.1393   104.3047    40.0103      .2284      .2690      .5962   -94.2911
 5928.0000     2.3257   102.3650    38.1393      .2221      .2630      .6132   -93.4979
 5928.5000     2.0221   102.2241    37.8543      .2162      .2586      .6458   -91.8223
 5929.0000     1.7482   102.7007    38.2843      .2116      .2551      .6460   -89.5846
 5929.5000     1.6238   103.0090    39.1014      .2100      .2531      .5714   -88.5934
 5930.0000     1.6170   103.4099    40.9601      .2148      .2541      .4761   -86.9796
 5930.5000     1.6104   105.6636    43.2725      .2260      .2634      .4148   -84.7018
 5931.0000     1.6511   108.5576    47.3262      .2378      .2769      .4307   -80.7842
 5931.5000     1.7131   110.9875    52.6190      .2451      .2929      .4789   -74.0421
 5932.0000     1.8067   111.9751    57.6248      .2494      .3073      .4734   -70.1591
 5932.5000     1.9487   111.8284    60.4245      .2519      .3167      .4397   -71.3958
 5933.0000     2.1194   110.4117    56.3090      .2533      .3206      .4771   -75.2837
 5933.5000     2.2839   108.0538    51.3774      .2540      .3225      .5840   -78.2516
 5934.0000     2.2569   106.2792    46.2973      .2544      .3162      .6717   -80.0929
 5934.5000     2.1659   106.4070    46.3492      .2576      .3069      .6677   -77.5789
 5935.0000     2.0786   106.9542    48.9041      .2620      .3011      .6364   -72.2119
 5935.5000     2.0070   109.6274    52.3889      .2705      .3249      .5889   -63.9464
 5936.0000     1.9346   113.2388    57.0708      .2860      .3504      .5865   -57.5802
 5936.5000     1.8504   116.0906    65.1434      .3122      .3790      .6118   -50.2742
 5937.0000     1.7193   116.0906    72.7610      .3532      .4119      .6050   -42.7284
 5937.5000     1.6353   113.1295    75.7883      .4119      .4522      .5547   -40.3466
 5938.0000     1.6478   108.4832    75.4977      .4641      .4994      .5171   -40.8982
 5938.5000     1.6861   102.5363    74.1349      .5364      .5489      .5184   -45.8273
 5939.0000     1.7582    96.1177    72.9911      .5816      .5893      .6321   -48.6617
 5939.5000     1.8342    92.2817    70.3422      .6172      .6301      .8024   -50.4579
 5940.0000     1.8932    91.7318    66.0042      .6449      .6727      .9561   -51.0867
 5940.5000     1.9459    93.1592    65.4551      .6664      .7097     1.1494   -49.2058
 5941.0000     1.9686    97.7906    67.6686      .6828      .7263     1.2969   -45.6295
 5941.5000     1.9841   105.5792    69.3925      .7000      .7236     1.1870   -42.1546
