~VERSION INFORMATION
VERS.                             2.0:   CWLS Log ASCII Standard-VERSION 2.0
WRAP.                              NO:   One line per depth step
~Well Information Block
STRT.F                      3576.0000:   Top Depth
STOP.F                      7908.0000:   Bottom Depth
STEP.F                         .50000:   Depth Increment
NULL.                        -999.250:   Null Value
FLD .                      BA BLK 431:   Field Name
WELL.       OCSG09017   001 ST00 BP00:   NAME
API .                  42704401710000:   WELL API
EDF .F                        80.0000:   ELEV DRILL FLOOR
COMP.        WOLVERINE EXPLORATION CO:   OPERATOR
BN  .                             431:   BLOCK
CTRY.                             USA:   COUNTRY NAME
CNTY.                        BRAZOS L:   COUNTY NAME
EKB .F                        81.0000:   ELEV KELLY BUSHING
TDD .F                       7953.000:   FINAL TD DRILLER
STAT.                           TEXAS:   STATE NAME
UWI .                  42704401710000:   WELL API
DICO.               IHS : Digitizing Company
~PARAMETER INFORMATION (zones)
#MNEM.UNIT                       Value     Description
#=========                       =====     ===========
#ZONATION                          DIL:   ZONATION NAME
#ZONE                            RUN_1:   ZONE NAME
TOP .                       3576.0000:   TOP DEPTH
BOT .                       7908.5000:   BOTTOM DEPTH
RUN .                               1:   RUN NUMBER
LCCD.                             440:   LOGGING CONTRACTOR
SRVC.                    Schlumberger:   LOGGING CONT NAME
DICO.          QC Data Collectors Ltd:   DIG COMPANY NAME
LDAT.                      05/13/1988:   DATE LOGGED
ELD .F                        81.0000:   LOG DATUM ELEVATION
TDD .F                      7953.0000:   TOTAL DEPTH DRILLER
TDL .F                      7911.0000:   TOTAL DEPTH LOGGER
BOTL.F                      7908.0000:   BOTTOM DEPTH LOGGED
TOPL.F                      3608.0000:   TOP DEPTH LOGGED
CS1 .IN                       10.7500:   CASING SIZE 1
BS1 .IN                        9.8750:   BIT SIZE 1
DDB1.F                      7953.0000:   DEPTH DRILLED BIT 1
BHF .                              99:   FLUID CODE
DPT .                   Miscellaneous:   DRILLING FLUID TYPE
MUDD.                         10.0000:   FLUID DENSITY
MUDV.                         43.0000:   FLUID VISCOSITY
DFPH.                         11.3000:   FLUID PH
FL  .                          6.2000:   FLUID LOSS
RM  .OHMM                       .7340:   RM
RMT .DEGF                     73.0000:   RM TEMP
RMF .OHMM                       .5760:   RMF
RMFT.DEGF                     73.0000:   RMF TEMP
FSC .                               M:   RMF CODE
RMC .OHMM                       .8300:   RMC
RMCT.DEGF                     73.0000:   RMC TEMP
CMC .                               M:   RMC CODE
TMAX.DEGF                    164.0000:   MAX REC TEMP
TIMC.                          5.0000:   TIME SINCE CIRCLN
~Curve Information Block
#MNEM.UNIT                    API CODE    No Description
#=========                    ========    == ===========
DEPT.F                   00 001 00 00:     1  DEPTH
DCAL.IN                              :     2  Differential Caliper
DT.US/F                              :     3  Sonic Transit Time
GR.GAPI                              :     4  Gamma Ray
ILD.OHMM                             :     5  Deep Induction Resistivity
ILM.OHMM                             :     6  Medium Induction Resistivity
SFL.OHMM                             :     7  Medium Resistivity
SP.MV                                :     8  Spontaneous Potential
~ASCII
# ...
 4486.0000     4.2406   120.3129    50.1852      .8129      .8830     1.3554   -61.8515
 4486.5000     4.2558   121.9791    50.9615      .7661      .8551     1.4818   -63.6874
 4487.0000     4.2725   119.3162    51.6936      .7163      .8024     1.2863   -66.4717
 4487.5000     4.3262   115.1506    51.3473      .6621      .7417     1.0397   -69.0828
 4488.0000     4.3840   112.5695    50.6729      .6098      .6796      .8589   -70.4100
 4488.5000     4.4432   115.5969    51.4567      .5594      .6335      .7587   -70.8888
 4489.0000     4.4849   117.7615    54.4783      .5191      .5983      .7197   -68.6921
 4489.5000     4.4891   117.9880    58.0439      .4872      .5736      .7187   -66.9236
 4490.0000     4.4902   117.2155    60.5759      .4622      .5631      .7384   -67.2196
 4490.5000     4.4748   116.1213    56.6221      .4470      .5549      .7709   -68.5721
 4491.0000     4.4556   115.0372    53.5338      .4415      .5461      .8156   -70.1696
 4491.5000     4.4541   115.0328    51.8708      .4353      .5367      .8522   -72.1415
 4492.0000     4.4751   116.9086    51.4629      .4241      .5182      .8540   -74.1271
 4492.5000     4.5057   118.5970    52.6566      .4082      .4942      .8207   -76.1910
 4493.0000     4.5808   119.1476    52.8640      .3898      .4682      .7595   -76.3157
 4493.5000     4.7558   118.7239    52.7001      .3748      .4489      .6886   -75.4203
 4494.0000     5.0519   120.2236    53.1567      .3650      .4390      .6184   -72.3344
 4494.5000     4.8389   123.1841    58.2812      .3711      .4393      .5709   -65.6458
 4495.0000     4.4806   125.2904    64.0549      .3846      .4654      .5551   -58.5690
 4495.5000     4.2144   123.5337    68.1373      .4024      .4980      .5779   -55.2631
 4496.0000     4.2861   120.8658    70.1698      .4285      .5254      .6325   -53.7665
 4496.5000     4.4732   118.6975    68.6071      .4626      .5460      .6967   -53.8994
 4497.0000     4.6039   117.4882    66.4620      .4999      .5619      .7243   -54.1055
 4497.5000     4.6328   116.9043    66.0176      .5396      .5823      .7435   -53.9279
 4498.0000     4.6091   117.6809    67.7466      .5747      .5990      .7665   -53.0599
 4498.5000     4.4760   119.4054    70.7361      .5977      .6229      .7938   -51.4713
 4499.0000     4.3718   121.9840    73.7972      .6069      .6339      .8012   -49.6044
 4499.5000     4.2742   123.9094    76.7299      .6086      .6414      .7941   -48.4293
 4500.0000     4.2059   124.5769    78.8278      .6143      .6588      .7542   -47.4026
 4500.5000     4.1621   124.7603    80.2408      .6125      .6617      .7272   -47.0762
 4501.0000     4.2013   123.5743    81.1544      .6059      .6594      .7261   -47.1491
 4501.5000     4.2593   119.9763    78.6567      .5946      .6478      .7226   -49.2682
 4502.0000     4.2793   116.1300    70.9863      .5819      .6393      .7149   -52.9422
 4502.5000     4.2124   113.1329    64.3745      .5692      .6350      .7023   -56.1180
 4503.0000     4.1149   109.1500    60.4947      .5624      .6346      .7036   -57.9631
 4503.5000     4.0403   104.9685    58.1123      .5643      .6421      .7464   -58.1552
 4504.0000     3.9927   103.0118    58.6329      .5751      .6628      .8224   -55.9593
 4504.5000     3.9917   103.6748    62.5574      .5943      .6829      .9191   -53.4802
 4505.0000     4.0721   105.0045    64.3658      .6231      .7050      .9956   -51.9122
 4505.5000     4.2266   107.6527    64.1765      .6588      .7296     1.0406   -51.9586
 4506.0000     4.4239   111.9634    63.5261      .6871      .7594     1.0082   -53.3649
 4506.5000     4.5752   115.1864    62.3925      .6956      .7793      .9611   -54.9739
 4507.0000     4.6443   117.7056    61.1337      .6931      .7710      .9556   -55.2255
 4507.5000     4.6345   119.0917    60.5437      .6872      .7469      .9759   -53.7182
 4508.0000     4.5960   119.3550    62.0727      .6765      .7192      .9130   -51.6035
 4508.5000     4.5275   118.4132    64.1105      .6638      .6909      .7973   -49.8024
 4509.0000     4.4534   116.6937    65.8087      .6506      .6711      .7245   -48.8911
 4509.5000     4.3739   115.9971    66.5974      .6366      .6602      .7504   -48.5848
 4510.0000     4.3052   115.7358    66.9167      .6198      .6548      .7938   -48.6024
 4510.5000     4.2490   115.4127    66.7150      .6031      .6522      .7858   -49.2012
 4511.0000     4.2031   114.9186    67.1825      .5862      .6478      .7792   -50.6899
 4511.5000     4.1945   116.0481    67.2035      .5614      .6409      .7778   -52.7811
 4512.0000     4.1861   119.7554    68.0448      .5340      .6214      .8131   -57.4120
 4512.5000     4.1813   121.6145    68.5258      .5063      .5963      .7966   -62.9133
 4513.0000     4.1818   121.0006    66.3207      .4701      .5631      .7420   -67.7004
 4513.5000     4.2000   119.7019    62.7854      .4388      .5231      .7071   -70.6505
 4514.0000     4.4139   118.1537    59.5775      .4124      .4894      .6870   -73.0887
 4514.5000     4.5734   116.7515    57.5848      .3886      .4572      .6797   -74.2311
 4515.0000     4.5598   116.9686    57.2396      .3680      .4366      .6759   -74.4716
 4515.5000     4.5109   118.8627    58.6676      .3526      .4260      .6544   -75.6460
 4516.0000     4.4821   121.0986    60.2728      .3419      .4213      .6211   -75.3187
 4516.5000     4.3849   123.3607    61.7120      .3331      .4195      .5934   -73.3677
 4517.0000     4.2605   124.3516    63.6444      .3286      .4183      .5932   -69.1278
 4517.5000     4.1697   122.4768    63.7225      .3278      .4178      .6020   -69.0554
 4518.0000     4.1587   120.0186    62.2759      .3305      .4172      .6155   -68.9895
 4518.5000     4.1891   117.7068    60.7667      .3349      .4162      .6307   -68.8230
 4519.0000     4.2270   115.9332    61.6487      .3440      .4179      .6487   -68.7423
 4519.5000     4.2597   115.7526    63.4412      .3558      .4249      .6699   -68.5917
 4520.0000     4.3055   118.2456    62.5112      .3685      .4373      .6976   -68.5017
 4520.5000     4.3656   120.7958    62.2877      .3794      .4534      .7187   -68.4147
 4521.0000     4.4458   122.7599    64.1975      .3864      .4621      .7207   -68.3385
 4521.5000     4.5118   123.2211    68.5537      .3871      .4582      .7053   -69.6354
 4522.0000     4.5661   122.4905    69.4872      .3779      .4420      .6814   -72.1653
 4522.5000     4.6054   121.2831    66.6125      .3672      .4255      .6506   -74.2081
 4523.0000     4.6176   120.9652    64.2036      .3590      .4084      .6359   -75.0240
 4523.5000     4.6179   121.9851    63.3234      .3546      .3989      .6287   -74.1461
 4524.0000     4.6115   123.2291    63.1793      .3502      .3959      .5791   -70.9802
 4524.5000     4.6002   123.6923    64.3633      .3437      .4069      .5423   -69.0404
 4525.0000     4.6123   123.1649    65.5908      .3345      .4244      .5472   -71.5306
 4525.5000     4.7355   122.2645    64.0737      .3220      .4328      .5965   -76.9326
 4526.0000     4.9767   120.5654    59.4639      .3069      .4194      .6678   -82.3768
 4526.5000     5.1961   119.6827    53.2753      .2877      .3867      .7622   -87.0946
 4527.0000     5.0798   120.9373    51.0304      .2680      .3526      .8677   -89.3381
 4527.5000     4.8745   122.5190    51.6187      .2496      .3273      .8638   -89.1808
 4528.0000     4.7901   122.4675    55.7473      .2517      .3091      .7272   -85.4310
 4528.5000     4.7273   121.5525    59.0135      .2629      .3045      .5458   -78.5590
 4529.0000     4.5551   119.7554    60.9139      .2751      .3293      .4264   -73.2722
 4529.5000     4.4492   116.7706    61.3632      .2924      .3794      .4205   -68.5780
 4530.0000     4.4076   114.9108    60.5743      .3161      .4440      .5262   -63.4165
 4530.5000     4.4117   113.1217    59.3940      .3513      .5039      .6816   -61.0477
 4531.0000     4.4583   113.7351    58.9492      .3976      .5402      .8684   -59.1573
