~VERSION INFORMATION
VERS.                             2.0:   CWLS Log ASCII Standard-VERSION 2.0
WRAP.                              NO:   One line per depth step
~Well Information Block
STRT.F                      3138.0000:   Top Depth
STOP.F                      8628.0000:   Bottom Depth
STEP.F                         .50000:   Depth Increment
NULL.                        -999.250:   Null Value
FLD .                      BA BLK 376:   Field Name
WELL.       OCSG07215   003 ST00 BP00:   NAME
API .                  42704401900000:   WELL API
EDF .F                        90.0000:   ELEV DRILL FLOOR
COMP.         UNION EXPL PARTNERS LTD:   OPERATOR
BN  .                             376:   BLOCK
CTRY.                             USA:   COUNTRY NAME
CNTY.                        BRAZOS L:   COUNTY NAME
EKB .F                        91.0000:   ELEV KELLY BUSHING
TDD .F                       8678.000:   FINAL TD DRILLER
STAT.                           TEXAS:   STATE NAME
UWI .                  42704401900000:   WELL API
DICO.               IHS : Digitizing Company
~PARAMETER INFORMATION (zones)
#MNEM.UNIT                       Value     Description
#=========                       =====     ===========
#ZONATION                          DIL:   ZONATION NAME
#ZONE                            RUN_1:   ZONE NAME
TOP .                       3138.0000:   TOP DEPTH
BOT .                       5660.5000:   BOTTOM DEPTH
RUN .                               1:   RUN NUMBER
SRVC.                               0:   LOGGING CONTRACTOR
SRVC.                         UNKNOWN:   LOGGING CONT NAME
DICO.          QC Data Collectors Ltd:   DIG COMPANY NAME
LDAT.                      06/22/1989:   DATE LOGGED
ELD .F                        91.0000:   LOG DATUM ELEVATION
TDD .F                      5675.0000:   TOTAL DEPTH DRILLER
TDL .F                      5662.0000:   TOTAL DEPTH LOGGER
BOTL.F                      5660.0000:   BOTTOM DEPTH LOGGED
TOPL.F                      3220.0000:   TOP DEPTH LOGGED
CS1 .IN                       10.7500:   CASING SIZE 1
BS1 .IN                        9.8750:   BIT SIZE 1
DDB1.F                      5675.0000:   DEPTH DRILLED BIT 1
BHF .                              20:   FLUID CODE
DPT .                    Gel (Gelchem:   DRILLING FLUID TYPE
MUDD.                          9.0000:   FLUID DENSITY
MUDV.                         68.0000:   FLUID VISCOSITY
DFPH.                          9.0000:   FLUID PH
FL  .                         12.0000:   FLUID LOSS
RM  .OHMM                      1.0500:   RM
RMT .DEGF                     75.0000:   RM TEMP
RMF .OHMM                       .8200:   RMF
RMFT.DEGF                     75.0000:   RMF TEMP
FSC .                               M:   RMF CODE
RMC .OHMM                      1.2200:   RMC
RMCT.DEGF                     75.0000:   RMC TEMP
CMC .                               M:   RMC CODE
TMAX.DEGF                    128.0000:   MAX REC TEMP
TIMC.                          7.0000:   TIME SINCE CIRCLN
~PARAMETER INFORMATION (zones)
#MNEM.UNIT                       Value     Description
#=========                       =====     ===========
#ZONATION                          DIL:   ZONATION NAME
#ZONE                            RUN_2:   ZONE NAME
TOP .                       5664.0000:   TOP DEPTH
BOT .                       8628.5000:   BOTTOM DEPTH
RUN .                               2:   RUN NUMBER
SRVC.                               0:   LOGGING CONTRACTOR
SRVC.                         UNKNOWN:   LOGGING CONT NAME
DICO.          QC Data Collectors Ltd:   DIG COMPANY NAME
LDAT.                      07/04/1989:   DATE LOGGED
ELD .F                        91.0000:   LOG DATUM ELEVATION
TDD .F                      8678.0000:   TOTAL DEPTH DRILLER
TDL .F                      8630.0000:   TOTAL DEPTH LOGGER
BOTL.F                      8628.0000:   BOTTOM DEPTH LOGGED
TOPL.F                      5664.0000:   TOP DEPTH LOGGED
CS1 .IN                        7.6250:   CASING SIZE 1
BS1 .IN                        6.5000:   BIT SIZE 1
DDB1.F                      8678.0000:   DEPTH DRILLED BIT 1
BHF .                              81:   FLUID CODE
DPT .          Lignosulfonate (Ligno):   DRILLING FLUID TYPE
MUDD.                         11.8000:   FLUID DENSITY
MUDV.                         48.0000:   FLUID VISCOSITY
DFPH.                         10.5000:   FLUID PH
FL  .                          6.6000:   FLUID LOSS
RM  .OHMM                       .7200:   RM
RMT .DEGF                     70.0000:   RM TEMP
RMF .OHMM                       .5900:   RMF
RMFT.DEGF                     70.0000:   RMF TEMP
FSC .                               M:   RMF CODE
RMC .OHMM                       .9000:   RMC
RMCT.DEGF                     70.0000:   RMC TEMP
CMC .                               C:   RMC CODE
TMAX.DEGF                    191.0000:   MAX REC TEMP
TIMC.                          5.0000:   TIME SINCE CIRCLN
~Curve Information Block
#MNEM.UNIT                    API CODE    No Description
#=========                    ========    == ===========
DEPT.F                   00 001 00 00:     1  DEPTH
DT.US/F                              :     2  Sonic Transit Time
GR.GAPI                              :     3  Gamma Ray
ILD.OHMM                             :     4  Deep Induction Resistivity
ILM.OHMM                             :     5  Medium Induction Resistivity
RFOC.OHMM                            :     6  Medium Resistivity
SP.MV                                :     7  Spontaneous Potential
~ASCII
# ...
 7142.0000   101.9126    65.3564     1.2626     1.2523     1.1448   -50.4039
 7142.5000   104.5979    65.4220     1.1738     1.1715     1.1444   -50.5354
 7143.0000   105.7069    65.2274     1.1162     1.1083     1.1467   -50.5619
 7143.5000   105.9951    65.4272     1.0588     1.0507     1.1484   -50.5620
 7144.0000   105.9044    66.1637     1.0082      .9979     1.1585   -50.6482
 7144.5000   105.6012    67.2445      .9665      .9617     1.1645   -50.8525
 7145.0000   105.3834    69.1344      .9240      .9323     1.1501   -51.0912
 7145.5000   105.3667    70.0427      .8921      .9066     1.1340   -51.3410
 7146.0000   105.9254    70.7438      .8675      .8825     1.1151   -51.5712
 7146.5000   106.6512    72.3085      .8508      .8617     1.0970   -51.7232
 7147.0000   107.8108    75.9205      .8403      .8435     1.0780   -51.7651
 7147.5000   110.3070    77.4902      .8366      .8346     1.0731   -51.6968
 7148.0000   111.5917    76.5842      .8423      .8313     1.0952   -51.5374
 7148.5000   111.3262    75.5193      .8484      .8320     1.1413   -51.3294
 7149.0000   110.4436    74.3401      .8555      .8350     1.1782   -51.2307
 7149.5000   109.0300    73.4758      .8633      .8385     1.1936   -51.3010
 7150.0000   107.8514    72.8639      .8702      .8424     1.1961   -51.3272
 7150.5000   107.2018    72.6803      .8729      .8462     1.1632   -51.1321
 7151.0000   107.1029    73.4102      .8693      .8489     1.1111   -50.9631
 7151.5000   107.6887    76.7050      .8679      .8510     1.0735   -51.1538
 7152.0000   108.2064    77.6211      .8666      .8529     1.0922   -51.5517
 7152.5000   108.2612    77.4111      .8652      .8551     1.1360   -51.7404
 7153.0000   107.9197    76.9240      .8637      .8575     1.1768   -51.7855
 7153.5000   107.2119    75.1232      .8623      .8600     1.1768   -51.5322
 7154.0000   107.2714    72.3268      .8606      .8615     1.1469   -51.0865
 7154.5000   107.8016    71.7034      .8591      .8607     1.1031   -50.8394
 7155.0000   108.4243    71.9071      .8583      .8600     1.0690   -50.7057
 7155.5000   108.4132    72.9459      .8573      .8592     1.0623   -50.7379
 7156.0000   107.5365    74.7296      .8559      .8583     1.1402   -50.8564
 7156.5000   106.6204    75.5461      .8544      .8566     1.1995   -50.9502
 7157.0000   106.2456    75.4550      .8529      .8550     1.2026   -51.0389
 7157.5000   106.7778    73.4836      .8513      .8534     1.1505   -51.1387
 7158.0000   107.4695    73.0591      .8538      .8521     1.1200   -51.1914
 7158.5000   107.6991    73.3636      .8574      .8522     1.1279   -51.1243
 7159.0000   107.6083    74.1027      .8635      .8529     1.1489   -51.0231
 7159.5000   107.2546    75.1454      .8701      .8582     1.1729   -50.9670
 7160.0000   106.6952    76.0488      .8785      .8645     1.1817   -51.0712
 7160.5000   105.5992    75.8701      .8870      .8717     1.1813   -51.3367
 7161.0000   104.8170    74.7900      .8958      .8821     1.1802   -51.4966
 7161.5000   104.2428    73.2213      .9048      .8954     1.1775   -51.5101
 7162.0000   103.9847    70.9050      .9153      .9117     1.1741   -51.5236
 7162.5000   104.1434    68.5994      .9286      .9275     1.1742   -51.5632
 7163.0000   104.2261    68.5994      .9443      .9443     1.1755   -51.6296
 7163.5000   103.9279    69.6381      .9603      .9647     1.1770   -51.5940
 7164.0000   103.2972    70.3313      .9748      .9824     1.1893   -51.5565
 7164.5000   102.6554    70.3811      .9885      .9988     1.2498   -51.6304
 7165.0000   101.8994    70.3810     1.0033     1.0134     1.2909   -51.9280
 7165.5000   101.4503    70.3414     1.0184     1.0252     1.2824   -52.0332
 7166.0000   101.2632    70.4735     1.0301     1.0335     1.2460   -51.8201
 7166.5000   102.0071    71.0349     1.0418     1.0394     1.2275   -51.6010
 7167.0000   102.9802    72.0619     1.0545     1.0442     1.2250   -51.4479
 7167.5000   103.4623    73.0134     1.0687     1.0483     1.2479   -51.5458
 7168.0000   103.5604    73.0580     1.0835     1.0549     1.3043   -51.8286
 7168.5000   103.3208    72.6200     1.0966     1.0706     1.3203   -52.2217
 7169.0000   102.8313    71.6979     1.1108     1.0922     1.3063   -52.5867
 7169.5000   102.1974    71.3556     1.1303     1.1174     1.2859   -52.9756
 7170.0000   101.4296    71.7957     1.1423     1.1384     1.2708   -53.4333
 7170.5000   100.5778    72.3278     1.1470     1.1506     1.2799   -53.9393
 7171.0000    99.6276    71.9255     1.1467     1.1559     1.3459   -54.1995
 7171.5000    98.8972    70.8513     1.1447     1.1394     1.4010   -54.1804
 7172.0000    99.6052    70.0046     1.1350     1.1147     1.4072   -54.0829
 7172.5000   100.9755    70.5667     1.1199     1.0839     1.3098   -53.9025
 7173.0000   102.0359    72.5996     1.0687     1.0502     1.2403   -53.6052
 7173.5000   103.0072    75.5323     1.0229     1.0135     1.2003   -53.0681
 7174.0000   104.0519    76.7540      .9814      .9738     1.1728   -52.3250
 7174.5000   105.3197    75.8077      .9453      .9387     1.1575   -51.5715
 7175.0000   106.8921    74.7625      .9127      .9094     1.1513   -50.8646
 7175.5000   108.6743    73.7119      .8837      .8875     1.1421   -50.3229
 7176.0000   109.4355    72.7649      .8662      .8767     1.1293   -50.0350
 7176.5000   108.8837    72.5249      .8526      .8697     1.1149   -49.8923
 7177.0000   108.2104    72.4675      .8414      .8660     1.1356   -49.8854
 7177.5000   107.7249    72.5178      .8348      .8632     1.1588   -49.8785
 7178.0000   107.7871    73.0941      .8283      .8607     1.1364   -49.8716
 7178.5000   108.6416    73.6060      .8266      .8564     1.1042   -49.8647
 7179.0000   109.1869    73.4718      .8252      .8526     1.0914   -49.8578
 7179.5000   109.3092    73.5405      .8293      .8532     1.1197   -49.8447
 7180.0000   109.2069    74.2142      .8355      .8538     1.1668   -49.6497
 7180.5000   108.9867    75.7186      .8434      .8540     1.1800   -49.6789
 7181.0000   108.7596    76.2139      .8524      .8541     1.1561   -49.8402
 7181.5000   108.4919    75.9769      .8620      .8559     1.1197   -49.9845
 7182.0000   108.1924    75.9459      .8656      .8582     1.1188   -50.1668
 7182.5000   107.9099    76.2515      .8691      .8607     1.1511   -50.2554
 7183.0000   107.7681    76.2947      .8728      .8631     1.1751   -50.2494
 7183.5000   107.7371    75.8583      .8766      .8648     1.1664   -50.3083
 7184.0000   107.9119    74.9670      .8798      .8664     1.1343   -50.3513
 7184.5000   108.6179    74.5487      .8799      .8686     1.1293   -50.3647
 7185.0000   109.8818    74.6890      .8801      .8717     1.1614   -50.3365
 7185.5000   109.9028    74.8202      .8802      .8739     1.2236   -50.2314
 7186.0000   108.0365    73.7578      .8763      .8731     1.2589   -50.1573
 7186.5000   107.1827    73.0702      .8691      .8706     1.2121   -50.1666
 7187.0000   106.9602    72.7706      .8597      .8698     1.1464   -50.2088
 7187.5000   107.9813    72.7429      .8503      .8652     1.1103   -50.2003
 7188.0000   109.3280    73.7079      .8407      .8601     1.1041   -50.0140
 7188.5000   110.1515    75.0641      .8270      .8531     1.1176   -49.8844
 7189.0000   110.0937    75.5769      .8115      .8446     1.1418   -49.9330
 7189.5000   109.7383    75.4783      .7975      .8369     1.1457   -50.1706
 7190.0000   109.6534    75.2313      .7919      .8323     1.1100   -50.3453
 7190.5000   110.7218    75.2900      .7882      .8312     1.0954   -50.3795
 7191.0000   112.4392    76.0740      .7862      .8323     1.1143   -50.2244
 7191.5000   112.9432    78.2473      .7878      .8395     1.1775   -50.1459
 7192.0000   111.9542    79.2759      .7998      .8490     1.2144   -50.2342
 7192.5000   110.6077    78.2814      .8200      .8626     1.2107   -50.3151
 7193.0000   109.5957    76.7731      .8419      .8740     1.1875   -50.5311
 7193.5000   108.8057    75.2175      .8618      .8841     1.1717   -50.7144
