~VERSION INFORMATION
VERS.                             2.0:   CWLS Log ASCII Standard-VERSION 2.0
WRAP.                              NO:   One line per depth step
~Well Information Block
STRT.F                      3138.0000:   Top Depth
STOP.F                      8628.0000:   Bottom Depth
STEP.F                         .50000:   Depth Increment
NULL.                        -999.250:   Null Value
FLD .                      BA BLK 376:   Field Name
WELL.       OCSG07215   003 ST00 BP00:   NAME
API .                  42704401900000:   WELL API
EDF .F                        90.0000:   ELEV DRILL FLOOR
COMP.         UNION EXPL PARTNERS LTD:   OPERATOR
BN  .                             376:   BLOCK
CTRY.                             USA:   COUNTRY NAME
CNTY.                        BRAZOS L:   COUNTY NAME
EKB .F                        91.0000:   ELEV KELLY BUSHING
TDD .F                       8678.000:   FINAL TD DRILLER
STAT.                           TEXAS:   STATE NAME
UWI .                  42704401900000:   WELL API
DICO.               IHS : Digitizing Company
~PARAMETER INFORMATION (zones)
#MNEM.UNIT                       Value     Description
#=========                       =====     ===========
#ZONATION                          DIL:   ZONATION NAME
#ZONE                            RUN_1:   ZONE NAME
TOP .                       3138.0000:   TOP DEPTH
BOT .                       5660.5000:   BOTTOM DEPTH
RUN .                               1:   RUN NUMBER
SRVC.                               0:   LOGGING CONTRACTOR
SRVC.                         UNKNOWN:   LOGGING CONT NAME
DICO.          QC Data Collectors Ltd:   DIG COMPANY NAME
LDAT.                      06/22/1989:   DATE LOGGED
ELD .F                        91.0000:   LOG DATUM ELEVATION
TDD .F                      5675.0000:   TOTAL DEPTH DRILLER
TDL .F                      5662.0000:   TOTAL DEPTH LOGGER
BOTL.F                      5660.0000:   BOTTOM DEPTH LOGGED
TOPL.F                      3220.0000:   TOP DEPTH LOGGED
CS1 .IN                       10.7500:   CASING SIZE 1
BS1 .IN                        9.8750:   BIT SIZE 1
DDB1.F                      5675.0000:   DEPTH DRILLED BIT 1
BHF .                              20:   FLUID CODE
DPT .                    Gel (Gelchem:   DRILLING FLUID TYPE
MUDD.                          9.0000:   FLUID DENSITY
MUDV.                         68.0000:   FLUID VISCOSITY
DFPH.                          9.0000:   FLUID PH
FL  .                         12.0000:   FLUID LOSS
RM  .OHMM                      1.0500:   RM
RMT .DEGF                     75.0000:   RM TEMP
RMF .OHMM                       .8200:   RMF
RMFT.DEGF                     75.0000:   RMF TEMP
FSC .                               M:   RMF CODE
RMC .OHMM                      1.2200:   RMC
RMCT.DEGF                     75.0000:   RMC TEMP
CMC .                               M:   RMC CODE
TMAX.DEGF                    128.0000:   MAX REC TEMP
TIMC.                          7.0000:   TIME SINCE CIRCLN
~PARAMETER INFORMATION (zones)
#MNEM.UNIT                       Value     Description
#=========                       =====     ===========
#ZONATION                          DIL:   ZONATION NAME
#ZONE                            RUN_2:   ZONE NAME
TOP .                       5664.0000:   TOP DEPTH
BOT .                       8628.5000:   BOTTOM DEPTH
RUN .                               2:   RUN NUMBER
SRVC.                               0:   LOGGING CONTRACTOR
SRVC.                         UNKNOWN:   LOGGING CONT NAME
DICO.          QC Data Collectors Ltd:   DIG COMPANY NAME
LDAT.                      07/04/1989:   DATE LOGGED
ELD .F                        91.0000:   LOG DATUM ELEVATION
TDD .F                      8678.0000:   TOTAL DEPTH DRILLER
TDL .F                      8630.0000:   TOTAL DEPTH LOGGER
BOTL.F                      8628.0000:   BOTTOM DEPTH LOGGED
TOPL.F                      5664.0000:   TOP DEPTH LOGGED
CS1 .IN                        7.6250:   CASING SIZE 1
BS1 .IN                        6.5000:   BIT SIZE 1
DDB1.F                      8678.0000:   DEPTH DRILLED BIT 1
BHF .                              81:   FLUID CODE
DPT .          Lignosulfonate (Ligno):   DRILLING FLUID TYPE
MUDD.                         11.8000:   FLUID DENSITY
MUDV.                         48.0000:   FLUID VISCOSITY
DFPH.                         10.5000:   FLUID PH
FL  .                          6.6000:   FLUID LOSS
RM  .OHMM                       .7200:   RM
RMT .DEGF                     70.0000:   RM TEMP
RMF .OHMM                       .5900:   RMF
RMFT.DEGF                     70.0000:   RMF TEMP
FSC .                               M:   RMF CODE
RMC .OHMM                       .9000:   RMC
RMCT.DEGF                     70.0000:   RMC TEMP
CMC .                               C:   RMC CODE
TMAX.DEGF                    191.0000:   MAX REC TEMP
TIMC.                          5.0000:   TIME SINCE CIRCLN
~Curve Information Block
#MNEM.UNIT                    API CODE    No Description
#=========                    ========    == ===========
DEPT.F                   00 001 00 00:     1  DEPTH
DT.US/F                              :     2  Sonic Transit Time
GR.GAPI                              :     3  Gamma Ray
ILD.OHMM                             :     4  Deep Induction Resistivity
ILM.OHMM                             :     5  Medium Induction Resistivity
RFOC.OHMM                            :     6  Medium Resistivity
SP.MV                                :     7  Spontaneous Potential
~ASCII
# ...
 4646.0000   110.1666    66.6157      .4584      .3605      .4953  -125.3209
 4646.5000   118.0820    63.2289      .4295      .3260      .4804  -131.8027
 4647.0000   124.3464    55.4418      .3786      .3082      .4735  -137.9668
 4647.5000   129.6389    51.3489      .3302      .2946      .4703  -142.9844
 4648.0000   131.8125    49.1801      .2916      .2814      .4642  -145.9937
 4648.5000   128.4556    48.6206      .2666      .2674      .4621  -147.5840
 4649.0000   124.3804    49.6165      .2539      .2541      .4738  -148.4849
 4649.5000   120.3495    50.5635      .2452      .2500      .4878  -148.7170
 4650.0000   118.6041    48.7046      .2319      .2534      .4731  -148.7793
 4650.5000   119.4059    44.7733      .2248      .2571      .4532  -148.7788
 4651.0000   120.9399    41.6079      .2227      .2615      .4490  -148.7358
 4651.5000   122.1122    39.9601      .2239      .2659      .4577  -148.6594
 4652.0000   123.0292    38.8470      .2259      .2701      .4688  -148.5579
 4652.5000   122.9021    38.3465      .2292      .2739      .4728  -148.4456
 4653.0000   122.9672    38.0486      .2330      .2781      .4683  -147.9280
 4653.5000   123.1172    37.8989      .2369      .2831      .4650  -145.8269
 4654.0000   122.6157    38.3468      .2445      .2889      .4626  -141.8381
 4654.5000   119.8480    39.5289      .2541      .2971      .4547  -137.2346
 4655.0000   115.7571    40.9709      .2655      .3055      .4450  -133.1938
 4655.5000   112.1469    42.3699      .2759      .3132      .4458  -130.1887
 4656.0000   108.5392    43.8419      .2864      .3184      .4561  -129.8123
 4656.5000   107.0426    45.2930      .2969      .3197      .4648  -132.8240
 4657.0000   109.0747    46.2283      .3055      .3176      .4695  -136.4609
 4657.5000   112.1625    45.7861      .3088      .3134      .4738  -139.6133
 4658.0000   116.1045    43.6647      .3076      .3085      .4722  -142.2354
 4658.5000   119.1531    41.5519      .3042      .3028      .4646  -143.9587
 4659.0000   120.5464    39.5797      .2996      .2973      .4575  -144.6287
 4659.5000   119.6011    38.0406      .2945      .2922      .4570  -144.8882
 4660.0000   117.6771    37.5740      .2880      .2878      .4580  -145.0305
 4660.5000   115.3574    37.7523      .2810      .2839      .4593  -145.2065
 4661.0000   114.3268    37.9057      .2740      .2804      .4567  -145.8679
 4661.5000   118.3328    38.0581      .2669      .2762      .4524  -146.7529
 4662.0000   122.9541    38.1096      .2596      .2720      .4472  -147.9729
 4662.5000   126.7655    38.1055      .2542      .2691      .4429  -148.9836
 4663.0000   129.3804    37.8691      .2496      .2675      .4410  -149.4526
 4663.5000   129.3909    37.0487      .2467      .2660      .4400  -149.4731
 4664.0000   126.2509    35.7148      .2443      .2665      .4369  -149.3372
 4664.5000   123.3250    34.4662      .2424      .2670      .4341  -149.1694
 4665.0000   120.1223    33.4535      .2416      .2680      .4345  -148.9358
 4665.5000   117.9122    33.5811      .2415      .2696      .4394  -148.6379
 4666.0000   116.7775    35.3110      .2422      .2725      .4443  -148.1213
 4666.5000   117.0786    37.1972      .2441      .2763      .4390  -147.0396
 4667.0000   117.6259    38.9102      .2471      .2817      .4441  -144.9241
 4667.5000   117.8605    39.8253      .2513      .2880      .4492  -143.1746
 4668.0000   118.0042    40.2682      .2566      .2939      .4524  -141.3496
 4668.5000   117.7449    40.4112      .2626      .2987      .4526  -139.9246
 4669.0000   118.6515    39.8683      .2691      .3013      .4522  -139.1392
 4669.5000   120.7087    39.1336      .2761      .3019      .4520  -138.6418
 4670.0000   123.0167    38.3351      .2831      .3022      .4518  -138.3269
 4670.5000   125.0282    40.0266      .2895      .3019      .4478  -138.1003
 4671.0000   126.4468    41.7499      .2937      .2994      .4430  -137.9595
 4671.5000   126.9414    42.4716      .2919      .2961      .4476  -138.1797
 4672.0000   122.5465    42.6443      .2883      .2925      .4535  -139.3997
 4672.5000   118.5889    43.7468      .2839      .2885      .4542  -141.5959
 4673.0000   115.6617    45.3432      .2785      .2849      .4512  -143.6736
 4673.5000   115.7924    46.1788      .2739      .2815      .4490  -144.8096
 4674.0000   117.2408    44.4411      .2701      .2789      .4466  -145.3311
 4674.5000   117.9670    42.8467      .2676      .2785      .4442  -144.9395
 4675.0000   117.5916    42.1719      .2654      .2796      .4417  -144.4189
 4675.5000   117.1321    42.0776      .2632      .2810      .4419  -143.9143
 4676.0000   117.3297    41.8059      .2616      .2811      .4461  -143.7517
 4676.5000   118.3419    41.4083      .2603      .2768      .4540  -145.6914
 4677.0000   119.7566    40.8716      .2592      .2708      .4620  -148.0061
 4677.5000   121.2821    40.3004      .2564      .2665      .4668  -149.4792
 4678.0000   122.0919    39.9213      .2523      .2635      .4692  -149.9141
 4678.5000   121.2037    39.6545      .2480      .2614      .4705  -149.7307
 4679.0000   119.7722    39.8832      .2451      .2607      .4705  -149.4348
 4679.5000   118.5784    40.8348      .2424      .2607      .4695  -148.9417
 4680.0000   118.4948    41.8847      .2386      .2603      .4663  -148.2139
 4680.5000   119.7592    42.9653      .2352      .2598      .4626  -146.8755
 4681.0000   122.7321    43.7807      .2327      .2603      .4589  -144.4746
 4681.5000   125.5350    44.5108      .2312      .2626      .4524  -141.0176
 4682.0000   127.9070    45.8193      .2305      .2656      .4432  -137.8262
 4682.5000   127.4303    48.4363      .2309      .2709      .4301  -134.5955
 4683.0000   124.5005    52.0914      .2327      .2790      .4155  -132.7485
 4683.5000   121.0889    57.5051      .2358      .2887      .4125  -131.1787
 4684.0000   118.1840    61.4352      .2392      .2991      .4514  -129.2222
 4684.5000   116.0679    62.8954      .2455      .3095      .4885  -126.5741
 4685.0000   114.4626    63.9962      .2547      .3189      .5211  -121.8481
 4685.5000   113.2329    65.2167      .2660      .3284      .4777  -113.0033
 4686.0000   113.6581    66.1943      .2781      .3379      .4408  -108.1451
 4686.5000   116.2507    66.7870      .2929      .3474      .4276  -108.2439
 4687.0000   119.3229    65.7560      .3102      .3574      .4230  -109.5448
 4687.5000   122.9253    64.3165      .3285      .3689      .4208  -111.1093
 4688.0000   124.6547    64.0143      .3461      .3795      .4476  -112.5317
 4688.5000   121.3187    66.1493      .3622      .3886      .4710  -108.5380
 4689.0000   117.5465    69.8540      .3799      .3954      .4761  -103.7677
 4689.5000   115.7021    75.2625      .3998      .3998      .4737   -99.7738
 4690.0000   118.2388    79.9755      .4150      .4012      .4518   -96.5615
 4690.5000   123.1552    85.5897      .4231      .3980      .4393   -94.4384
 4691.0000   129.1687    91.5609      .4277      .3893      .4342   -93.1735
 4691.5000   132.7451    98.1940      .4225      .3810      .4316   -92.5160
 4692.0000   133.7187    99.4731      .4145      .3749      .4281   -92.5597
 4692.5000   133.6033    97.5374      .4063      .3709      .4232   -92.7717
 4693.0000   133.2361    96.4829      .3969      .3686      .4185   -93.1936
 4693.5000   132.8894    97.1075      .3854      .3680      .4140   -94.5933
 4694.0000   131.9810    98.5769      .3736      .3688      .4094   -98.2054
 4694.5000   130.0791    94.6769      .3649      .3654      .4098  -107.4697
 4695.0000   127.4447    86.8611      .3573      .3574      .4268  -115.6294
 4695.5000   122.3297    72.8345      .3494      .3424      .4595  -125.7899
 4696.0000   116.7262    56.2181      .3378      .3260      .4858  -133.4285
 4696.5000   114.8258    51.4506      .3230      .3121      .4816  -138.4929
 4697.0000   116.9666    46.9982      .3090      .2995      .4663  -142.5415
 4697.5000   120.3966    43.2023      .2958      .2875      .4595  -144.6428
