~VERSION INFORMATION
VERS.                             2.0:   CWLS Log ASCII Standard-VERSION 2.0
WRAP.                              NO:   One line per depth step
~Well Information Block
STRT.F                      3012.0000:   Top Depth
STOP.F                      9049.0000:   Bottom Depth
STEP.F                         .50000:   Depth Increment
NULL.                        -999.250:   Null Value
FLD .                      GA BLK 210:   Field Name
WELL.       OCSG01759   002 ST00 BP00:   NAME
API .                  42706400060000:   WELL API
R1  .                      TEXACO INC:   COMMENT  1
EDF .F                        74.0000:   ELEV DRILL FLOOR
COMP.                      TEXACO INC:   OPERATOR
BN  .                             210:   BLOCK
CTRY.                             USA:   COUNTRY NAME
CNTY.                              GA:   COUNTY
CNTY.                        GLVSTN L:   COUNTY NAME
EKB .F                        75.0000:   ELEV KELLY BUSHING
TDD .F                       9050.000:   FINAL TD DRILLER
STAT.                           TEXAS:   STATE NAME
UWI .                  42706400060000:   WELL API
DICO.               IHS : Digitizing Company
~PARAMETER INFORMATION (zones)
#MNEM.UNIT                       Value     Description
#=========                       =====     ===========
#ZONATION                           IE:   ZONATION NAME
#ZONE                            RUN_2:   ZONE NAME
TOP .                       9049.0000:   TOP DEPTH
BOT .                       9050.0000:   BOTTOM DEPTH
RUN .                               2:   RUN NUMBER
LCCD.                             440:   LOGGING CONTRACTOR
SRVC.                    Schlumberger:   LOGGING CONT NAME
DICO.          QC Data Collectors Ltd:   DIG COMPANY NAME
LDAT.                      11/07/1971:   DATE LOGGED
ELD .F                        75.0000:   LOG DATUM ELEVATION
TDD .F                      9050.0000:   TOTAL DEPTH DRILLER
TDL .F                      9050.0000:   TOTAL DEPTH LOGGER
BOTL.F                      9049.0000:   BOTTOM DEPTH LOGGED
TOPL.F                      7103.0000:   TOP DEPTH LOGGED
CS1 .IN                        9.6250:   CASING SIZE 1
BS1 .IN                        8.6250:   BIT SIZE 1
DDB1.F                      9050.0000:   DEPTH DRILLED BIT 1
BHF .                              99:   FLUID CODE
DPT .                   Miscellaneous:   DRILLING FLUID TYPE
MUDD.                         15.0000:   FLUID DENSITY
MUDV.                         45.0000:   FLUID VISCOSITY
DFPH.                         10.5000:   FLUID PH
FL  .                          4.0000:   FLUID LOSS
RM  .OHMM                       .7700:   RM
RMT .DEGF                    100.0000:   RM TEMP
RMF .OHMM                       .5300:   RMF
RMFT.DEGF                     77.0000:   RMF TEMP
FSC .                               M:   RMF CODE
RMC .OHMM                      1.4300:   RMC
RMCT.DEGF                     75.0000:   RMC TEMP
CMC .                               M:   RMC CODE
TMAX.DEGF                    194.0000:   MAX REC TEMP
TIMC.                          4.0000:   TIME SINCE CIRCLN
~PARAMETER INFORMATION (zones)
#MNEM.UNIT                       Value     Description
#=========                       =====     ===========
#ZONATION                           IE:   ZONATION NAME
#ZONE                            RUN_1:   ZONE NAME
TOP .                       3012.0000:   TOP DEPTH
BOT .                       9049.5000:   BOTTOM DEPTH
RUN .                               1:   RUN NUMBER
LCCD.                             440:   LOGGING CONTRACTOR
SRVC.                    Schlumberger:   LOGGING CONT NAME
DICO.          QC Data Collectors Ltd:   DIG COMPANY NAME
LDAT.                      10/28/1971:   DATE LOGGED
ELD .F                        75.0000:   LOG DATUM ELEVATION
TDD .F                      7115.0000:   TOTAL DEPTH DRILLER
TDL .F                      7061.0000:   TOTAL DEPTH LOGGER
BOTL.F                      7060.0000:   BOTTOM DEPTH LOGGED
TOPL.F                      3012.0000:   TOP DEPTH LOGGED
CS1 .IN                       13.3750:   CASING SIZE 1
BS1 .IN                       12.2500:   BIT SIZE 1
DDB1.F                      7115.0000:   DEPTH DRILLED BIT 1
BHF .                              11:   FLUID CODE
DPT .         Caustic (high PH) (CLS):   DRILLING FLUID TYPE
MUDD.                         10.5000:   FLUID DENSITY
MUDV.                         40.0000:   FLUID VISCOSITY
DFPH.                          9.0000:   FLUID PH
FL  .                          4.4000:   FLUID LOSS
RM  .OHMM                       .9400:   RM
RMT .DEGF                     96.0000:   RM TEMP
RMF .OHMM                       .7600:   RMF
RMFT.DEGF                     96.0000:   RMF TEMP
FSC .                               M:   RMF CODE
RMC .OHMM                      1.2600:   RMC
RMCT.DEGF                     96.0000:   RMC TEMP
CMC .                               M:   RMC CODE
TMAX.DEGF                    155.0000:   MAX REC TEMP
TIMC.                          4.0000:   TIME SINCE CIRCLN
~PARAMETER INFORMATION (zones)
#MNEM.UNIT                       Value     Description
#=========                       =====     ===========
#ZONATION                        SONIC:   ZONATION NAME
#ZONE                            RUN_1:   ZONE NAME
TOP .                       3012.0000:   TOP DEPTH
BOT .                       9049.5000:   BOTTOM DEPTH
RUN .                               1:   RUN NUMBER
LCCD.                             440:   LOGGING CONTRACTOR
SRVC.                    Schlumberger:   LOGGING CONT NAME
DICO.          QC Data Collectors Ltd:   DIG COMPANY NAME
LDAT.                      10/28/1971:   DATE LOGGED
ELD .F                        75.0000:   LOG DATUM ELEVATION
TDD .F                      7115.0000:   TOTAL DEPTH DRILLER
TDL .F                      7060.0000:   TOTAL DEPTH LOGGER
BOTL.F                      7050.0000:   BOTTOM DEPTH LOGGED
TOPL.F                      3012.0000:   TOP DEPTH LOGGED
CS1 .IN                       13.3750:   CASING SIZE 1
BS1 .IN                       12.2500:   BIT SIZE 1
DDB1.F                      7115.0000:   DEPTH DRILLED BIT 1
BHF .                              11:   FLUID CODE
DPT .         Caustic (high PH) (CLS):   DRILLING FLUID TYPE
MUDD.                         10.5000:   FLUID DENSITY
MUDV.                         40.0000:   FLUID VISCOSITY
DFPH.                          9.0000:   FLUID PH
FL  .                          4.4000:   FLUID LOSS
RM  .OHMM                       .9400:   RM
RMT .DEGF                     96.0000:   RM TEMP
RMF .OHMM                       .7600:   RMF
RMFT.DEGF                     96.0000:   RMF TEMP
FSC .                               M:   RMF CODE
RMC .OHMM                      1.2600:   RMC
RMCT.DEGF                     96.0000:   RMC TEMP
CMC .                               M:   RMC CODE
TMAX.DEGF                    155.0000:   MAX REC TEMP
TIMC.                          6.0000:   TIME SINCE CIRCLN
~Curve Information Block
#MNEM.UNIT                    API CODE    No Description
#=========                    ========    == ===========
DEPT.F                   00 001 00 00:     1  DEPTH
ASN.OHMM                             :     2  Short-Normal Resistivity
CILD.MMHO                            :     3  Deep Induction Conductivity
ILD.OHMM                             :     4  Deep Induction Resistivity
SP.MV                                :     5  Spontaneous Potential
CALI.IN                              :     6  Caliper
DT.US/F                              :     7  Sonic Transit Time
SP.MV                                :     8  Spontaneous Potential
~ASCII
# ...
 8608.5000      .8389  1259.6426      .8170   -48.9158     8.9724   127.2445   -47.4171
 8609.0000      .8645  1240.6973      .8133   -49.2255     8.9725   126.5198   -49.0801
 8609.5000      .8901  1234.8770      .8012   -49.8403     8.9726   125.9186   -50.6420
 8610.0000      .9096  1240.7227      .7890   -51.1264     8.9727   125.4114   -52.2039
 8610.5000      .9264  1271.7363      .7769   -52.1322     8.9707   124.7284   -53.6564
 8611.0000      .8907  1302.7500      .7636   -52.8653     8.9685   126.9791   -54.5865
 8611.5000      .8467  1351.2266      .7470   -53.7084     8.9662   132.6223   -55.4277
 8612.0000      .8176  1402.3145      .7303   -54.6843     8.9640   134.4924   -56.0317
 8612.5000      .7994  1473.2734      .7136   -55.7839     8.9617   135.2148   -56.6359
 8613.0000      .7735  1544.5332      .6998   -56.6521     8.9595   135.8416   -56.7165
 8613.5000      .7246  1690.3672      .6960   -57.3113     8.9561   136.0002   -56.0378
 8614.0000      .7283  1734.4277      .6970   -57.8918     8.9504   135.2717   -55.3591
 8614.5000      .7332  1751.7656      .7169   -58.3447     8.9446   134.9348   -55.4674
 8615.0000      .7381  1745.8691      .7364   -59.4656     8.9389   134.8533   -61.7440
 8615.5000      .7430  1715.5098      .7554   -63.2311     8.9331   134.9897   -63.7969
 8616.0000      .7541  1683.3418      .7743   -63.8166     8.9372   130.4504   -58.2928
 8616.5000      .7678  1649.5684      .7933   -60.9043     8.9454   128.3608   -57.1376
 8617.0000      .8006  1615.1914      .8135   -57.0937     8.9537   126.7537   -59.2555
 8617.5000      .8433  1578.9102      .8404   -57.9081     8.9620   125.6338   -61.2194
 8618.0000      .8663  1428.4102      .8672   -58.7225     8.9698   124.8284   -58.1533
 8618.5000      .8799  1353.9375      .8941   -59.5369     8.9771   124.3030   -54.1581
 8619.0000      .8922  1271.8379      .9200   -58.1395     8.9843   123.7709   -50.9019
 8619.5000      .9188  1161.4336      .9399   -55.1396     8.9749   123.6460   -50.2317
 8620.0000      .9460  1125.3262      .9488   -52.5169     8.9606   125.2266   -49.5837
 8620.5000      .9582  1115.9297      .9476   -51.9495     8.9463   127.2240   -49.1403
 8621.0000      .9576  1134.1582      .9464   -51.4376     8.9320   128.6516   -48.7723
 8621.5000      .9515  1154.1309      .9400   -51.1311     8.9176   129.5510   -48.5431
 8622.0000      .9299  1174.1055      .9285   -50.8246     8.9033   130.4492   -48.3141
 8622.5000      .9055  1194.0781      .9169   -50.5181     8.9008   131.1060   -48.0849
 8623.0000      .8853  1215.4551      .9054   -50.2707     8.9052   130.3826   -47.8686
 8623.5000      .8660  1238.0879      .8938   -50.1062     8.9097   129.7122   -47.6833
 8624.0000      .8450  1260.7207      .8823   -49.9420     8.9141   129.5093   -47.4980
 8624.5000      .8229  1288.6992      .8707   -49.7775     8.9247   130.9641   -47.3127
 8625.0000      .8115  1321.0664      .8592   -49.6135     8.9597   133.7471   -47.1271
 8625.5000      .8028  1348.5684      .8476   -49.4877     8.9947   135.8391   -46.9817
 8626.0000      .7939  1385.0000      .8352   -49.3621     9.0293   136.3555   -46.9331
 8626.5000      .7843  1416.0645      .8223   -49.2365     9.0608   136.8359   -46.8845
 8627.0000      .7732  1442.0586      .8094   -49.0003     9.0300   137.3171   -46.8359
 8627.5000      .7591  1469.7598      .7965   -48.7376     8.9794   137.9431   -46.7570
 8628.0000      .7451  1497.8379      .7836   -48.5139     8.9274   138.5649   -46.5862
 8628.5000      .7342  1517.0586      .7707   -48.4381     8.8754   138.8613   -46.4153
 8629.0000      .7267  1532.9414      .7578   -48.3980     8.8666   139.1575   -46.2444
 8629.5000      .7192  1547.3945      .7448   -48.3813     8.8606   139.4861   -46.1457
 8630.0000      .7117  1563.2031      .7319   -48.3645     8.8546   139.8315   -46.1572
 8630.5000      .7043  1580.4648      .7237   -48.3477     8.8486   139.9341   -46.1688
 8631.0000      .6993  1597.7285      .7169   -48.3309     8.8392   139.8662   -46.0519
 8631.5000      .6942  1610.8516      .7102   -48.2269     8.8265   139.6855   -45.6644
 8632.0000      .6900  1619.9531      .7035   -48.0617     8.8138   139.7673   -45.2763
 8632.5000      .6886  1623.2773      .6968   -47.8966     8.8012   140.2859   -44.9017
 8633.0000      .6873  1626.6035      .6925   -47.7314     8.7909   140.7151   -44.8722
 8633.5000      .6859  1629.9277      .6907   -47.5667     8.7865   141.1440   -44.8426
 8634.0000      .6871  1633.0957      .6889   -47.4015     8.7820   140.7671   -44.8840
 8634.5000      .6890  1636.1699      .6871   -47.2874     8.7775   139.4607   -45.0606
 8635.0000      .6909  1638.0762      .6853   -47.1741     8.7733   138.4631   -45.2369
 8635.5000      .6943  1608.8438      .6836   -47.0609     8.7722   137.6196   -45.4135
 8636.0000      .7002  1585.2324      .6816   -47.2733     8.7711   136.7771   -45.5901
 8636.5000      .7062  1565.7500      .6789   -47.5773     8.7701   137.4124   -45.7037
 8637.0000      .7116  1556.3906      .6763   -47.8806     8.7690   140.3491   -45.7028
 8637.5000      .7140  1547.0176      .6737   -48.0229     8.7679   141.0144   -45.7018
 8638.0000      .7137  1540.1484      .6710   -48.1135     8.7668   140.7249   -45.7008
 8638.5000      .6960  1534.2969      .6684   -48.2040     8.7658   140.1104   -45.7119
 8639.0000      .6793  1539.5410      .6658   -48.2946     8.7647   139.4739   -45.8112
 8639.5000      .6821  1545.6758      .6632   -48.3853     8.7637   139.1787   -45.9105
 8640.0000      .7005  1554.5449      .6639   -48.4611     8.7626   139.7297   -46.0098
 8640.5000      .6948  1569.2500      .6648   -48.5358     8.7616   140.7090   -46.1092
 8641.0000      .6891  1583.9785      .6656   -48.6106     8.7605   141.5242   -46.2133
 8641.5000      .6834  1598.7070      .6664   -48.6854     8.7595   141.8259   -46.3494
 8642.0000      .6776  1609.4707      .6672   -48.7603     8.7589   142.0408   -46.4855
 8642.5000      .6719  1619.7090      .6685   -48.8284     8.7584   142.0967   -46.6218
 8643.0000      .6662  1629.6328      .6734   -48.8450     8.7579   141.5259   -46.4821
 8643.5000      .6717  1635.0527      .6782   -48.8615     8.7574   140.1345   -46.0428
 8644.0000      .6697  1640.4727      .6830   -48.8781     8.7569   138.7432   -45.6716
 8644.5000      .6680  1642.3672      .6879   -48.8947     8.7564   138.2625   -45.4433
 8645.0000      .6667  1632.4688      .6929   -48.8900     8.7569   137.7996   -45.5677
 8645.5000      .6655  1620.5234      .6980   -48.8642     8.7602   137.4714   -46.6060
 8646.0000      .6743  1608.5801      .7030   -48.8385     8.7635   137.2527   -48.1150
 8646.5000      .6831  1598.8828      .7081   -48.8127     8.7668   135.0366   -49.6216
 8647.0000      .6921  1594.3789      .7132   -48.7870     8.7701   129.4565   -53.0511
 8647.5000      .7022  1593.2148      .7197   -48.8924     8.7691   127.9900   -58.7501
 8648.0000      .7123  1595.2070      .7302   -53.3182     8.7630   125.5101   -63.9581
 8648.5000      .7359  1597.1992      .7408   -69.2510     8.7569   122.2377   -70.5524
 8649.0000      .8419  1599.1895      .7513   -82.5142     8.7508   118.8003   -73.2913
 8649.5000      .9211  1596.5840      .7644   -83.4750     8.7447   116.5144   -76.5907
 8650.0000      .9834  1568.3203      .7807   -84.1592     8.7385   115.1909   -78.6628
 8650.5000     1.0570  1478.6934      .7959   -84.5063     8.7337   114.1740   -83.1826
 8651.0000     1.0948  1430.9180      .8073   -83.7864     8.7290   112.3474   -77.6954
 8651.5000     1.1274  1397.5977      .8187   -81.8110     8.7243   127.3718   -77.0841
 8652.0000     1.1576  1367.3867      .8118   -79.2290     8.7197   130.4587   -78.1431
 8652.5000     1.1375  1331.9063      .7777   -77.9880     8.7464   130.7437   -73.4211
 8653.0000     1.1066  1374.1113      .7435   -77.1812     8.7792   131.0752   -60.9450
 8653.5000     1.0804  1479.2949      .7093   -75.7286     8.8405   132.5107   -56.6900
