~VERSION INFORMATION
VERS.                             2.0:   CWLS Log ASCII Standard-VERSION 2.0
WRAP.                              NO:   One line per depth step
~Well Information Block
STRT.F                      3576.0000:   Top Depth
STOP.F                      7908.0000:   Bottom Depth
STEP.F                         .50000:   Depth Increment
NULL.                        -999.250:   Null Value
FLD .                      BA BLK 431:   Field Name
WELL.       OCSG09017   001 ST00 BP00:   NAME
API .                  42704401710000:   WELL API
EDF .F                        80.0000:   ELEV DRILL FLOOR
COMP.        WOLVERINE EXPLORATION CO:   OPERATOR
BN  .                             431:   BLOCK
CTRY.                             USA:   COUNTRY NAME
CNTY.                        BRAZOS L:   COUNTY NAME
EKB .F                        81.0000:   ELEV KELLY BUSHING
TDD .F                       7953.000:   FINAL TD DRILLER
STAT.                           TEXAS:   STATE NAME
UWI .                  42704401710000:   WELL API
DICO.               IHS : Digitizing Company
~PARAMETER INFORMATION (zones)
#MNEM.UNIT                       Value     Description
#=========                       =====     ===========
#ZONATION                          DIL:   ZONATION NAME
#ZONE                            RUN_1:   ZONE NAME
TOP .                       3576.0000:   TOP DEPTH
BOT .                       7908.5000:   BOTTOM DEPTH
RUN .                               1:   RUN NUMBER
LCCD.                             440:   LOGGING CONTRACTOR
SRVC.                    Schlumberger:   LOGGING CONT NAME
DICO.          QC Data Collectors Ltd:   DIG COMPANY NAME
LDAT.                      05/13/1988:   DATE LOGGED
ELD .F                        81.0000:   LOG DATUM ELEVATION
TDD .F                      7953.0000:   TOTAL DEPTH DRILLER
TDL .F                      7911.0000:   TOTAL DEPTH LOGGER
BOTL.F                      7908.0000:   BOTTOM DEPTH LOGGED
TOPL.F                      3608.0000:   TOP DEPTH LOGGED
CS1 .IN                       10.7500:   CASING SIZE 1
BS1 .IN                        9.8750:   BIT SIZE 1
DDB1.F                      7953.0000:   DEPTH DRILLED BIT 1
BHF .                              99:   FLUID CODE
DPT .                   Miscellaneous:   DRILLING FLUID TYPE
MUDD.                         10.0000:   FLUID DENSITY
MUDV.                         43.0000:   FLUID VISCOSITY
DFPH.                         11.3000:   FLUID PH
FL  .                          6.2000:   FLUID LOSS
RM  .OHMM                       .7340:   RM
RMT .DEGF                     73.0000:   RM TEMP
RMF .OHMM                       .5760:   RMF
RMFT.DEGF                     73.0000:   RMF TEMP
FSC .                               M:   RMF CODE
RMC .OHMM                       .8300:   RMC
RMCT.DEGF                     73.0000:   RMC TEMP
CMC .                               M:   RMC CODE
TMAX.DEGF                    164.0000:   MAX REC TEMP
TIMC.                          5.0000:   TIME SINCE CIRCLN
~Curve Information Block
#MNEM.UNIT                    API CODE    No Description
#=========                    ========    == ===========
DEPT.F                   00 001 00 00:     1  DEPTH
DCAL.IN                              :     2  Differential Caliper
DT.US/F                              :     3  Sonic Transit Time
GR.GAPI                              :     4  Gamma Ray
ILD.OHMM                             :     5  Deep Induction Resistivity
ILM.OHMM                             :     6  Medium Induction Resistivity
SFL.OHMM                             :     7  Medium Resistivity
SP.MV                                :     8  Spontaneous Potential
~ASCII
# ...
 6169.5000     1.4420   103.7537    62.3697      .3655      .3890      .6943   -64.5077
 6170.0000     1.4982   104.5603    63.4369      .4064      .4070      .8332   -67.2852
 6170.5000     1.5551   105.5420    61.7007      .4318      .4102      .8180   -69.9117
 6171.0000     1.5649   106.5435    59.7963      .4476      .4097      .7560   -70.7626
 6171.5000     1.5615   107.6654    62.8334      .4427      .4052      .6939   -68.3091
 6172.0000     1.5530   108.8865    67.3940      .4223      .3969      .6493   -63.9859
 6172.5000     1.5355   110.0791    68.9894      .3828      .3869      .6185   -62.6133
 6173.0000     1.5180   110.8585    66.1080      .3471      .3762      .5978   -63.6829
 6173.5000     1.5006   110.4830    64.1479      .3287      .3651      .5794   -65.2114
 6174.0000     1.4821   109.4152    65.4501      .3317      .3574      .5629   -66.5964
 6174.5000     1.4598   107.9371    70.4708      .3455      .3580      .5557   -64.2184
 6175.0000     1.4386   106.4442    69.6571      .3658      .3766      .5698   -60.5036
 6175.5000     1.4175   105.2850    68.0730      .3993      .4103      .6042   -56.5316
 6176.0000     1.3981   104.3258    67.1895      .4423      .4597      .6831   -52.5991
 6176.5000     1.3927   103.6184    69.3207      .5014      .5464      .8019   -45.6146
 6177.0000     1.4221   103.8796    72.4989      .5782      .6326      .8802   -41.2073
 6177.5000     1.5051   104.5560    75.5162      .6721      .7275      .9017   -38.0787
 6178.0000     1.7968   104.5372    77.6803      .7750      .7801      .9078   -36.1431
 6178.5000     1.9565   103.6097    73.5624      .8629      .8237      .9097   -36.3223
 6179.0000     1.8193   102.2694    69.7017      .9192      .8537      .9207   -37.0522
 6179.5000     1.7183   100.9738    67.7230      .9098      .8474      .9510   -40.3466
 6180.0000     1.6988   102.1428    67.6167      .8427      .7873      .9922   -46.2330
 6180.5000     1.7067   104.0181    68.6156      .7437      .7133      .9692   -51.0014
 6181.0000     1.7026   106.0731    67.3087      .6368      .6339      .8830   -55.8638
 6181.5000     1.6921   107.9558    65.8892      .5491      .5455      .7610   -60.7756
 6182.0000     1.6475   109.3252    65.4161      .4694      .4674      .6748   -66.0436
 6182.5000     1.6055   109.6472    64.7390      .3567      .4131      .6266   -72.7610
 6183.0000     1.5645   108.0464    60.7312      .3013      .3668      .5984   -78.9045
 6183.5000     1.5315   105.6338    54.7558      .2911      .3231      .5749   -82.1569
 6184.0000     1.4990   102.7596    51.8522      .2922      .3033      .5264   -82.2434
 6184.5000     1.4756    99.2053    54.5679      .3112      .3261      .4835   -78.3307
 6185.0000     1.4556    96.4652    63.5507      .3469      .3852      .5547   -70.5350
 6185.5000     1.4427    95.5704    69.9712      .3965      .4466      .7704   -60.5135
 6186.0000     1.4321    96.2964    72.9478      .4597      .5001     1.0453   -55.0921
 6186.5000     1.4243    98.9771    72.8859      .5477      .5738     1.1451   -49.9552
 6187.0000     1.4155   102.4320    71.3092      .6567      .6644     1.1157   -46.4951
 6187.5000     1.4054   106.6713    69.5879      .7740      .7372     1.0357   -42.7952
 6188.0000     1.3952   110.0171    68.1769      .9067      .7748      .9387   -40.4171
 6188.5000     1.3783   110.5905    67.5426      .9733      .7832      .8432   -39.5218
 6189.0000     1.3669   107.8329    67.8188     1.0005      .7803      .7821   -39.0655
 6189.5000     1.3748   105.3335    68.6876     1.0070      .7857      .7744   -38.8179
 6190.0000     1.4006   103.0203    70.5487     1.0076      .8276      .8267   -39.0475
 6190.5000     1.4383   103.5775    71.4240     1.0052      .8829      .8826   -39.5478
 6191.0000     1.4724   104.6422    71.4486      .9877      .8923      .9310   -40.1921
 6191.5000     1.4843   105.6284    72.4852      .9385      .8865      .9534   -41.7045
 6192.0000     1.4720   105.3422    74.2957      .8421      .8720      .9105   -44.4670
 6192.5000     1.4393   103.8766    75.2244      .7472      .8411      .8382   -52.6486
 6193.0000     1.4147   101.4169    69.1451      .6606      .7605      .7914   -61.9380
 6193.5000     1.3921    99.3965    63.1550      .5849      .6084      .8221   -70.9703
 6194.0000     1.3731    97.7981    58.1936      .5211      .4973      .8971   -81.2689
 6194.5000     1.3541    96.8580    56.0518      .4567      .4446      .9733   -88.3622
 6195.0000     1.3433    96.4113    55.5526      .3961      .4078     1.0018   -90.9208
 6195.5000     1.3328    96.7742    55.4802      .3490      .3717      .9812   -90.8107
 6196.0000     1.3292    98.3590    55.2903      .3193      .3644      .9075   -87.9418
 6196.5000     1.3290   100.5432    54.8947      .3086      .3650      .7893   -82.4561
 6197.0000     1.3299   103.3405    55.1973      .3044      .3687      .6593   -78.7017
 6197.5000     1.3342   105.1051    58.0749      .3044      .3787      .6038   -74.0074
 6198.0000     1.3365   105.5804    62.7592      .3145      .3949      .6128   -69.6892
 6198.5000     1.3363   104.7378    64.2482      .3375      .4105      .6495   -66.9414
 6199.0000     1.3362   103.8008    60.0238      .3692      .4251      .6951   -64.2085
 6199.5000     1.3360   102.8043    54.7855      .4068      .4457      .7391   -60.8696
 6200.0000     1.3379   102.7261    52.6338      .4573      .4725      .7892   -54.8052
 6200.5000     1.3423   103.7947    57.5753      .5143      .5072      .8339   -48.0879
 6201.0000     1.3486   104.5883    63.0857      .5738      .5538      .8513   -44.9803
 6201.5000     1.3571   104.6658    68.6406      .6401      .6209      .8072   -43.7996
 6202.0000     1.3640   101.3251    72.2145      .7110      .7173      .7631   -44.3632
 6202.5000     1.3683    93.5265    69.9563      .7926      .8515      .7919   -46.7919
 6203.0000     1.3680    88.4036    64.1788      .8747      .9381      .9666   -49.7771
 6203.5000     1.3513    86.2517    59.5143      .9473      .9833     1.4740   -52.5818
 6204.0000     1.3346    87.7185    55.7748      .9586      .9893     2.1469   -53.7532
 6204.5000     1.3179    90.6598    53.3486      .9507      .9608     1.9574   -53.6237
 6205.0000     1.3112    92.8837    53.6379      .9384      .9258     1.4946   -53.4250
 6205.5000     1.3119    94.2910    54.9339      .9237      .8954     1.2792   -53.7368
 6206.0000     1.3095    91.1934    56.6454      .9101      .8722     1.1761   -54.5258
 6206.5000     1.3059    87.2421    58.5696      .9150      .8689     1.1651   -54.9683
 6207.0000     1.3106    84.4199    59.8917      .9259      .8856     1.1940   -54.3254
 6207.5000     1.3148    81.8101    59.1371      .9356      .9188     1.3961   -53.0814
 6208.0000     1.3155    82.5386    58.0403      .9370      .9356     1.7455   -51.2586
 6208.5000     1.3162    87.2469    60.1376      .9437      .9430     2.4862   -48.8694
 6209.0000     1.3054    93.8690    64.0206      .9708      .9501     2.1553   -45.9238
 6209.5000     1.2875    98.6172    68.2795     1.0015      .9495     1.4092   -43.7424
 6210.0000     1.2708    99.5361    70.9778     1.0209      .9358     1.1316   -42.7389
 6210.5000     1.2540    98.2274    71.5170      .9577      .9244     1.0305   -42.1799
 6211.0000     1.2377    98.6730    70.1765      .8946      .8993     1.0237   -42.5874
 6211.5000     1.2421   100.6028    68.4625      .8304      .8560     1.0802   -43.4450
 6212.0000     1.2601   104.1248    69.1044      .7673      .8090     1.0814   -44.3311
 6212.5000     1.2616   108.2499    69.8129      .7012      .7489      .9967   -45.6406
 6213.0000     1.2508   108.9714    67.6042      .6159      .6758      .8847   -48.5529
 6213.5000     1.2349   108.4962    64.2531      .5246      .6094      .7555   -54.4689
 6214.0000     1.2239   106.1550    59.2175      .4569      .5416      .6707   -63.9661
 6214.5000     1.2165    99.8954    51.1746      .4184      .4829      .6728   -73.2111
