~VERSION INFORMATION
VERS.                             2.0:   CWLS Log ASCII Standard-VERSION 2.0
WRAP.                              NO:   One line per depth step
~Well Information Block
STRT.F                      3012.0000:   Top Depth
STOP.F                      9049.0000:   Bottom Depth
STEP.F                         .50000:   Depth Increment
NULL.                        -999.250:   Null Value
FLD .                      GA BLK 210:   Field Name
WELL.       OCSG01759   002 ST00 BP00:   NAME
API .                  42706400060000:   WELL API
R1  .                      TEXACO INC:   COMMENT  1
EDF .F                        74.0000:   ELEV DRILL FLOOR
COMP.                      TEXACO INC:   OPERATOR
BN  .                             210:   BLOCK
CTRY.                             USA:   COUNTRY NAME
CNTY.                              GA:   COUNTY
CNTY.                        GLVSTN L:   COUNTY NAME
EKB .F                        75.0000:   ELEV KELLY BUSHING
TDD .F                       9050.000:   FINAL TD DRILLER
STAT.                           TEXAS:   STATE NAME
UWI .                  42706400060000:   WELL API
DICO.               IHS : Digitizing Company
~PARAMETER INFORMATION (zones)
#MNEM.UNIT                       Value     Description
#=========                       =====     ===========
#ZONATION                           IE:   ZONATION NAME
#ZONE                            RUN_2:   ZONE NAME
TOP .                       9049.0000:   TOP DEPTH
BOT .                       9050.0000:   BOTTOM DEPTH
RUN .                               2:   RUN NUMBER
LCCD.                             440:   LOGGING CONTRACTOR
SRVC.                    Schlumberger:   LOGGING CONT NAME
DICO.          QC Data Collectors Ltd:   DIG COMPANY NAME
LDAT.                      11/07/1971:   DATE LOGGED
ELD .F                        75.0000:   LOG DATUM ELEVATION
TDD .F                      9050.0000:   TOTAL DEPTH DRILLER
TDL .F                      9050.0000:   TOTAL DEPTH LOGGER
BOTL.F                      9049.0000:   BOTTOM DEPTH LOGGED
TOPL.F                      7103.0000:   TOP DEPTH LOGGED
CS1 .IN                        9.6250:   CASING SIZE 1
BS1 .IN                        8.6250:   BIT SIZE 1
DDB1.F                      9050.0000:   DEPTH DRILLED BIT 1
BHF .                              99:   FLUID CODE
DPT .                   Miscellaneous:   DRILLING FLUID TYPE
MUDD.                         15.0000:   FLUID DENSITY
MUDV.                         45.0000:   FLUID VISCOSITY
DFPH.                         10.5000:   FLUID PH
FL  .                          4.0000:   FLUID LOSS
RM  .OHMM                       .7700:   RM
RMT .DEGF                    100.0000:   RM TEMP
RMF .OHMM                       .5300:   RMF
RMFT.DEGF                     77.0000:   RMF TEMP
FSC .                               M:   RMF CODE
RMC .OHMM                      1.4300:   RMC
RMCT.DEGF                     75.0000:   RMC TEMP
CMC .                               M:   RMC CODE
TMAX.DEGF                    194.0000:   MAX REC TEMP
TIMC.                          4.0000:   TIME SINCE CIRCLN
~PARAMETER INFORMATION (zones)
#MNEM.UNIT                       Value     Description
#=========                       =====     ===========
#ZONATION                           IE:   ZONATION NAME
#ZONE                            RUN_1:   ZONE NAME
TOP .                       3012.0000:   TOP DEPTH
BOT .                       9049.5000:   BOTTOM DEPTH
RUN .                               1:   RUN NUMBER
LCCD.                             440:   LOGGING CONTRACTOR
SRVC.                    Schlumberger:   LOGGING CONT NAME
DICO.          QC Data Collectors Ltd:   DIG COMPANY NAME
LDAT.                      10/28/1971:   DATE LOGGED
ELD .F                        75.0000:   LOG DATUM ELEVATION
TDD .F                      7115.0000:   TOTAL DEPTH DRILLER
TDL .F                      7061.0000:   TOTAL DEPTH LOGGER
BOTL.F                      7060.0000:   BOTTOM DEPTH LOGGED
TOPL.F                      3012.0000:   TOP DEPTH LOGGED
CS1 .IN                       13.3750:   CASING SIZE 1
BS1 .IN                       12.2500:   BIT SIZE 1
DDB1.F                      7115.0000:   DEPTH DRILLED BIT 1
BHF .                              11:   FLUID CODE
DPT .         Caustic (high PH) (CLS):   DRILLING FLUID TYPE
MUDD.                         10.5000:   FLUID DENSITY
MUDV.                         40.0000:   FLUID VISCOSITY
DFPH.                          9.0000:   FLUID PH
FL  .                          4.4000:   FLUID LOSS
RM  .OHMM                       .9400:   RM
RMT .DEGF                     96.0000:   RM TEMP
RMF .OHMM                       .7600:   RMF
RMFT.DEGF                     96.0000:   RMF TEMP
FSC .                               M:   RMF CODE
RMC .OHMM                      1.2600:   RMC
RMCT.DEGF                     96.0000:   RMC TEMP
CMC .                               M:   RMC CODE
TMAX.DEGF                    155.0000:   MAX REC TEMP
TIMC.                          4.0000:   TIME SINCE CIRCLN
~PARAMETER INFORMATION (zones)
#MNEM.UNIT                       Value     Description
#=========                       =====     ===========
#ZONATION                        SONIC:   ZONATION NAME
#ZONE                            RUN_1:   ZONE NAME
TOP .                       3012.0000:   TOP DEPTH
BOT .                       9049.5000:   BOTTOM DEPTH
RUN .                               1:   RUN NUMBER
LCCD.                             440:   LOGGING CONTRACTOR
SRVC.                    Schlumberger:   LOGGING CONT NAME
DICO.          QC Data Collectors Ltd:   DIG COMPANY NAME
LDAT.                      10/28/1971:   DATE LOGGED
ELD .F                        75.0000:   LOG DATUM ELEVATION
TDD .F                      7115.0000:   TOTAL DEPTH DRILLER
TDL .F                      7060.0000:   TOTAL DEPTH LOGGER
BOTL.F                      7050.0000:   BOTTOM DEPTH LOGGED
TOPL.F                      3012.0000:   TOP DEPTH LOGGED
CS1 .IN                       13.3750:   CASING SIZE 1
BS1 .IN                       12.2500:   BIT SIZE 1
DDB1.F                      7115.0000:   DEPTH DRILLED BIT 1
BHF .                              11:   FLUID CODE
DPT .         Caustic (high PH) (CLS):   DRILLING FLUID TYPE
MUDD.                         10.5000:   FLUID DENSITY
MUDV.                         40.0000:   FLUID VISCOSITY
DFPH.                          9.0000:   FLUID PH
FL  .                          4.4000:   FLUID LOSS
RM  .OHMM                       .9400:   RM
RMT .DEGF                     96.0000:   RM TEMP
RMF .OHMM                       .7600:   RMF
RMFT.DEGF                     96.0000:   RMF TEMP
FSC .                               M:   RMF CODE
RMC .OHMM                      1.2600:   RMC
RMCT.DEGF                     96.0000:   RMC TEMP
CMC .                               M:   RMC CODE
TMAX.DEGF                    155.0000:   MAX REC TEMP
TIMC.                          6.0000:   TIME SINCE CIRCLN
~Curve Information Block
#MNEM.UNIT                    API CODE    No Description
#=========                    ========    == ===========
DEPT.F                   00 001 00 00:     1  DEPTH
ASN.OHMM                             :     2  Short-Normal Resistivity
CILD.MMHO                            :     3  Deep Induction Conductivity
ILD.OHMM                             :     4  Deep Induction Resistivity
SP.MV                                :     5  Spontaneous Potential
CALI.IN                              :     6  Caliper
DT.US/F                              :     7  Sonic Transit Time
SP.MV                                :     8  Spontaneous Potential
~ASCII
# ...
 3831.0000     1.0834  3277.3633      .4170  -118.4344    13.4553   118.2490  -147.7292
 3831.5000     1.0284  3339.1367      .3986  -118.7538    13.3848   118.8553  -147.8071
 3832.0000      .9265  3400.9102      .3802  -119.0730    13.3142   119.7833  -147.9871
 3832.5000      .8954  3474.3984      .3619  -119.3925    13.2390   120.7269  -149.2473
 3833.0000      .8830  4073.3008      .3459  -119.7118    13.1610   121.3422  -150.3037
 3833.5000      .8731  4184.9766      .3380  -120.0461    13.0994   121.8619  -150.8608
 3834.0000      .8638  4297.1562      .3301  -120.3920    13.0776   122.2988  -151.4185
 3834.5000      .8546  4350.5547      .3222  -120.5543    13.0636   122.4695  -151.5884
 3835.0000      .8439  4383.4375      .3143  -120.6776    13.0643   122.6364  -151.6265
 3835.5000      .8330  4397.2422      .3086  -120.6046    13.0693   122.7943  -151.5337
 3836.0000      .8209  4378.5000      .3255  -120.4752    13.0742   122.5842  -151.4116
 3836.5000      .8065  4333.6016      .3424  -119.6906    13.0791   122.3571  -151.2898
 3837.0000      .7893  4294.6641      .3611  -118.7051    13.0840   122.1523  -150.6133
 3837.5000      .7759  3622.6758      .4089  -117.2604    13.0890   121.9725  -149.8474
 3838.0000      .7641  3120.5078      .4567  -115.8184    13.0939   121.7925  -148.0188
 3838.5000      .7562  2458.7969      .5223  -114.3812    13.1241   121.3401  -144.1589
 3839.0000      .7634  2005.5938      .6014  -112.3528    13.1835   120.8873  -126.9723
 3839.5000      .7916  1981.2969      .7001  -103.7625    13.2855   120.0033  -115.4164
 3840.0000      .8352  1548.4883      .8744   -95.5538    13.5685   118.9584  -113.4955
 3840.5000      .8908  1399.1641      .9349   -84.2814    13.7984   118.3856  -111.8544
 3841.0000     1.0553  1303.4375      .9764   -84.3750    14.0248   117.8823  -110.4518
 3841.5000     1.1133  1207.7109      .9161   -85.9044    14.2480   117.3765  -111.6790
 3842.0000     1.1512  1390.1406      .8559   -87.4326    14.4594   118.4845  -114.0769
 3842.5000     1.1432  1575.6113      .7682   -88.9608    14.7392   122.4059  -116.5385
 3843.0000     1.0734  1739.1934      .6538   -90.5239    14.5599   129.7952  -118.1417
 3843.5000      .9519  1824.5000      .5644   -94.0918    13.8326   137.1848  -119.1713
 3844.0000      .8837  2201.0000      .4860   -97.6597    13.6677   145.7864  -120.5258
 3844.5000      .8317  3037.2461      .4188  -101.2275    13.5521   153.5781  -123.4331
 3845.0000      .7981  3128.9336      .3711  -105.2070    13.4277   157.7410  -127.0443
 3845.5000      .7892  3220.5742      .3659  -110.2594    13.2803   153.7141  -130.3938
 3846.0000      .7856  3430.8242      .3607  -116.8163    13.2065   135.3779  -139.0842
 3846.5000      .7925  3680.1328      .3555  -119.0999    13.1440   131.7349  -142.8350
 3847.0000      .7998  3675.3047      .3618  -118.7380    13.1150   130.4941  -146.4475
 3847.5000      .8202  3671.1563      .3687  -118.0002    13.0894   129.4202  -147.5425
 3848.0000      .8406  3707.3320      .3756  -117.3536    13.0813   128.7061  -147.2915
 3848.5000      .8557  3775.9492      .3889  -116.7075    13.0739   128.2122  -145.1655
 3849.0000      .8306  3793.3086      .4074  -115.8246    13.0643   127.9973  -144.1265
 3849.5000      .8053  3705.9375      .4260  -114.2328    13.0523   127.1218  -144.6162
 3850.0000      .7700  3562.8477      .4445  -111.7764    13.0402   126.0793  -145.1064
 3850.5000      .7182  2883.1875      .4802  -107.2491    13.0665   125.2963  -145.6057
 3851.0000      .6984  2323.3867      .5326  -103.5728    13.0952   124.5612  -146.1223
 3851.5000      .6892  2069.4492      .5955   -97.9241    13.1610   124.7126  -146.1760
 3852.0000      .7199  2051.2109      .6604   -92.2754    13.2470   126.2557  -143.7144
 3852.5000      .7743  2030.4219      .7345   -86.6217    13.3439   127.8000  -139.7354
 3853.0000      .8172  2000.9219      .8093   -81.8588    13.4346   129.5376  -130.5186
 3853.5000      .8509  1971.7344      .8518   -79.1492    13.4991   129.5122  -106.1215
 3854.0000      .8799  1614.3008      .8872   -76.4384    13.5636   129.3887  -101.1022
 3854.5000      .9123  1314.3066      .9081   -68.8173    13.6645   128.2314   -99.2521
 3855.0000      .9076  1257.1191      .9029   -67.7825    13.7655   127.2418   -98.3400
 3855.5000      .8719  1293.7656      .8841   -66.9941    13.8862   129.6741   -96.3617
 3856.0000      .8491  1332.3301      .8613   -64.0743    14.0135   133.9700   -89.1127
 3856.5000      .8264  1363.2793      .8385   -58.9876    14.1406   133.0452   -87.3815
 3857.0000      .8038  1381.0918      .8157   -58.4550    14.2675   139.6309   -85.6515
 3857.5000      .8859  1402.2305      .7929   -58.6355    14.3944   142.3511   -82.1063
 3858.0000      .9245  1436.5820      .7525   -59.2658    14.5263   145.0288   -79.5394
 3858.5000      .9594  1603.0820      .6946   -60.0624    14.6597   146.2439   -79.3657
 3859.0000     1.0007  1665.5547      .6148   -61.9136    13.4920   147.0171  -102.8875
 3859.5000     1.0493  2447.6289      .4592   -66.1975    13.4357   142.7849  -110.4584
 3860.0000     1.0771  3024.5820      .3870   -76.6317    13.4066   122.7889  -113.2479
 3860.5000     1.0044  3375.7813      .3491   -82.3203    13.3968   113.0090  -116.0712
 3861.0000      .9318  3606.0234      .3454   -89.2914    13.3888   110.4819  -121.2443
 3861.5000      .8592  3725.7812      .3417   -96.4021    13.3857   113.3921  -127.7988
 3862.0000      .7830  3791.5430      .3415  -103.5079    13.3826   121.4943  -136.1602
 3862.5000      .6901  3957.7188      .3658  -110.6187    13.3795   126.0988  -138.6675
 3863.0000      .6143  4041.7031      .3901  -104.5109    13.4477   126.3120  -140.1096
 3863.5000      .5897  4016.0938      .4144   -98.0089    13.5343   126.3704  -139.9878
 3864.0000      .5775  3990.5000      .4952   -91.5120    13.6371   126.3781  -138.2915
 3864.5000      .6223  3964.9062      .5604   -85.0099    13.7700   126.8073  -135.8286
 3865.0000      .6564  3061.8750      .6082   -74.5309    13.9013   128.8789  -124.7281
 3865.5000      .6870  2064.3242      .6812   -73.4381    14.0200   137.3835  -119.6128
 3866.0000      .7167  1761.4805      .7886   -71.4308    13.9419   138.6885  -116.8376
 3866.5000      .7418  1397.5195      .8630   -68.2609    13.5887   138.6067  -114.0457
 3867.0000      .7668  1342.0781      .8925   -60.1993    13.4712   136.1628  -111.2465
 3867.5000      .8037  1297.9785      .8327   -60.9219    13.5928   133.9846  -109.0276
 3868.0000      .8394  1270.7441      .7671   -62.3852    13.8770   132.1760  -106.9288
 3868.5000      .8816  1277.8867      .7013   -63.8485    13.9894   130.7656  -103.4977
 3869.0000     1.0296  1394.9766      .6354   -65.6836    14.0824   141.2808   -91.4745
 3869.5000     1.0736  1774.5000      .5494   -67.8942    13.9605   141.8877   -88.7834
 3870.0000     1.0872  2180.1953      .4478   -73.7125    13.8385   141.5486   -89.4370
 3870.5000     1.0780  2414.1250      .4109   -84.7455    13.7423   129.9067   -96.3809
 3871.0000     1.0356  2648.0586      .3800   -90.5837    13.6576   108.4039  -106.0974
 3871.5000      .8972  2881.9883      .3715   -96.4271    13.5729   106.7627  -116.3859
 3872.0000      .8101  3154.4141      .3635  -102.2654    13.8778   105.7793  -123.3105
 3872.5000      .7646  3588.7734      .3555  -114.6653    14.2130   113.2466  -131.5566
 3873.0000      .7946  3851.2227      .3571  -115.0969    14.3166   119.8191  -139.4639
 3873.5000      .8444  3945.4375      .3717  -115.2957    14.4174   121.8967  -141.4702
 3874.0000      .8875  4062.0820      .3864  -114.9631    14.5183   123.0604  -143.0537
 3874.5000      .9220  3983.1992      .4196  -114.6309    14.6192   128.4824  -143.7915
 3875.0000      .9370  3981.3867      .4527  -113.6458    14.6827   129.8110  -143.9907
 3875.5000      .9489  3718.4023      .4770  -112.5217    14.7403   128.8303  -143.4941
 3876.0000      .9336  2838.5156      .4446  -111.5275    14.7945   127.7700  -142.5947
