~VERSION INFORMATION
VERS.                             2.0:   CWLS Log ASCII Standard-VERSION 2.0
WRAP.                              NO:   One line per depth step
~Well Information Block
STRT.F                      2726.0000:   Top Depth
STOP.F                     13125.0000:   Bottom Depth
STEP.F                         .50000:   Depth Increment
NULL.                        -999.250:   Null Value
FLD .                      GA BLK 255:   Field Name
WELL.       OCSG01777  A007 ST00 BP00:   NAME
API .                  42706400190000:   WELL API
EDF .F                        92.0000:   ELEV DRILL FLOOR
COMP.       COASTAL STATES GAS PROD C:   OPERATOR
BN  .                             255:   BLOCK
CTRY.                             USA:   COUNTRY NAME
CNTY.                              GA:   COUNTY
CNTY.                        GLVSTN L:   COUNTY NAME
EKB .F                        93.0000:   ELEV KELLY BUSHING
TDD .F                      13136.000:   FINAL TD DRILLER
STAT.                           TEXAS:   STATE NAME
UWI .                  42706400190000:   WELL API
DICO.               IHS : Digitizing Company
~PARAMETER INFORMATION (zones)
#MNEM.UNIT                       Value     Description
#=========                       =====     ===========
#ZONATION                           IE:   ZONATION NAME
#ZONE                            RUN_1:   ZONE NAME
TOP .                       2726.0000:   TOP DEPTH
BOT .                       8780.5000:   BOTTOM DEPTH
RUN .                               1:   RUN NUMBER
LCCD.                             440:   LOGGING CONTRACTOR
SRVC.                    Schlumberger:   LOGGING CONT NAME
DICO.          QC Data Collectors Ltd:   DIG COMPANY NAME
LDAT.                      09/02/1973:   DATE LOGGED
ELD .F                        93.0000:   LOG DATUM ELEVATION
TDD .F                      8829.0000:   TOTAL DEPTH DRILLER
TDL .F                      8822.0000:   TOTAL DEPTH LOGGER
BOTL.F                      8821.0000:   BOTTOM DEPTH LOGGED
TOPL.F                      2726.0000:   TOP DEPTH LOGGED
CS1 .IN                       13.6250:   CASING SIZE 1
BS1 .IN                       12.2500:   BIT SIZE 1
DDB1.F                      8829.0000:   DEPTH DRILLED BIT 1
BHF .                              81:   FLUID CODE
DPT .          Lignosulfonate (Ligno):   DRILLING FLUID TYPE
MUDD.                         12.2000:   FLUID DENSITY
MUDV.                         44.0000:   FLUID VISCOSITY
DFPH.                         10.5000:   FLUID PH
FL  .                          2.0000:   FLUID LOSS
RM  .OHMM                       .9600:   RM
RMT .DEGF                     74.0000:   RM TEMP
RMF .OHMM                       .5900:   RMF
RMFT.DEGF                     71.0000:   RMF TEMP
FSC .                               M:   RMF CODE
RMC .OHMM                      1.8100:   RMC
RMCT.DEGF                     71.0000:   RMC TEMP
CMC .                               M:   RMC CODE
TMAX.DEGF                    160.0000:   MAX REC TEMP
TIMC.                         24.0000:   TIME SINCE CIRCLN
~PARAMETER INFORMATION (zones)
#MNEM.UNIT                       Value     Description
#=========                       =====     ===========
#ZONATION                           IE:   ZONATION NAME
#ZONE                            RUN_2:   ZONE NAME
TOP .                       8780.0000:   TOP DEPTH
BOT .                       9333.5000:   BOTTOM DEPTH
RUN .                               2:   RUN NUMBER
LCCD.                             440:   LOGGING CONTRACTOR
SRVC.                    Schlumberger:   LOGGING CONT NAME
DICO.          QC Data Collectors Ltd:   DIG COMPANY NAME
LDAT.                      09/09/1973:   DATE LOGGED
ELD .F                        93.0000:   LOG DATUM ELEVATION
TDD .F                      9340.0000:   TOTAL DEPTH DRILLER
TDL .F                      9334.0000:   TOTAL DEPTH LOGGER
BOTL.F                      9333.0000:   BOTTOM DEPTH LOGGED
TOPL.F                      8821.0000:   TOP DEPTH LOGGED
CS1 .IN                       13.3750:   CASING SIZE 1
BS1 .IN                       12.2500:   BIT SIZE 1
DDB1.F                      9340.0000:   DEPTH DRILLED BIT 1
BHF .                              99:   FLUID CODE
DPT .                   Miscellaneous:   DRILLING FLUID TYPE
MUDD.                         12.3000:   FLUID DENSITY
MUDV.                         46.0000:   FLUID VISCOSITY
DFPH.                         10.5000:   FLUID PH
FL  .                          3.2000:   FLUID LOSS
RM  .OHMM                       .6500:   RM
RMT .DEGF                     82.0000:   RM TEMP
RMF .OHMM                       .5000:   RMF
RMFT.DEGF                     82.0000:   RMF TEMP
FSC .                               M:   RMF CODE
RMC .OHMM                       .9600:   RMC
RMCT.DEGF                     82.0000:   RMC TEMP
CMC .                               M:   RMC CODE
TMAX.DEGF                    160.0000:   MAX REC TEMP
TIMC.                          4.0000:   TIME SINCE CIRCLN
~PARAMETER INFORMATION (zones)
#MNEM.UNIT                       Value     Description
#=========                       =====     ===========
#ZONATION                           IE:   ZONATION NAME
#ZONE                            RUN_3:   ZONE NAME
TOP .                       9343.0000:   TOP DEPTH
BOT .                      13125.5000:   BOTTOM DEPTH
RUN .                               3:   RUN NUMBER
LCCD.                             440:   LOGGING CONTRACTOR
SRVC.                    Schlumberger:   LOGGING CONT NAME
DICO.          QC Data Collectors Ltd:   DIG COMPANY NAME
LDAT.                      09/22/1973:   DATE LOGGED
ELD .F                        93.0000:   LOG DATUM ELEVATION
TDD .F                     13136.0000:   TOTAL DEPTH DRILLER
TDL .F                     13126.0000:   TOTAL DEPTH LOGGER
BOTL.F                     13125.0000:   BOTTOM DEPTH LOGGED
TOPL.F                      9343.0000:   TOP DEPTH LOGGED
CS1 .IN                        9.6250:   CASING SIZE 1
BS1 .IN                        8.5000:   BIT SIZE 1
DDB1.F                     13136.0000:   DEPTH DRILLED BIT 1
BHF .                              99:   FLUID CODE
DPT .                   Miscellaneous:   DRILLING FLUID TYPE
MUDD.                         16.5000:   FLUID DENSITY
MUDV.                         46.0000:   FLUID VISCOSITY
DFPH.                         11.0000:   FLUID PH
FL  .                          2.2000:   FLUID LOSS
RM  .OHMM                       .6100:   RM
RMT .DEGF                     80.0000:   RM TEMP
RMF .OHMM                       .2300:   RMF
RMFT.DEGF                     80.0000:   RMF TEMP
FSC .                               M:   RMF CODE
RMC .OHMM                      1.0000:   RMC
RMCT.DEGF                     80.0000:   RMC TEMP
CMC .                               M:   RMC CODE
TMAX.DEGF                    232.0000:   MAX REC TEMP
TIMC.                          7.0000:   TIME SINCE CIRCLN
~PARAMETER INFORMATION (zones)
#MNEM.UNIT                       Value     Description
#=========                       =====     ===========
#ZONATION                        SONIC:   ZONATION NAME
#ZONE                            RUN_1:   ZONE NAME
TOP .                       9343.0000:   TOP DEPTH
BOT .                      13014.5000:   BOTTOM DEPTH
RUN .                               1:   RUN NUMBER
LCCD.                             440:   LOGGING CONTRACTOR
SRVC.                    Schlumberger:   LOGGING CONT NAME
DICO.          QC Data Collectors Ltd:   DIG COMPANY NAME
LDAT.                      09/22/1973:   DATE LOGGED
ELD .F                        93.0000:   LOG DATUM ELEVATION
TDD .F                     13136.0000:   TOTAL DEPTH DRILLER
TDL .F                     13126.0000:   TOTAL DEPTH LOGGER
BOTL.F                     13014.0000:   BOTTOM DEPTH LOGGED
TOPL.F                      9343.0000:   TOP DEPTH LOGGED
CS1 .IN                        9.6250:   CASING SIZE 1
BS1 .IN                        8.5000:   BIT SIZE 1
DDB1.F                     13136.0000:   DEPTH DRILLED BIT 1
BHF .                              99:   FLUID CODE
DPT .                   Miscellaneous:   DRILLING FLUID TYPE
MUDD.                         16.5000:   FLUID DENSITY
MUDV.                         46.0000:   FLUID VISCOSITY
DFPH.                         11.0000:   FLUID PH
FL  .                          2.2000:   FLUID LOSS
RM  .OHMM                       .6100:   RM
RMT .DEGF                     80.0000:   RM TEMP
RMF .OHMM                       .2400:   RMF
RMFT.DEGF                     80.0000:   RMF TEMP
FSC .                               M:   RMF CODE
RMC .OHMM                      1.0000:   RMC
RMCT.DEGF                     80.0000:   RMC TEMP
CMC .                               M:   RMC CODE
TMAX.DEGF                    232.0000:   MAX REC TEMP
TIMC.                          6.0000:   TIME SINCE CIRCLN
~Curve Information Block
#MNEM.UNIT                    API CODE    No Description
#=========                    ========    == ===========
DEPT.F                   00 001 00 00:     1  DEPTH
ASN.OHMM                             :     2  Short-Normal Resistivity
ILD.OHMM                             :     3  Deep Induction Resistivity
SP.MV                                :     4  Spontaneous Potential
CALI.IN                              :     5  Caliper
DT.US/F                              :     6  Sonic Transit Time
~ASCII
# ...
 8216.0000      .9628      .8008   -49.0474  -999.2500  -999.2500
 8216.5000      .9777      .8057   -49.2309  -999.2500  -999.2500
 8217.0000     1.0040      .8176   -49.4329  -999.2500  -999.2500
 8217.5000     1.0255      .8235   -49.6475  -999.2500  -999.2500
 8218.0000     1.0354      .8342   -49.8621  -999.2500  -999.2500
 8218.5000     1.0323      .8376   -49.8239  -999.2500  -999.2500
 8219.0000     1.0165      .8275   -49.7324  -999.2500  -999.2500
 8219.5000      .9878      .8116   -49.5190  -999.2500  -999.2500
 8220.0000      .9603      .7923   -49.5071  -999.2500  -999.2500
 8220.5000      .9335      .7729   -49.5634  -999.2500  -999.2500
 8221.0000      .9156      .7535   -49.6481  -999.2500  -999.2500
 8221.5000      .9115      .7347   -49.3557  -999.2500  -999.2500
 8222.0000      .9256      .7199   -49.1675  -999.2500  -999.2500
 8222.5000      .9257      .7109   -49.6429  -999.2500  -999.2500
 8223.0000      .9105      .7044   -49.8993  -999.2500  -999.2500
 8223.5000      .8894      .6979   -49.7117  -999.2500  -999.2500
 8224.0000      .8764      .6904   -49.2678  -999.2500  -999.2500
 8224.5000      .8688      .6802   -48.8583  -999.2500  -999.2500
 8225.0000      .8658      .6737   -49.0101  -999.2500  -999.2500
 8225.5000      .8643      .6682   -49.2395  -999.2500  -999.2500
 8226.0000      .8674      .6647   -49.5067  -999.2500  -999.2500
 8226.5000      .8685      .6606   -49.3665  -999.2500  -999.2500
 8227.0000      .8383      .6554   -49.1343  -999.2500  -999.2500
 8227.5000      .8062      .6503   -48.7175  -999.2500  -999.2500
 8228.0000      .7890      .6456   -48.2078  -999.2500  -999.2500
 8228.5000      .7825      .6393   -47.7595  -999.2500  -999.2500
 8229.0000      .7855      .6293   -47.5533  -999.2500  -999.2500
 8229.5000      .7917      .6192   -47.5172  -999.2500  -999.2500
 8230.0000      .7890      .6088   -47.6903  -999.2500  -999.2500
 8230.5000      .7819      .6011   -47.6208  -999.2500  -999.2500
 8231.0000      .7836      .5941   -47.4588  -999.2500  -999.2500
 8231.5000      .7948      .5919   -47.3838  -999.2500  -999.2500
 8232.0000      .7997      .5908   -47.4081  -999.2500  -999.2500
 8232.5000      .7953      .5968   -47.5680  -999.2500  -999.2500
 8233.0000      .7848      .6055   -47.9716  -999.2500  -999.2500
 8233.5000      .7777      .6222   -48.1880  -999.2500  -999.2500
 8234.0000      .7706      .6388   -48.2324  -999.2500  -999.2500
 8234.5000      .7730      .6533   -48.0242  -999.2500  -999.2500
 8235.0000      .7763      .6677   -47.8271  -999.2500  -999.2500
 8235.5000      .7942      .6814   -47.7109  -999.2500  -999.2500
 8236.0000      .8184      .6949   -47.7509  -999.2500  -999.2500
 8236.5000      .8500      .7080   -47.7985  -999.2500  -999.2500
 8237.0000      .8826      .7210   -48.0479  -999.2500  -999.2500
 8237.5000      .8999      .7271   -48.2857  -999.2500  -999.2500
 8238.0000      .8992      .7330   -48.4157  -999.2500  -999.2500
 8238.5000      .8949      .7351   -48.5097  -999.2500  -999.2500
 8239.0000      .8840      .7356   -48.4536  -999.2500  -999.2500
 8239.5000      .8735      .7342   -48.3842  -999.2500  -999.2500
 8240.0000      .8631      .7266   -48.2822  -999.2500  -999.2500
 8240.5000      .8576      .7189   -48.2130  -999.2500  -999.2500
 8241.0000      .8539      .7093   -48.1815  -999.2500  -999.2500
 8241.5000      .8596      .6993   -48.2113  -999.2500  -999.2500
 8242.0000      .8732      .6914   -48.3492  -999.2500  -999.2500
 8242.5000      .8764      .6848   -48.4869  -999.2500  -999.2500
 8243.0000      .8778      .6768   -48.9259  -999.2500  -999.2500
 8243.5000      .8783      .6672   -49.3859  -999.2500  -999.2500
 8244.0000      .8776      .6576   -49.8790  -999.2500  -999.2500
 8244.5000      .8608      .6486   -50.1735  -999.2500  -999.2500
 8245.0000      .8304      .6395   -50.2602  -999.2500  -999.2500
 8245.5000      .7996      .6329   -49.8901  -999.2500  -999.2500
 8246.0000      .7789      .6275   -49.4565  -999.2500  -999.2500
 8246.5000      .7622      .6221   -48.8730  -999.2500  -999.2500
 8247.0000      .7552      .6222   -48.3547  -999.2500  -999.2500
 8247.5000      .7521      .6226   -47.9243  -999.2500  -999.2500
 8248.0000      .7579      .6236   -47.9965  -999.2500  -999.2500
 8248.5000      .7677      .6259   -48.2372  -999.2500  -999.2500
 8249.0000      .7761      .6281   -48.8743  -999.2500  -999.2500
 8249.5000      .7821      .6252   -49.2924  -999.2500  -999.2500
 8250.0000      .7955      .6222   -49.3022  -999.2500  -999.2500
 8250.5000      .8116      .6207   -48.9007  -999.2500  -999.2500
 8251.0000      .8237      .6193   -48.4955  -999.2500  -999.2500
 8251.5000      .8268      .6162   -48.1183  -999.2500  -999.2500
 8252.0000      .8175      .6112   -48.2725  -999.2500  -999.2500
 8252.5000      .8046      .6069   -48.4268  -999.2500  -999.2500
 8253.0000      .7899      .6038   -48.6791  -999.2500  -999.2500
 8253.5000      .7824      .6006   -48.9567  -999.2500  -999.2500
 8254.0000      .7801      .5968   -49.0621  -999.2500  -999.2500
 8254.5000      .7808      .5942   -49.0938  -999.2500  -999.2500
 8255.0000      .7849      .5929   -48.8749  -999.2500  -999.2500
 8255.5000      .7879      .5915   -48.2858  -999.2500  -999.2500
 8256.0000      .7886      .5902   -47.6212  -999.2500  -999.2500
 8256.5000      .7843      .5895   -47.1083  -999.2500  -999.2500
 8257.0000      .7764      .5900   -46.6959  -999.2500  -999.2500
 8257.5000      .7668      .5906   -46.6495  -999.2500  -999.2500
 8258.0000      .7627      .5917   -46.6260  -999.2500  -999.2500
 8258.5000      .7604      .5929   -46.8323  -999.2500  -999.2500
 8259.0000      .7627      .5940   -47.0463  -999.2500  -999.2500
 8259.5000      .7656      .5968   -47.4416  -999.2500  -999.2500
 8260.0000      .7629      .5995   -47.6306  -999.2500  -999.2500
 8260.5000      .7540      .6020   -47.8001  -999.2500  -999.2500
 8261.0000      .7443      .6023   -48.1660  -999.2500  -999.2500
 8261.5000      .7388      .6027   -48.9960  -999.2500  -999.2500
 8262.0000      .7361      .6017   -49.4651  -999.2500  -999.2500
 8262.5000      .7424      .6004   -48.8730  -999.2500  -999.2500
 8263.0000      .7496      .5975   -48.2446  -999.2500  -999.2500
 8263.5000      .7585      .5928   -48.6566  -999.2500  -999.2500
 8264.0000      .7676      .5885   -50.1544  -999.2500  -999.2500
 8264.5000      .7773      .5871   -51.3000  -999.2500  -999.2500
 8265.0000      .7842      .5858   -50.8505  -999.2500  -999.2500
 8265.5000      .7893      .5851   -49.5673  -999.2500  -999.2500
 8266.0000      .7885      .5897   -49.2592  -999.2500  -999.2500
 8266.5000      .7882      .5960   -49.8098  -999.2500  -999.2500
 8267.0000      .7884      .6010   -49.9393  -999.2500  -999.2500
 8267.5000      .7940      .6022   -49.5137  -999.2500  -999.2500
 8268.0000      .7975      .6029   -48.7906  -999.2500  -999.2500
 8268.5000      .7986      .6034   -48.1880  -999.2500  -999.2500
 8269.0000      .7958      .6062   -47.5935  -999.2500  -999.2500
 8269.5000      .7911      .6103   -47.0721  -999.2500  -999.2500
 8270.0000      .7839      .6153   -46.6091  -999.2500  -999.2500
 8270.5000      .7758      .6213   -46.1953  -999.2500  -999.2500
 8271.0000      .7693      .6261   -45.9318  -999.2500  -999.2500
 8271.5000      .7640      .6284   -45.7043  -999.2500  -999.2500
 8272.0000      .7607      .6311   -45.5762  -999.2500  -999.2500
 8272.5000      .7583      .6351   -45.5354  -999.2500  -999.2500
 8273.0000      .7567      .6391   -45.5499  -999.2500  -999.2500
 8273.5000      .7618      .6378   -45.6409  -999.2500  -999.2500
 8274.0000      .7688      .6365   -45.8042  -999.2500  -999.2500
 8274.5000      .7830      .6347   -45.9748  -999.2500  -999.2500
 8275.0000      .7975      .6318   -46.1488  -999.2500  -999.2500
 8275.5000      .8055      .6289   -46.1490  -999.2500  -999.2500
 8276.0000      .8027      .6257   -46.0707  -999.2500  -999.2500
 8276.5000      .7906      .6224   -46.1058  -999.2500  -999.2500
