~VERSION INFORMATION
VERS.                             2.0:   CWLS Log ASCII Standard-VERSION 2.0
WRAP.                              NO:   One line per depth step
~Well Information Block
STRT.F                      3576.0000:   Top Depth
STOP.F                      7908.0000:   Bottom Depth
STEP.F                         .50000:   Depth Increment
NULL.                        -999.250:   Null Value
FLD .                      BA BLK 431:   Field Name
WELL.       OCSG09017   001 ST00 BP00:   NAME
API .                  42704401710000:   WELL API
EDF .F                        80.0000:   ELEV DRILL FLOOR
COMP.        WOLVERINE EXPLORATION CO:   OPERATOR
BN  .                             431:   BLOCK
CTRY.                             USA:   COUNTRY NAME
CNTY.                        BRAZOS L:   COUNTY NAME
EKB .F                        81.0000:   ELEV KELLY BUSHING
TDD .F                       7953.000:   FINAL TD DRILLER
STAT.                           TEXAS:   STATE NAME
UWI .                  42704401710000:   WELL API
DICO.               IHS : Digitizing Company
~PARAMETER INFORMATION (zones)
#MNEM.UNIT                       Value     Description
#=========                       =====     ===========
#ZONATION                          DIL:   ZONATION NAME
#ZONE                            RUN_1:   ZONE NAME
TOP .                       3576.0000:   TOP DEPTH
BOT .                       7908.5000:   BOTTOM DEPTH
RUN .                               1:   RUN NUMBER
LCCD.                             440:   LOGGING CONTRACTOR
SRVC.                    Schlumberger:   LOGGING CONT NAME
DICO.          QC Data Collectors Ltd:   DIG COMPANY NAME
LDAT.                      05/13/1988:   DATE LOGGED
ELD .F                        81.0000:   LOG DATUM ELEVATION
TDD .F                      7953.0000:   TOTAL DEPTH DRILLER
TDL .F                      7911.0000:   TOTAL DEPTH LOGGER
BOTL.F                      7908.0000:   BOTTOM DEPTH LOGGED
TOPL.F                      3608.0000:   TOP DEPTH LOGGED
CS1 .IN                       10.7500:   CASING SIZE 1
BS1 .IN                        9.8750:   BIT SIZE 1
DDB1.F                      7953.0000:   DEPTH DRILLED BIT 1
BHF .                              99:   FLUID CODE
DPT .                   Miscellaneous:   DRILLING FLUID TYPE
MUDD.                         10.0000:   FLUID DENSITY
MUDV.                         43.0000:   FLUID VISCOSITY
DFPH.                         11.3000:   FLUID PH
FL  .                          6.2000:   FLUID LOSS
RM  .OHMM                       .7340:   RM
RMT .DEGF                     73.0000:   RM TEMP
RMF .OHMM                       .5760:   RMF
RMFT.DEGF                     73.0000:   RMF TEMP
FSC .                               M:   RMF CODE
RMC .OHMM                       .8300:   RMC
RMCT.DEGF                     73.0000:   RMC TEMP
CMC .                               M:   RMC CODE
TMAX.DEGF                    164.0000:   MAX REC TEMP
TIMC.                          5.0000:   TIME SINCE CIRCLN
~Curve Information Block
#MNEM.UNIT                    API CODE    No Description
#=========                    ========    == ===========
DEPT.F                   00 001 00 00:     1  DEPTH
DCAL.IN                              :     2  Differential Caliper
DT.US/F                              :     3  Sonic Transit Time
GR.GAPI                              :     4  Gamma Ray
ILD.OHMM                             :     5  Deep Induction Resistivity
ILM.OHMM                             :     6  Medium Induction Resistivity
SFL.OHMM                             :     7  Medium Resistivity
SP.MV                                :     8  Spontaneous Potential
~ASCII
# ...
 7580.0000     -.5378    80.6860    48.7568     1.3785     1.3101     2.1723   -57.2064
 7580.5000     -.5251    80.0355    49.8546     1.3229     1.2838     2.3330   -53.9844
 7581.0000     -.5105    79.2217    53.1505     1.3205     1.3215     2.3445   -51.3655
 7581.5000     -.4919    78.4464    55.0660     1.3590     1.3916     2.1693   -49.9041
 7582.0000     -.4696    77.8890    54.7612     1.4147     1.4531     1.9458   -49.9717
 7582.5000     -.4164    77.7546    53.0291     1.4681     1.4882     1.8742   -51.1844
 7583.0000     -.3718    79.3431    52.1784     1.5293     1.5017     2.2095   -52.2567
 7583.5000     -.3451    81.1614    53.2397     1.5307     1.5011     2.4871   -52.6777
 7584.0000     -.3690    82.1133    56.5901     1.5133     1.4882     2.2589   -52.4515
 7584.5000     -.4013    82.6328    59.1234     1.4872     1.4584     1.9695   -52.1121
 7585.0000     -.4312    82.3833    59.0768     1.4587     1.4300     1.8224   -51.8586
 7585.5000     -.4191    81.8822    57.3187     1.4352     1.4004     1.7565   -52.1317
 7586.0000     -.4071    80.9224    55.4799     1.4120     1.3638     1.8112   -52.7513
 7586.5000     -.3911    79.5785    54.6151     1.3884     1.3478     1.9697   -53.3185
 7587.0000     -.3738    78.0710    54.2390     1.3698     1.3453     2.1391   -53.8608
 7587.5000     -.3530    76.7371    53.6572     1.3550     1.3486     2.2594   -54.2521
 7588.0000     -.3138    76.0209    52.4343     1.3577     1.3543     2.4313   -54.2009
 7588.5000     -.2775    76.3667    51.5198     1.3760     1.3548     2.6504   -53.7113
 7589.0000     -.2445    77.0009    55.6434     1.4036     1.3651     2.4155   -52.8375
 7589.5000     -.2471    77.8430    58.7151     1.4291     1.3537     2.0748   -52.6923
 7590.0000     -.2963    77.9684    57.6408     1.4410     1.3436     1.7376   -54.4907
 7590.5000     -.3680    77.5310    53.2991     1.4068     1.4515     1.5398   -57.0673
 7591.0000     -.3749    77.1731    49.1359     1.3595     1.5090     2.0018   -59.4007
 7591.5000     -.3587    78.1069    47.3829     1.2825     1.3932     2.3362   -61.4560
 7592.0000     -.3173    79.2050    47.5010     1.2204     1.2611     2.1284   -63.4691
 7592.5000     -.2523    79.3927    47.1026     1.1765     1.1349     1.8944   -65.1670
 7593.0000     -.1847    78.3770    45.9912     1.1424     1.0569     1.6941   -66.3597
 7593.5000     -.1130    77.5409    44.3680     1.1161     1.0199     1.5742   -66.4391
 7594.0000     -.2018    78.1008    42.8489     1.0901     1.0313     1.5389   -64.3354
 7594.5000     -.2277    79.4645    44.7992     1.0760     1.0633     1.6708   -60.6368
 7595.0000     -.1905    81.4735    48.0406     1.0818     1.0879     1.8083   -56.6901
 7595.5000     -.1386    83.2496    52.0303     1.1205     1.1091     1.7904   -53.3340
 7596.0000     -.0936    82.8979    55.7673     1.1878     1.1395     1.6338   -50.6457
 7596.5000     -.0661    80.9285    56.3323     1.3015     1.2519     1.5054   -49.7025
 7597.0000     -.0366    77.9113    53.2050     1.4135     1.4295     1.5883   -50.2523
 7597.5000     -.0128    74.3441    49.4407     1.5078     1.5470     2.0602   -51.3581
 7598.0000     -.0163    72.7743    47.7172     1.5849     1.6163     2.6209   -52.1543
 7598.5000      .0135    73.5316    48.4321     1.6445     1.6779     3.1012   -52.0109
 7599.0000      .1004    75.8057    50.0677     1.6662     1.7002     3.4768   -50.5464
 7599.5000      .2606    79.7345    52.1939     1.6617     1.6477     3.6697   -48.4017
 7600.0000      .2421    83.7278    55.7029     1.6410     1.4392     3.2179   -46.3762
 7600.5000     -.0106    87.3866    61.2192     1.5940     1.3441     2.4837   -44.8806
 7601.0000     -.2209    86.9506    63.9476     1.5325     1.3115     1.9328   -44.0038
 7601.5000     -.3157    85.4481    62.6516     1.4264     1.3051     1.3767   -43.8274
 7602.0000     -.3373    88.0084    58.9493     1.2805     1.3490     1.5599   -43.8733
 7602.5000     -.3417    91.8232    58.9938     1.1685     1.2576     1.9701   -43.5799
 7603.0000     -.3219    96.3615    65.3726     1.0843     1.1342     2.0345   -42.6615
 7603.5000     -.3034    98.9849    73.5900     1.0044      .9958     1.6087   -41.8240
 7604.0000     -.3074    99.8147    76.6727      .9358      .9373     1.2123   -42.8688
 7604.5000     -.3059    97.0056    74.2888      .8397      .8858     1.0054   -46.4780
 7605.0000     -.2744    94.7489    67.9894      .7414      .8201     1.0670   -52.3709
 7605.5000     -.2248    96.3888    58.4536      .6749      .7252     1.1325   -57.3156
 7606.0000     -.1435    98.9130    51.1085      .6389      .6499     1.0591   -60.7709
 7606.5000     -.0927   101.4026    49.7139      .6248      .6057      .9228   -61.7042
 7607.0000     -.1971   103.5938    51.8618      .6221      .5972      .7897   -57.3106
 7607.5000     -.3171   102.7081    58.8005      .6246      .6264      .7742   -50.4297
 7608.0000     -.4318   100.9915    63.5338      .6293      .6661      .8240   -45.4603
 7608.5000     -.4337   100.1975    70.9186      .6393      .7000      .9100   -41.7021
 7609.0000     -.3252   100.2019    73.6692      .6858      .7516     1.0026   -39.6890
 7609.5000     -.2844    99.8060    74.7125      .7731      .8095     1.0732   -38.6116
 7610.0000     -.3237    99.2230    74.8806      .8341      .8715     1.1418   -37.8161
 7610.5000     -.3490    99.4376    74.8573      .8824      .9148     1.1893   -37.3296
 7611.0000     -.3606   100.0104    75.2230      .9365      .9507     1.1949   -36.9520
 7611.5000     -.3437    99.8849    76.4410      .9660      .9699     1.1967   -37.5219
 7612.0000     -.3309    99.5695    76.1324      .9695      .9740     1.2085   -38.6030
 7612.5000     -.3294    99.1682    74.2714      .9644      .9644     1.2230   -39.9323
 7613.0000     -.2835    97.1493    72.0585      .9678      .9399     1.1675   -41.8485
 7613.5000     -.2013    94.1221    68.3661      .9824      .9196     1.0326   -43.6457
 7614.0000     -.1250    90.2775    64.5002     1.0384     1.0148     1.0306   -44.9675
 7614.5000     -.0852    84.9812    59.3061     1.1311     1.1436     1.1145   -44.6337
 7615.0000     -.1446    80.3439    55.5716     1.2455     1.2520     1.3469   -43.6531
 7615.5000     -.1989    77.4506    53.9187     1.3488     1.3443     1.8832   -42.6466
 7616.0000     -.2412    78.4575    54.7587     1.4492     1.4598     2.7140   -41.8336
 7616.5000     -.2836    79.8262    60.2081     1.5823     1.5946     2.7943   -41.1151
 7617.0000     -.3190    81.1688    67.5087     1.7696     1.6920     2.2874   -40.4634
 7617.5000     -.3539    81.9789    71.4712     1.9936     1.7447     1.9970   -39.9241
 7618.0000     -.3877    82.0778    72.2170     2.0168     1.7875     1.9999   -39.7523
 7618.5000     -.4137    81.8953    69.3325     1.9545     1.8087     2.0427   -40.7973
 7619.0000     -.4396    81.6075    66.9337     1.8742     1.7657     2.0849   -41.8386
 7619.5000     -.4529    81.3280    64.9586     1.8154     1.6931     2.0976   -42.9209
 7620.0000     -.4633    81.7609    62.6738     1.7575     1.6137     1.9760   -44.0330
 7620.5000     -.4697    82.1931    60.6864     1.7151     1.5460     1.8303   -45.3982
 7621.0000     -.4754    82.5461    59.3594     1.6580     1.5020     1.7465   -46.9421
 7621.5000     -.4682    82.7124    58.3923     1.5861     1.4684     1.7216   -48.3471
 7622.0000     -.4527    82.3805    57.7535     1.5018     1.4365     1.7258   -50.1716
 7622.5000     -.4402    82.0240    56.6595     1.4166     1.3789     1.7414   -53.2000
 7623.0000     -.4334    81.9615    55.4985     1.3256     1.3065     1.8058   -56.4269
 7623.5000     -.4465    83.4132    54.4465     1.2231     1.2025     1.9848   -58.9216
 7624.0000     -.4418    85.1819    53.2434     1.1223     1.1000     2.0329   -60.9049
 7624.5000     -.4198    86.6985    52.3909     1.0750     1.0019     1.8046   -62.7319
 7625.0000     -.3861    86.5195    51.5459     1.0362      .9331     1.4918   -64.1467
