~VERSION INFORMATION
VERS.                             2.0:   CWLS Log ASCII Standard-VERSION 2.0
WRAP.                              NO:   One line per depth step
~Well Information Block
STRT.F                      3012.0000:   Top Depth
STOP.F                      9049.0000:   Bottom Depth
STEP.F                         .50000:   Depth Increment
NULL.                        -999.250:   Null Value
FLD .                      GA BLK 210:   Field Name
WELL.       OCSG01759   002 ST00 BP00:   NAME
API .                  42706400060000:   WELL API
R1  .                      TEXACO INC:   COMMENT  1
EDF .F                        74.0000:   ELEV DRILL FLOOR
COMP.                      TEXACO INC:   OPERATOR
BN  .                             210:   BLOCK
CTRY.                             USA:   COUNTRY NAME
CNTY.                              GA:   COUNTY
CNTY.                        GLVSTN L:   COUNTY NAME
EKB .F                        75.0000:   ELEV KELLY BUSHING
TDD .F                       9050.000:   FINAL TD DRILLER
STAT.                           TEXAS:   STATE NAME
UWI .                  42706400060000:   WELL API
DICO.               IHS : Digitizing Company
~PARAMETER INFORMATION (zones)
#MNEM.UNIT                       Value     Description
#=========                       =====     ===========
#ZONATION                           IE:   ZONATION NAME
#ZONE                            RUN_2:   ZONE NAME
TOP .                       9049.0000:   TOP DEPTH
BOT .                       9050.0000:   BOTTOM DEPTH
RUN .                               2:   RUN NUMBER
LCCD.                             440:   LOGGING CONTRACTOR
SRVC.                    Schlumberger:   LOGGING CONT NAME
DICO.          QC Data Collectors Ltd:   DIG COMPANY NAME
LDAT.                      11/07/1971:   DATE LOGGED
ELD .F                        75.0000:   LOG DATUM ELEVATION
TDD .F                      9050.0000:   TOTAL DEPTH DRILLER
TDL .F                      9050.0000:   TOTAL DEPTH LOGGER
BOTL.F                      9049.0000:   BOTTOM DEPTH LOGGED
TOPL.F                      7103.0000:   TOP DEPTH LOGGED
CS1 .IN                        9.6250:   CASING SIZE 1
BS1 .IN                        8.6250:   BIT SIZE 1
DDB1.F                      9050.0000:   DEPTH DRILLED BIT 1
BHF .                              99:   FLUID CODE
DPT .                   Miscellaneous:   DRILLING FLUID TYPE
MUDD.                         15.0000:   FLUID DENSITY
MUDV.                         45.0000:   FLUID VISCOSITY
DFPH.                         10.5000:   FLUID PH
FL  .                          4.0000:   FLUID LOSS
RM  .OHMM                       .7700:   RM
RMT .DEGF                    100.0000:   RM TEMP
RMF .OHMM                       .5300:   RMF
RMFT.DEGF                     77.0000:   RMF TEMP
FSC .                               M:   RMF CODE
RMC .OHMM                      1.4300:   RMC
RMCT.DEGF                     75.0000:   RMC TEMP
CMC .                               M:   RMC CODE
TMAX.DEGF                    194.0000:   MAX REC TEMP
TIMC.                          4.0000:   TIME SINCE CIRCLN
~PARAMETER INFORMATION (zones)
#MNEM.UNIT                       Value     Description
#=========                       =====     ===========
#ZONATION                           IE:   ZONATION NAME
#ZONE                            RUN_1:   ZONE NAME
TOP .                       3012.0000:   TOP DEPTH
BOT .                       9049.5000:   BOTTOM DEPTH
RUN .                               1:   RUN NUMBER
LCCD.                             440:   LOGGING CONTRACTOR
SRVC.                    Schlumberger:   LOGGING CONT NAME
DICO.          QC Data Collectors Ltd:   DIG COMPANY NAME
LDAT.                      10/28/1971:   DATE LOGGED
ELD .F                        75.0000:   LOG DATUM ELEVATION
TDD .F                      7115.0000:   TOTAL DEPTH DRILLER
TDL .F                      7061.0000:   TOTAL DEPTH LOGGER
BOTL.F                      7060.0000:   BOTTOM DEPTH LOGGED
TOPL.F                      3012.0000:   TOP DEPTH LOGGED
CS1 .IN                       13.3750:   CASING SIZE 1
BS1 .IN                       12.2500:   BIT SIZE 1
DDB1.F                      7115.0000:   DEPTH DRILLED BIT 1
BHF .                              11:   FLUID CODE
DPT .         Caustic (high PH) (CLS):   DRILLING FLUID TYPE
MUDD.                         10.5000:   FLUID DENSITY
MUDV.                         40.0000:   FLUID VISCOSITY
DFPH.                          9.0000:   FLUID PH
FL  .                          4.4000:   FLUID LOSS
RM  .OHMM                       .9400:   RM
RMT .DEGF                     96.0000:   RM TEMP
RMF .OHMM                       .7600:   RMF
RMFT.DEGF                     96.0000:   RMF TEMP
FSC .                               M:   RMF CODE
RMC .OHMM                      1.2600:   RMC
RMCT.DEGF                     96.0000:   RMC TEMP
CMC .                               M:   RMC CODE
TMAX.DEGF                    155.0000:   MAX REC TEMP
TIMC.                          4.0000:   TIME SINCE CIRCLN
~PARAMETER INFORMATION (zones)
#MNEM.UNIT                       Value     Description
#=========                       =====     ===========
#ZONATION                        SONIC:   ZONATION NAME
#ZONE                            RUN_1:   ZONE NAME
TOP .                       3012.0000:   TOP DEPTH
BOT .                       9049.5000:   BOTTOM DEPTH
RUN .                               1:   RUN NUMBER
LCCD.                             440:   LOGGING CONTRACTOR
SRVC.                    Schlumberger:   LOGGING CONT NAME
DICO.          QC Data Collectors Ltd:   DIG COMPANY NAME
LDAT.                      10/28/1971:   DATE LOGGED
ELD .F                        75.0000:   LOG DATUM ELEVATION
TDD .F                      7115.0000:   TOTAL DEPTH DRILLER
TDL .F                      7060.0000:   TOTAL DEPTH LOGGER
BOTL.F                      7050.0000:   BOTTOM DEPTH LOGGED
TOPL.F                      3012.0000:   TOP DEPTH LOGGED
CS1 .IN                       13.3750:   CASING SIZE 1
BS1 .IN                       12.2500:   BIT SIZE 1
DDB1.F                      7115.0000:   DEPTH DRILLED BIT 1
BHF .                              11:   FLUID CODE
DPT .         Caustic (high PH) (CLS):   DRILLING FLUID TYPE
MUDD.                         10.5000:   FLUID DENSITY
MUDV.                         40.0000:   FLUID VISCOSITY
DFPH.                          9.0000:   FLUID PH
FL  .                          4.4000:   FLUID LOSS
RM  .OHMM                       .9400:   RM
RMT .DEGF                     96.0000:   RM TEMP
RMF .OHMM                       .7600:   RMF
RMFT.DEGF                     96.0000:   RMF TEMP
FSC .                               M:   RMF CODE
RMC .OHMM                      1.2600:   RMC
RMCT.DEGF                     96.0000:   RMC TEMP
CMC .                               M:   RMC CODE
TMAX.DEGF                    155.0000:   MAX REC TEMP
TIMC.                          6.0000:   TIME SINCE CIRCLN
~Curve Information Block
#MNEM.UNIT                    API CODE    No Description
#=========                    ========    == ===========
DEPT.F                   00 001 00 00:     1  DEPTH
ASN.OHMM                             :     2  Short-Normal Resistivity
CILD.MMHO                            :     3  Deep Induction Conductivity
ILD.OHMM                             :     4  Deep Induction Resistivity
SP.MV                                :     5  Spontaneous Potential
CALI.IN                              :     6  Caliper
DT.US/F                              :     7  Sonic Transit Time
SP.MV                                :     8  Spontaneous Potential
~ASCII
 3012.0000      .0750  1945.0645      .7142   -79.2161    13.0645   147.5659   -86.1224
 3012.5000      .1040  1944.7090      .7012   -78.7352    13.2854   134.0500   -84.2183
 3013.0000      .1355  1944.3516      .6882   -78.1742    13.6805   129.4092   -82.7430
 3013.5000      .2930  1943.9961      .6752   -77.3839    14.0318   129.6304   -81.5321
 3014.0000      .4547  1942.1602      .6644   -75.8282    15.1378   133.9602   -84.4058
 3014.5000      .6165  1939.2070      .6551   -73.0059    15.3141   138.2854   -92.2770
 3015.0000      .8230  1936.2520      .6459   -71.7882    15.4335   142.2310  -101.6620
 3015.5000      .8507  1931.8711      .6366   -70.6206    15.5429   149.8157  -104.4661
 3016.0000      .8656  1924.9160      .6282   -69.4829    15.5789   163.9351  -105.5509
 3016.5000      .8642  1915.8457      .6223   -68.5800    15.5945   173.7319  -103.7152
 3017.0000      .8605  1900.1836      .6165   -67.7775    15.5954   193.5171  -101.4121
 3017.5000      .8574  1871.7402      .6106   -67.2214    15.5962   192.6201   -98.2166
 3018.0000      .8542  1905.1582      .6055   -66.7236    15.5971   190.6223   -95.3735
 3018.5000      .8510  1939.2598      .6085   -66.2260    15.5980   189.1824   -93.7842
 3019.0000      .8545  1971.0566      .6115   -66.0057    15.5989   186.8684   -92.4314
 3019.5000      .8585  1982.0938      .6223   -65.8086    15.5998   185.6313   -91.3640
 3020.0000      .8639  1866.7793      .6412   -65.6116    15.6012   188.5107   -90.4933
 3020.5000      .8698  1747.4199      .6600   -65.4667    15.6028   191.8184   -90.0927
 3021.0000      .8757  1715.4375      .6789   -65.4584    15.6045   192.6582   -90.1555
 3021.5000      .8816  1685.1113      .6976   -65.4501    15.6061   186.7798   -90.2185
 3022.0000      .8876  1654.8711      .7143   -65.4418    15.6077   182.7361   -90.2814
 3022.5000      .8936  1623.2617      .7310   -65.4335    15.6088   181.8401   -90.3800
 3023.0000      .8996  1597.1621      .7477   -65.3904    15.6063   183.3882   -90.4801
 3023.5000      .9056  1578.2500      .7645   -65.3077    15.6037   189.0417   -90.5803
 3024.0000      .9111  1570.0645      .7812   -65.2251    15.6012   187.5994   -90.6804
 3024.5000      .9166  1573.9023      .7651   -65.1423    15.5986   183.4900   -90.5101
 3025.0000      .9220  1601.4004      .7448   -65.0597    15.5961   179.3806   -90.2899
 3025.5000      .9275  1631.3516      .7227   -64.9388    15.5935   176.1926   -90.1193
 3026.0000      .9316  1677.6445      .6969   -64.7965    15.5906   174.2002   -89.9774
 3026.5000      .9343  1723.6387      .6712   -64.6542    15.5867   172.6182   -89.8815
 3027.0000      .9232  1788.3535      .6455   -64.5118    15.5828   171.0361   -89.7855
 3027.5000      .9123  1866.0059      .6291   -64.3695    15.5789   169.4541   -89.6896
 3028.0000      .9036  1901.5918      .6190   -64.2437    15.5748   166.8057   -89.5807
 3028.5000      .8949  1925.5371      .6088   -64.1289    15.5704   163.3630   -89.4698
 3029.0000      .8863  1959.5391      .5986   -64.0143    15.5660   159.9180   -89.4299
 3029.5000      .8805  1983.8457      .5884   -63.8997    15.5624   156.4753   -89.4142
 3030.0000      .8754  1998.4688      .5783   -63.8723    15.5607   155.4541   -89.3983
 3030.5000      .8703  1997.1758      .5868   -63.8723    15.5575   154.5081   -89.4434
 3031.0000      .8692  1972.2031      .6042   -63.8723    15.5512   154.6934   -89.5012
 3031.5000      .8701  1935.2344      .6217   -63.8893    15.5449   156.2546   -89.6111
 3032.0000      .8821  1887.7949      .6403   -63.9200    15.5136   159.3677   -89.8519
 3032.5000      .8955  1819.3652      .6623   -63.9508    15.4693   191.5049   -90.0979
 3033.0000      .9110  1692.9258      .6842   -64.2577    15.3770   195.1802   -90.3458
 3033.5000      .9342  1624.0723      .7062   -64.6763    15.3105   196.7615   -90.5936
 3034.0000      .9573  1508.5527      .7281   -65.1661    15.2868   196.5330   -91.1475
 3034.5000      .9805  1446.7285      .7500   -65.6558    15.2713   187.3035   -91.7198
 3035.0000     1.0016  1404.9980      .7635   -66.1536    15.2662   185.3130   -92.2703
 3035.5000     1.0215  1389.2266      .7755   -66.7461    15.2741   181.3777   -92.6816
 3036.0000     1.0361  1382.3809      .7875   -67.3390    15.3261   180.4182   -93.0930
 3036.5000     1.0491  1394.7266      .7996   -67.9319    15.4132   179.6013   -93.4379
 3037.0000     1.0583  1409.0859      .8069   -68.1083    15.5243   186.5034   -93.6581
 3037.5000     1.0638  1423.4395      .8012   -68.2760    15.5385   189.9138   -93.8784
 3038.0000     1.0593  1437.7988      .7956   -68.2585    15.5412   191.7522   -93.9962
 3038.5000     1.0450  1453.6660      .7899   -68.1174    15.5439   194.9014   -94.0360
 3039.0000     1.0324  1469.7012      .7842   -67.9761    15.5456   196.9053   -93.8341
 3039.5000     1.0203  1485.7422      .7785   -67.8348    15.5468   198.2234   -93.6322
 3040.0000     1.0081  1504.9375      .7728   -67.7018    15.5481   199.1833   -93.2598
 3040.5000      .9982  1524.6309      .7680   -67.5829    15.5493   196.3923   -92.8182
 3041.0000     1.0101  1514.9336      .7685   -67.4641    15.5498   180.5723   -92.3767
 3041.5000     1.0297  1498.1328      .7690   -67.5284    15.5500   191.8601   -92.0165
 3042.0000     1.0438  1481.5547      .7695   -67.9567    15.5411   155.0000   -91.8933
 3042.5000     1.0579  1464.9766      .7700   -68.3848    15.5283   193.3186   -92.1178
 3043.0000     1.0710  1452.9492      .7705   -68.8127    15.4816   195.0747   -92.5449
 3043.5000     1.0794  1441.9863      .7710   -69.1727    15.4333   188.4612   -92.9723
 3044.0000     1.0690  1438.1660      .7712   -69.3066    15.3886   189.0430   -93.3997
 3044.5000     1.0527  1479.5352      .7711   -69.4406    15.3526   190.0000   -93.8270
 3045.0000     1.0341  1519.4453      .7710   -69.3329    15.3334   179.4268   -94.2219
 3045.5000     1.0096  1541.6582      .7709   -68.5061    15.3178   177.8667   -94.6063
 3046.0000      .9851  1561.7129      .7677   -67.6790    15.3190   176.7327   -94.9034
 3046.5000      .9660  1580.3594      .7601   -66.9979    15.3203   180.8643   -94.5972
 3047.0000      .9480  1598.5586      .7525   -66.6465    15.3215   182.2695   -93.9052
 3047.5000      .9267  1612.9551      .7450   -66.2950    15.3151   182.8591   -93.2131
 3048.0000      .9050  1626.8086      .7374   -65.9435    15.2125   184.5210   -92.5212
 3048.5000      .8785  1640.6563      .7298   -65.5283    14.8760   184.8501   -91.8292
 3049.0000      .8487  1659.6953      .7222   -64.8839    14.7274   185.1328   -91.1370
 3049.5000      .8149  1679.9121      .7165   -64.2399    14.6437   185.3506   -90.4449
 3050.0000      .7988  1699.6074      .7126   -63.6829    14.5666   177.2007   -89.9580
 3050.5000      .7828  1718.9023      .7088   -63.3251    14.5706   182.9614   -89.6010
 3051.0000      .7681  1733.2363      .7049   -62.9672    14.5747   187.5291   -89.2440
 3051.5000      .7543  1742.4531      .7010   -62.7463    14.5787   194.4771   -88.9065
 3052.0000      .7437  1751.6641      .6972   -62.6074    14.5827   193.4128   -88.6034
 3052.5000      .7416  1754.7344      .6933   -62.6619    14.5782   190.9207   -88.3030
 3053.0000      .7445  1753.5801      .6895   -62.7175    14.5733   184.3735   -88.0460
 3053.5000      .7475  1747.9941      .6856   -62.8034    14.5684   186.4319   -87.7891
 3054.0000      .7505  1735.0742      .6817   -62.8893    14.5624   194.2395   -87.5521
 3054.5000      .7533  1722.1602      .6816   -62.9194    14.5528   195.3962   -87.5920
 3055.0000      .7561  1708.9434      .6815   -62.7782    14.5862   195.1860   -87.7101
 3055.5000      .7589  1694.9570      .6814   -62.6369    14.6405   194.9558   -87.7332
 3056.0000      .7618  1680.9727      .6813   -62.5206    14.9948   194.5696   -87.4395
 3056.5000      .7646  1666.9941      .6812   -62.4390    14.9788   194.1533   -87.2029
 3057.0000      .7665  1657.3145      .6811   -62.3572    14.9451   191.8250   -87.3955
