~VERSION INFORMATION
VERS.                             2.0:   CWLS Log ASCII Standard-VERSION 2.0
WRAP.                              NO:   One line per depth step
~Well Information Block
STRT.F                      3576.0000:   Top Depth
STOP.F                      7908.0000:   Bottom Depth
STEP.F                         .50000:   Depth Increment
NULL.                        -999.250:   Null Value
FLD .                      BA BLK 431:   Field Name
WELL.       OCSG09017   001 ST00 BP00:   NAME
API .                  42704401710000:   WELL API
EDF .F                        80.0000:   ELEV DRILL FLOOR
COMP.        WOLVERINE EXPLORATION CO:   OPERATOR
BN  .                             431:   BLOCK
CTRY.                             USA:   COUNTRY NAME
CNTY.                        BRAZOS L:   COUNTY NAME
EKB .F                        81.0000:   ELEV KELLY BUSHING
TDD .F                       7953.000:   FINAL TD DRILLER
STAT.                           TEXAS:   STATE NAME
UWI .                  42704401710000:   WELL API
DICO.               IHS : Digitizing Company
~PARAMETER INFORMATION (zones)
#MNEM.UNIT                       Value     Description
#=========                       =====     ===========
#ZONATION                          DIL:   ZONATION NAME
#ZONE                            RUN_1:   ZONE NAME
TOP .                       3576.0000:   TOP DEPTH
BOT .                       7908.5000:   BOTTOM DEPTH
RUN .                               1:   RUN NUMBER
LCCD.                             440:   LOGGING CONTRACTOR
SRVC.                    Schlumberger:   LOGGING CONT NAME
DICO.          QC Data Collectors Ltd:   DIG COMPANY NAME
LDAT.                      05/13/1988:   DATE LOGGED
ELD .F                        81.0000:   LOG DATUM ELEVATION
TDD .F                      7953.0000:   TOTAL DEPTH DRILLER
TDL .F                      7911.0000:   TOTAL DEPTH LOGGER
BOTL.F                      7908.0000:   BOTTOM DEPTH LOGGED
TOPL.F                      3608.0000:   TOP DEPTH LOGGED
CS1 .IN                       10.7500:   CASING SIZE 1
BS1 .IN                        9.8750:   BIT SIZE 1
DDB1.F                      7953.0000:   DEPTH DRILLED BIT 1
BHF .                              99:   FLUID CODE
DPT .                   Miscellaneous:   DRILLING FLUID TYPE
MUDD.                         10.0000:   FLUID DENSITY
MUDV.                         43.0000:   FLUID VISCOSITY
DFPH.                         11.3000:   FLUID PH
FL  .                          6.2000:   FLUID LOSS
RM  .OHMM                       .7340:   RM
RMT .DEGF                     73.0000:   RM TEMP
RMF .OHMM                       .5760:   RMF
RMFT.DEGF                     73.0000:   RMF TEMP
FSC .                               M:   RMF CODE
RMC .OHMM                       .8300:   RMC
RMCT.DEGF                     73.0000:   RMC TEMP
CMC .                               M:   RMC CODE
TMAX.DEGF                    164.0000:   MAX REC TEMP
TIMC.                          5.0000:   TIME SINCE CIRCLN
~Curve Information Block
#MNEM.UNIT                    API CODE    No Description
#=========                    ========    == ===========
DEPT.F                   00 001 00 00:     1  DEPTH
DCAL.IN                              :     2  Differential Caliper
DT.US/F                              :     3  Sonic Transit Time
GR.GAPI                              :     4  Gamma Ray
ILD.OHMM                             :     5  Deep Induction Resistivity
ILM.OHMM                             :     6  Medium Induction Resistivity
SFL.OHMM                             :     7  Medium Resistivity
SP.MV                                :     8  Spontaneous Potential
~ASCII
# ...
 7853.0000     1.9845    95.1538    69.7885      .9395      .9485     1.1377   -41.4774
 7853.5000     1.9430    93.7728    64.2747      .9854      .9951     1.1511   -41.9640
 7854.0000     1.8947    92.0858    62.3356     1.0445     1.0498     1.1862   -42.4015
 7854.5000     1.8655    90.0520    61.3753     1.1078     1.1124     1.2414   -42.9395
 7855.0000     1.8431    88.2189    60.8568     1.1601     1.1608     1.3402   -43.9883
 7855.5000     1.8343    87.5875    60.7831     1.1883     1.2022     1.5311   -45.1674
 7856.0000     1.8309    89.2965    61.9825     1.1853     1.1848     1.7040   -46.4432
 7856.5000     1.8337    91.2906    67.4740     1.1691     1.0982     1.7960   -47.5925
 7857.0000     1.8366    92.9083    72.1997     1.1247     1.0213     1.4469   -48.6897
 7857.5000     1.8396    93.9661    73.4153     1.0809      .9820     1.1273   -50.1592
 7858.0000     1.8403    93.6713    71.8726     1.0386      .9714      .9750   -51.4624
 7858.5000     1.8391    92.5714    69.5680      .9976      .9787      .9744   -52.3784
 7859.0000     1.8378    91.5220    67.7974      .9669      .9737     1.0985   -53.0659
 7859.5000     1.8365    92.0048    66.6487      .9365      .9401     1.2148   -53.8478
 7860.0000     1.8390    92.6625    64.9240      .9046      .8979     1.3361   -55.5283
 7860.5000     1.8433    92.7845    61.7049      .8750      .8444     1.4019   -58.1248
 7861.0000     1.8569    92.5615    58.0819      .8366      .7865     1.3110   -61.8680
 7861.5000     1.8716    91.6672    55.3610      .7922      .7418     1.0141   -66.2815
 7862.0000     1.8879    92.4550    52.1196      .7511      .7093      .8582   -69.2106
 7862.5000     1.9102    94.5730    50.7542      .7160      .6867      .8156   -70.9730
 7863.0000     1.9266    96.1956    52.2336      .6940      .6777      .8117   -70.5784
 7863.5000     1.9345    97.0304    57.0461      .6918      .6807      .8214   -65.6709
 7864.0000     1.9361    97.4093    62.6763      .7042      .6915      .8518   -57.8269
 7864.5000     1.9110    97.3400    69.2086      .7236      .7112      .8973   -50.7276
 7865.0000     1.8955    96.8384    71.9692      .7474      .7341      .9577   -47.1085
 7865.5000     1.9088    95.9677    72.3856      .7775      .7603     1.0947   -45.1897
 7866.0000     1.8741    94.9520    71.0771      .8124      .7896     1.0956   -44.6476
 7866.5000  -999.2500    93.7716    68.3958      .8536      .8282     1.0287   -46.9893
 7867.0000  -999.2500    92.3336    64.5101      .8970      .8711      .9875   -48.5109
 7867.5000  -999.2500    91.9669    62.8002      .9403      .9149      .9834   -48.8470
 7868.0000  -999.2500    93.7109    67.0675      .9910      .9614     1.0460   -47.9822
 7868.5000  -999.2500    95.0313    72.2716     1.0409     1.0039     1.1831   -45.7383
 7869.0000  -999.2500    95.2404    77.1931     1.0762     1.0472     1.3022   -43.7003
 7869.5000  -999.2500    95.1445    79.4952     1.1305     1.0790     1.3537   -41.8857
 7870.0000  -999.2500    95.0212    80.1334     1.1762     1.1026     1.3787   -40.6707
 7870.5000  -999.2500    94.8828    80.2610     1.1934     1.1210     1.4037   -40.1305
 7871.0000  -999.2500    94.7743    79.3008     1.2065     1.1309     1.4379   -39.9517
 7871.5000  -999.2500    94.7098    78.3962     1.2013     1.1351     1.4668   -39.9344
 7872.0000  -999.2500    94.6965    77.8505     1.1897     1.1377     1.4713   -39.9416
 7872.5000  -999.2500    94.8075    77.8176     1.1754     1.1375     1.4684   -39.9600
 7873.0000  -999.2500    94.9520    77.0815     1.1649     1.1225     1.4449   -39.9011
 7873.5000  -999.2500    94.9639    74.0608     1.1512     1.1054     1.4078   -39.7932
 7874.0000  -999.2500    94.9640    69.3375     1.1328     1.0842     1.3703   -39.5676
 7874.5000  -999.2500  -999.2500    66.5125     1.1111     1.0633     1.3441   -39.2354
 7875.0000  -999.2500  -999.2500    66.2861     1.0854     1.0428     1.3179   -38.8344
 7875.5000  -999.2500  -999.2500    66.4021     1.0759     1.0208     1.2706   -38.5349
 7876.0000  -999.2500  -999.2500    65.1643     1.0799     1.0033     1.1723   -38.5854
 7876.5000  -999.2500  -999.2500    64.0182     1.0863     1.0177     1.1316   -38.6935
 7877.0000  -999.2500  -999.2500    63.5460     1.0973     1.0537     1.1823   -38.8782
 7877.5000  -999.2500  -999.2500    63.4289     1.1026     1.0921     1.2521   -39.0901
 7878.0000  -999.2500  -999.2500    63.3572     1.1023     1.1116     1.3132   -39.3951
 7878.5000  -999.2500  -999.2500    62.9786     1.0836     1.0723     1.3797   -39.5940
 7879.0000  -999.2500  -999.2500    62.4347     1.0584     1.0147     1.4248   -39.6907
 7879.5000  -999.2500  -999.2500    61.7390     1.0315      .9356     1.3863   -39.6583
 7880.0000  -999.2500  -999.2500    61.7155      .9999      .8916     1.2419   -39.5907
 7880.5000  -999.2500  -999.2500    62.1212      .9726      .8851     1.0612   -39.3091
 7881.0000  -999.2500  -999.2500    62.4731      .9472      .8970      .9412   -38.9902
 7881.5000  -999.2500  -999.2500    63.0165      .9237      .9004      .9062   -38.9127
 7882.0000  -999.2500  -999.2500    63.9612      .9026      .8903      .9555   -39.0759
 7882.5000  -999.2500  -999.2500    64.2422      .8828      .8703     1.0247   -39.4463
 7883.0000  -999.2500  -999.2500    64.0919      .8706      .8524     1.0810   -39.6809
 7883.5000  -999.2500  -999.2500    64.5931      .8588      .8357     1.1177   -39.8906
 7884.0000  -999.2500  -999.2500    65.8347      .8487      .8269     1.0752   -40.0037
 7884.5000  -999.2500  -999.2500    66.2318      .8384      .8183     1.0158   -40.0296
 7885.0000  -999.2500  -999.2500    65.6599      .8279      .8105      .9560   -40.0079
 7885.5000  -999.2500  -999.2500    66.0292      .8174      .8075      .9119   -39.9680
 7886.0000  -999.2500  -999.2500    67.2013      .8083      .8059      .8958   -40.0325
 7886.5000  -999.2500  -999.2500    66.4728      .8055      .8073      .8978   -40.2990
 7887.0000  -999.2500  -999.2500    63.3504      .8080      .8242      .9234   -40.6794
 7887.5000  -999.2500  -999.2500    60.8203      .8246      .8579      .9600   -41.0859
 7888.0000  -999.2500  -999.2500    58.6915      .8458      .8914      .9892   -41.3521
 7888.5000  -999.2500  -999.2500  -999.2500      .8687      .9185     1.0176   -41.5552
 7889.0000  -999.2500  -999.2500  -999.2500      .8982      .9368     1.0648   -41.6191
 7889.5000  -999.2500  -999.2500  -999.2500      .9234      .9408     1.1163   -41.6282
 7890.0000  -999.2500  -999.2500  -999.2500      .9418      .9365     1.1396   -41.4607
 7890.5000  -999.2500  -999.2500  -999.2500      .9536      .9240     1.0989   -41.2292
 7891.0000  -999.2500  -999.2500  -999.2500      .9640      .9154     1.0437   -40.8966
 7891.5000  -999.2500  -999.2500  -999.2500      .9711      .9130      .9937   -40.6061
 7892.0000  -999.2500  -999.2500  -999.2500      .9783      .9213      .9633   -40.3309
 7892.5000  -999.2500  -999.2500  -999.2500      .9747      .9423      .9637   -40.2599
 7893.0000  -999.2500  -999.2500  -999.2500      .9684      .9570     1.0609   -40.3297
 7893.5000  -999.2500  -999.2500  -999.2500      .9586      .9589     1.1612   -40.4963
 7894.0000  -999.2500  -999.2500  -999.2500      .9488      .9533     1.2377   -40.6785
 7894.5000  -999.2500  -999.2500  -999.2500      .9390      .9413     1.2070   -40.8530
 7895.0000  -999.2500  -999.2500  -999.2500      .9294      .9203     1.1191   -40.9514
 7895.5000  -999.2500  -999.2500  -999.2500      .9187      .8990     1.0349   -40.8220
 7896.0000  -999.2500  -999.2500  -999.2500      .9071      .8846      .9748   -40.7948
 7896.5000  -999.2500  -999.2500  -999.2500      .8947      .8752      .9356   -41.4216
 7897.0000  -999.2500  -999.2500  -999.2500      .8856      .8709      .9454   -42.1141
 7897.5000  -999.2500  -999.2500  -999.2500      .8826      .8708      .9713   -42.8278
 7898.0000  -999.2500  -999.2500  -999.2500      .8822      .8742     1.0067   -43.4918
