~VERSION INFORMATION
VERS.                             2.0:   CWLS Log ASCII Standard-VERSION 2.0
WRAP.                              NO:   One line per depth step
~Well Information Block
STRT.F                      2500.0000:   Top Depth
STOP.F                     12867.0000:   Bottom Depth
STEP.F                         .50000:   Depth Increment
NULL.                        -999.250:   Null Value
FLD .                      GA BLK 255:   Field Name
WELL.       OCSG01777  A004 ST00 BP00:   NAME
API .                  42706400140000:   WELL API
EDF .F                        91.0000:   ELEV DRILL FLOOR
COMP.       COASTAL STATES GAS PROD C:   OPERATOR
BN  .                             255:   BLOCK
CTRY.                             USA:   COUNTRY NAME
CNTY.                              GA:   COUNTY
CNTY.                        GLVSTN L:   COUNTY NAME
EKB .F                        92.0000:   ELEV KELLY BUSHING
TDD .F                      12868.000:   FINAL TD DRILLER
STAT.                           TEXAS:   STATE NAME
UWI .                  42706400140000:   WELL API
DICO.               IHS : Digitizing Company
~PARAMETER INFORMATION (zones)
#MNEM.UNIT                       Value     Description
#=========                       =====     ===========
#ZONATION                           IE:   ZONATION NAME
#ZONE                            RUN_1:   ZONE NAME
TOP .                       2500.0000:   TOP DEPTH
BOT .                       8267.5000:   BOTTOM DEPTH
RUN .                               1:   RUN NUMBER
LCCD.                             440:   LOGGING CONTRACTOR
SRVC.                    Schlumberger:   LOGGING CONT NAME
DICO.          QC Data Collectors Ltd:   DIG COMPANY NAME
LDAT.                      05/23/1973:   DATE LOGGED
ELD .F                        92.0000:   LOG DATUM ELEVATION
TDD .F                      8274.0000:   TOTAL DEPTH DRILLER
TDL .F                      8268.0000:   TOTAL DEPTH LOGGER
BOTL.F                      8267.0000:   BOTTOM DEPTH LOGGED
TOPL.F                      2500.0000:   TOP DEPTH LOGGED
CS1 .IN                       13.3750:   CASING SIZE 1
BS1 .IN                       12.2500:   BIT SIZE 1
DDB1.F                      8274.0000:   DEPTH DRILLED BIT 1
BHF .                              99:   FLUID CODE
DPT .                   Miscellaneous:   DRILLING FLUID TYPE
MUDV.                         45.0000:   FLUID VISCOSITY
FL  .                          3.4000:   FLUID LOSS
RM  .OHMM                       .7100:   RM
RMT .DEGF                     82.0000:   RM TEMP
RMF .OHMM                       .4200:   RMF
RMFT.DEGF                     82.0000:   RMF TEMP
FSC .                               M:   RMF CODE
RMC .OHMM                      1.2500:   RMC
RMCT.DEGF                     82.0000:   RMC TEMP
CMC .                               M:   RMC CODE
TMAX.DEGF                     82.0000:   MAX REC TEMP
TIMC.                          6.0000:   TIME SINCE CIRCLN
MUDD.                            NULL:   FLUID DENSITY
DFPH.                            NULL:   FLUID PH
~PARAMETER INFORMATION (zones)
#MNEM.UNIT                       Value     Description
#=========                       =====     ===========
#ZONATION                           IE:   ZONATION NAME
#ZONE                            RUN_2:   ZONE NAME
TOP .                       8273.0000:   TOP DEPTH
BOT .                      12867.5000:   BOTTOM DEPTH
RUN .                               2:   RUN NUMBER
LCCD.                             440:   LOGGING CONTRACTOR
SRVC.                    Schlumberger:   LOGGING CONT NAME
DICO.          QC Data Collectors Ltd:   DIG COMPANY NAME
LDAT.                      06/12/1973:   DATE LOGGED
ELD .F                        92.0000:   LOG DATUM ELEVATION
TDD .F                     12865.0000:   TOTAL DEPTH DRILLER
TDL .F                     12868.0000:   TOTAL DEPTH LOGGER
BOTL.F                     12867.0000:   BOTTOM DEPTH LOGGED
TOPL.F                      8272.0000:   TOP DEPTH LOGGED
CS1 .IN                        9.6250:   CASING SIZE 1
BS1 .IN                        8.5000:   BIT SIZE 1
DDB1.F                     12865.0000:   DEPTH DRILLED BIT 1
BHF .                              11:   FLUID CODE
DPT .         Caustic (high PH) (CLS):   DRILLING FLUID TYPE
MUDV.                         44.0000:   FLUID VISCOSITY
FL  .                          2.6000:   FLUID LOSS
RM  .OHMM                       .9100:   RM
RMT .DEGF                     76.0000:   RM TEMP
RMF .OHMM                       .4600:   RMF
RMFT.DEGF                     78.0000:   RMF TEMP
FSC .                               M:   RMF CODE
RMC .OHMM                      1.3200:   RMC
RMCT.DEGF                     76.0000:   RMC TEMP
CMC .                               C:   RMC CODE
TMAX.DEGF                    248.0000:   MAX REC TEMP
TIMC.                          5.0000:   TIME SINCE CIRCLN
MUDD.                         16.3000:   FLUID DENSITY
DFPH.                         10.5000:   FLUID PH
~PARAMETER INFORMATION (zones)
#MNEM.UNIT                       Value     Description
#=========                       =====     ===========
#ZONATION                        SONIC:   ZONATION NAME
#ZONE                            RUN_1:   ZONE NAME
TOP .                       8272.0000:   TOP DEPTH
BOT .                      12860.5000:   BOTTOM DEPTH
RUN .                               1:   RUN NUMBER
LCCD.                             440:   LOGGING CONTRACTOR
SRVC.                    Schlumberger:   LOGGING CONT NAME
DICO.          QC Data Collectors Ltd:   DIG COMPANY NAME
LDAT.                      06/12/1973:   DATE LOGGED
ELD .F                        92.0000:   LOG DATUM ELEVATION
TDD .F                     12865.0000:   TOTAL DEPTH DRILLER
BOTL.F                     12860.0000:   BOTTOM DEPTH LOGGED
TOPL.F                      8272.0000:   TOP DEPTH LOGGED
CS1 .IN                        9.6250:   CASING SIZE 1
BS1 .IN                        8.5000:   BIT SIZE 1
DDB1.F                     12865.0000:   DEPTH DRILLED BIT 1
BHF .                              11:   FLUID CODE
DPT .         Caustic (high PH) (CLS):   DRILLING FLUID TYPE
MUDD.                         16.3000:   FLUID DENSITY
MUDV.                         44.0000:   FLUID VISCOSITY
DFPH.                         10.5000:   FLUID PH
FL  .                          2.6000:   FLUID LOSS
RM  .OHMM                       .9100:   RM
RMT .DEGF                     76.0000:   RM TEMP
RMF .OHMM                       .4600:   RMF
RMFT.DEGF                     78.0000:   RMF TEMP
FSC .                               M:   RMF CODE
RMC .OHMM                      1.3200:   RMC
RMCT.DEGF                     76.0000:   RMC TEMP
CMC .                               C:   RMC CODE
TMAX.DEGF                    248.0000:   MAX REC TEMP
TIMC.                         10.0000:   TIME SINCE CIRCLN
~Curve Information Block
#MNEM.UNIT                    API CODE    No Description
#=========                    ========    == ===========
DEPT.F                   00 001 00 00:     1  DEPTH
ASN.OHMM                             :     2  Short-Normal Resistivity
ILD.OHMM                             :     3  Deep Induction Resistivity
SP.MV                                :     4  Spontaneous Potential
CALI.IN                              :     5  Caliper
DT.US/F                              :     6  Sonic Transit Time
~ASCII
# ...
 5245.0000      .8401      .3818   -86.6025  -999.2500  -999.2500
 5245.5000      .8285      .3737   -87.5592  -999.2500  -999.2500
 5246.0000      .8323      .3677   -87.0670  -999.2500  -999.2500
 5246.5000      .8512      .3621   -86.7643  -999.2500  -999.2500
 5247.0000      .8718      .3567   -87.4764  -999.2500  -999.2500
 5247.5000      .8930      .3514   -89.3546  -999.2500  -999.2500
 5248.0000      .9178      .3556   -92.1251  -999.2500  -999.2500
 5248.5000      .9290      .3609   -93.7430  -999.2500  -999.2500
 5249.0000      .9068      .3709   -94.6547  -999.2500  -999.2500
 5249.5000      .8695      .3853   -92.4709  -999.2500  -999.2500
 5250.0000      .8285      .4055   -87.8278  -999.2500  -999.2500
 5250.5000      .8087      .4331   -84.9203  -999.2500  -999.2500
 5251.0000      .8096      .4614   -85.1143  -999.2500  -999.2500
 5251.5000      .8123      .4887   -85.6772  -999.2500  -999.2500
 5252.0000      .8168      .5144   -84.0492  -999.2500  -999.2500
 5252.5000      .8214      .5393   -80.5134  -999.2500  -999.2500
 5253.0000      .8228      .5613   -76.0762  -999.2500  -999.2500
 5253.5000      .8211      .5787   -72.7501  -999.2500  -999.2500
 5254.0000      .8192      .5957   -69.9080  -999.2500  -999.2500
 5254.5000      .8187      .6124   -67.5146  -999.2500  -999.2500
 5255.0000      .8203      .6297   -65.2500  -999.2500  -999.2500
 5255.5000      .8311      .6462   -63.8188  -999.2500  -999.2500
 5256.0000      .8512      .6499   -64.0699  -999.2500  -999.2500
 5256.5000      .8716      .6473   -64.5664  -999.2500  -999.2500
 5257.0000      .8864      .6400   -64.7688  -999.2500  -999.2500
 5257.5000      .9007      .6295   -64.2943  -999.2500  -999.2500
 5258.0000      .9122      .6138   -63.1234  -999.2500  -999.2500
 5258.5000      .9141      .5957   -61.8495  -999.2500  -999.2500
 5259.0000      .9026      .5801   -61.5634  -999.2500  -999.2500
 5259.5000      .8876      .5649   -62.4487  -999.2500  -999.2500
 5260.0000      .8756      .5480   -62.6647  -999.2500  -999.2500
 5260.5000      .8663      .5306   -62.2749  -999.2500  -999.2500
 5261.0000      .8594      .5089   -64.0303  -999.2500  -999.2500
 5261.5000      .8545      .4880   -67.4153  -999.2500  -999.2500
 5262.0000      .8557      .4674   -70.5610  -999.2500  -999.2500
 5262.5000      .8635      .4516   -73.3738  -999.2500  -999.2500
 5263.0000      .8706      .4404   -75.9236  -999.2500  -999.2500
 5263.5000      .8738      .4300   -78.3224  -999.2500  -999.2500
 5264.0000      .8554      .4331   -80.6256  -999.2500  -999.2500
 5264.5000      .8200      .4390   -83.5562  -999.2500  -999.2500
 5265.0000      .8009      .4444   -86.0837  -999.2500  -999.2500
 5265.5000      .7931      .4510   -88.4753  -999.2500  -999.2500
 5266.0000      .8088      .4581   -90.9680  -999.2500  -999.2500
 5266.5000      .8371      .4546   -91.9377  -999.2500  -999.2500
 5267.0000      .8660      .4328   -91.5443  -999.2500  -999.2500
 5267.5000      .8903      .4086   -92.8242  -999.2500  -999.2500
 5268.0000      .9031      .3867   -94.7889  -999.2500  -999.2500
 5268.5000      .8906      .3650   -95.7712  -999.2500  -999.2500
 5269.0000      .8693      .3423   -92.3790  -999.2500  -999.2500
 5269.5000      .8457      .3268   -90.6074  -999.2500  -999.2500
 5270.0000      .8197      .3153   -90.8043  -999.2500  -999.2500
 5270.5000      .7908      .3098   -97.6183  -999.2500  -999.2500
 5271.0000      .7594      .3087  -103.6816  -999.2500  -999.2500
 5271.5000      .7209      .3158  -108.4905  -999.2500  -999.2500
 5272.0000      .6771      .3299  -105.7421  -999.2500  -999.2500
 5272.5000      .6558      .3315  -100.5396  -999.2500  -999.2500
 5273.0000      .6646      .3288   -95.9130  -999.2500  -999.2500
 5273.5000      .7051      .3235   -94.5166  -999.2500  -999.2500
 5274.0000      .7504      .3098   -94.7723  -999.2500  -999.2500
 5274.5000      .7713      .2977   -95.7491  -999.2500  -999.2500
 5275.0000      .7820      .2981   -96.7766  -999.2500  -999.2500
 5275.5000      .7865      .2937   -97.9714  -999.2500  -999.2500
 5276.0000      .7738      .2787   -99.6639  -999.2500  -999.2500
 5276.5000      .7497      .2686  -101.0170  -999.2500  -999.2500
 5277.0000      .7210      .2601  -102.1199  -999.2500  -999.2500
 5277.5000      .6866      .2520  -105.0135  -999.2500  -999.2500
 5278.0000      .6567      .2488  -108.5511  -999.2500  -999.2500
 5278.5000      .6308      .2496  -107.6259  -999.2500  -999.2500
 5279.0000      .6200      .2505  -104.4138  -999.2500  -999.2500
 5279.5000      .6228      .2553  -102.1318  -999.2500  -999.2500
 5280.0000      .6297      .2561  -103.6118  -999.2500  -999.2500
 5280.5000      .6191      .2600  -106.4117  -999.2500  -999.2500
 5281.0000      .5979      .2633  -109.1436  -999.2500  -999.2500
 5281.5000      .5800      .2663  -110.2601  -999.2500  -999.2500
 5282.0000      .5739      .2811  -106.4375  -999.2500  -999.2500
 5282.5000      .5930      .2984  -102.0444  -999.2500  -999.2500
 5283.0000      .6169      .3114   -97.6514  -999.2500  -999.2500
 5283.5000      .6397      .3189   -93.2583  -999.2500  -999.2500
 5284.0000      .6549      .3273   -88.8617  -999.2500  -999.2500
 5284.5000      .6477      .3373   -84.4686  -999.2500  -999.2500
 5285.0000      .6355      .3547   -80.0756  -999.2500  -999.2500
 5285.5000      .6252      .3794   -75.6788  -999.2500  -999.2500
 5286.0000      .6168      .4050   -71.2858  -999.2500  -999.2500
 5286.5000      .6125      .4286   -66.9875  -999.2500  -999.2500
 5287.0000      .6255      .4449   -68.4546  -999.2500  -999.2500
 5287.5000      .6531      .4540   -69.8988  -999.2500  -999.2500
 5288.0000      .6842      .4664   -71.2877  -999.2500  -999.2500
 5288.5000      .7137      .4659   -71.6224  -999.2500  -999.2500
 5289.0000      .7336      .4545   -71.2711  -999.2500  -999.2500
 5289.5000      .7480      .4419   -74.5972  -999.2500  -999.2500
 5290.0000      .7571      .4280   -77.6969  -999.2500  -999.2500
 5290.5000      .7646      .4112   -80.4398  -999.2500  -999.2500
 5291.0000      .7692      .3995   -83.0374  -999.2500  -999.2500
 5291.5000      .7668      .3986   -84.9359  -999.2500  -999.2500
 5292.0000      .7546      .4026   -86.8380  -999.2500  -999.2500
 5292.5000      .7401      .4063   -91.3856  -999.2500  -999.2500
 5293.0000      .7417      .4083   -97.0811  -999.2500  -999.2500
 5293.5000      .7463      .3990  -101.7133  -999.2500  -999.2500
 5294.0000      .7529      .3783  -105.8009  -999.2500  -999.2500
 5294.5000      .7599      .3452  -106.6104  -999.2500  -999.2500
 5295.0000      .7668      .3055  -104.6971  -999.2500  -999.2500
 5295.5000      .7685      .2770  -102.3774  -999.2500  -999.2500
 5296.0000      .7685      .2548  -101.9580  -999.2500  -999.2500
 5296.5000      .7609      .2420  -104.0937  -999.2500  -999.2500
 5297.0000      .7292      .2366  -106.8274  -999.2500  -999.2500
 5297.5000      .6815      .2371  -110.1167  -999.2500  -999.2500
 5298.0000      .6363      .2446  -113.4906  -999.2500  -999.2500
 5298.5000      .5981      .2669  -114.7268  -999.2500  -999.2500
 5299.0000      .5701      .2891  -113.9265  -999.2500  -999.2500
 5299.5000      .5540      .3012  -111.3235  -999.2500  -999.2500
 5300.0000      .5656      .2904  -109.4875  -999.2500  -999.2500
 5300.5000      .6003      .2916  -103.6696  -999.2500  -999.2500
 5301.0000      .6230      .3070   -98.0432  -999.2500  -999.2500
 5301.5000      .6324      .3200   -91.5514  -999.2500  -999.2500
 5302.0000      .6328      .3317   -87.5010  -999.2500  -999.2500
 5302.5000      .6381      .3464   -84.4889  -999.2500  -999.2500
 5303.0000      .6524      .3553   -87.1659  -999.2500  -999.2500
 5303.5000      .6668      .3640   -91.9086  -999.2500  -999.2500
 5304.0000      .6748      .3860   -96.4561  -999.2500  -999.2500
 5304.5000      .6734      .4032   -96.9275  -999.2500  -999.2500
 5305.0000      .6689      .4204   -93.1678  -999.2500  -999.2500
 5305.5000      .6605      .4323   -89.1469  -999.2500  -999.2500
