~VERSION INFORMATION
VERS.                             2.0:   CWLS Log ASCII Standard-VERSION 2.0
WRAP.                              NO:   One line per depth step
~Well Information Block
STRT.F                      2500.0000:   Top Depth
STOP.F                     12867.0000:   Bottom Depth
STEP.F                         .50000:   Depth Increment
NULL.                        -999.250:   Null Value
FLD .                      GA BLK 255:   Field Name
WELL.       OCSG01777  A004 ST00 BP00:   NAME
API .                  42706400140000:   WELL API
EDF .F                        91.0000:   ELEV DRILL FLOOR
COMP.       COASTAL STATES GAS PROD C:   OPERATOR
BN  .                             255:   BLOCK
CTRY.                             USA:   COUNTRY NAME
CNTY.                              GA:   COUNTY
CNTY.                        GLVSTN L:   COUNTY NAME
EKB .F                        92.0000:   ELEV KELLY BUSHING
TDD .F                      12868.000:   FINAL TD DRILLER
STAT.                           TEXAS:   STATE NAME
UWI .                  42706400140000:   WELL API
DICO.               IHS : Digitizing Company
~PARAMETER INFORMATION (zones)
#MNEM.UNIT                       Value     Description
#=========                       =====     ===========
#ZONATION                           IE:   ZONATION NAME
#ZONE                            RUN_1:   ZONE NAME
TOP .                       2500.0000:   TOP DEPTH
BOT .                       8267.5000:   BOTTOM DEPTH
RUN .                               1:   RUN NUMBER
LCCD.                             440:   LOGGING CONTRACTOR
SRVC.                    Schlumberger:   LOGGING CONT NAME
DICO.          QC Data Collectors Ltd:   DIG COMPANY NAME
LDAT.                      05/23/1973:   DATE LOGGED
ELD .F                        92.0000:   LOG DATUM ELEVATION
TDD .F                      8274.0000:   TOTAL DEPTH DRILLER
TDL .F                      8268.0000:   TOTAL DEPTH LOGGER
BOTL.F                      8267.0000:   BOTTOM DEPTH LOGGED
TOPL.F                      2500.0000:   TOP DEPTH LOGGED
CS1 .IN                       13.3750:   CASING SIZE 1
BS1 .IN                       12.2500:   BIT SIZE 1
DDB1.F                      8274.0000:   DEPTH DRILLED BIT 1
BHF .                              99:   FLUID CODE
DPT .                   Miscellaneous:   DRILLING FLUID TYPE
MUDV.                         45.0000:   FLUID VISCOSITY
FL  .                          3.4000:   FLUID LOSS
RM  .OHMM                       .7100:   RM
RMT .DEGF                     82.0000:   RM TEMP
RMF .OHMM                       .4200:   RMF
RMFT.DEGF                     82.0000:   RMF TEMP
FSC .                               M:   RMF CODE
RMC .OHMM                      1.2500:   RMC
RMCT.DEGF                     82.0000:   RMC TEMP
CMC .                               M:   RMC CODE
TMAX.DEGF                     82.0000:   MAX REC TEMP
TIMC.                          6.0000:   TIME SINCE CIRCLN
MUDD.                            NULL:   FLUID DENSITY
DFPH.                            NULL:   FLUID PH
~PARAMETER INFORMATION (zones)
#MNEM.UNIT                       Value     Description
#=========                       =====     ===========
#ZONATION                           IE:   ZONATION NAME
#ZONE                            RUN_2:   ZONE NAME
TOP .                       8273.0000:   TOP DEPTH
BOT .                      12867.5000:   BOTTOM DEPTH
RUN .                               2:   RUN NUMBER
LCCD.                             440:   LOGGING CONTRACTOR
SRVC.                    Schlumberger:   LOGGING CONT NAME
DICO.          QC Data Collectors Ltd:   DIG COMPANY NAME
LDAT.                      06/12/1973:   DATE LOGGED
ELD .F                        92.0000:   LOG DATUM ELEVATION
TDD .F                     12865.0000:   TOTAL DEPTH DRILLER
TDL .F                     12868.0000:   TOTAL DEPTH LOGGER
BOTL.F                     12867.0000:   BOTTOM DEPTH LOGGED
TOPL.F                      8272.0000:   TOP DEPTH LOGGED
CS1 .IN                        9.6250:   CASING SIZE 1
BS1 .IN                        8.5000:   BIT SIZE 1
DDB1.F                     12865.0000:   DEPTH DRILLED BIT 1
BHF .                              11:   FLUID CODE
DPT .         Caustic (high PH) (CLS):   DRILLING FLUID TYPE
MUDV.                         44.0000:   FLUID VISCOSITY
FL  .                          2.6000:   FLUID LOSS
RM  .OHMM                       .9100:   RM
RMT .DEGF                     76.0000:   RM TEMP
RMF .OHMM                       .4600:   RMF
RMFT.DEGF                     78.0000:   RMF TEMP
FSC .                               M:   RMF CODE
RMC .OHMM                      1.3200:   RMC
RMCT.DEGF                     76.0000:   RMC TEMP
CMC .                               C:   RMC CODE
TMAX.DEGF                    248.0000:   MAX REC TEMP
TIMC.                          5.0000:   TIME SINCE CIRCLN
MUDD.                         16.3000:   FLUID DENSITY
DFPH.                         10.5000:   FLUID PH
~PARAMETER INFORMATION (zones)
#MNEM.UNIT                       Value     Description
#=========                       =====     ===========
#ZONATION                        SONIC:   ZONATION NAME
#ZONE                            RUN_1:   ZONE NAME
TOP .                       8272.0000:   TOP DEPTH
BOT .                      12860.5000:   BOTTOM DEPTH
RUN .                               1:   RUN NUMBER
LCCD.                             440:   LOGGING CONTRACTOR
SRVC.                    Schlumberger:   LOGGING CONT NAME
DICO.          QC Data Collectors Ltd:   DIG COMPANY NAME
LDAT.                      06/12/1973:   DATE LOGGED
ELD .F                        92.0000:   LOG DATUM ELEVATION
TDD .F                     12865.0000:   TOTAL DEPTH DRILLER
BOTL.F                     12860.0000:   BOTTOM DEPTH LOGGED
TOPL.F                      8272.0000:   TOP DEPTH LOGGED
CS1 .IN                        9.6250:   CASING SIZE 1
BS1 .IN                        8.5000:   BIT SIZE 1
DDB1.F                     12865.0000:   DEPTH DRILLED BIT 1
BHF .                              11:   FLUID CODE
DPT .         Caustic (high PH) (CLS):   DRILLING FLUID TYPE
MUDD.                         16.3000:   FLUID DENSITY
MUDV.                         44.0000:   FLUID VISCOSITY
DFPH.                         10.5000:   FLUID PH
FL  .                          2.6000:   FLUID LOSS
RM  .OHMM                       .9100:   RM
RMT .DEGF                     76.0000:   RM TEMP
RMF .OHMM                       .4600:   RMF
RMFT.DEGF                     78.0000:   RMF TEMP
FSC .                               M:   RMF CODE
RMC .OHMM                      1.3200:   RMC
RMCT.DEGF                     76.0000:   RMC TEMP
CMC .                               C:   RMC CODE
TMAX.DEGF                    248.0000:   MAX REC TEMP
TIMC.                         10.0000:   TIME SINCE CIRCLN
~Curve Information Block
#MNEM.UNIT                    API CODE    No Description
#=========                    ========    == ===========
DEPT.F                   00 001 00 00:     1  DEPTH
ASN.OHMM                             :     2  Short-Normal Resistivity
ILD.OHMM                             :     3  Deep Induction Resistivity
SP.MV                                :     4  Spontaneous Potential
CALI.IN                              :     5  Caliper
DT.US/F                              :     6  Sonic Transit Time
~ASCII
 2500.0000      .2812      .1748   -87.8845  -999.2500  -999.2500
 2500.5000      .5303      .3947   -85.5964  -999.2500  -999.2500
 2501.0000      .6171      .4602   -84.7368  -999.2500  -999.2500
 2501.5000      .6751      .4909   -84.2634  -999.2500  -999.2500
 2502.0000      .7101      .5052   -84.0055  -999.2500  -999.2500
 2502.5000      .7375      .5128   -83.9049  -999.2500  -999.2500
 2503.0000      .7567      .5170   -83.8044  -999.2500  -999.2500
 2503.5000      .7725      .5199   -83.6633  -999.2500  -999.2500
 2504.0000      .7859      .5163   -83.5530  -999.2500  -999.2500
 2504.5000      .8007      .5129   -83.2748  -999.2500  -999.2500
 2505.0000      .8150      .5106   -82.9547  -999.2500  -999.2500
 2505.5000      .8263      .5120   -82.6754  -999.2500  -999.2500
 2506.0000      .8348      .5203   -82.4094  -999.2500  -999.2500
 2506.5000      .8316      .5468   -82.1163  -999.2500  -999.2500
 2507.0000      .8295      .5862   -81.8885  -999.2500  -999.2500
 2507.5000      .8382      .5939   -81.6489  -999.2500  -999.2500
 2508.0000      .8494      .5857   -81.6619  -999.2500  -999.2500
 2508.5000      .8563      .5651   -81.7201  -999.2500  -999.2500
 2509.0000      .8593      .5550   -81.8347  -999.2500  -999.2500
 2509.5000      .8606      .5484   -82.0128  -999.2500  -999.2500
 2510.0000      .8618      .5475   -82.2335  -999.2500  -999.2500
 2510.5000      .8629      .5677   -82.5101  -999.2500  -999.2500
 2511.0000      .8638      .5952   -82.9916  -999.2500  -999.2500
 2511.5000      .8647      .6254   -83.3561  -999.2500  -999.2500
 2512.0000      .8657      .6623   -82.9667  -999.2500  -999.2500
 2512.5000      .8688      .6941   -82.3319  -999.2500  -999.2500
 2513.0000      .8727      .7223   -81.7177  -999.2500  -999.2500
 2513.5000      .8818      .7337   -81.3015  -999.2500  -999.2500
 2514.0000      .8988      .7432   -81.1796  -999.2500  -999.2500
 2514.5000      .9248      .7495   -81.2629  -999.2500  -999.2500
 2515.0000      .9552      .7454   -81.5863  -999.2500  -999.2500
 2515.5000      .9867      .7379   -82.1073  -999.2500  -999.2500
 2516.0000     1.0043      .7257   -82.7114  -999.2500  -999.2500
 2516.5000     1.0185      .7114   -83.2195  -999.2500  -999.2500
 2517.0000     1.0279      .6957   -83.0648  -999.2500  -999.2500
 2517.5000     1.0143      .6750   -82.7412  -999.2500  -999.2500
 2518.0000      .9902      .6598   -82.7234  -999.2500  -999.2500
 2518.5000      .9696      .6462   -82.9323  -999.2500  -999.2500
 2519.0000      .9526      .6336   -82.9708  -999.2500  -999.2500
 2519.5000      .9412      .6332   -82.8632  -999.2500  -999.2500
 2520.0000      .9407      .6347   -82.6069  -999.2500  -999.2500
 2520.5000      .9442      .6362   -82.5183  -999.2500  -999.2500
 2521.0000      .9446      .6361   -82.4760  -999.2500  -999.2500
 2521.5000      .9411      .6338   -82.3995  -999.2500  -999.2500
 2522.0000      .9341      .6156   -82.2548  -999.2500  -999.2500
 2522.5000      .9289      .5988   -82.2048  -999.2500  -999.2500
 2523.0000      .9267      .5835   -82.0634  -999.2500  -999.2500
 2523.5000      .9253      .5755   -82.1582  -999.2500  -999.2500
 2524.0000      .9235      .5711   -82.3429  -999.2500  -999.2500
 2524.5000      .9191      .5701   -82.5200  -999.2500  -999.2500
 2525.0000      .9125      .5645   -82.4347  -999.2500  -999.2500
 2525.5000      .9100      .5584   -82.2263  -999.2500  -999.2500
 2526.0000      .9098      .5553   -82.0125  -999.2500  -999.2500
 2526.5000      .9082      .5570   -81.6857  -999.2500  -999.2500
 2527.0000      .9041      .5782   -81.3198  -999.2500  -999.2500
 2527.5000      .8956      .6020   -80.9219  -999.2500  -999.2500
 2528.0000      .8851      .6227   -81.0508  -999.2500  -999.2500
 2528.5000      .8775      .6386   -81.2572  -999.2500  -999.2500
 2529.0000      .8772      .6485   -81.4580  -999.2500  -999.2500
 2529.5000      .8817      .6541   -81.6179  -999.2500  -999.2500
 2530.0000      .8833      .6580   -81.7122  -999.2500  -999.2500
 2530.5000      .8754      .6648   -81.6389  -999.2500  -999.2500
 2531.0000      .8699      .6676   -81.4742  -999.2500  -999.2500
 2531.5000      .8683      .6666   -81.3115  -999.2500  -999.2500
 2532.0000      .8686      .6585   -81.1620  -999.2500  -999.2500
 2532.5000      .8710      .6506   -81.0093  -999.2500  -999.2500
 2533.0000      .8639      .6507   -80.8563  -999.2500  -999.2500
 2533.5000      .8488      .6487   -80.5043  -999.2500  -999.2500
 2534.0000      .8310      .6481   -80.2588  -999.2500  -999.2500
 2534.5000      .8241      .6681   -80.1228  -999.2500  -999.2500
 2535.0000      .8257      .6964   -80.1943  -999.2500  -999.2500
 2535.5000      .8299      .7144   -80.3350  -999.2500  -999.2500
 2536.0000      .8341      .7318   -80.2811  -999.2500  -999.2500
 2536.5000      .8388      .7469   -80.1807  -999.2500  -999.2500
 2537.0000      .8407      .7620   -80.0570  -999.2500  -999.2500
 2537.5000      .8414      .7763   -79.9407  -999.2500  -999.2500
 2538.0000      .8506      .7896   -79.9596  -999.2500  -999.2500
 2538.5000      .8657      .8008   -80.0093  -999.2500  -999.2500
 2539.0000      .8772      .8072   -80.0565  -999.2500  -999.2500
 2539.5000      .8823      .8123   -79.9703  -999.2500  -999.2500
 2540.0000      .8860      .8113   -79.8972  -999.2500  -999.2500
 2540.5000      .8910      .8104   -79.8893  -999.2500  -999.2500
 2541.0000      .8969      .7883   -79.9902  -999.2500  -999.2500
 2541.5000      .9030      .7607   -80.1010  -999.2500  -999.2500
 2542.0000      .9043      .7352   -80.2612  -999.2500  -999.2500
 2542.5000      .8960      .7187   -80.4382  -999.2500  -999.2500
 2543.0000      .8989      .7058   -80.5033  -999.2500  -999.2500
 2543.5000      .8997      .6960   -80.5222  -999.2500  -999.2500
 2544.0000      .8949      .6903   -80.4294  -999.2500  -999.2500
 2544.5000      .8857      .6945   -80.2633  -999.2500  -999.2500
 2545.0000      .8769      .7014   -79.9182  -999.2500  -999.2500
 2545.5000      .8693      .7149   -79.4006  -999.2500  -999.2500
 2546.0000      .8635      .7301   -78.9951  -999.2500  -999.2500
 2546.5000      .8686      .7498   -78.7209  -999.2500  -999.2500
 2547.0000      .8850      .7726   -78.5925  -999.2500  -999.2500
 2547.5000      .9056      .7926   -78.5590  -999.2500  -999.2500
 2548.0000      .9241      .8102   -78.6227  -999.2500  -999.2500
 2548.5000      .9395      .8209   -78.7700  -999.2500  -999.2500
 2549.0000      .9516      .8283   -78.9657  -999.2500  -999.2500
 2549.5000      .9589      .8311   -79.1825  -999.2500  -999.2500
 2550.0000      .9624      .8248   -79.3655  -999.2500  -999.2500
 2550.5000      .9598      .8126   -79.4927  -999.2500  -999.2500
 2551.0000      .9571      .7976   -79.5532  -999.2500  -999.2500
 2551.5000      .9551      .7800   -79.4817  -999.2500  -999.2500
 2552.0000      .9480      .7625   -79.2821  -999.2500  -999.2500
 2552.5000      .9252      .7455   -78.9407  -999.2500  -999.2500
 2553.0000      .9004      .7290   -78.5208  -999.2500  -999.2500
 2553.5000      .8765      .7147   -78.0957  -999.2500  -999.2500
 2554.0000      .8541      .7029   -77.7570  -999.2500  -999.2500
 2554.5000      .8332      .6952   -77.5757  -999.2500  -999.2500
 2555.0000      .8164      .6906   -77.5886  -999.2500  -999.2500
 2555.5000      .8083      .6877   -77.6647  -999.2500  -999.2500
 2556.0000      .8132      .6888   -77.7616  -999.2500  -999.2500
 2556.5000      .8229      .6914   -77.8674  -999.2500  -999.2500
 2557.0000      .8279      .6923   -77.9374  -999.2500  -999.2500
 2557.5000      .8306      .6914   -78.0074  -999.2500  -999.2500
 2558.0000      .8313      .6905   -78.0164  -999.2500  -999.2500
 2558.5000      .8303      .6840   -77.8589  -999.2500  -999.2500
 2559.0000      .8285      .6766   -77.5779  -999.2500  -999.2500
 2559.5000      .8201      .6700   -77.2065  -999.2500  -999.2500
 2560.0000      .8114      .6635   -76.4999  -999.2500  -999.2500
 2560.5000      .8018      .6586   -76.5969  -999.2500  -999.2500
