~VERSION INFORMATION
VERS.                             2.0:   CWLS Log ASCII Standard-VERSION 2.0
WRAP.                              NO:   One line per depth step
~Well Information Block
STRT.F                      2500.0000:   Top Depth
STOP.F                     12867.0000:   Bottom Depth
STEP.F                         .50000:   Depth Increment
NULL.                        -999.250:   Null Value
FLD .                      GA BLK 255:   Field Name
WELL.       OCSG01777  A004 ST00 BP00:   NAME
API .                  42706400140000:   WELL API
EDF .F                        91.0000:   ELEV DRILL FLOOR
COMP.       COASTAL STATES GAS PROD C:   OPERATOR
BN  .                             255:   BLOCK
CTRY.                             USA:   COUNTRY NAME
CNTY.                              GA:   COUNTY
CNTY.                        GLVSTN L:   COUNTY NAME
EKB .F                        92.0000:   ELEV KELLY BUSHING
TDD .F                      12868.000:   FINAL TD DRILLER
STAT.                           TEXAS:   STATE NAME
UWI .                  42706400140000:   WELL API
DICO.               IHS : Digitizing Company
~PARAMETER INFORMATION (zones)
#MNEM.UNIT                       Value     Description
#=========                       =====     ===========
#ZONATION                           IE:   ZONATION NAME
#ZONE                            RUN_1:   ZONE NAME
TOP .                       2500.0000:   TOP DEPTH
BOT .                       8267.5000:   BOTTOM DEPTH
RUN .                               1:   RUN NUMBER
LCCD.                             440:   LOGGING CONTRACTOR
SRVC.                    Schlumberger:   LOGGING CONT NAME
DICO.          QC Data Collectors Ltd:   DIG COMPANY NAME
LDAT.                      05/23/1973:   DATE LOGGED
ELD .F                        92.0000:   LOG DATUM ELEVATION
TDD .F                      8274.0000:   TOTAL DEPTH DRILLER
TDL .F                      8268.0000:   TOTAL DEPTH LOGGER
BOTL.F                      8267.0000:   BOTTOM DEPTH LOGGED
TOPL.F                      2500.0000:   TOP DEPTH LOGGED
CS1 .IN                       13.3750:   CASING SIZE 1
BS1 .IN                       12.2500:   BIT SIZE 1
DDB1.F                      8274.0000:   DEPTH DRILLED BIT 1
BHF .                              99:   FLUID CODE
DPT .                   Miscellaneous:   DRILLING FLUID TYPE
MUDV.                         45.0000:   FLUID VISCOSITY
FL  .                          3.4000:   FLUID LOSS
RM  .OHMM                       .7100:   RM
RMT .DEGF                     82.0000:   RM TEMP
RMF .OHMM                       .4200:   RMF
RMFT.DEGF                     82.0000:   RMF TEMP
FSC .                               M:   RMF CODE
RMC .OHMM                      1.2500:   RMC
RMCT.DEGF                     82.0000:   RMC TEMP
CMC .                               M:   RMC CODE
TMAX.DEGF                     82.0000:   MAX REC TEMP
TIMC.                          6.0000:   TIME SINCE CIRCLN
MUDD.                            NULL:   FLUID DENSITY
DFPH.                            NULL:   FLUID PH
~PARAMETER INFORMATION (zones)
#MNEM.UNIT                       Value     Description
#=========                       =====     ===========
#ZONATION                           IE:   ZONATION NAME
#ZONE                            RUN_2:   ZONE NAME
TOP .                       8273.0000:   TOP DEPTH
BOT .                      12867.5000:   BOTTOM DEPTH
RUN .                               2:   RUN NUMBER
LCCD.                             440:   LOGGING CONTRACTOR
SRVC.                    Schlumberger:   LOGGING CONT NAME
DICO.          QC Data Collectors Ltd:   DIG COMPANY NAME
LDAT.                      06/12/1973:   DATE LOGGED
ELD .F                        92.0000:   LOG DATUM ELEVATION
TDD .F                     12865.0000:   TOTAL DEPTH DRILLER
TDL .F                     12868.0000:   TOTAL DEPTH LOGGER
BOTL.F                     12867.0000:   BOTTOM DEPTH LOGGED
TOPL.F                      8272.0000:   TOP DEPTH LOGGED
CS1 .IN                        9.6250:   CASING SIZE 1
BS1 .IN                        8.5000:   BIT SIZE 1
DDB1.F                     12865.0000:   DEPTH DRILLED BIT 1
BHF .                              11:   FLUID CODE
DPT .         Caustic (high PH) (CLS):   DRILLING FLUID TYPE
MUDV.                         44.0000:   FLUID VISCOSITY
FL  .                          2.6000:   FLUID LOSS
RM  .OHMM                       .9100:   RM
RMT .DEGF                     76.0000:   RM TEMP
RMF .OHMM                       .4600:   RMF
RMFT.DEGF                     78.0000:   RMF TEMP
FSC .                               M:   RMF CODE
RMC .OHMM                      1.3200:   RMC
RMCT.DEGF                     76.0000:   RMC TEMP
CMC .                               C:   RMC CODE
TMAX.DEGF                    248.0000:   MAX REC TEMP
TIMC.                          5.0000:   TIME SINCE CIRCLN
MUDD.                         16.3000:   FLUID DENSITY
DFPH.                         10.5000:   FLUID PH
~PARAMETER INFORMATION (zones)
#MNEM.UNIT                       Value     Description
#=========                       =====     ===========
#ZONATION                        SONIC:   ZONATION NAME
#ZONE                            RUN_1:   ZONE NAME
TOP .                       8272.0000:   TOP DEPTH
BOT .                      12860.5000:   BOTTOM DEPTH
RUN .                               1:   RUN NUMBER
LCCD.                             440:   LOGGING CONTRACTOR
SRVC.                    Schlumberger:   LOGGING CONT NAME
DICO.          QC Data Collectors Ltd:   DIG COMPANY NAME
LDAT.                      06/12/1973:   DATE LOGGED
ELD .F                        92.0000:   LOG DATUM ELEVATION
TDD .F                     12865.0000:   TOTAL DEPTH DRILLER
BOTL.F                     12860.0000:   BOTTOM DEPTH LOGGED
TOPL.F                      8272.0000:   TOP DEPTH LOGGED
CS1 .IN                        9.6250:   CASING SIZE 1
BS1 .IN                        8.5000:   BIT SIZE 1
DDB1.F                     12865.0000:   DEPTH DRILLED BIT 1
BHF .                              11:   FLUID CODE
DPT .         Caustic (high PH) (CLS):   DRILLING FLUID TYPE
MUDD.                         16.3000:   FLUID DENSITY
MUDV.                         44.0000:   FLUID VISCOSITY
DFPH.                         10.5000:   FLUID PH
FL  .                          2.6000:   FLUID LOSS
RM  .OHMM                       .9100:   RM
RMT .DEGF                     76.0000:   RM TEMP
RMF .OHMM                       .4600:   RMF
RMFT.DEGF                     78.0000:   RMF TEMP
FSC .                               M:   RMF CODE
RMC .OHMM                      1.3200:   RMC
RMCT.DEGF                     76.0000:   RMC TEMP
CMC .                               C:   RMC CODE
TMAX.DEGF                    248.0000:   MAX REC TEMP
TIMC.                         10.0000:   TIME SINCE CIRCLN
~Curve Information Block
#MNEM.UNIT                    API CODE    No Description
#=========                    ========    == ===========
DEPT.F                   00 001 00 00:     1  DEPTH
ASN.OHMM                             :     2  Short-Normal Resistivity
ILD.OHMM                             :     3  Deep Induction Resistivity
SP.MV                                :     4  Spontaneous Potential
CALI.IN                              :     5  Caliper
DT.US/F                              :     6  Sonic Transit Time
~ASCII
# ...
 5916.0000     1.1749      .4313  -102.9624  -999.2500  -999.2500
 5916.5000     1.2432      .4087  -102.2611  -999.2500  -999.2500
 5917.0000     1.2712      .3944  -100.5692  -999.2500  -999.2500
 5917.5000     1.2594      .3792   -98.5900  -999.2500  -999.2500
 5918.0000     1.1861      .3612  -101.0552  -999.2500  -999.2500
 5918.5000     1.1126      .3480  -103.8206  -999.2500  -999.2500
 5919.0000      .9995      .3463  -105.4832  -999.2500  -999.2500
 5919.5000      .9500      .3545  -106.4019  -999.2500  -999.2500
 5920.0000      .9224      .3688  -107.0269  -999.2500  -999.2500
 5920.5000      .9125      .3861  -107.2133  -999.2500  -999.2500
 5921.0000      .9074      .4152  -106.8966  -999.2500  -999.2500
 5921.5000      .8971      .4360  -106.2103  -999.2500  -999.2500
 5922.0000      .8826      .4118  -104.6786  -999.2500  -999.2500
 5922.5000      .8824      .3828  -101.9574  -999.2500  -999.2500
 5923.0000      .8900      .3506   -98.0211  -999.2500  -999.2500
 5923.5000      .8866      .3177   -95.3348  -999.2500  -999.2500
 5924.0000      .8817      .2844   -97.0342  -999.2500  -999.2500
 5924.5000      .8831      .2474  -102.1526  -999.2500  -999.2500
 5925.0000      .8812      .2185  -106.3060  -999.2500  -999.2500
 5925.5000      .8628      .1967  -110.6217  -999.2500  -999.2500
 5926.0000      .8159      .1807  -113.7700  -999.2500  -999.2500
 5926.5000      .7599      .1748  -116.0990  -999.2500  -999.2500
 5927.0000      .7262      .1891  -117.5020  -999.2500  -999.2500
 5927.5000      .7105      .2100  -118.3544  -999.2500  -999.2500
 5928.0000      .7176      .2461  -118.8285  -999.2500  -999.2500
 5928.5000      .7445      .2966  -119.1971  -999.2500  -999.2500
 5929.0000      .7873      .3465  -119.2335  -999.2500  -999.2500
 5929.5000      .8864      .3990  -118.9219  -999.2500  -999.2500
 5930.0000     1.0103      .4686  -118.5049  -999.2500  -999.2500
 5930.5000     1.1934      .4857  -117.9871  -999.2500  -999.2500
 5931.0000     1.3177      .4691  -117.2166  -999.2500  -999.2500
 5931.5000     1.4339      .4408  -116.3254  -999.2500  -999.2500
 5932.0000     1.5105      .3958  -115.3984  -999.2500  -999.2500
 5932.5000     1.5551      .3444  -114.5948  -999.2500  -999.2500
 5933.0000     1.5472      .3041  -113.9614  -999.2500  -999.2500
 5933.5000     1.5049      .2756  -113.5684  -999.2500  -999.2500
 5934.0000     1.4155      .2829  -113.8528  -999.2500  -999.2500
 5934.5000     1.2667      .2994  -114.1860  -999.2500  -999.2500
 5935.0000     1.1345      .3226  -114.3872  -999.2500  -999.2500
 5935.5000     1.0706      .3500  -114.3617  -999.2500  -999.2500
 5936.0000     1.0021      .3912  -114.0471  -999.2500  -999.2500
 5936.5000      .9802      .4404  -113.5135  -999.2500  -999.2500
 5937.0000      .9717      .4714  -112.5088  -999.2500  -999.2500
 5937.5000      .9623      .4764  -110.0031  -999.2500  -999.2500
 5938.0000      .9586      .4553  -106.2397  -999.2500  -999.2500
 5938.5000      .9650      .4229  -101.5966  -999.2500  -999.2500
 5939.0000      .9700      .3872   -97.3251  -999.2500  -999.2500
 5939.5000      .9338      .3467   -93.5988  -999.2500  -999.2500
 5940.0000      .8777      .3043   -90.4329  -999.2500  -999.2500
 5940.5000      .8360      .2630   -90.7781  -999.2500  -999.2500
 5941.0000      .8006      .2286   -94.7218  -999.2500  -999.2500
 5941.5000      .7747      .2079   -99.4277  -999.2500  -999.2500
 5942.0000      .7565      .2043  -104.1372  -999.2500  -999.2500
 5942.5000      .7422      .2098  -108.8431  -999.2500  -999.2500
 5943.0000      .7258      .2190  -113.1072  -999.2500  -999.2500
 5943.5000      .7102      .2299  -116.3346  -999.2500  -999.2500
 5944.0000      .7029      .2451  -117.8191  -999.2500  -999.2500
 5944.5000      .7108      .2591  -118.0601  -999.2500  -999.2500
 5945.0000      .7299      .2669  -117.7955  -999.2500  -999.2500
 5945.5000      .7688      .2721  -117.3639  -999.2500  -999.2500
 5946.0000      .8117      .2761  -116.8516  -999.2500  -999.2500
 5946.5000      .8546      .2742  -116.3499  -999.2500  -999.2500
 5947.0000      .8789      .2707  -115.9121  -999.2500  -999.2500
 5947.5000      .8554      .2653  -115.6831  -999.2500  -999.2500
 5948.0000      .8063      .2596  -115.9802  -999.2500  -999.2500
 5948.5000      .7370      .2537  -116.2278  -999.2500  -999.2500
 5949.0000      .6462      .2471  -116.2118  -999.2500  -999.2500
 5949.5000      .6037      .2345  -115.8209  -999.2500  -999.2500
 5950.0000      .5685      .2199  -114.9602  -999.2500  -999.2500
 5950.5000      .5530      .2073  -114.6703  -999.2500  -999.2500
 5951.0000      .5407      .2037  -115.9075  -999.2500  -999.2500
 5951.5000      .5223      .2006  -117.5922  -999.2500  -999.2500
 5952.0000      .5085      .2008  -119.0493  -999.2500  -999.2500
 5952.5000      .4957      .2009  -120.2617  -999.2500  -999.2500
 5953.0000      .4837      .1979  -121.2762  -999.2500  -999.2500
 5953.5000      .4720      .1934  -122.2069  -999.2500  -999.2500
 5954.0000      .4562      .1936  -122.9866  -999.2500  -999.2500
 5954.5000      .4375      .1930  -123.3868  -999.2500  -999.2500
 5955.0000      .4173      .1911  -123.0897  -999.2500  -999.2500
 5955.5000      .3979      .1868  -122.8622  -999.2500  -999.2500
 5956.0000      .3839      .1797  -122.7615  -999.2500  -999.2500
 5956.5000      .3793      .1770  -123.0902  -999.2500  -999.2500
 5957.0000      .3914      .1752  -123.8132  -999.2500  -999.2500
 5957.5000      .4054      .1772  -124.6531  -999.2500  -999.2500
 5958.0000      .4174      .1791  -124.3651  -999.2500  -999.2500
 5958.5000      .4284      .1793  -123.8708  -999.2500  -999.2500
 5959.0000      .4382      .1809  -123.4745  -999.2500  -999.2500
 5959.5000      .4420      .1834  -123.5785  -999.2500  -999.2500
 5960.0000      .4324      .1879  -124.1479  -999.2500  -999.2500
 5960.5000      .4173      .1929  -124.4463  -999.2500  -999.2500
 5961.0000      .4006      .1994  -124.5016  -999.2500  -999.2500
 5961.5000      .3848      .2030  -124.5446  -999.2500  -999.2500
 5962.0000      .3803      .2009  -124.5389  -999.2500  -999.2500
 5962.5000      .3818      .2017  -124.4218  -999.2500  -999.2500
 5963.0000      .3877      .2051  -124.2156  -999.2500  -999.2500
 5963.5000      .3975      .2131  -123.9445  -999.2500  -999.2500
 5964.0000      .4081      .2259  -123.4501  -999.2500  -999.2500
 5964.5000      .4164      .2424  -122.2538  -999.2500  -999.2500
 5965.0000      .4119      .2636  -118.6268  -999.2500  -999.2500
 5965.5000      .4027      .2908  -114.3260  -999.2500  -999.2500
 5966.0000      .3990      .3218  -110.0251  -999.2500  -999.2500
 5966.5000      .4079      .3519  -105.7206  -999.2500  -999.2500
 5967.0000      .4286      .3761  -101.4198  -999.2500  -999.2500
 5967.5000      .4529      .3907   -97.1152  -999.2500  -999.2500
 5968.0000      .4839      .4013   -92.8143  -999.2500  -999.2500
 5968.5000      .5421      .3941   -88.5099  -999.2500  -999.2500
 5969.0000      .5783      .3790   -84.3085  -999.2500  -999.2500
 5969.5000      .6023      .3488   -80.8987  -999.2500  -999.2500
 5970.0000      .6152      .3268   -80.9171  -999.2500  -999.2500
 5970.5000      .6219      .3077   -81.6655  -999.2500  -999.2500
 5971.0000      .6264      .2826   -82.6671  -999.2500  -999.2500
 5971.5000      .6293      .2676   -85.0190  -999.2500  -999.2500
 5972.0000      .6301      .2744   -89.1063  -999.2500  -999.2500
 5972.5000      .6274      .2844   -93.4403  -999.2500  -999.2500
 5973.0000      .6081      .2991   -98.2936  -999.2500  -999.2500
 5973.5000      .5922      .3163  -103.7690  -999.2500  -999.2500
 5974.0000      .5878      .3340  -100.7201  -999.2500  -999.2500
 5974.5000      .5995      .3427   -96.9642  -999.2500  -999.2500
 5975.0000      .6098      .3396   -93.2084  -999.2500  -999.2500
 5975.5000      .6192      .3338   -89.4525  -999.2500  -999.2500
 5976.0000      .6187      .3339   -85.6967  -999.2500  -999.2500
 5976.5000      .6116      .3324   -82.9662  -999.2500  -999.2500
