~VERSION INFORMATION
VERS.                             2.0:   CWLS Log ASCII Standard-VERSION 2.0
WRAP.                              NO:   One line per depth step
~Well Information Block
STRT.F                      3576.0000:   Top Depth
STOP.F                      7908.0000:   Bottom Depth
STEP.F                         .50000:   Depth Increment
NULL.                        -999.250:   Null Value
FLD .                      BA BLK 431:   Field Name
WELL.       OCSG09017   001 ST00 BP00:   NAME
API .                  42704401710000:   WELL API
EDF .F                        80.0000:   ELEV DRILL FLOOR
COMP.        WOLVERINE EXPLORATION CO:   OPERATOR
BN  .                             431:   BLOCK
CTRY.                             USA:   COUNTRY NAME
CNTY.                        BRAZOS L:   COUNTY NAME
EKB .F                        81.0000:   ELEV KELLY BUSHING
TDD .F                       7953.000:   FINAL TD DRILLER
STAT.                           TEXAS:   STATE NAME
UWI .                  42704401710000:   WELL API
DICO.               IHS : Digitizing Company
~PARAMETER INFORMATION (zones)
#MNEM.UNIT                       Value     Description
#=========                       =====     ===========
#ZONATION                          DIL:   ZONATION NAME
#ZONE                            RUN_1:   ZONE NAME
TOP .                       3576.0000:   TOP DEPTH
BOT .                       7908.5000:   BOTTOM DEPTH
RUN .                               1:   RUN NUMBER
LCCD.                             440:   LOGGING CONTRACTOR
SRVC.                    Schlumberger:   LOGGING CONT NAME
DICO.          QC Data Collectors Ltd:   DIG COMPANY NAME
LDAT.                      05/13/1988:   DATE LOGGED
ELD .F                        81.0000:   LOG DATUM ELEVATION
TDD .F                      7953.0000:   TOTAL DEPTH DRILLER
TDL .F                      7911.0000:   TOTAL DEPTH LOGGER
BOTL.F                      7908.0000:   BOTTOM DEPTH LOGGED
TOPL.F                      3608.0000:   TOP DEPTH LOGGED
CS1 .IN                       10.7500:   CASING SIZE 1
BS1 .IN                        9.8750:   BIT SIZE 1
DDB1.F                      7953.0000:   DEPTH DRILLED BIT 1
BHF .                              99:   FLUID CODE
DPT .                   Miscellaneous:   DRILLING FLUID TYPE
MUDD.                         10.0000:   FLUID DENSITY
MUDV.                         43.0000:   FLUID VISCOSITY
DFPH.                         11.3000:   FLUID PH
FL  .                          6.2000:   FLUID LOSS
RM  .OHMM                       .7340:   RM
RMT .DEGF                     73.0000:   RM TEMP
RMF .OHMM                       .5760:   RMF
RMFT.DEGF                     73.0000:   RMF TEMP
FSC .                               M:   RMF CODE
RMC .OHMM                       .8300:   RMC
RMCT.DEGF                     73.0000:   RMC TEMP
CMC .                               M:   RMC CODE
TMAX.DEGF                    164.0000:   MAX REC TEMP
TIMC.                          5.0000:   TIME SINCE CIRCLN
~Curve Information Block
#MNEM.UNIT                    API CODE    No Description
#=========                    ========    == ===========
DEPT.F                   00 001 00 00:     1  DEPTH
DCAL.IN                              :     2  Differential Caliper
DT.US/F                              :     3  Sonic Transit Time
GR.GAPI                              :     4  Gamma Ray
ILD.OHMM                             :     5  Deep Induction Resistivity
ILM.OHMM                             :     6  Medium Induction Resistivity
SFL.OHMM                             :     7  Medium Resistivity
SP.MV                                :     8  Spontaneous Potential
~ASCII
# ...
 6442.5000      .8580    95.3810    61.2333      .7406      .7438     1.3919   -63.6859
 6443.0000      .8533    96.5068    59.1983      .7595      .7606     1.2664   -61.3053
 6443.5000      .8505    97.1283    59.7383      .7841      .8085     1.1582   -58.1147
 6444.0000      .8493    95.7493    63.4802      .8429      .8628     1.1079   -54.5228
 6444.5000      .8482    93.3881    66.4119      .9013      .9127     1.0873   -50.8862
 6445.0000      .8472    90.7432    65.8409      .9402      .9621     1.1013   -49.2885
 6445.5000      .8373    89.1471    64.0870      .9520     1.0122     1.1800   -49.1590
 6446.0000      .8209    91.1014    62.6849      .9460     1.0090     1.3424   -50.0539
 6446.5000      .8046    94.8013    62.7927      .9340      .9625     1.5364   -50.5156
 6447.0000      .7822    98.5582    63.9731      .9180      .9209     1.3942   -50.3047
 6447.5000      .7571   100.6632    65.9077      .8993      .8881     1.1253   -49.7207
 6448.0000      .7319   101.9980    67.8549      .8746      .8655      .9895   -49.1255
 6448.5000      .7060   102.6471    69.7202      .8498      .8402      .9498   -49.1689
 6449.0000      .6800   102.7628    71.2697      .8254      .8156      .9601   -49.9263
 6449.5000      .6535   101.8761    69.9060      .8078      .7983      .9423   -51.8573
 6450.0000      .6269    99.4391    64.8995      .7979      .8166      .9716   -54.1288
 6450.5000      .6009    96.9460    59.8214      .7948      .8449     1.1524   -55.8802
 6451.0000      .5930    95.3263    56.5985      .7946      .8678     1.4177   -56.9232
 6451.5000      .5956    94.7921    57.8346      .7951      .8657     1.6366   -57.5759
 6452.0000      .6079    95.6074    61.4860      .7850      .8623     1.5016   -57.0792
 6452.5000      .6264    97.5431    64.7335      .7679      .8176     1.3118   -55.7886
 6453.0000      .6536    99.4938    66.1469      .7513      .7742     1.1284   -54.4645
 6453.5000      .6772   100.5736    66.9469      .7361      .7571      .9828   -55.9224
 6454.0000      .7007    99.0186    60.9410      .7315      .7468      .8994   -60.9486
 6454.5000      .7293    94.2489    55.3871      .7372      .7422      .9462   -66.0664
 6455.0000      .7609    87.7450    52.7266      .7530      .7506     1.1640   -69.0167
 6455.5000      .7917    86.2422    52.0306      .7724      .7652     1.3791   -68.4891
 6456.0000      .8128    90.8054    54.5598      .7946      .7853     1.4837   -62.7520
 6456.5000      .8239    96.8365    59.0385      .8161      .8084     1.2884   -57.0297
 6457.0000      .8306   105.2861    66.7872      .8360      .8355     1.1234   -51.8573
 6457.5000      .8290   108.2743    70.6095      .8796      .8660     1.0094   -47.8244
 6458.0000      .8318   107.1683    72.2061      .8846      .8754      .9548   -45.5355
 6458.5000      .8392   106.2955    72.9913      .8835      .8792      .9402   -44.5892
 6459.0000      .8356   106.6819    73.7784      .8805      .8841      .9436   -44.2743
 6459.5000      .8367   107.3307    74.7290      .8785      .8877      .9620   -43.9943
 6460.0000      .8352   107.7010    75.5082      .8779      .8880      .9724   -43.8511
 6460.5000      .8296   107.5839    75.7850      .8751      .8867      .9649   -43.8502
 6461.0000      .8230   106.0798    75.6444      .8772      .9061      .9552   -43.9461
 6461.5000      .8157   103.2358    75.2109      .9126      .9294      .9665   -44.1272
 6462.0000      .8082   100.7255    75.1447      .9686      .9630     1.0581   -44.3523
 6462.5000      .8011    98.8519    75.8544     1.0156     1.0004     1.1627   -44.6307
 6463.0000      .7947    96.8987    77.7091     1.0505     1.0550     1.2504   -44.8073
 6463.5000      .7875    95.6746    74.1643     1.1015     1.1130     1.3142   -44.8577
 6464.0000      .7798    94.5748    67.4313     1.1717     1.1755     1.3545   -44.6362
 6464.5000      .7754    93.8098    62.6441     1.2465     1.2404     1.3848   -43.8881
 6465.0000      .7804    93.0951    64.0548     1.3403     1.2935     1.4039   -42.7585
 6465.5000      .7874    92.0593    66.2720     1.4129     1.3432     1.4297   -41.4147
 6466.0000      .7862    90.6163    68.2327     1.4577     1.3986     1.5181   -40.9331
 6466.5000      .7759    90.7781    68.5039     1.4164     1.3847     1.6714   -40.8729
 6467.0000      .7364    93.6145    66.8119     1.3498     1.3279     1.7843   -40.8636
 6467.5000      .6953    98.2896    67.3866     1.2871     1.2554     1.7268   -40.9636
 6468.0000      .6575   103.9226    72.0785     1.2151     1.1723     1.4975   -41.1805
 6468.5000      .6504   106.0676    76.3715     1.1416     1.0903     1.2490   -41.2216
 6469.0000      .6432   105.4963    78.9576     1.0672     1.0086     1.0552   -41.0641
 6469.5000      .6357   104.3480    78.3866      .9975      .9597      .9888   -40.7465
 6470.0000      .6301   103.1687    75.8884      .9454      .9404     1.0729   -40.4696
 6470.5000      .6431   102.4559    72.6333      .9180      .9301     1.1530   -40.2244
 6471.0000      .6560   102.1262    69.9703      .9057      .9243     1.1236   -40.2047
 6471.5000      .6609   102.4174    68.3949      .9008      .9190     1.1066   -40.3622
 6472.0000      .6629   103.8728    68.3875      .9013      .9185     1.1005   -40.5057
 6472.5000      .6621   105.4130    70.0323      .9009      .9185     1.1151   -40.6147
 6473.0000      .6613   106.6558    71.8655      .9007      .9172     1.1111   -40.6759
 6473.5000      .6697   107.6267    72.8922      .9001      .9110     1.0810   -40.6349
 6474.0000      .6824   108.3782    73.1744      .8937      .8998     1.0438   -40.5108
 6474.5000      .6957   108.6030    73.0891      .8907      .8862     1.0172   -40.3325
 6475.0000      .7081   108.0503    72.7356      .8868      .8745     1.0095   -40.1460
 6475.5000      .7205   107.2318    72.5829      .8820      .8637     1.0168   -40.2169
 6476.0000      .7321   107.2766    73.0409      .8737      .8538     1.0361   -40.4838
 6476.5000      .7313   108.8466    73.1556      .8654      .8458     1.0760   -40.7374
 6477.0000      .7306   110.5111    73.2700      .8577      .8403     1.1093   -40.8166
 6477.5000      .7296   111.8484    74.1333      .8500      .8339     1.0284   -40.8582
 6478.0000      .7285   111.5610    76.3195      .8422      .8320      .9418   -40.9854
 6478.5000      .7295   109.9562    77.5184      .8433      .8335      .8895   -41.8643
 6479.0000      .7321   106.5201    75.6481      .8549      .8399      .8854   -43.3456
 6479.5000      .7304   101.8575    73.4657      .8680      .8509      .9135   -45.1144
 6480.0000      .7240    98.4041    70.0818      .8812      .8576      .9946   -47.8690
 6480.5000      .7165    95.1346    67.1240      .9052      .8688     1.0968   -52.7838
 6481.0000      .7084    92.3306    64.9392      .9536      .8897     1.2582   -56.3038
 6481.5000      .6994    90.2157    63.9124      .9975      .9179     1.4890   -57.6069
 6482.0000      .6820    90.2382    63.4662     1.0346      .9443     1.5981   -57.7784
 6482.5000      .6522    93.7015    63.1940     1.0610      .9624     1.6911   -56.0016
 6483.0000      .6342    98.8767    64.7361     1.0643      .9754     1.8145   -52.9200
 6483.5000      .6229   105.7539    70.0372     1.0658      .9629     1.7129   -49.9498
 6484.0000      .6163   110.7599    76.1807     1.0471      .9217     1.3575   -47.8195
 6484.5000      .6177   112.0195    83.7312      .9805      .8747     1.0118   -46.8633
 6485.0000      .6203   111.8705    86.7373      .9030      .8204      .7867   -47.7427
 6485.5000      .6263   111.3414    85.2919      .7996      .7815      .7505   -50.6237
 6486.0000      .6327   110.6299    80.0303      .7165      .7328      .7651   -55.6573
 6486.5000      .6310   109.5034    73.6342      .6232      .6693      .7073   -62.8659
 6487.0000      .6276   106.6495    66.9656      .5199      .5979      .6412   -70.8821
 6487.5000      .6218   100.7428    60.3663      .4343      .5234      .5582   -79.8843
