~VERSION INFORMATION
VERS.                             2.0:   CWLS Log ASCII Standard-VERSION 2.0
WRAP.                              NO:   One line per depth step
~Well Information Block
STRT.F                      2500.0000:   Top Depth
STOP.F                     12867.0000:   Bottom Depth
STEP.F                         .50000:   Depth Increment
NULL.                        -999.250:   Null Value
FLD .                      GA BLK 255:   Field Name
WELL.       OCSG01777  A004 ST00 BP00:   NAME
API .                  42706400140000:   WELL API
EDF .F                        91.0000:   ELEV DRILL FLOOR
COMP.       COASTAL STATES GAS PROD C:   OPERATOR
BN  .                             255:   BLOCK
CTRY.                             USA:   COUNTRY NAME
CNTY.                              GA:   COUNTY
CNTY.                        GLVSTN L:   COUNTY NAME
EKB .F                        92.0000:   ELEV KELLY BUSHING
TDD .F                      12868.000:   FINAL TD DRILLER
STAT.                           TEXAS:   STATE NAME
UWI .                  42706400140000:   WELL API
DICO.               IHS : Digitizing Company
~PARAMETER INFORMATION (zones)
#MNEM.UNIT                       Value     Description
#=========                       =====     ===========
#ZONATION                           IE:   ZONATION NAME
#ZONE                            RUN_1:   ZONE NAME
TOP .                       2500.0000:   TOP DEPTH
BOT .                       8267.5000:   BOTTOM DEPTH
RUN .                               1:   RUN NUMBER
LCCD.                             440:   LOGGING CONTRACTOR
SRVC.                    Schlumberger:   LOGGING CONT NAME
DICO.          QC Data Collectors Ltd:   DIG COMPANY NAME
LDAT.                      05/23/1973:   DATE LOGGED
ELD .F                        92.0000:   LOG DATUM ELEVATION
TDD .F                      8274.0000:   TOTAL DEPTH DRILLER
TDL .F                      8268.0000:   TOTAL DEPTH LOGGER
BOTL.F                      8267.0000:   BOTTOM DEPTH LOGGED
TOPL.F                      2500.0000:   TOP DEPTH LOGGED
CS1 .IN                       13.3750:   CASING SIZE 1
BS1 .IN                       12.2500:   BIT SIZE 1
DDB1.F                      8274.0000:   DEPTH DRILLED BIT 1
BHF .                              99:   FLUID CODE
DPT .                   Miscellaneous:   DRILLING FLUID TYPE
MUDV.                         45.0000:   FLUID VISCOSITY
FL  .                          3.4000:   FLUID LOSS
RM  .OHMM                       .7100:   RM
RMT .DEGF                     82.0000:   RM TEMP
RMF .OHMM                       .4200:   RMF
RMFT.DEGF                     82.0000:   RMF TEMP
FSC .                               M:   RMF CODE
RMC .OHMM                      1.2500:   RMC
RMCT.DEGF                     82.0000:   RMC TEMP
CMC .                               M:   RMC CODE
TMAX.DEGF                     82.0000:   MAX REC TEMP
TIMC.                          6.0000:   TIME SINCE CIRCLN
MUDD.                            NULL:   FLUID DENSITY
DFPH.                            NULL:   FLUID PH
~PARAMETER INFORMATION (zones)
#MNEM.UNIT                       Value     Description
#=========                       =====     ===========
#ZONATION                           IE:   ZONATION NAME
#ZONE                            RUN_2:   ZONE NAME
TOP .                       8273.0000:   TOP DEPTH
BOT .                      12867.5000:   BOTTOM DEPTH
RUN .                               2:   RUN NUMBER
LCCD.                             440:   LOGGING CONTRACTOR
SRVC.                    Schlumberger:   LOGGING CONT NAME
DICO.          QC Data Collectors Ltd:   DIG COMPANY NAME
LDAT.                      06/12/1973:   DATE LOGGED
ELD .F                        92.0000:   LOG DATUM ELEVATION
TDD .F                     12865.0000:   TOTAL DEPTH DRILLER
TDL .F                     12868.0000:   TOTAL DEPTH LOGGER
BOTL.F                     12867.0000:   BOTTOM DEPTH LOGGED
TOPL.F                      8272.0000:   TOP DEPTH LOGGED
CS1 .IN                        9.6250:   CASING SIZE 1
BS1 .IN                        8.5000:   BIT SIZE 1
DDB1.F                     12865.0000:   DEPTH DRILLED BIT 1
BHF .                              11:   FLUID CODE
DPT .         Caustic (high PH) (CLS):   DRILLING FLUID TYPE
MUDV.                         44.0000:   FLUID VISCOSITY
FL  .                          2.6000:   FLUID LOSS
RM  .OHMM                       .9100:   RM
RMT .DEGF                     76.0000:   RM TEMP
RMF .OHMM                       .4600:   RMF
RMFT.DEGF                     78.0000:   RMF TEMP
FSC .                               M:   RMF CODE
RMC .OHMM                      1.3200:   RMC
RMCT.DEGF                     76.0000:   RMC TEMP
CMC .                               C:   RMC CODE
TMAX.DEGF                    248.0000:   MAX REC TEMP
TIMC.                          5.0000:   TIME SINCE CIRCLN
MUDD.                         16.3000:   FLUID DENSITY
DFPH.                         10.5000:   FLUID PH
~PARAMETER INFORMATION (zones)
#MNEM.UNIT                       Value     Description
#=========                       =====     ===========
#ZONATION                        SONIC:   ZONATION NAME
#ZONE                            RUN_1:   ZONE NAME
TOP .                       8272.0000:   TOP DEPTH
BOT .                      12860.5000:   BOTTOM DEPTH
RUN .                               1:   RUN NUMBER
LCCD.                             440:   LOGGING CONTRACTOR
SRVC.                    Schlumberger:   LOGGING CONT NAME
DICO.          QC Data Collectors Ltd:   DIG COMPANY NAME
LDAT.                      06/12/1973:   DATE LOGGED
ELD .F                        92.0000:   LOG DATUM ELEVATION
TDD .F                     12865.0000:   TOTAL DEPTH DRILLER
BOTL.F                     12860.0000:   BOTTOM DEPTH LOGGED
TOPL.F                      8272.0000:   TOP DEPTH LOGGED
CS1 .IN                        9.6250:   CASING SIZE 1
BS1 .IN                        8.5000:   BIT SIZE 1
DDB1.F                     12865.0000:   DEPTH DRILLED BIT 1
BHF .                              11:   FLUID CODE
DPT .         Caustic (high PH) (CLS):   DRILLING FLUID TYPE
MUDD.                         16.3000:   FLUID DENSITY
MUDV.                         44.0000:   FLUID VISCOSITY
DFPH.                         10.5000:   FLUID PH
FL  .                          2.6000:   FLUID LOSS
RM  .OHMM                       .9100:   RM
RMT .DEGF                     76.0000:   RM TEMP
RMF .OHMM                       .4600:   RMF
RMFT.DEGF                     78.0000:   RMF TEMP
FSC .                               M:   RMF CODE
RMC .OHMM                      1.3200:   RMC
RMCT.DEGF                     76.0000:   RMC TEMP
CMC .                               C:   RMC CODE
TMAX.DEGF                    248.0000:   MAX REC TEMP
TIMC.                         10.0000:   TIME SINCE CIRCLN
~Curve Information Block
#MNEM.UNIT                    API CODE    No Description
#=========                    ========    == ===========
DEPT.F                   00 001 00 00:     1  DEPTH
ASN.OHMM                             :     2  Short-Normal Resistivity
ILD.OHMM                             :     3  Deep Induction Resistivity
SP.MV                                :     4  Spontaneous Potential
CALI.IN                              :     5  Caliper
DT.US/F                              :     6  Sonic Transit Time
~ASCII
# ...
 6648.0000      .8804      .5864   -50.9663  -999.2500  -999.2500
 6648.5000      .8762      .5492   -50.9892  -999.2500  -999.2500
 6649.0000      .8714      .5083   -50.8231  -999.2500  -999.2500
 6649.5000      .8649      .4662   -50.7237  -999.2500  -999.2500
 6650.0000      .8508      .4233   -50.6355  -999.2500  -999.2500
 6650.5000      .8238      .3867   -50.6311  -999.2500  -999.2500
 6651.0000      .7948      .3517   -51.3509  -999.2500  -999.2500
 6651.5000      .7932      .3337   -54.3478  -999.2500  -999.2500
 6652.0000      .8034      .3190   -61.5018  -999.2500  -999.2500
 6652.5000      .8397      .3200   -68.5746  -999.2500  -999.2500
 6653.0000      .9130      .3259   -76.5490  -999.2500  -999.2500
 6653.5000      .9862      .3458   -84.5234  -999.2500  -999.2500
 6654.0000     1.0532      .3658   -91.8696  -999.2500  -999.2500
 6654.5000     1.1274      .3899   -97.0356  -999.2500  -999.2500
 6655.0000     1.1686      .4148   -99.2141  -999.2500  -999.2500
 6655.5000     1.1816      .4406   -95.9530  -999.2500  -999.2500
 6656.0000     1.1783      .4739   -91.1897  -999.2500  -999.2500
 6656.5000     1.0739      .5071   -84.4496  -999.2500  -999.2500
 6657.0000      .9925      .5408   -77.5393  -999.2500  -999.2500
 6657.5000      .9112      .5748   -70.6366  -999.2500  -999.2500
 6658.0000      .8412      .5996   -63.7338  -999.2500  -999.2500
 6658.5000      .8178      .6196   -57.2449  -999.2500  -999.2500
 6659.0000      .8096      .6321   -52.3412  -999.2500  -999.2500
 6659.5000      .8069      .6426   -49.5494  -999.2500  -999.2500
 6660.0000      .8107      .6537   -48.5295  -999.2500  -999.2500
 6660.5000      .8202      .6657   -47.9785  -999.2500  -999.2500
 6661.0000      .8410      .6716   -47.6279  -999.2500  -999.2500
 6661.5000      .8673      .6730   -47.7775  -999.2500  -999.2500
 6662.0000      .9005      .6701   -48.4824  -999.2500  -999.2500
 6662.5000      .9319      .6638   -49.8395  -999.2500  -999.2500
 6663.0000      .9605      .6560   -50.4709  -999.2500  -999.2500
 6663.5000      .9846      .6468   -50.7998  -999.2500  -999.2500
 6664.0000      .9881      .6337   -51.3241  -999.2500  -999.2500
 6664.5000      .9503      .6190   -52.1278  -999.2500  -999.2500
 6665.0000      .9251      .5998   -52.3422  -999.2500  -999.2500
 6665.5000      .9170      .5862   -51.6650  -999.2500  -999.2500
 6666.0000      .9040      .5851   -52.0548  -999.2500  -999.2500
 6666.5000      .9065      .5882   -54.3237  -999.2500  -999.2500
 6667.0000      .9119      .5957   -56.8421  -999.2500  -999.2500
 6667.5000      .9136      .6027   -59.4399  -999.2500  -999.2500
 6668.0000      .9141      .6072   -60.2436  -999.2500  -999.2500
 6668.5000      .9157      .6118   -58.4902  -999.2500  -999.2500
 6669.0000      .9177      .6163   -56.0070  -999.2500  -999.2500
 6669.5000      .9201      .6200   -56.3358  -999.2500  -999.2500
 6670.0000      .9230      .6232   -58.0209  -999.2500  -999.2500
 6670.5000      .9251      .6264   -58.4680  -999.2500  -999.2500
 6671.0000      .9249      .6287   -57.0804  -999.2500  -999.2500
 6671.5000      .9247      .6309   -55.9506  -999.2500  -999.2500
 6672.0000      .9257      .6308   -55.1506  -999.2500  -999.2500
 6672.5000      .9108      .6268   -54.6563  -999.2500  -999.2500
 6673.0000      .8836      .6227   -54.1635  -999.2500  -999.2500
 6673.5000      .8584      .6209   -53.6706  -999.2500  -999.2500
 6674.0000      .8460      .6199   -52.4854  -999.2500  -999.2500
 6674.5000      .8337      .6226   -51.2776  -999.2500  -999.2500
 6675.0000      .8267      .6261   -51.1194  -999.2500  -999.2500
 6675.5000      .8364      .6268   -50.8936  -999.2500  -999.2500
 6676.0000      .8407      .6275   -50.4880  -999.2500  -999.2500
 6676.5000      .8340      .6244   -50.1425  -999.2500  -999.2500
 6677.0000      .8210      .6210   -49.9136  -999.2500  -999.2500
 6677.5000      .8149      .6175   -49.7499  -999.2500  -999.2500
 6678.0000      .8203      .6164   -49.6288  -999.2500  -999.2500
 6678.5000      .8283      .6166   -49.6030  -999.2500  -999.2500
 6679.0000      .8362      .6167   -49.7966  -999.2500  -999.2500
 6679.5000      .8457      .6162   -50.1841  -999.2500  -999.2500
 6680.0000      .8591      .6139   -50.5897  -999.2500  -999.2500
 6680.5000      .8839      .6116   -50.9777  -999.2500  -999.2500
 6681.0000      .9208      .6093   -53.1431  -999.2500  -999.2500
 6681.5000      .9453      .6069   -57.2449  -999.2500  -999.2500
 6682.0000      .9625      .6045   -61.5018  -999.2500  -999.2500
 6682.5000      .9503      .5995   -64.2247  -999.2500  -999.2500
 6683.0000      .9269      .5889   -64.3174  -999.2500  -999.2500
 6683.5000      .9154      .5779   -64.0331  -999.2500  -999.2500
 6684.0000      .9076      .5656   -63.6072  -999.2500  -999.2500
 6684.5000      .8862      .5543   -62.8174  -999.2500  -999.2500
 6685.0000      .8549      .5429   -61.6164  -999.2500  -999.2500
 6685.5000      .8260      .5279   -59.8427  -999.2500  -999.2500
 6686.0000      .8093      .5061   -58.4726  -999.2500  -999.2500
 6686.5000      .7953      .4566   -58.3544  -999.2500  -999.2500
 6687.0000      .7677      .3967   -58.7687  -999.2500  -999.2500
 6687.5000      .7333      .3361   -59.1267  -999.2500  -999.2500
 6688.0000      .7007      .2891   -59.5309  -999.2500  -999.2500
 6688.5000      .6751      .2624   -59.8630  -999.2500  -999.2500
 6689.0000      .6587      .2566   -61.1933  -999.2500  -999.2500
 6689.5000      .6523      .2583   -63.2275  -999.2500  -999.2500
 6690.0000      .6607      .2653   -65.8142  -999.2500  -999.2500
 6690.5000      .6709      .2869   -68.6078  -999.2500  -999.2500
 6691.0000      .6785      .3091   -71.3018  -999.2500  -999.2500
 6691.5000      .6841      .3354   -73.8884  -999.2500  -999.2500
 6692.0000      .6921      .3616   -76.7042  -999.2500  -999.2500
 6692.5000      .7067      .3871   -79.3611  -999.2500  -999.2500
 6693.0000      .7331      .4126   -82.0476  -999.2500  -999.2500
 6693.5000      .7712      .4267   -84.7008  -999.2500  -999.2500
 6694.0000      .8194      .4366   -87.4058  -999.2500  -999.2500
 6694.5000      .8686      .4464   -90.1809  -999.2500  -999.2500
 6695.0000      .9031      .4379   -93.0189  -999.2500  -999.2500
 6695.5000      .9151      .4261   -95.7941  -999.2500  -999.2500
 6696.0000      .9192      .4126   -98.4879  -999.2500  -999.2500
 6696.5000      .9272      .3948  -100.6404  -999.2500  -999.2500
 6697.0000      .9442      .3771  -102.2996  -999.2500  -999.2500
 6697.5000      .9678      .3751  -103.8535  -999.2500  -999.2500
 6698.0000      .9956      .3740  -105.4998  -999.2500  -999.2500
 6698.5000     1.0188      .3856  -107.2495  -999.2500  -999.2500
 6699.0000      .9897      .4076  -109.3816  -999.2500  -999.2500
 6699.5000      .9358      .4296  -111.4602  -999.2500  -999.2500
 6700.0000      .8711      .4475  -113.6460  -999.2500  -999.2500
 6700.5000      .8356      .4654  -114.5509  -999.2500  -999.2500
 6701.0000      .8596      .4847  -113.4132  -999.2500  -999.2500
 6701.5000      .9292      .5145  -110.3276  -999.2500  -999.2500
 6702.0000     1.0051      .5442  -105.9117  -999.2500  -999.2500
 6702.5000     1.1194      .5728  -101.3813  -999.2500  -999.2500
 6703.0000     1.1894      .6014   -96.8510  -999.2500  -999.2500
 6703.5000     1.2043      .5920   -92.3242  -999.2500  -999.2500
 6704.0000     1.0921      .5981   -87.7938  -999.2500  -999.2500
 6704.5000     1.0131      .6073   -82.4023  -999.2500  -999.2500
 6705.0000      .9676      .6178   -78.1565  -999.2500  -999.2500
 6705.5000      .9566      .6314   -73.6002  -999.2500  -999.2500
 6706.0000      .9638      .6464   -70.8619  -999.2500  -999.2500
 6706.5000      .9765      .6316   -70.5950  -999.2500  -999.2500
 6707.0000      .9800      .5608   -70.4222  -999.2500  -999.2500
 6707.5000      .9484      .4800   -69.5427  -999.2500  -999.2500
 6708.0000      .9100      .4183   -68.5865  -999.2500  -999.2500
 6708.5000      .8852      .3764   -67.5500  -999.2500  -999.2500
