~VERSION INFORMATION
VERS.                             2.0:   CWLS Log ASCII Standard-VERSION 2.0
WRAP.                              NO:   One line per depth step
~Well Information Block
STRT.F                      2726.0000:   Top Depth
STOP.F                     13125.0000:   Bottom Depth
STEP.F                         .50000:   Depth Increment
NULL.                        -999.250:   Null Value
FLD .                      GA BLK 255:   Field Name
WELL.       OCSG01777  A007 ST00 BP00:   NAME
API .                  42706400190000:   WELL API
EDF .F                        92.0000:   ELEV DRILL FLOOR
COMP.       COASTAL STATES GAS PROD C:   OPERATOR
BN  .                             255:   BLOCK
CTRY.                             USA:   COUNTRY NAME
CNTY.                              GA:   COUNTY
CNTY.                        GLVSTN L:   COUNTY NAME
EKB .F                        93.0000:   ELEV KELLY BUSHING
TDD .F                      13136.000:   FINAL TD DRILLER
STAT.                           TEXAS:   STATE NAME
UWI .                  42706400190000:   WELL API
DICO.               IHS : Digitizing Company
~PARAMETER INFORMATION (zones)
#MNEM.UNIT                       Value     Description
#=========                       =====     ===========
#ZONATION                           IE:   ZONATION NAME
#ZONE                            RUN_1:   ZONE NAME
TOP .                       2726.0000:   TOP DEPTH
BOT .                       8780.5000:   BOTTOM DEPTH
RUN .                               1:   RUN NUMBER
LCCD.                             440:   LOGGING CONTRACTOR
SRVC.                    Schlumberger:   LOGGING CONT NAME
DICO.          QC Data Collectors Ltd:   DIG COMPANY NAME
LDAT.                      09/02/1973:   DATE LOGGED
ELD .F                        93.0000:   LOG DATUM ELEVATION
TDD .F                      8829.0000:   TOTAL DEPTH DRILLER
TDL .F                      8822.0000:   TOTAL DEPTH LOGGER
BOTL.F                      8821.0000:   BOTTOM DEPTH LOGGED
TOPL.F                      2726.0000:   TOP DEPTH LOGGED
CS1 .IN                       13.6250:   CASING SIZE 1
BS1 .IN                       12.2500:   BIT SIZE 1
DDB1.F                      8829.0000:   DEPTH DRILLED BIT 1
BHF .                              81:   FLUID CODE
DPT .          Lignosulfonate (Ligno):   DRILLING FLUID TYPE
MUDD.                         12.2000:   FLUID DENSITY
MUDV.                         44.0000:   FLUID VISCOSITY
DFPH.                         10.5000:   FLUID PH
FL  .                          2.0000:   FLUID LOSS
RM  .OHMM                       .9600:   RM
RMT .DEGF                     74.0000:   RM TEMP
RMF .OHMM                       .5900:   RMF
RMFT.DEGF                     71.0000:   RMF TEMP
FSC .                               M:   RMF CODE
RMC .OHMM                      1.8100:   RMC
RMCT.DEGF                     71.0000:   RMC TEMP
CMC .                               M:   RMC CODE
TMAX.DEGF                    160.0000:   MAX REC TEMP
TIMC.                         24.0000:   TIME SINCE CIRCLN
~PARAMETER INFORMATION (zones)
#MNEM.UNIT                       Value     Description
#=========                       =====     ===========
#ZONATION                           IE:   ZONATION NAME
#ZONE                            RUN_2:   ZONE NAME
TOP .                       8780.0000:   TOP DEPTH
BOT .                       9333.5000:   BOTTOM DEPTH
RUN .                               2:   RUN NUMBER
LCCD.                             440:   LOGGING CONTRACTOR
SRVC.                    Schlumberger:   LOGGING CONT NAME
DICO.          QC Data Collectors Ltd:   DIG COMPANY NAME
LDAT.                      09/09/1973:   DATE LOGGED
ELD .F                        93.0000:   LOG DATUM ELEVATION
TDD .F                      9340.0000:   TOTAL DEPTH DRILLER
TDL .F                      9334.0000:   TOTAL DEPTH LOGGER
BOTL.F                      9333.0000:   BOTTOM DEPTH LOGGED
TOPL.F                      8821.0000:   TOP DEPTH LOGGED
CS1 .IN                       13.3750:   CASING SIZE 1
BS1 .IN                       12.2500:   BIT SIZE 1
DDB1.F                      9340.0000:   DEPTH DRILLED BIT 1
BHF .                              99:   FLUID CODE
DPT .                   Miscellaneous:   DRILLING FLUID TYPE
MUDD.                         12.3000:   FLUID DENSITY
MUDV.                         46.0000:   FLUID VISCOSITY
DFPH.                         10.5000:   FLUID PH
FL  .                          3.2000:   FLUID LOSS
RM  .OHMM                       .6500:   RM
RMT .DEGF                     82.0000:   RM TEMP
RMF .OHMM                       .5000:   RMF
RMFT.DEGF                     82.0000:   RMF TEMP
FSC .                               M:   RMF CODE
RMC .OHMM                       .9600:   RMC
RMCT.DEGF                     82.0000:   RMC TEMP
CMC .                               M:   RMC CODE
TMAX.DEGF                    160.0000:   MAX REC TEMP
TIMC.                          4.0000:   TIME SINCE CIRCLN
~PARAMETER INFORMATION (zones)
#MNEM.UNIT                       Value     Description
#=========                       =====     ===========
#ZONATION                           IE:   ZONATION NAME
#ZONE                            RUN_3:   ZONE NAME
TOP .                       9343.0000:   TOP DEPTH
BOT .                      13125.5000:   BOTTOM DEPTH
RUN .                               3:   RUN NUMBER
LCCD.                             440:   LOGGING CONTRACTOR
SRVC.                    Schlumberger:   LOGGING CONT NAME
DICO.          QC Data Collectors Ltd:   DIG COMPANY NAME
LDAT.                      09/22/1973:   DATE LOGGED
ELD .F                        93.0000:   LOG DATUM ELEVATION
TDD .F                     13136.0000:   TOTAL DEPTH DRILLER
TDL .F                     13126.0000:   TOTAL DEPTH LOGGER
BOTL.F                     13125.0000:   BOTTOM DEPTH LOGGED
TOPL.F                      9343.0000:   TOP DEPTH LOGGED
CS1 .IN                        9.6250:   CASING SIZE 1
BS1 .IN                        8.5000:   BIT SIZE 1
DDB1.F                     13136.0000:   DEPTH DRILLED BIT 1
BHF .                              99:   FLUID CODE
DPT .                   Miscellaneous:   DRILLING FLUID TYPE
MUDD.                         16.5000:   FLUID DENSITY
MUDV.                         46.0000:   FLUID VISCOSITY
DFPH.                         11.0000:   FLUID PH
FL  .                          2.2000:   FLUID LOSS
RM  .OHMM                       .6100:   RM
RMT .DEGF                     80.0000:   RM TEMP
RMF .OHMM                       .2300:   RMF
RMFT.DEGF                     80.0000:   RMF TEMP
FSC .                               M:   RMF CODE
RMC .OHMM                      1.0000:   RMC
RMCT.DEGF                     80.0000:   RMC TEMP
CMC .                               M:   RMC CODE
TMAX.DEGF                    232.0000:   MAX REC TEMP
TIMC.                          7.0000:   TIME SINCE CIRCLN
~PARAMETER INFORMATION (zones)
#MNEM.UNIT                       Value     Description
#=========                       =====     ===========
#ZONATION                        SONIC:   ZONATION NAME
#ZONE                            RUN_1:   ZONE NAME
TOP .                       9343.0000:   TOP DEPTH
BOT .                      13014.5000:   BOTTOM DEPTH
RUN .                               1:   RUN NUMBER
LCCD.                             440:   LOGGING CONTRACTOR
SRVC.                    Schlumberger:   LOGGING CONT NAME
DICO.          QC Data Collectors Ltd:   DIG COMPANY NAME
LDAT.                      09/22/1973:   DATE LOGGED
ELD .F                        93.0000:   LOG DATUM ELEVATION
TDD .F                     13136.0000:   TOTAL DEPTH DRILLER
TDL .F                     13126.0000:   TOTAL DEPTH LOGGER
BOTL.F                     13014.0000:   BOTTOM DEPTH LOGGED
TOPL.F                      9343.0000:   TOP DEPTH LOGGED
CS1 .IN                        9.6250:   CASING SIZE 1
BS1 .IN                        8.5000:   BIT SIZE 1
DDB1.F                     13136.0000:   DEPTH DRILLED BIT 1
BHF .                              99:   FLUID CODE
DPT .                   Miscellaneous:   DRILLING FLUID TYPE
MUDD.                         16.5000:   FLUID DENSITY
MUDV.                         46.0000:   FLUID VISCOSITY
DFPH.                         11.0000:   FLUID PH
FL  .                          2.2000:   FLUID LOSS
RM  .OHMM                       .6100:   RM
RMT .DEGF                     80.0000:   RM TEMP
RMF .OHMM                       .2400:   RMF
RMFT.DEGF                     80.0000:   RMF TEMP
FSC .                               M:   RMF CODE
RMC .OHMM                      1.0000:   RMC
RMCT.DEGF                     80.0000:   RMC TEMP
CMC .                               M:   RMC CODE
TMAX.DEGF                    232.0000:   MAX REC TEMP
TIMC.                          6.0000:   TIME SINCE CIRCLN
~Curve Information Block
#MNEM.UNIT                    API CODE    No Description
#=========                    ========    == ===========
DEPT.F                   00 001 00 00:     1  DEPTH
ASN.OHMM                             :     2  Short-Normal Resistivity
ILD.OHMM                             :     3  Deep Induction Resistivity
SP.MV                                :     4  Spontaneous Potential
CALI.IN                              :     5  Caliper
DT.US/F                              :     6  Sonic Transit Time
~ASCII
# ...
10961.0000      .9547      .7149   -58.0490     9.2208    97.3982
10961.5000      .9072      .6472   -57.9297     9.2513    96.3082
10962.0000      .8787      .6051   -57.9459     9.4169    97.9401
10962.5000      .8567      .5841   -57.3799     9.5837   102.1075
10963.0000      .8358      .5845   -55.1071     9.7139   105.7677
10963.5000      .8145      .6026   -52.7753     9.7235   107.4919
10964.0000      .8067      .6161   -50.5270     9.7129   105.2209
10964.5000      .8153      .6231   -48.6429     9.7117   103.5522
10965.0000      .8195      .6245   -47.4634     9.7214   104.6051
10965.5000      .8101      .6213   -46.7415     9.7296   107.3688
10966.0000      .7906      .6160   -46.1376     9.7375   111.7136
10966.5000      .7613      .5921   -45.6647     9.7401   113.3590
10967.0000      .7287      .5658   -45.4252     9.7350   114.2241
10967.5000      .7080      .5374   -45.2740     9.7008   113.9255
10968.0000      .6917      .5013   -45.1202     9.6280   112.6521
10968.5000      .6764      .4634   -44.9465     9.5799   111.7961
10969.0000      .6618      .4377   -44.7894     9.6219   113.6151
10969.5000      .6492      .4261   -44.6723     9.6399   116.4871
10970.0000      .6402      .4328   -44.7048     9.6377   118.6547
10970.5000      .6322      .4474   -44.9210     9.5901   119.8887
10971.0000      .6245      .4684   -45.0156     9.5787   120.2539
10971.5000      .6184      .4981   -44.9883     9.6066   118.4921
10972.0000      .6239      .5262   -44.9586     9.6101   113.4280
10972.5000      .6665      .5476   -45.0621     9.5829   107.3293
10973.0000      .6913      .5663   -45.4108     9.5604   103.4475
10973.5000      .7019      .5837   -46.2053     9.5892   103.6249
10974.0000      .7209      .5984   -47.4745     9.6448   107.1865
10974.5000      .7434      .6120   -48.3077     9.7112   104.5953
10975.0000      .7598      .6197   -48.0027     9.7170   102.2898
10975.5000      .7702      .6229   -47.6264     9.7059   100.8292
10976.0000      .7598      .6282   -47.2587     9.6922   101.2898
10976.5000      .7434      .6308   -46.9057     9.7030   105.4525
10977.0000      .7606      .6257   -46.6554     9.7322   107.8959
10977.5000      .7896      .6159   -46.4992     9.7529   108.6667
10978.0000      .7599      .6053   -46.4501     9.7408   108.3860
10978.5000      .7337      .5985   -46.4545     9.7337   108.6501
10979.0000      .7207      .5921   -46.4588     9.7399   108.4291
10979.5000      .7166      .5885   -46.4631     9.7262   107.4426
10980.0000      .7237      .5869   -46.5020     9.7370   105.8441
10980.5000      .7375      .5903   -46.5739     9.7340   104.5189
10981.0000      .7463      .5974   -46.6700     9.6876   104.2086
10981.5000      .7473      .6061   -46.7932     9.6788   105.6002
10982.0000      .7466      .6105   -47.0068     9.7029   107.6619
10982.5000      .7507      .6081   -47.3048     9.7323   108.0239
10983.0000      .7581      .6061   -47.6492     9.7603   108.0449
10983.5000      .7621      .6053   -48.0046     9.7763   110.5265
10984.0000      .7576      .5996   -48.2955     9.7634   114.2704
10984.5000      .7487      .5927   -48.4498     9.7455   115.9304
10985.0000      .7590      .5841   -48.7155     9.7253   112.3984
10985.5000      .7688      .5774   -49.3046     9.6146   109.8466
10986.0000      .7674      .5712   -50.9108     9.4157   107.6815
10986.5000      .7618      .5653   -52.5957     9.3230   106.3047
10987.0000      .7709      .5645   -53.9240     9.3344   106.7517
10987.5000      .7774      .5808   -54.2114     9.3198   106.9174
10988.0000      .7769      .6096   -54.0414     9.2970   105.9993
10988.5000      .7913      .6489   -53.5009     9.3058   103.7899
10989.0000      .8149      .6940   -52.9216     9.3424   100.6593
10989.5000      .8373      .7253   -52.3891     9.3343    94.5902
10990.0000      .8803      .7477   -51.8566     9.2993    88.9744
10990.5000      .9280      .7591   -54.8562     9.3158    87.9792
10991.0000      .9126      .7599   -56.2361     9.3838    92.1370
10991.5000      .9037      .7470   -56.4040     9.5248    96.6296
10992.0000      .8984      .7093   -54.8464     9.7198   104.9746
10992.5000      .8452      .6544   -52.0620     9.8698   109.2209
10993.0000      .7878      .6080   -49.8580     9.8915   113.0831
10993.5000      .7188      .5651   -48.4609     9.9123   116.8319
10994.0000      .6651      .5326   -47.4229     9.8999   119.3713
10994.5000      .6319      .5071   -46.6247     9.8442   116.9773
10995.0000      .6059      .4855   -45.8831     9.8307   114.0930
10995.5000      .6091      .4707   -45.3407     9.8173   111.9796
10996.0000      .6065      .4570   -44.9689     9.8212   113.1176
10996.5000      .5951      .4413   -44.8517     9.8450   116.9009
10997.0000      .5780      .4256   -44.9498     9.8660   119.9995
10997.5000      .5589      .4102   -44.9924     9.8785   120.7716
10998.0000      .5415      .4021   -44.8746     9.8723   120.0647
10998.5000      .5275      .3952   -44.6431     9.8585   119.2815
10999.0000      .5204      .3898   -44.3236     9.8573   119.7876
10999.5000      .5240      .3820   -44.0665     9.8503   121.1595
11000.0000      .5244      .3863   -43.8636     9.7988   120.9354
11000.5000      .5211      .3952   -43.7476     9.7225   120.9797
11001.0000      .5164      .4041   -43.7065     9.7037   120.7113
11001.5000      .5130      .4018   -43.7363     9.7216   118.3887
11002.0000      .5206      .3879   -43.7766     9.7437   115.0339
11002.5000      .5284      .3849   -43.8332     9.7738   113.4379
11003.0000      .5266      .3835   -43.8494     9.8309   115.5018
11003.5000      .5068      .3845   -43.8653     9.8730   116.6373
11004.0000      .5092      .3866   -43.9509     9.8428   119.8369
11004.5000      .5442      .3931   -44.0361     9.7536   119.9945
11005.0000      .5523      .3995   -44.0344     9.7770   118.4650
11005.5000      .5482      .3904   -43.9365     9.8403   117.7821
11006.0000      .5401      .3809   -43.7692     9.9003   118.0388
11006.5000      .5282      .3709   -43.7028     9.9568   119.0685
11007.0000      .5176      .3613   -43.6667    10.0016   121.4625
11007.5000      .5137      .3606   -43.6777    10.0054   122.1039
11008.0000      .5212      .3608   -43.7844     9.9397   121.7384
11008.5000      .5215      .3686   -43.8149     9.9058   119.9995
11009.0000      .5154      .3754   -43.7511     9.8870   117.7137
11009.5000      .5127      .3793   -43.6604     9.8945   113.8319
11010.0000      .5153      .3842   -43.6432     9.9082   112.8467
11010.5000      .5308      .3900   -43.6771     9.9159   116.1768
11011.0000      .5271      .3965   -43.7883     9.9660   119.9995
11011.5000      .5172      .4028   -43.8953    10.0598   122.5857
11012.0000      .5254      .4072   -43.9349    10.1530   124.0365
11012.5000      .5351      .4123   -43.8333    10.2278   123.9109
11013.0000      .5344      .4182   -43.5623    10.2871   118.9650
11013.5000      .5466      .4248   -43.1355    10.1400   113.3295
11014.0000      .5622      .4316   -42.7573     9.8363   109.5461
11014.5000      .5735      .4396   -42.5215     9.4561   108.3540
11015.0000      .5556      .4483   -42.5433     9.4581   110.4033
11015.5000      .5538      .4637   -42.9633     9.6455   114.7925
11016.0000      .6040      .4801   -44.0505     9.7748   117.5881
11016.5000      .6437      .4987   -44.6102     9.7971   113.9945
11017.0000      .6456      .5181   -44.2849     9.7203   110.6398
11017.5000      .6673      .5387   -44.2264     9.5658   107.4426
11018.0000      .6637      .5624   -44.9865     9.5670   105.3047
11018.5000      .6691      .5884   -45.5602     9.7642   104.9167
11019.0000      .7025      .6186   -45.3536     9.7723   103.5460
11019.5000      .7637      .6357   -45.2286     9.7130    98.3292
11020.0000      .7907      .6317   -45.7084     9.7429    98.7479
11020.5000      .7837      .6095   -46.5336     9.8781   104.4918
11021.0000      .7474      .5803   -47.1064    10.0429   109.5658
11021.5000      .7204      .5529   -46.7280    10.1393   115.5906
