~VERSION INFORMATION
VERS.                             2.0:   CWLS Log ASCII Standard-VERSION 2.0
WRAP.                              NO:   One line per depth step
~Well Information Block
STRT.F                      3012.0000:   Top Depth
STOP.F                      9049.0000:   Bottom Depth
STEP.F                         .50000:   Depth Increment
NULL.                        -999.250:   Null Value
FLD .                      GA BLK 210:   Field Name
WELL.       OCSG01759   002 ST00 BP00:   NAME
API .                  42706400060000:   WELL API
R1  .                      TEXACO INC:   COMMENT  1
EDF .F                        74.0000:   ELEV DRILL FLOOR
COMP.                      TEXACO INC:   OPERATOR
BN  .                             210:   BLOCK
CTRY.                             USA:   COUNTRY NAME
CNTY.                              GA:   COUNTY
CNTY.                        GLVSTN L:   COUNTY NAME
EKB .F                        75.0000:   ELEV KELLY BUSHING
TDD .F                       9050.000:   FINAL TD DRILLER
STAT.                           TEXAS:   STATE NAME
UWI .                  42706400060000:   WELL API
DICO.               IHS : Digitizing Company
~PARAMETER INFORMATION (zones)
#MNEM.UNIT                       Value     Description
#=========                       =====     ===========
#ZONATION                           IE:   ZONATION NAME
#ZONE                            RUN_2:   ZONE NAME
TOP .                       9049.0000:   TOP DEPTH
BOT .                       9050.0000:   BOTTOM DEPTH
RUN .                               2:   RUN NUMBER
LCCD.                             440:   LOGGING CONTRACTOR
SRVC.                    Schlumberger:   LOGGING CONT NAME
DICO.          QC Data Collectors Ltd:   DIG COMPANY NAME
LDAT.                      11/07/1971:   DATE LOGGED
ELD .F                        75.0000:   LOG DATUM ELEVATION
TDD .F                      9050.0000:   TOTAL DEPTH DRILLER
TDL .F                      9050.0000:   TOTAL DEPTH LOGGER
BOTL.F                      9049.0000:   BOTTOM DEPTH LOGGED
TOPL.F                      7103.0000:   TOP DEPTH LOGGED
CS1 .IN                        9.6250:   CASING SIZE 1
BS1 .IN                        8.6250:   BIT SIZE 1
DDB1.F                      9050.0000:   DEPTH DRILLED BIT 1
BHF .                              99:   FLUID CODE
DPT .                   Miscellaneous:   DRILLING FLUID TYPE
MUDD.                         15.0000:   FLUID DENSITY
MUDV.                         45.0000:   FLUID VISCOSITY
DFPH.                         10.5000:   FLUID PH
FL  .                          4.0000:   FLUID LOSS
RM  .OHMM                       .7700:   RM
RMT .DEGF                    100.0000:   RM TEMP
RMF .OHMM                       .5300:   RMF
RMFT.DEGF                     77.0000:   RMF TEMP
FSC .                               M:   RMF CODE
RMC .OHMM                      1.4300:   RMC
RMCT.DEGF                     75.0000:   RMC TEMP
CMC .                               M:   RMC CODE
TMAX.DEGF                    194.0000:   MAX REC TEMP
TIMC.                          4.0000:   TIME SINCE CIRCLN
~PARAMETER INFORMATION (zones)
#MNEM.UNIT                       Value     Description
#=========                       =====     ===========
#ZONATION                           IE:   ZONATION NAME
#ZONE                            RUN_1:   ZONE NAME
TOP .                       3012.0000:   TOP DEPTH
BOT .                       9049.5000:   BOTTOM DEPTH
RUN .                               1:   RUN NUMBER
LCCD.                             440:   LOGGING CONTRACTOR
SRVC.                    Schlumberger:   LOGGING CONT NAME
DICO.          QC Data Collectors Ltd:   DIG COMPANY NAME
LDAT.                      10/28/1971:   DATE LOGGED
ELD .F                        75.0000:   LOG DATUM ELEVATION
TDD .F                      7115.0000:   TOTAL DEPTH DRILLER
TDL .F                      7061.0000:   TOTAL DEPTH LOGGER
BOTL.F                      7060.0000:   BOTTOM DEPTH LOGGED
TOPL.F                      3012.0000:   TOP DEPTH LOGGED
CS1 .IN                       13.3750:   CASING SIZE 1
BS1 .IN                       12.2500:   BIT SIZE 1
DDB1.F                      7115.0000:   DEPTH DRILLED BIT 1
BHF .                              11:   FLUID CODE
DPT .         Caustic (high PH) (CLS):   DRILLING FLUID TYPE
MUDD.                         10.5000:   FLUID DENSITY
MUDV.                         40.0000:   FLUID VISCOSITY
DFPH.                          9.0000:   FLUID PH
FL  .                          4.4000:   FLUID LOSS
RM  .OHMM                       .9400:   RM
RMT .DEGF                     96.0000:   RM TEMP
RMF .OHMM                       .7600:   RMF
RMFT.DEGF                     96.0000:   RMF TEMP
FSC .                               M:   RMF CODE
RMC .OHMM                      1.2600:   RMC
RMCT.DEGF                     96.0000:   RMC TEMP
CMC .                               M:   RMC CODE
TMAX.DEGF                    155.0000:   MAX REC TEMP
TIMC.                          4.0000:   TIME SINCE CIRCLN
~PARAMETER INFORMATION (zones)
#MNEM.UNIT                       Value     Description
#=========                       =====     ===========
#ZONATION                        SONIC:   ZONATION NAME
#ZONE                            RUN_1:   ZONE NAME
TOP .                       3012.0000:   TOP DEPTH
BOT .                       9049.5000:   BOTTOM DEPTH
RUN .                               1:   RUN NUMBER
LCCD.                             440:   LOGGING CONTRACTOR
SRVC.                    Schlumberger:   LOGGING CONT NAME
DICO.          QC Data Collectors Ltd:   DIG COMPANY NAME
LDAT.                      10/28/1971:   DATE LOGGED
ELD .F                        75.0000:   LOG DATUM ELEVATION
TDD .F                      7115.0000:   TOTAL DEPTH DRILLER
TDL .F                      7060.0000:   TOTAL DEPTH LOGGER
BOTL.F                      7050.0000:   BOTTOM DEPTH LOGGED
TOPL.F                      3012.0000:   TOP DEPTH LOGGED
CS1 .IN                       13.3750:   CASING SIZE 1
BS1 .IN                       12.2500:   BIT SIZE 1
DDB1.F                      7115.0000:   DEPTH DRILLED BIT 1
BHF .                              11:   FLUID CODE
DPT .         Caustic (high PH) (CLS):   DRILLING FLUID TYPE
MUDD.                         10.5000:   FLUID DENSITY
MUDV.                         40.0000:   FLUID VISCOSITY
DFPH.                          9.0000:   FLUID PH
FL  .                          4.4000:   FLUID LOSS
RM  .OHMM                       .9400:   RM
RMT .DEGF                     96.0000:   RM TEMP
RMF .OHMM                       .7600:   RMF
RMFT.DEGF                     96.0000:   RMF TEMP
FSC .                               M:   RMF CODE
RMC .OHMM                      1.2600:   RMC
RMCT.DEGF                     96.0000:   RMC TEMP
CMC .                               M:   RMC CODE
TMAX.DEGF                    155.0000:   MAX REC TEMP
TIMC.                          6.0000:   TIME SINCE CIRCLN
~Curve Information Block
#MNEM.UNIT                    API CODE    No Description
#=========                    ========    == ===========
DEPT.F                   00 001 00 00:     1  DEPTH
ASN.OHMM                             :     2  Short-Normal Resistivity
CILD.MMHO                            :     3  Deep Induction Conductivity
ILD.OHMM                             :     4  Deep Induction Resistivity
SP.MV                                :     5  Spontaneous Potential
CALI.IN                              :     6  Caliper
DT.US/F                              :     7  Sonic Transit Time
SP.MV                                :     8  Spontaneous Potential
~ASCII
# ...
 6197.0000      .6904  1896.3320      .6307   -67.0646    13.0302   118.8949   -73.1492
 6197.5000      .7002  1889.9258      .6220   -67.7576    13.0305   116.2744   -73.7316
 6198.0000      .7099  1883.5254      .6133   -68.3108    13.0307   109.0120   -75.6040
 6198.5000      .7190  1877.0137      .6046   -69.0918    13.0310   107.2848   -77.7965
 6199.0000      .7274  1869.4473      .5959   -70.1484    13.0313   106.3903   -79.9673
 6199.5000      .6680  1882.0625      .5872   -71.1570    13.0315   109.0046   -81.9456
 6200.0000      .6436  1922.3125      .5800   -68.7175    13.0326   111.9596   -83.9022
 6200.5000      .6339  1962.5938      .5764   -64.2764    13.0338   114.0055   -85.8757
 6201.0000      .6269  2206.7187      .5727   -62.7370    13.0350   115.4781   -73.5992
 6201.5000      .6257  2237.7539      .5690   -69.5459    13.0362   116.0986   -73.5680
 6202.0000      .6260  2255.8047      .5654   -73.5385    13.0374   116.5986   -75.7749
 6202.5000      .6322  2136.8750      .5617   -74.0212    13.0386   117.0107   -77.9794
 6203.0000      .6384  1992.8750      .5661   -74.1630    13.0398   117.2465   -81.0359
 6203.5000      .6484  1925.1133      .5745   -74.1989    13.0408   115.4042   -84.8252
 6204.0000      .6618  1859.7988      .5828   -74.0609    13.0401   113.9194   -86.3185
 6204.5000      .6779  1794.4355      .5983   -73.6520    13.0394   112.9219   -87.8143
 6205.0000      .6977  1729.1230      .6150   -72.5498    13.0387   111.7329   -89.3173
 6205.5000      .7162  1665.1309      .6316   -70.8134    13.0380   110.3439   -89.6235
 6206.0000      .7334  1635.5898      .6430   -68.8173    13.0373   108.9113   -88.1188
 6206.5000      .7522  1609.7891      .6544   -66.3223    13.0348   108.0441   -85.1609
 6207.0000      .7578  1584.5098      .6657   -61.2849    13.0309   107.4884   -81.5533
 6207.5000      .7528  1565.1914      .6771   -60.4600    13.0269   107.6520   -79.0527
 6208.0000      .7479  1663.1602      .6871   -60.2081    13.0230   108.8822   -77.6642
 6208.5000      .7430  1686.7188      .6901   -60.3803    13.0191   110.3416   -76.1997
 6209.0000      .7381  1707.1602      .6931   -60.5525    13.0151   111.6742   -74.7786
 6209.5000      .7315  1724.6348      .6961   -60.7246    13.0112   104.6097   -73.8665
 6210.0000      .7241  1741.6367      .6992   -60.6571    13.0116   103.4966   -73.7677
 6210.5000      .7168  1751.9512      .7022   -60.4351    13.0139   103.0463   -74.6149
 6211.0000      .7095  1758.9004      .7052   -60.2133    13.0161   104.0269   -75.4608
 6211.5000      .7082  1740.5156      .7082   -59.8740    13.0184   105.6521   -76.5715
 6212.0000      .7142  1719.6250      .7074   -59.4479    13.0206   107.3586   -77.7111
 6212.5000      .7203  1695.5684      .7035   -59.0226    13.0229   109.2397   -77.7916
 6213.0000      .7263  1671.5371      .6996   -58.5086    13.0251   112.2771   -73.9374
 6213.5000      .7317  1650.9199      .6957   -57.9197    13.0246   113.6292   -72.6943
 6214.0000      .7325  1631.6016      .6919   -57.3796    13.0235   114.3673   -72.2139
 6214.5000      .7332  1618.7012      .6880   -56.8394    13.0225   114.7502   -71.8453
 6215.0000      .7336  1627.1133      .6841   -56.5806    13.0214   115.1405   -71.1072
 6215.5000      .7308  1646.0840      .6803   -56.3317    13.0204   116.6738   -70.3658
 6216.0000      .7281  1665.0801      .6764   -56.2090    13.0194   117.1719   -69.5464
 6216.5000      .7254  1674.8027      .6727   -56.1312    13.0183   117.5858   -68.6053
 6217.0000      .7227  1683.7266      .6779   -56.0534    13.0196   117.8671   -68.0073
 6217.5000      .7238  1692.6523      .6830   -55.9241    13.0237   117.9956   -69.1698
 6218.0000      .7249  1701.5762      .6882   -55.7770    13.0279   118.1106   -70.6896
 6218.5000      .7260  1707.3750      .6934   -55.9188    13.0320   118.2336   -72.2083
 6219.0000      .7271  1707.0273      .6985   -56.6292    13.0362   118.3845   -73.3562
 6219.5000      .7318  1706.6797      .7037   -57.3403    13.0403   118.3046   -73.7479
 6220.0000      .7376  1706.3301      .7011   -59.1005    13.0445   117.9877   -73.0306
 6220.5000      .7434  1705.9824      .6985   -60.2582    13.0484   117.3979   -72.3129
 6221.0000      .7453  1705.6348      .6958   -60.4354    13.0444   114.5436   -71.8027
 6221.5000      .7432  1703.6387      .6932   -60.1041    13.0404   111.6566   -72.7184
 6222.0000      .7411  1698.5918      .6906   -59.7520    13.0363   108.8979   -73.5715
 6222.5000      .7389  1693.5430      .6880   -59.3999    13.0323   108.0641   -74.3591
 6223.0000      .7368  1688.4941      .6831   -58.8311    13.0282   110.0251   -73.7377
 6223.5000      .7341  1683.4531      .6769   -58.1667    13.0242   112.2626   -73.0187
 6224.0000      .7313  1669.1934      .6707   -57.5998    13.0213   116.8223   -72.5602
 6224.5000      .7285  1623.6484      .6644   -57.4993    13.0204   117.4482   -72.0228
 6225.0000      .7257  1629.5566      .6578   -57.7095    13.0194   117.9773   -71.1516
 6225.5000      .7235  1811.7363      .6444   -58.7001    13.0185   118.3876   -70.4540
 6226.0000      .7217  1919.9277      .6311   -59.6906    13.0193   118.2465   -70.6857
 6226.5000      .7199  1960.3613      .6178   -60.6811    13.0285   111.8384   -70.9174
 6227.0000      .7180  2118.5000      .6045   -63.7500    13.0378   108.6362   -71.4543
 6227.5000      .7103  2252.3867      .5911   -66.0179    13.0470   107.6617   -72.1462
 6228.0000      .6995  2326.6758      .5764   -68.8722    13.0562   107.3224   -72.8375
 6228.5000      .6888  2359.6328      .5615   -70.7460    13.0626   109.0228   -75.3561
 6229.0000      .6737  2384.8828      .5466   -72.2192    13.0690   110.3052   -80.2368
 6229.5000      .6560  2398.3945      .5317   -73.1278    13.0754   111.7075   -88.2800
 6230.0000      .6483  2401.1523      .5169   -73.1580    13.0753   112.5228   -92.5975
 6230.5000      .6475  2387.0547      .5020   -72.5062    13.0648   111.9954   -97.9211
 6231.0000      .6467  2367.4609      .4871   -71.8544    13.0543   111.2637  -102.0582
 6231.5000      .6485  2346.4688      .4917   -71.0591    13.0437   111.1615   -92.7709
 6232.0000      .6520  2315.0078      .5066   -70.0560    13.0332   110.7312   -89.8853
 6232.5000      .6555  2283.5469      .5275   -71.2911    13.0258   109.9579   -87.2234
 6233.0000      .6590  2252.0625      .5484   -72.7819    13.0185   109.1852   -84.8024
 6233.5000      .6637  1988.0000      .5695   -77.2854    13.0112   108.8210   -89.3822
 6234.0000      .6693  1951.7871      .5908   -71.0179    13.0038   108.8931   -93.5747
 6234.5000      .6749  1907.2148      .6120   -63.3857    13.0156   109.2731   -95.5265
 6235.0000      .6804  1862.5918      .6333   -60.8539    13.0323   109.6749   -96.7563
 6235.5000      .7136  1818.0195      .6540   -60.2345    13.0558   109.6519   -97.9729
 6236.0000      .7329  1766.3652      .6707   -59.8368    13.0797   108.9534   -79.6785
 6236.5000      .7527  1658.1758      .6874   -59.8602    13.1001   109.3534   -75.4043
 6237.0000      .7637  1615.9043      .7041   -59.8836    13.0945   109.5892   -72.6426
 6237.5000      .7603  1612.0293      .7208   -59.9070    13.0876   109.7820   -72.9832
 6238.0000      .7568  1603.6426      .7375   -59.9905    13.0910   109.1840   -73.5415
 6238.5000      .7484  1592.5371      .7517   -60.1169    13.0944   107.7393   -74.1005
 6239.0000      .7428  1581.4434      .7627   -60.2434    13.0977   106.6484   -74.6594
 6239.5000      .7576  1569.8770      .7737   -60.4379    13.0923   105.7430   -75.2184
 6240.0000      .7702  1548.7383      .7847   -61.9835    13.0840   106.5248   -75.7178
 6240.5000      .7826  1526.9492      .7956   -64.6033    13.0748   109.1500   -75.5198
 6241.0000      .7949  1492.8223      .8066   -65.4303    13.0647   110.3779   -74.5787
 6241.5000      .8073  1460.1895      .8176   -66.1602    13.0546   110.9500   -74.6823
 6242.0000      .8147  1431.4219      .8331   -67.0509    13.0531   109.8167   -77.7604
