~VERSION INFORMATION
VERS.                             2.0:   CWLS Log ASCII Standard-VERSION 2.0
WRAP.                              NO:   One line per depth step
~Well Information Block
STRT.F                      2726.0000:   Top Depth
STOP.F                     13125.0000:   Bottom Depth
STEP.F                         .50000:   Depth Increment
NULL.                        -999.250:   Null Value
FLD .                      GA BLK 255:   Field Name
WELL.       OCSG01777  A007 ST00 BP00:   NAME
API .                  42706400190000:   WELL API
EDF .F                        92.0000:   ELEV DRILL FLOOR
COMP.       COASTAL STATES GAS PROD C:   OPERATOR
BN  .                             255:   BLOCK
CTRY.                             USA:   COUNTRY NAME
CNTY.                              GA:   COUNTY
CNTY.                        GLVSTN L:   COUNTY NAME
EKB .F                        93.0000:   ELEV KELLY BUSHING
TDD .F                      13136.000:   FINAL TD DRILLER
STAT.                           TEXAS:   STATE NAME
UWI .                  42706400190000:   WELL API
DICO.               IHS : Digitizing Company
~PARAMETER INFORMATION (zones)
#MNEM.UNIT                       Value     Description
#=========                       =====     ===========
#ZONATION                           IE:   ZONATION NAME
#ZONE                            RUN_1:   ZONE NAME
TOP .                       2726.0000:   TOP DEPTH
BOT .                       8780.5000:   BOTTOM DEPTH
RUN .                               1:   RUN NUMBER
LCCD.                             440:   LOGGING CONTRACTOR
SRVC.                    Schlumberger:   LOGGING CONT NAME
DICO.          QC Data Collectors Ltd:   DIG COMPANY NAME
LDAT.                      09/02/1973:   DATE LOGGED
ELD .F                        93.0000:   LOG DATUM ELEVATION
TDD .F                      8829.0000:   TOTAL DEPTH DRILLER
TDL .F                      8822.0000:   TOTAL DEPTH LOGGER
BOTL.F                      8821.0000:   BOTTOM DEPTH LOGGED
TOPL.F                      2726.0000:   TOP DEPTH LOGGED
CS1 .IN                       13.6250:   CASING SIZE 1
BS1 .IN                       12.2500:   BIT SIZE 1
DDB1.F                      8829.0000:   DEPTH DRILLED BIT 1
BHF .                              81:   FLUID CODE
DPT .          Lignosulfonate (Ligno):   DRILLING FLUID TYPE
MUDD.                         12.2000:   FLUID DENSITY
MUDV.                         44.0000:   FLUID VISCOSITY
DFPH.                         10.5000:   FLUID PH
FL  .                          2.0000:   FLUID LOSS
RM  .OHMM                       .9600:   RM
RMT .DEGF                     74.0000:   RM TEMP
RMF .OHMM                       .5900:   RMF
RMFT.DEGF                     71.0000:   RMF TEMP
FSC .                               M:   RMF CODE
RMC .OHMM                      1.8100:   RMC
RMCT.DEGF                     71.0000:   RMC TEMP
CMC .                               M:   RMC CODE
TMAX.DEGF                    160.0000:   MAX REC TEMP
TIMC.                         24.0000:   TIME SINCE CIRCLN
~PARAMETER INFORMATION (zones)
#MNEM.UNIT                       Value     Description
#=========                       =====     ===========
#ZONATION                           IE:   ZONATION NAME
#ZONE                            RUN_2:   ZONE NAME
TOP .                       8780.0000:   TOP DEPTH
BOT .                       9333.5000:   BOTTOM DEPTH
RUN .                               2:   RUN NUMBER
LCCD.                             440:   LOGGING CONTRACTOR
SRVC.                    Schlumberger:   LOGGING CONT NAME
DICO.          QC Data Collectors Ltd:   DIG COMPANY NAME
LDAT.                      09/09/1973:   DATE LOGGED
ELD .F                        93.0000:   LOG DATUM ELEVATION
TDD .F                      9340.0000:   TOTAL DEPTH DRILLER
TDL .F                      9334.0000:   TOTAL DEPTH LOGGER
BOTL.F                      9333.0000:   BOTTOM DEPTH LOGGED
TOPL.F                      8821.0000:   TOP DEPTH LOGGED
CS1 .IN                       13.3750:   CASING SIZE 1
BS1 .IN                       12.2500:   BIT SIZE 1
DDB1.F                      9340.0000:   DEPTH DRILLED BIT 1
BHF .                              99:   FLUID CODE
DPT .                   Miscellaneous:   DRILLING FLUID TYPE
MUDD.                         12.3000:   FLUID DENSITY
MUDV.                         46.0000:   FLUID VISCOSITY
DFPH.                         10.5000:   FLUID PH
FL  .                          3.2000:   FLUID LOSS
RM  .OHMM                       .6500:   RM
RMT .DEGF                     82.0000:   RM TEMP
RMF .OHMM                       .5000:   RMF
RMFT.DEGF                     82.0000:   RMF TEMP
FSC .                               M:   RMF CODE
RMC .OHMM                       .9600:   RMC
RMCT.DEGF                     82.0000:   RMC TEMP
CMC .                               M:   RMC CODE
TMAX.DEGF                    160.0000:   MAX REC TEMP
TIMC.                          4.0000:   TIME SINCE CIRCLN
~PARAMETER INFORMATION (zones)
#MNEM.UNIT                       Value     Description
#=========                       =====     ===========
#ZONATION                           IE:   ZONATION NAME
#ZONE                            RUN_3:   ZONE NAME
TOP .                       9343.0000:   TOP DEPTH
BOT .                      13125.5000:   BOTTOM DEPTH
RUN .                               3:   RUN NUMBER
LCCD.                             440:   LOGGING CONTRACTOR
SRVC.                    Schlumberger:   LOGGING CONT NAME
DICO.          QC Data Collectors Ltd:   DIG COMPANY NAME
LDAT.                      09/22/1973:   DATE LOGGED
ELD .F                        93.0000:   LOG DATUM ELEVATION
TDD .F                     13136.0000:   TOTAL DEPTH DRILLER
TDL .F                     13126.0000:   TOTAL DEPTH LOGGER
BOTL.F                     13125.0000:   BOTTOM DEPTH LOGGED
TOPL.F                      9343.0000:   TOP DEPTH LOGGED
CS1 .IN                        9.6250:   CASING SIZE 1
BS1 .IN                        8.5000:   BIT SIZE 1
DDB1.F                     13136.0000:   DEPTH DRILLED BIT 1
BHF .                              99:   FLUID CODE
DPT .                   Miscellaneous:   DRILLING FLUID TYPE
MUDD.                         16.5000:   FLUID DENSITY
MUDV.                         46.0000:   FLUID VISCOSITY
DFPH.                         11.0000:   FLUID PH
FL  .                          2.2000:   FLUID LOSS
RM  .OHMM                       .6100:   RM
RMT .DEGF                     80.0000:   RM TEMP
RMF .OHMM                       .2300:   RMF
RMFT.DEGF                     80.0000:   RMF TEMP
FSC .                               M:   RMF CODE
RMC .OHMM                      1.0000:   RMC
RMCT.DEGF                     80.0000:   RMC TEMP
CMC .                               M:   RMC CODE
TMAX.DEGF                    232.0000:   MAX REC TEMP
TIMC.                          7.0000:   TIME SINCE CIRCLN
~PARAMETER INFORMATION (zones)
#MNEM.UNIT                       Value     Description
#=========                       =====     ===========
#ZONATION                        SONIC:   ZONATION NAME
#ZONE                            RUN_1:   ZONE NAME
TOP .                       9343.0000:   TOP DEPTH
BOT .                      13014.5000:   BOTTOM DEPTH
RUN .                               1:   RUN NUMBER
LCCD.                             440:   LOGGING CONTRACTOR
SRVC.                    Schlumberger:   LOGGING CONT NAME
DICO.          QC Data Collectors Ltd:   DIG COMPANY NAME
LDAT.                      09/22/1973:   DATE LOGGED
ELD .F                        93.0000:   LOG DATUM ELEVATION
TDD .F                     13136.0000:   TOTAL DEPTH DRILLER
TDL .F                     13126.0000:   TOTAL DEPTH LOGGER
BOTL.F                     13014.0000:   BOTTOM DEPTH LOGGED
TOPL.F                      9343.0000:   TOP DEPTH LOGGED
CS1 .IN                        9.6250:   CASING SIZE 1
BS1 .IN                        8.5000:   BIT SIZE 1
DDB1.F                     13136.0000:   DEPTH DRILLED BIT 1
BHF .                              99:   FLUID CODE
DPT .                   Miscellaneous:   DRILLING FLUID TYPE
MUDD.                         16.5000:   FLUID DENSITY
MUDV.                         46.0000:   FLUID VISCOSITY
DFPH.                         11.0000:   FLUID PH
FL  .                          2.2000:   FLUID LOSS
RM  .OHMM                       .6100:   RM
RMT .DEGF                     80.0000:   RM TEMP
RMF .OHMM                       .2400:   RMF
RMFT.DEGF                     80.0000:   RMF TEMP
FSC .                               M:   RMF CODE
RMC .OHMM                      1.0000:   RMC
RMCT.DEGF                     80.0000:   RMC TEMP
CMC .                               M:   RMC CODE
TMAX.DEGF                    232.0000:   MAX REC TEMP
TIMC.                          6.0000:   TIME SINCE CIRCLN
~Curve Information Block
#MNEM.UNIT                    API CODE    No Description
#=========                    ========    == ===========
DEPT.F                   00 001 00 00:     1  DEPTH
ASN.OHMM                             :     2  Short-Normal Resistivity
ILD.OHMM                             :     3  Deep Induction Resistivity
SP.MV                                :     4  Spontaneous Potential
CALI.IN                              :     5  Caliper
DT.US/F                              :     6  Sonic Transit Time
~ASCII
# ...
 5471.0000      .6019      .4267   -89.7373  -999.2500  -999.2500
 5471.5000      .5957      .4301   -89.8552  -999.2500  -999.2500
 5472.0000      .5788      .4303   -88.6881  -999.2500  -999.2500
 5472.5000      .5592      .4267   -87.4952  -999.2500  -999.2500
 5473.0000      .5364      .4200   -86.0958  -999.2500  -999.2500
 5473.5000      .5214      .4125   -84.8795  -999.2500  -999.2500
 5474.0000      .5141      .4060   -83.9674  -999.2500  -999.2500
 5474.5000      .5156      .3996   -83.3903  -999.2500  -999.2500
 5475.0000      .5263      .3904   -83.6597  -999.2500  -999.2500
 5475.5000      .5486      .3804   -85.5000  -999.2500  -999.2500
 5476.0000      .5969      .3700   -89.8700  -999.2500  -999.2500
 5476.5000      .6319      .3586   -96.2831  -999.2500  -999.2500
 5477.0000      .6483      .3471  -100.3325  -999.2500  -999.2500
 5477.5000      .6459      .3334  -105.9741  -999.2500  -999.2500
 5478.0000      .5926      .3196  -110.2372  -999.2500  -999.2500
 5478.5000      .5278      .3068  -113.3823  -999.2500  -999.2500
 5479.0000      .4818      .2941  -115.9329  -999.2500  -999.2500
 5479.5000      .4499      .2897  -117.8641  -999.2500  -999.2500
 5480.0000      .4227      .2870  -118.8777  -999.2500  -999.2500
 5480.5000      .3976      .2913  -119.2699  -999.2500  -999.2500
 5481.0000      .3809      .2988  -119.4880  -999.2500  -999.2500
 5481.5000      .3714      .3209  -119.0737  -999.2500  -999.2500
 5482.0000      .3730      .3509  -119.1746  -999.2500  -999.2500
 5482.5000      .3864      .3862  -119.2921  -999.2500  -999.2500
 5483.0000      .4118      .4325  -119.5936  -999.2500  -999.2500
 5483.5000      .4448      .4796  -119.4880  -999.2500  -999.2500
 5484.0000      .4974      .5201  -116.7363  -999.2500  -999.2500
 5484.5000      .5414      .5397  -110.9178  -999.2500  -999.2500
 5485.0000      .5775      .5398  -104.9519  -999.2500  -999.2500
 5485.5000      .6013      .5332   -98.5142  -999.2500  -999.2500
 5486.0000      .6093      .5205   -92.7743  -999.2500  -999.2500
 5486.5000      .6032      .5113   -89.3564  -999.2500  -999.2500
 5487.0000      .6034      .5051   -87.0836  -999.2500  -999.2500
 5487.5000      .6168      .5078   -85.7162  -999.2500  -999.2500
 5488.0000      .6384      .5123   -85.1044  -999.2500  -999.2500
 5488.5000      .6599      .5178   -84.8940  -999.2500  -999.2500
 5489.0000      .6803      .5200   -84.8734  -999.2500  -999.2500
 5489.5000      .6975      .5210   -85.2249  -999.2500  -999.2500
 5490.0000      .7064      .5219   -85.8710  -999.2500  -999.2500
 5490.5000      .7072      .5229   -87.1770  -999.2500  -999.2500
 5491.0000      .6989      .5238   -89.3516  -999.2500  -999.2500
 5491.5000      .6910      .5248   -92.0986  -999.2500  -999.2500
 5492.0000      .6941      .5286   -94.8408  -999.2500  -999.2500
 5492.5000      .7161      .5331   -96.3015  -999.2500  -999.2500
 5493.0000      .7626      .5365   -97.4846  -999.2500  -999.2500
 5493.5000      .8298      .5390   -98.7280  -999.2500  -999.2500
 5494.0000      .8642      .5418  -100.8386  -999.2500  -999.2500
 5494.5000      .8694      .5464  -104.0674  -999.2500  -999.2500
 5495.0000      .8610      .5509  -107.3280  -999.2500  -999.2500
 5495.5000      .8440      .5521  -110.1389  -999.2500  -999.2500
 5496.0000      .8251      .5530  -112.3516  -999.2500  -999.2500
 5496.5000      .8035      .5520  -113.5507  -999.2500  -999.2500
 5497.0000      .7825      .5508  -114.3087  -999.2500  -999.2500
 5497.5000      .7633      .5419  -114.1428  -999.2500  -999.2500
 5498.0000      .7531      .5327  -113.2632  -999.2500  -999.2500
 5498.5000      .7437      .5231  -113.6459  -999.2500  -999.2500
 5499.0000      .7291      .5100  -114.4218  -999.2500  -999.2500
 5499.5000      .7150      .4960  -115.0261  -999.2500  -999.2500
 5500.0000      .6984      .4803  -115.0453  -999.2500  -999.2500
 5500.5000      .6922      .4614  -114.4733  -999.2500  -999.2500
 5501.0000      .6951      .4405  -113.5341  -999.2500  -999.2500
 5501.5000      .6839      .4208  -112.8590  -999.2500  -999.2500
 5502.0000      .6703      .4013  -113.2970  -999.2500  -999.2500
 5502.5000      .6658      .3826  -114.1821  -999.2500  -999.2500
 5503.0000      .6577      .3638  -114.8729  -999.2500  -999.2500
 5503.5000      .6481      .3441  -115.1465  -999.2500  -999.2500
 5504.0000      .6369      .3277  -115.2019  -999.2500  -999.2500
 5504.5000      .6380      .3141  -115.5643  -999.2500  -999.2500
 5505.0000      .6370      .3032  -116.3186  -999.2500  -999.2500
 5505.5000      .6162      .2938  -117.3838  -999.2500  -999.2500
 5506.0000      .5820      .2920  -118.3900  -999.2500  -999.2500
 5506.5000      .5476      .3032  -119.3864  -999.2500  -999.2500
 5507.0000      .5183      .3156  -119.9576  -999.2500  -999.2500
 5507.5000      .4978      .3525  -120.5295  -999.2500  -999.2500
 5508.0000      .4818      .3935  -120.6454  -999.2500  -999.2500
 5508.5000      .4839      .4371  -120.5937  -999.2500  -999.2500
 5509.0000      .5172      .4450  -120.0510  -999.2500  -999.2500
 5509.5000      .5617      .4510  -119.3029  -999.2500  -999.2500
 5510.0000      .6116      .4476  -118.0645  -999.2500  -999.2500
 5510.5000      .6551      .4377  -116.2498  -999.2500  -999.2500
 5511.0000      .6910      .4271  -114.4414  -999.2500  -999.2500
 5511.5000      .7131      .4070  -112.7632  -999.2500  -999.2500
 5512.0000      .7315      .3870  -111.6346  -999.2500  -999.2500
 5512.5000      .7315      .3594  -111.8220  -999.2500  -999.2500
 5513.0000      .7193      .3301  -113.8541  -999.2500  -999.2500
 5513.5000      .6834      .3066  -116.0631  -999.2500  -999.2500
 5514.0000      .6322      .2870  -118.0067  -999.2500  -999.2500
 5514.5000      .5834      .2688  -119.7070  -999.2500  -999.2500
 5515.0000      .5415      .2631  -121.0425  -999.2500  -999.2500
 5515.5000      .4976      .2575  -121.9276  -999.2500  -999.2500
 5516.0000      .4523      .2551  -122.4897  -999.2500  -999.2500
 5516.5000      .4111      .2735  -122.9860  -999.2500  -999.2500
 5517.0000      .3799      .2920  -123.0944  -999.2500  -999.2500
 5517.5000      .3635      .3143  -122.9521  -999.2500  -999.2500
 5518.0000      .3635      .3418  -122.4067  -999.2500  -999.2500
 5518.5000      .3791      .3681  -120.8250  -999.2500  -999.2500
 5519.0000      .4100      .3893  -118.5669  -999.2500  -999.2500
 5519.5000      .4657      .4104  -115.8567  -999.2500  -999.2500
 5520.0000      .4978      .4157  -113.2792  -999.2500  -999.2500
 5520.5000      .5189      .4180  -110.9695  -999.2500  -999.2500
 5521.0000      .5372      .4164  -108.4066  -999.2500  -999.2500
 5521.5000      .5525      .4070  -104.9912  -999.2500  -999.2500
 5522.0000      .5689      .3951   -98.2783  -999.2500  -999.2500
 5522.5000      .5880      .3783   -95.6609  -999.2500  -999.2500
 5523.0000      .6110      .3600   -94.9006  -999.2500  -999.2500
 5523.5000      .6401      .3401   -97.1432  -999.2500  -999.2500
 5524.0000      .6696      .3215  -102.7798  -999.2500  -999.2500
 5524.5000      .6728      .3073  -108.5885  -999.2500  -999.2500
 5525.0000      .6199      .2931  -113.3013  -999.2500  -999.2500
 5525.5000      .5573      .2809  -116.0238  -999.2500  -999.2500
 5526.0000      .4984      .2743  -117.8716  -999.2500  -999.2500
 5526.5000      .4540      .2677  -119.1455  -999.2500  -999.2500
 5527.0000      .4201      .2641  -120.2366  -999.2500  -999.2500
 5527.5000      .4076      .2632  -120.9724  -999.2500  -999.2500
 5528.0000      .4030      .2624  -121.6144  -999.2500  -999.2500
 5528.5000      .4053      .2652  -121.5463  -999.2500  -999.2500
 5529.0000      .4077      .2686  -121.4193  -999.2500  -999.2500
 5529.5000      .4201      .2723  -120.9503  -999.2500  -999.2500
 5530.0000      .4367      .2783  -120.4485  -999.2500  -999.2500
 5530.5000      .4679      .2843  -119.9700  -999.2500  -999.2500
 5531.0000      .5075      .2897  -119.8811  -999.2500  -999.2500
 5531.5000      .5600      .2923  -120.2961  -999.2500  -999.2500
