~VERSION INFORMATION
VERS.                             2.0:   CWLS Log ASCII Standard-VERSION 2.0
WRAP.                              NO:   One line per depth step
~Well Information Block
STRT.F                      2500.0000:   Top Depth
STOP.F                     12867.0000:   Bottom Depth
STEP.F                         .50000:   Depth Increment
NULL.                        -999.250:   Null Value
FLD .                      GA BLK 255:   Field Name
WELL.       OCSG01777  A004 ST00 BP00:   NAME
API .                  42706400140000:   WELL API
EDF .F                        91.0000:   ELEV DRILL FLOOR
COMP.       COASTAL STATES GAS PROD C:   OPERATOR
BN  .                             255:   BLOCK
CTRY.                             USA:   COUNTRY NAME
CNTY.                              GA:   COUNTY
CNTY.                        GLVSTN L:   COUNTY NAME
EKB .F                        92.0000:   ELEV KELLY BUSHING
TDD .F                      12868.000:   FINAL TD DRILLER
STAT.                           TEXAS:   STATE NAME
UWI .                  42706400140000:   WELL API
DICO.               IHS : Digitizing Company
~PARAMETER INFORMATION (zones)
#MNEM.UNIT                       Value     Description
#=========                       =====     ===========
#ZONATION                           IE:   ZONATION NAME
#ZONE                            RUN_1:   ZONE NAME
TOP .                       2500.0000:   TOP DEPTH
BOT .                       8267.5000:   BOTTOM DEPTH
RUN .                               1:   RUN NUMBER
LCCD.                             440:   LOGGING CONTRACTOR
SRVC.                    Schlumberger:   LOGGING CONT NAME
DICO.          QC Data Collectors Ltd:   DIG COMPANY NAME
LDAT.                      05/23/1973:   DATE LOGGED
ELD .F                        92.0000:   LOG DATUM ELEVATION
TDD .F                      8274.0000:   TOTAL DEPTH DRILLER
TDL .F                      8268.0000:   TOTAL DEPTH LOGGER
BOTL.F                      8267.0000:   BOTTOM DEPTH LOGGED
TOPL.F                      2500.0000:   TOP DEPTH LOGGED
CS1 .IN                       13.3750:   CASING SIZE 1
BS1 .IN                       12.2500:   BIT SIZE 1
DDB1.F                      8274.0000:   DEPTH DRILLED BIT 1
BHF .                              99:   FLUID CODE
DPT .                   Miscellaneous:   DRILLING FLUID TYPE
MUDV.                         45.0000:   FLUID VISCOSITY
FL  .                          3.4000:   FLUID LOSS
RM  .OHMM                       .7100:   RM
RMT .DEGF                     82.0000:   RM TEMP
RMF .OHMM                       .4200:   RMF
RMFT.DEGF                     82.0000:   RMF TEMP
FSC .                               M:   RMF CODE
RMC .OHMM                      1.2500:   RMC
RMCT.DEGF                     82.0000:   RMC TEMP
CMC .                               M:   RMC CODE
TMAX.DEGF                     82.0000:   MAX REC TEMP
TIMC.                          6.0000:   TIME SINCE CIRCLN
MUDD.                            NULL:   FLUID DENSITY
DFPH.                            NULL:   FLUID PH
~PARAMETER INFORMATION (zones)
#MNEM.UNIT                       Value     Description
#=========                       =====     ===========
#ZONATION                           IE:   ZONATION NAME
#ZONE                            RUN_2:   ZONE NAME
TOP .                       8273.0000:   TOP DEPTH
BOT .                      12867.5000:   BOTTOM DEPTH
RUN .                               2:   RUN NUMBER
LCCD.                             440:   LOGGING CONTRACTOR
SRVC.                    Schlumberger:   LOGGING CONT NAME
DICO.          QC Data Collectors Ltd:   DIG COMPANY NAME
LDAT.                      06/12/1973:   DATE LOGGED
ELD .F                        92.0000:   LOG DATUM ELEVATION
TDD .F                     12865.0000:   TOTAL DEPTH DRILLER
TDL .F                     12868.0000:   TOTAL DEPTH LOGGER
BOTL.F                     12867.0000:   BOTTOM DEPTH LOGGED
TOPL.F                      8272.0000:   TOP DEPTH LOGGED
CS1 .IN                        9.6250:   CASING SIZE 1
BS1 .IN                        8.5000:   BIT SIZE 1
DDB1.F                     12865.0000:   DEPTH DRILLED BIT 1
BHF .                              11:   FLUID CODE
DPT .         Caustic (high PH) (CLS):   DRILLING FLUID TYPE
MUDV.                         44.0000:   FLUID VISCOSITY
FL  .                          2.6000:   FLUID LOSS
RM  .OHMM                       .9100:   RM
RMT .DEGF                     76.0000:   RM TEMP
RMF .OHMM                       .4600:   RMF
RMFT.DEGF                     78.0000:   RMF TEMP
FSC .                               M:   RMF CODE
RMC .OHMM                      1.3200:   RMC
RMCT.DEGF                     76.0000:   RMC TEMP
CMC .                               C:   RMC CODE
TMAX.DEGF                    248.0000:   MAX REC TEMP
TIMC.                          5.0000:   TIME SINCE CIRCLN
MUDD.                         16.3000:   FLUID DENSITY
DFPH.                         10.5000:   FLUID PH
~PARAMETER INFORMATION (zones)
#MNEM.UNIT                       Value     Description
#=========                       =====     ===========
#ZONATION                        SONIC:   ZONATION NAME
#ZONE                            RUN_1:   ZONE NAME
TOP .                       8272.0000:   TOP DEPTH
BOT .                      12860.5000:   BOTTOM DEPTH
RUN .                               1:   RUN NUMBER
LCCD.                             440:   LOGGING CONTRACTOR
SRVC.                    Schlumberger:   LOGGING CONT NAME
DICO.          QC Data Collectors Ltd:   DIG COMPANY NAME
LDAT.                      06/12/1973:   DATE LOGGED
ELD .F                        92.0000:   LOG DATUM ELEVATION
TDD .F                     12865.0000:   TOTAL DEPTH DRILLER
BOTL.F                     12860.0000:   BOTTOM DEPTH LOGGED
TOPL.F                      8272.0000:   TOP DEPTH LOGGED
CS1 .IN                        9.6250:   CASING SIZE 1
BS1 .IN                        8.5000:   BIT SIZE 1
DDB1.F                     12865.0000:   DEPTH DRILLED BIT 1
BHF .                              11:   FLUID CODE
DPT .         Caustic (high PH) (CLS):   DRILLING FLUID TYPE
MUDD.                         16.3000:   FLUID DENSITY
MUDV.                         44.0000:   FLUID VISCOSITY
DFPH.                         10.5000:   FLUID PH
FL  .                          2.6000:   FLUID LOSS
RM  .OHMM                       .9100:   RM
RMT .DEGF                     76.0000:   RM TEMP
RMF .OHMM                       .4600:   RMF
RMFT.DEGF                     78.0000:   RMF TEMP
FSC .                               M:   RMF CODE
RMC .OHMM                      1.3200:   RMC
RMCT.DEGF                     76.0000:   RMC TEMP
CMC .                               C:   RMC CODE
TMAX.DEGF                    248.0000:   MAX REC TEMP
TIMC.                         10.0000:   TIME SINCE CIRCLN
~Curve Information Block
#MNEM.UNIT                    API CODE    No Description
#=========                    ========    == ===========
DEPT.F                   00 001 00 00:     1  DEPTH
ASN.OHMM                             :     2  Short-Normal Resistivity
ILD.OHMM                             :     3  Deep Induction Resistivity
SP.MV                                :     4  Spontaneous Potential
CALI.IN                              :     5  Caliper
DT.US/F                              :     6  Sonic Transit Time
~ASCII
# ...
11406.0000      .9936      .6279   -47.2687    12.4164   110.7130
11406.5000      .9896      .5927   -47.1360    10.8587   112.7837
11407.0000      .9928      .5620   -47.0251    10.4636   112.0869
11407.5000      .9765      .5409   -46.8661    10.9565   104.0269
11408.0000      .9551      .5305   -46.6730    11.8455   103.4271
11408.5000      .9420      .5297   -46.3555    11.8554   103.1954
11409.0000      .9339      .5293   -46.6289    10.7935   103.0061
11409.5000      .9404      .5292   -47.5232    10.8565   103.1024
11410.0000      .8860      .5291   -47.0516    11.0415   105.2278
11410.5000      .7524      .5326   -46.1262    11.2321   116.3566
11411.0000      .7337      .5385   -45.0123    11.4188   110.2822
11411.5000      .8340      .5438   -44.5275    11.6232   107.8641
11412.0000      .9834      .5421   -44.4794    11.8741   109.0082
11412.5000     1.0121      .5404   -44.6895    11.7121   106.0975
11413.0000      .9839      .5412   -45.0062    11.6065   104.2987
11413.5000      .9620      .5462   -45.3740    12.0341   106.8585
11414.0000      .9306      .5511   -45.7639    12.2280   101.6104
11414.5000      .9284      .5511   -46.0510    12.0164    93.8617
11415.0000      .9386      .5431   -46.1489    11.8583    98.4872
11415.5000      .9519      .5716   -45.9081    11.7908   100.9729
11416.0000      .9786      .6183   -45.4670    11.5027   101.6252
11416.5000     1.0242      .6722   -45.1355    11.0578   101.5740
11417.0000     1.1288      .7231   -48.2850    11.1239   101.3320
11417.5000     1.2314      .7814   -51.2915    11.2311   101.3036
11418.0000     1.3147      .8480   -54.0762    10.3214   101.3685
11418.5000     1.2859      .9142   -56.7032     9.8972   101.3954
11419.0000     1.3220      .9528   -59.1677     9.9431   101.3381
11419.5000     1.4153      .9765   -61.8193    10.5338   101.2394
11420.0000     1.4886      .9634   -64.5055    11.0296   101.1486
11420.5000     1.5289      .8898   -66.9008     9.7771   101.1503
11421.0000     1.5761      .8517   -69.0005     9.8048   101.1521
11421.5000     1.6585      .8605   -70.9572     9.4166   101.1267
11422.0000     1.7349      .8855   -73.1603     9.4339   101.0983
11422.5000     1.7858      .9197   -73.5410     9.4934   101.0729
11423.0000     1.8190      .9716   -74.7375     9.5216   101.0438
11423.5000     1.8464     1.0271   -76.6350     9.5406   100.9286
11424.0000     1.8845     1.1014   -79.3212     9.5512   100.8223
11424.5000     2.0498     1.2022   -81.6870     9.5629   100.6177
11425.0000     2.2275     1.2489   -80.1099     9.5802   100.6702
11425.5000     2.4084     1.2495   -76.4724     9.6038   100.4354
11426.0000     2.6260     1.2054   -73.0074     9.6384    99.3569
11426.5000     2.8076     1.1800   -69.0891     9.6718    93.7432
11427.0000     2.6776     1.1961   -65.6194  -999.2500    87.7635
11427.5000     2.2321     1.2204   -62.1988  -999.2500    87.2892
11428.0000     2.0052     1.2496   -59.2711  -999.2500    89.9899
11428.5000     1.9867     1.2775   -57.1025  -999.2500    90.7843
11429.0000     2.1066     1.3117   -56.2621  -999.2500    88.8607
11429.5000     2.3739     1.3890   -62.0214  -999.2500    78.4435
11430.0000     2.9056     1.5513   -67.6500  -999.2500    69.6818
11430.5000     3.8183     1.7949   -72.7069  -999.2500   105.3595
11431.0000     4.4524     2.0367   -75.0332  -999.2500   105.2317
11431.5000     4.6897     2.2868   -75.4063  -999.2500   105.0737
11432.0000     4.6149     2.3495   -74.7400  -999.2500  -999.2500
11432.5000     4.0861     2.0760   -71.8788  -999.2500  -999.2500
11433.0000     3.5633     1.7634   -68.3005  -999.2500  -999.2500
11433.5000     3.0228     1.4681   -64.8505  -999.2500  -999.2500
11434.0000     2.3921     1.2273   -61.4003  -999.2500  -999.2500
11434.5000     2.0696     1.0102   -57.9453  -999.2500  -999.2500
11435.0000     1.9631      .9639   -54.4952  -999.2500  -999.2500
11435.5000     1.7085      .8615   -50.4388  -999.2500  -999.2500
11436.0000     1.4769      .7841   -47.4126  -999.2500  -999.2500
11436.5000     1.3229      .7009   -44.7806  -999.2500  -999.2500
11437.0000     1.2383      .6455   -44.3466  -999.2500  -999.2500
11437.5000     1.1867      .6430   -44.7264  -999.2500  -999.2500
11438.0000     1.1362      .6417   -44.8198  -999.2500  -999.2500
11438.5000     1.1286      .6485   -44.7697  -999.2500  -999.2500
11439.0000     1.1461      .6695   -44.4800  -999.2500  -999.2500
11439.5000     1.1645      .6925   -43.8959  -999.2500  -999.2500
11440.0000     1.1812      .7107   -42.7328  -999.2500  -999.2500
11440.5000     1.1940      .7205   -43.2343  -999.2500  -999.2500
11441.0000     1.1843      .7224   -44.0536  -999.2500  -999.2500
11441.5000     1.1560      .7227   -44.5082  -999.2500  -999.2500
11442.0000     1.1162      .7200   -44.5458  -999.2500  -999.2500
11442.5000     1.0597      .7167   -44.5422  -999.2500  -999.2500
11443.0000     1.0600      .7114   -44.1227  -999.2500  -999.2500
11443.5000     1.0680      .7061   -43.7025  -999.2500  -999.2500
11444.0000     1.0829      .7013   -43.2515  -999.2500  -999.2500
11444.5000     1.1052      .6966   -42.9016  -999.2500  -999.2500
11445.0000     1.1264      .6922   -43.0821  -999.2500  -999.2500
11445.5000     1.1238      .6894   -43.1907  -999.2500  -999.2500
11446.0000     1.0881      .6865   -42.8252  -999.2500  -999.2500
11446.5000     1.0692      .6839   -42.2374  -999.2500  -999.2500
11447.0000     1.0670      .6818   -43.0125  -999.2500  -999.2500
11447.5000     1.0642      .6798   -43.6458  -999.2500  -999.2500
11448.0000     1.0316      .6858   -43.8257  -999.2500  -999.2500
11448.5000     1.0114      .6934   -43.7224  -999.2500  -999.2500
11449.0000     1.0531      .7084   -43.9421  -999.2500  -999.2500
11449.5000     1.1095      .7209   -43.9009  -999.2500  -999.2500
11450.0000     1.1527      .7316   -43.4376  -999.2500  -999.2500
11450.5000     1.1904      .7362   -44.2404  -999.2500  -999.2500
11451.0000     1.2072      .7465   -44.6617  -999.2500  -999.2500
11451.5000     1.2076      .7657   -44.9445  -999.2500  -999.2500
11452.0000     1.2341      .7989   -45.4756  -999.2500  -999.2500
11452.5000     1.3424      .8356   -51.4542  -999.2500  -999.2500
11453.0000     1.5643      .8745   -58.1375  -999.2500  -999.2500
11453.5000     1.8357      .9212   -64.5350  -999.2500  -999.2500
11454.0000     2.0322      .9695   -71.7803  -999.2500  -999.2500
11454.5000     2.4074     1.0089   -79.6958  -999.2500  -999.2500
11455.0000     2.8728     1.0469   -83.2445  -999.2500  -999.2500
11455.5000     2.8908     1.0780   -86.6453  -999.2500  -999.2500
11456.0000     2.8267     1.1123   -89.8047  -999.2500  -999.2500
11456.5000     2.7872     1.1534   -90.4675  -999.2500  -999.2500
11457.0000     2.7932     1.2107   -90.3993  -999.2500  -999.2500
11457.5000     2.8331     1.2765   -90.1373  -999.2500  -999.2500
11458.0000     2.9174     1.3572   -89.4153  -999.2500  -999.2500
11458.5000     3.0420     1.4516   -87.8873  -999.2500  -999.2500
11459.0000     3.1724     1.5397   -85.9948  -999.2500  -999.2500
11459.5000     3.2918     1.5878   -83.4958  -999.2500  -999.2500
11460.0000     3.3749     1.5165   -80.2773  -999.2500  -999.2500
11460.5000     2.8081     1.3866   -75.2896    10.6298   105.7539
11461.0000     2.2095     1.2512   -70.5283    10.6183   105.6847
11461.5000     1.9636     1.1131   -65.8263    10.6042   105.5900
11462.0000     1.8904      .9792   -60.3653    10.5924   105.5074
11462.5000     1.5636      .8687   -55.5154    10.5859   105.3929
11463.0000     1.3038      .7815   -50.7740    10.5802   105.2623
11463.5000     1.2381      .7129   -47.1366    10.5750   105.0958
11464.0000     1.1894      .7028   -46.1927    10.5687   104.2567
11464.5000     1.1469      .7144   -45.0887    10.5629   102.3566
11465.0000     1.1389      .7278   -43.8541    10.5596   100.0291
11465.5000     1.1571      .7440   -45.0222    10.5563    97.1875
11466.0000     1.1837      .7367   -44.8300    10.5555    93.9803
11466.5000     1.2190      .7180   -44.5829    10.5555    90.3431
