~VERSION INFORMATION
VERS.                             2.0:   CWLS Log ASCII Standard-VERSION 2.0
WRAP.                              NO:   One line per depth step
~Well Information Block
STRT.F                      3138.0000:   Top Depth
STOP.F                      8628.0000:   Bottom Depth
STEP.F                         .50000:   Depth Increment
NULL.                        -999.250:   Null Value
FLD .                      BA BLK 376:   Field Name
WELL.       OCSG07215   003 ST00 BP00:   NAME
API .                  42704401900000:   WELL API
EDF .F                        90.0000:   ELEV DRILL FLOOR
COMP.         UNION EXPL PARTNERS LTD:   OPERATOR
BN  .                             376:   BLOCK
CTRY.                             USA:   COUNTRY NAME
CNTY.                        BRAZOS L:   COUNTY NAME
EKB .F                        91.0000:   ELEV KELLY BUSHING
TDD .F                       8678.000:   FINAL TD DRILLER
STAT.                           TEXAS:   STATE NAME
UWI .                  42704401900000:   WELL API
DICO.               IHS : Digitizing Company
~PARAMETER INFORMATION (zones)
#MNEM.UNIT                       Value     Description
#=========                       =====     ===========
#ZONATION                          DIL:   ZONATION NAME
#ZONE                            RUN_1:   ZONE NAME
TOP .                       3138.0000:   TOP DEPTH
BOT .                       5660.5000:   BOTTOM DEPTH
RUN .                               1:   RUN NUMBER
SRVC.                               0:   LOGGING CONTRACTOR
SRVC.                         UNKNOWN:   LOGGING CONT NAME
DICO.          QC Data Collectors Ltd:   DIG COMPANY NAME
LDAT.                      06/22/1989:   DATE LOGGED
ELD .F                        91.0000:   LOG DATUM ELEVATION
TDD .F                      5675.0000:   TOTAL DEPTH DRILLER
TDL .F                      5662.0000:   TOTAL DEPTH LOGGER
BOTL.F                      5660.0000:   BOTTOM DEPTH LOGGED
TOPL.F                      3220.0000:   TOP DEPTH LOGGED
CS1 .IN                       10.7500:   CASING SIZE 1
BS1 .IN                        9.8750:   BIT SIZE 1
DDB1.F                      5675.0000:   DEPTH DRILLED BIT 1
BHF .                              20:   FLUID CODE
DPT .                    Gel (Gelchem:   DRILLING FLUID TYPE
MUDD.                          9.0000:   FLUID DENSITY
MUDV.                         68.0000:   FLUID VISCOSITY
DFPH.                          9.0000:   FLUID PH
FL  .                         12.0000:   FLUID LOSS
RM  .OHMM                      1.0500:   RM
RMT .DEGF                     75.0000:   RM TEMP
RMF .OHMM                       .8200:   RMF
RMFT.DEGF                     75.0000:   RMF TEMP
FSC .                               M:   RMF CODE
RMC .OHMM                      1.2200:   RMC
RMCT.DEGF                     75.0000:   RMC TEMP
CMC .                               M:   RMC CODE
TMAX.DEGF                    128.0000:   MAX REC TEMP
TIMC.                          7.0000:   TIME SINCE CIRCLN
~PARAMETER INFORMATION (zones)
#MNEM.UNIT                       Value     Description
#=========                       =====     ===========
#ZONATION                          DIL:   ZONATION NAME
#ZONE                            RUN_2:   ZONE NAME
TOP .                       5664.0000:   TOP DEPTH
BOT .                       8628.5000:   BOTTOM DEPTH
RUN .                               2:   RUN NUMBER
SRVC.                               0:   LOGGING CONTRACTOR
SRVC.                         UNKNOWN:   LOGGING CONT NAME
DICO.          QC Data Collectors Ltd:   DIG COMPANY NAME
LDAT.                      07/04/1989:   DATE LOGGED
ELD .F                        91.0000:   LOG DATUM ELEVATION
TDD .F                      8678.0000:   TOTAL DEPTH DRILLER
TDL .F                      8630.0000:   TOTAL DEPTH LOGGER
BOTL.F                      8628.0000:   BOTTOM DEPTH LOGGED
TOPL.F                      5664.0000:   TOP DEPTH LOGGED
CS1 .IN                        7.6250:   CASING SIZE 1
BS1 .IN                        6.5000:   BIT SIZE 1
DDB1.F                      8678.0000:   DEPTH DRILLED BIT 1
BHF .                              81:   FLUID CODE
DPT .          Lignosulfonate (Ligno):   DRILLING FLUID TYPE
MUDD.                         11.8000:   FLUID DENSITY
MUDV.                         48.0000:   FLUID VISCOSITY
DFPH.                         10.5000:   FLUID PH
FL  .                          6.6000:   FLUID LOSS
RM  .OHMM                       .7200:   RM
RMT .DEGF                     70.0000:   RM TEMP
RMF .OHMM                       .5900:   RMF
RMFT.DEGF                     70.0000:   RMF TEMP
FSC .                               M:   RMF CODE
RMC .OHMM                       .9000:   RMC
RMCT.DEGF                     70.0000:   RMC TEMP
CMC .                               C:   RMC CODE
TMAX.DEGF                    191.0000:   MAX REC TEMP
TIMC.                          5.0000:   TIME SINCE CIRCLN
~Curve Information Block
#MNEM.UNIT                    API CODE    No Description
#=========                    ========    == ===========
DEPT.F                   00 001 00 00:     1  DEPTH
DT.US/F                              :     2  Sonic Transit Time
GR.GAPI                              :     3  Gamma Ray
ILD.OHMM                             :     4  Deep Induction Resistivity
ILM.OHMM                             :     5  Medium Induction Resistivity
RFOC.OHMM                            :     6  Medium Resistivity
SP.MV                                :     7  Spontaneous Potential
~ASCII
# ...
 7870.0000    97.0775    63.4606      .8422      .8481     1.1012   -66.1655
 7870.5000    98.4136    68.0197      .8355      .8464     1.0559   -64.0511
 7871.0000    99.6499    69.9764      .8308      .8482     1.0417   -62.3802
 7871.5000   100.6907    73.9637      .8293      .8530     1.0348   -61.1763
 7872.0000   101.5411    76.3619      .8315      .8580     1.0376   -60.3159
 7872.5000   102.1179    73.0089      .8378      .8632     1.0462   -59.5171
 7873.0000   102.4556    71.1949      .8454      .8688     1.0500   -58.8482
 7873.5000   102.6085    70.8810      .8550      .8716     1.0509   -58.3511
 7874.0000   102.4569    70.8455      .8698      .8746     1.0482   -58.1574
 7874.5000   101.9886    69.9659      .8862      .8771     1.1003   -58.4009
 7875.0000   100.5634    66.4457      .9001      .8750     1.2003   -59.3164
 7875.5000    98.3846    64.2291      .9055      .8634     1.2216   -61.4150
 7876.0000    96.9673    63.9989      .8839      .8418     1.1138   -62.8700
 7876.5000    96.7690    65.6351      .8496      .8346      .9311   -62.3501
 7877.0000   101.8496    67.9277      .8285      .8339      .8972   -61.2327
 7877.5000   107.0784    70.4486      .8299      .8316      .9034   -59.7768
 7878.0000   107.7163    71.9413      .8312      .8235      .9504   -59.1053
 7878.5000   106.0862    71.7996      .8088      .8109     1.0627   -59.3064
 7879.0000   104.6149    71.0330      .7865      .7972     1.1069   -59.4293
 7879.5000   104.0370    70.6323      .7648      .7815     1.1131   -59.3920
 7880.0000   104.0825    71.5084      .7452      .7646     1.0649   -59.2953
 7880.5000   104.4069    73.2659      .7266      .7469     1.0253   -59.0882
 7881.0000   107.7871    75.0051      .7070      .7276      .9915   -58.8065
 7881.5000   109.8976    76.2734      .6937      .7120      .9644   -58.5560
 7882.0000   110.9240    77.2085      .6863      .7010      .9358   -58.3160
 7882.5000   112.0015    76.9941      .6805      .6909      .9176   -58.1160
 7883.0000   113.1669    76.2616      .6760      .6818      .9049   -57.9242
 7883.5000   113.9360    74.8661      .6721      .6788      .9002   -57.7441
 7884.0000   114.1956    72.4685      .6699      .6787      .9006   -57.5654
 7884.5000   113.8218    72.1039      .6677      .6813      .9106   -57.4459
 7885.0000   113.1945    72.8580      .6678      .6845      .9316   -57.3425
 7885.5000   112.2509    75.0759      .6684      .6885      .9568   -57.2897
 7886.0000   111.4016    75.8625      .6696      .6925      .9781   -57.2505
 7886.5000   110.7747    74.4464      .6713      .6965      .9788   -57.2580
 7887.0000   110.6476    72.9786      .6729      .7004      .9646   -57.2806
 7887.5000   111.0375    73.8142      .6746      .7032      .9526   -57.3398
 7888.0000   111.2012    74.7480      .6762      .7060      .9485   -57.4077
 7888.5000   111.3209    73.7040      .6777      .7081      .9480   -57.4603
 7889.0000   111.3845    72.8423      .6788      .7085      .9629   -57.4726
 7889.5000   111.3361    72.1039      .6798      .7073      .9750   -57.4470
 7890.0000   111.2935    71.5714      .6828      .7060      .9832   -57.4586
 7890.5000   111.2576    71.0546      .6859      .7054      .9855   -57.4813
 7891.0000   111.2169    71.0219      .6900      .7058      .9836   -57.5040
 7891.5000   111.1655    72.1274      .6942      .7078      .9791   -57.5447
 7892.0000   111.1045    73.6515      .6973      .7104      .9774   -57.5913
 7892.5000   110.8005    75.2622      .7004      .7149      .9793   -57.6140
 7893.0000   110.2854    75.2117      .7032      .7188      .9839   -57.6366
 7893.5000   109.5576    74.7159      .7058      .7182      .9927   -57.6593
 7894.0000   108.7682    75.2111      .7008      .7144      .9902   -57.6709
 7894.5000   108.4526    75.2490      .6956      .7095      .9757   -57.6425
 7895.0000   108.8444    74.6746      .6887      .7029      .9613   -57.5849
 7895.5000   109.4565    75.8917      .6824      .6965      .9505   -57.5281
 7896.0000   110.0315    77.0245      .6768      .6920      .9493   -57.5979
 7896.5000   110.5774    76.3298      .6734      .6876      .9515   -57.7022
 7897.0000   110.8495    74.8739      .6713      .6861      .9569   -57.8036
 7897.5000   110.9733    72.8961      .6707      .6864      .9631   -57.9037
 7898.0000   110.8894    70.3673      .6708      .6882      .9705   -57.9999
 7898.5000   110.7552    69.7430      .6717      .6901      .9790   -58.0959
 7899.0000   110.5286    69.6544      .6743      .6927      .9863   -58.1185
 7899.5000   110.2230    69.7421      .6769      .6969      .9908   -58.1311
 7900.0000   109.8280    69.9127      .6795      .7018      .9913   -58.0828
 7900.5000   109.3463    69.9880      .6825      .7075      .9918   -58.0558
 7901.0000   108.8220    69.6486      .6872      .7152     1.0014   -58.0751
 7901.5000   108.1487    68.7855      .6937      .7240     1.0113   -58.1288
 7902.0000   107.4551    67.2747      .6990      .7348     1.0217   -58.1957
 7902.5000   106.9570    66.6503      .7048      .7471     1.0264   -58.3006
 7903.0000   106.9026    67.5251      .7130      .7594     1.0221   -58.4057
 7903.5000   107.1013    68.9220      .7228      .7739     1.0124   -58.4685
 7904.0000   107.2579    70.3595      .7405      .7928     1.0050   -58.5269
 7904.5000   107.1375    71.6697      .7664      .8158     1.0031   -58.5462
 7905.0000   106.6571    72.6324      .7947      .8488     1.0080   -58.5164
 7905.5000   105.3407    73.2001      .8247      .8927     1.0253   -58.4711
 7906.0000   103.5925    72.8711      .8497      .9454     1.0669   -58.4435
 7906.5000   101.1356    71.8494      .9022     1.0057     1.1383   -58.5344
 7907.0000    97.2665    70.7136      .9712     1.0756     1.3112   -58.7623
 7907.5000    93.5313    69.0059     1.0423     1.1424     1.4891   -59.3059
 7908.0000    91.0822    65.1289     1.1220     1.2106     1.5833   -60.0194
 7908.5000    90.8617    61.0577     1.1980     1.2630     1.5573   -60.6602
 7909.0000    91.9602    61.2991     1.2706     1.3125     1.4434   -61.0126
 7909.5000    92.9911    62.7234     1.3219     1.3530     1.3464   -61.2090
 7910.0000    93.3215    63.3222     1.3529     1.3734     1.3398   -61.2359
 7910.5000    92.5127    63.0104     1.3607     1.3686     1.4199   -61.2385
 7911.0000    90.3289    62.2985     1.3571     1.3390     1.5780   -61.2117
 7911.5000    89.5801    61.1679     1.3239     1.3008     1.6529   -61.0825
 7912.0000    89.5892    59.2792     1.2857     1.2392     1.5854   -60.4890
 7912.5000    90.0571    59.4668     1.2419     1.1716     1.4720   -59.8955
 7913.0000    90.9115    60.4125     1.1941     1.1156     1.4522   -59.3840
 7913.5000    91.8395    60.9719     1.1457     1.0755     1.4589   -58.9525
 7914.0000    92.9327    61.4014     1.1016     1.0543     1.4264   -58.8468
 7914.5000    94.9565    62.3365     1.0617     1.0455     1.2373   -58.8261
 7915.0000    97.5946    64.5492     1.0264     1.0369     1.1733   -58.8077
 7915.5000    98.6826    66.9703      .9926     1.0182     1.1788   -58.8209
 7916.0000    98.2377    68.6873      .9623      .9931     1.2207   -58.8890
 7916.5000    96.3923    68.2478      .9387      .9726     1.3123   -58.9686
 7917.0000    95.1206    66.1335      .9195      .9548     1.4082   -59.0664
 7917.5000    94.6403    63.6888      .9024      .9392     1.4335   -59.1821
 7918.0000    95.5918    63.5485      .8910      .9275     1.2328   -59.2899
 7918.5000    97.6051    64.5360      .8803      .9187     1.1750   -59.4071
 7919.0000   102.0386    66.5402      .8765      .9150     1.2034   -59.5309
 7919.5000   103.6611    68.4261      .8766      .9155     1.2511   -59.7070
 7920.0000   103.4875    69.2769      .8836      .9206     1.3263   -59.8763
 7920.5000   101.5608    68.8223      .9024      .9313     1.3945   -60.0424
 7921.0000    98.5500    66.9729      .9299      .9587     1.4204   -60.1166
 7921.5000    96.8767    64.9714      .9674      .9904     1.3747   -60.1968
