~VERSION INFORMATION
VERS.                             2.0:   CWLS Log ASCII Standard-VERSION 2.0
WRAP.                              NO:   One line per depth step
~Well Information Block
STRT.F                      2500.0000:   Top Depth
STOP.F                     12867.0000:   Bottom Depth
STEP.F                         .50000:   Depth Increment
NULL.                        -999.250:   Null Value
FLD .                      GA BLK 255:   Field Name
WELL.       OCSG01777  A004 ST00 BP00:   NAME
API .                  42706400140000:   WELL API
EDF .F                        91.0000:   ELEV DRILL FLOOR
COMP.       COASTAL STATES GAS PROD C:   OPERATOR
BN  .                             255:   BLOCK
CTRY.                             USA:   COUNTRY NAME
CNTY.                              GA:   COUNTY
CNTY.                        GLVSTN L:   COUNTY NAME
EKB .F                        92.0000:   ELEV KELLY BUSHING
TDD .F                      12868.000:   FINAL TD DRILLER
STAT.                           TEXAS:   STATE NAME
UWI .                  42706400140000:   WELL API
DICO.               IHS : Digitizing Company
~PARAMETER INFORMATION (zones)
#MNEM.UNIT                       Value     Description
#=========                       =====     ===========
#ZONATION                           IE:   ZONATION NAME
#ZONE                            RUN_1:   ZONE NAME
TOP .                       2500.0000:   TOP DEPTH
BOT .                       8267.5000:   BOTTOM DEPTH
RUN .                               1:   RUN NUMBER
LCCD.                             440:   LOGGING CONTRACTOR
SRVC.                    Schlumberger:   LOGGING CONT NAME
DICO.          QC Data Collectors Ltd:   DIG COMPANY NAME
LDAT.                      05/23/1973:   DATE LOGGED
ELD .F                        92.0000:   LOG DATUM ELEVATION
TDD .F                      8274.0000:   TOTAL DEPTH DRILLER
TDL .F                      8268.0000:   TOTAL DEPTH LOGGER
BOTL.F                      8267.0000:   BOTTOM DEPTH LOGGED
TOPL.F                      2500.0000:   TOP DEPTH LOGGED
CS1 .IN                       13.3750:   CASING SIZE 1
BS1 .IN                       12.2500:   BIT SIZE 1
DDB1.F                      8274.0000:   DEPTH DRILLED BIT 1
BHF .                              99:   FLUID CODE
DPT .                   Miscellaneous:   DRILLING FLUID TYPE
MUDV.                         45.0000:   FLUID VISCOSITY
FL  .                          3.4000:   FLUID LOSS
RM  .OHMM                       .7100:   RM
RMT .DEGF                     82.0000:   RM TEMP
RMF .OHMM                       .4200:   RMF
RMFT.DEGF                     82.0000:   RMF TEMP
FSC .                               M:   RMF CODE
RMC .OHMM                      1.2500:   RMC
RMCT.DEGF                     82.0000:   RMC TEMP
CMC .                               M:   RMC CODE
TMAX.DEGF                     82.0000:   MAX REC TEMP
TIMC.                          6.0000:   TIME SINCE CIRCLN
MUDD.                            NULL:   FLUID DENSITY
DFPH.                            NULL:   FLUID PH
~PARAMETER INFORMATION (zones)
#MNEM.UNIT                       Value     Description
#=========                       =====     ===========
#ZONATION                           IE:   ZONATION NAME
#ZONE                            RUN_2:   ZONE NAME
TOP .                       8273.0000:   TOP DEPTH
BOT .                      12867.5000:   BOTTOM DEPTH
RUN .                               2:   RUN NUMBER
LCCD.                             440:   LOGGING CONTRACTOR
SRVC.                    Schlumberger:   LOGGING CONT NAME
DICO.          QC Data Collectors Ltd:   DIG COMPANY NAME
LDAT.                      06/12/1973:   DATE LOGGED
ELD .F                        92.0000:   LOG DATUM ELEVATION
TDD .F                     12865.0000:   TOTAL DEPTH DRILLER
TDL .F                     12868.0000:   TOTAL DEPTH LOGGER
BOTL.F                     12867.0000:   BOTTOM DEPTH LOGGED
TOPL.F                      8272.0000:   TOP DEPTH LOGGED
CS1 .IN                        9.6250:   CASING SIZE 1
BS1 .IN                        8.5000:   BIT SIZE 1
DDB1.F                     12865.0000:   DEPTH DRILLED BIT 1
BHF .                              11:   FLUID CODE
DPT .         Caustic (high PH) (CLS):   DRILLING FLUID TYPE
MUDV.                         44.0000:   FLUID VISCOSITY
FL  .                          2.6000:   FLUID LOSS
RM  .OHMM                       .9100:   RM
RMT .DEGF                     76.0000:   RM TEMP
RMF .OHMM                       .4600:   RMF
RMFT.DEGF                     78.0000:   RMF TEMP
FSC .                               M:   RMF CODE
RMC .OHMM                      1.3200:   RMC
RMCT.DEGF                     76.0000:   RMC TEMP
CMC .                               C:   RMC CODE
TMAX.DEGF                    248.0000:   MAX REC TEMP
TIMC.                          5.0000:   TIME SINCE CIRCLN
MUDD.                         16.3000:   FLUID DENSITY
DFPH.                         10.5000:   FLUID PH
~PARAMETER INFORMATION (zones)
#MNEM.UNIT                       Value     Description
#=========                       =====     ===========
#ZONATION                        SONIC:   ZONATION NAME
#ZONE                            RUN_1:   ZONE NAME
TOP .                       8272.0000:   TOP DEPTH
BOT .                      12860.5000:   BOTTOM DEPTH
RUN .                               1:   RUN NUMBER
LCCD.                             440:   LOGGING CONTRACTOR
SRVC.                    Schlumberger:   LOGGING CONT NAME
DICO.          QC Data Collectors Ltd:   DIG COMPANY NAME
LDAT.                      06/12/1973:   DATE LOGGED
ELD .F                        92.0000:   LOG DATUM ELEVATION
TDD .F                     12865.0000:   TOTAL DEPTH DRILLER
BOTL.F                     12860.0000:   BOTTOM DEPTH LOGGED
TOPL.F                      8272.0000:   TOP DEPTH LOGGED
CS1 .IN                        9.6250:   CASING SIZE 1
BS1 .IN                        8.5000:   BIT SIZE 1
DDB1.F                     12865.0000:   DEPTH DRILLED BIT 1
BHF .                              11:   FLUID CODE
DPT .         Caustic (high PH) (CLS):   DRILLING FLUID TYPE
MUDD.                         16.3000:   FLUID DENSITY
MUDV.                         44.0000:   FLUID VISCOSITY
DFPH.                         10.5000:   FLUID PH
FL  .                          2.6000:   FLUID LOSS
RM  .OHMM                       .9100:   RM
RMT .DEGF                     76.0000:   RM TEMP
RMF .OHMM                       .4600:   RMF
RMFT.DEGF                     78.0000:   RMF TEMP
FSC .                               M:   RMF CODE
RMC .OHMM                      1.3200:   RMC
RMCT.DEGF                     76.0000:   RMC TEMP
CMC .                               C:   RMC CODE
TMAX.DEGF                    248.0000:   MAX REC TEMP
TIMC.                         10.0000:   TIME SINCE CIRCLN
~Curve Information Block
#MNEM.UNIT                    API CODE    No Description
#=========                    ========    == ===========
DEPT.F                   00 001 00 00:     1  DEPTH
ASN.OHMM                             :     2  Short-Normal Resistivity
ILD.OHMM                             :     3  Deep Induction Resistivity
SP.MV                                :     4  Spontaneous Potential
CALI.IN                              :     5  Caliper
DT.US/F                              :     6  Sonic Transit Time
~ASCII
# ...
10064.0000      .7227      .4489   -39.6590    10.1634   111.2162
10064.5000      .6987      .4333   -39.6566    10.0909   109.5233
10065.0000      .6699      .4195   -39.1801    10.0488   110.1268
10065.5000      .6673      .4062   -38.8931    10.0287   112.1632
10066.0000      .6661      .3931   -39.4400    10.0415   112.7091
10066.5000      .6591      .3860   -39.7960    10.1670   111.6995
10067.0000      .6533      .3814   -40.0746    10.4318   111.4541
10067.5000      .6518      .3770   -40.2224    10.6775   113.3801
10068.0000      .6504      .3733   -40.1678    10.6800   115.5391
10068.5000      .6519      .3695   -40.1044    10.6777   118.1102
10069.0000      .6558      .3635   -40.0385    10.6901   119.8148
10069.5000      .6609      .3540   -39.9698    10.4894   118.6598
10070.0000      .6595      .3445   -39.9901    10.4061   116.8247
10070.5000      .6349      .3400   -40.2123    10.4713   115.8899
10071.0000      .6201      .3357   -40.5942    10.6133   116.4395
10071.5000      .6112      .3326   -40.8843    10.5123   117.0099
10072.0000      .6086      .3313   -40.4057    10.4821   117.2333
10072.5000      .6097      .3301   -39.3045    10.5879   117.3307
10073.0000      .6127      .3321   -38.0259    10.5702   117.4949
10073.5000      .6178      .3340   -39.2987    10.3078   118.2256
10074.0000      .6229      .3427   -39.1869    10.0828   119.8093
10074.5000      .6288      .3536   -38.8789    10.0140   120.7698
10075.0000      .6380      .3677   -38.5710    10.0798   120.7588
10075.5000      .6471      .3846   -38.0124    10.1247   119.4646
10076.0000      .6564      .4047   -37.4778    10.0823   118.1716
10076.5000      .6764      .4295   -38.3092     9.9986   118.7883
10077.0000      .6964      .4629   -39.0483     9.9148   118.6010
10077.5000      .7226      .5054   -39.0925     9.8984   117.7091
10078.0000      .7647      .5605   -39.2361     9.8862   116.9154
10078.5000      .8134      .5989   -39.5582     9.8922   116.6248
10079.0000      .8818      .6113   -41.9528     9.8801   115.4238
10079.5000      .9318      .6052   -44.5051     9.8003   113.6278
10080.0000      .9703      .5878   -46.3404     9.7516   112.0896
10080.5000      .9125      .5588   -47.4108    10.0311   107.7421
10081.0000      .8405      .5297   -48.1597    10.3107   105.5684
10081.5000      .8464      .5108   -47.0425    10.5296   103.6056
10082.0000      .8516      .5019   -45.3771    10.6807   100.0359
10082.5000      .8229      .5070   -43.5393    10.5411    98.8955
10083.0000      .8147      .5276   -42.0822    10.1596   100.9117
10083.5000      .8500      .5691   -42.4603    10.1591   103.4633
10084.0000      .9026      .6228   -43.1350    11.1516   105.2297
10084.5000      .9603      .6944   -43.2380    11.5578    87.6829
10085.0000     1.0406      .7654   -42.3100    10.7085   114.2781
10085.5000     1.1461      .8324   -41.4933    10.3878   118.0072
10086.0000     1.1679      .8857   -40.9769    10.5554   107.5262
10086.5000     1.1840      .9206   -42.8766    10.7617   101.9030
10087.0000     1.2073      .9433   -44.3277    10.9970    97.0365
10087.5000     1.2703      .9585   -45.7344    10.9809    96.7523
10088.0000     1.3196      .9710   -47.0363    10.9615    95.9398
10088.5000     1.3424      .9756   -47.4225    10.9749    96.9127
10089.0000     1.3323      .9717   -47.3948    11.0320    97.8793
10089.5000     1.3098      .9576   -45.3870    10.9909    97.7910
10090.0000     1.3287      .9290   -45.6808    10.9492    98.0829
10090.5000     1.3358      .8963   -46.0109    10.9413    97.0280
10091.0000     1.2785      .8607   -46.1858    10.9343    95.5216
10091.5000     1.2587      .8225   -46.0718    10.8269    94.3463
10092.0000     1.2633      .7827   -45.2626    10.9862    93.6888
10092.5000     1.2327      .7363   -46.1975    11.2022    95.2738
10093.0000     1.1474      .6901   -47.2469    10.7676    95.9215
10093.5000     1.0971      .6453   -46.9982    10.8341    95.5614
10094.0000     1.0767      .6111   -45.7935    10.7829    97.2390
10094.5000     1.0549      .6051   -44.5322    10.8221    99.0201
10095.0000     1.0221      .6309   -43.9434    10.7443   100.7842
10095.5000     1.0012      .6517   -43.9147    10.6531   103.0903
10096.0000     1.0314      .7031   -43.9934    10.9419   105.8456
10096.5000     1.0759      .7703   -43.4901    11.4389   106.1425
10097.0000     1.1215      .7981   -42.3125    10.7479   107.3176
10097.5000     1.1668      .7982   -41.9873    10.6024   107.3348
10098.0000     1.1730      .7878   -42.4495    10.7646   106.0198
10098.5000     1.1644      .7732   -42.2814    11.0059   105.3181
10099.0000     1.1557      .7572   -42.0825    11.2208   102.3102
10099.5000     1.1542      .7393   -41.8306    11.2231    93.8066
10100.0000     1.0647      .6816   -41.5537    10.6394    87.1333
10100.5000      .9945      .6214   -41.2612    10.7853    80.6980
10101.0000      .9561      .5758   -40.8972    10.9527    84.3953
10101.5000      .9289      .5728   -40.2455    11.1442    93.9244
10102.0000      .9097      .5750   -39.4498    11.3512   102.8352
10102.5000      .8923      .5804   -39.1898    11.5120   110.4752
10103.0000      .8709      .5843   -39.3024    11.2511   111.1965
10103.5000      .8536      .5870   -39.4883    11.0976   107.6783
10104.0000      .8469      .5897   -39.6207    11.0272   105.0679
10104.5000      .8577      .5939   -39.7520    11.0039   104.0718
10105.0000      .8732      .5982   -39.9072    10.9909   104.0619
10105.5000      .8940      .5996   -40.0391    10.9885   108.4487
10106.0000      .9152      .5958   -39.9918    10.9866   110.9739
10106.5000      .9237      .5919   -39.7603    10.9885   111.0261
10107.0000      .9216      .5883   -39.3069    10.9978   109.7097
10107.5000      .9089      .5846   -38.0949    11.0090   106.7853
10108.0000      .8906      .5802   -36.9512    11.0246   104.0349
10108.5000      .8716      .5754   -38.2526    11.0486   103.2039
10109.0000      .8532      .5614   -38.8229    11.0754   102.8944
10109.5000      .8403      .5507   -38.5186    11.0821   102.9457
10110.0000      .8344      .5476   -37.5037    11.0520   105.4110
10110.5000      .8382      .5445   -36.6463    11.0270   107.2788
10111.0000      .8415      .5618   -37.3669    11.0106   108.7205
10111.5000      .8452      .5963   -38.1811    11.0047   110.5685
10112.0000      .8497      .6461   -38.3336    10.9987   108.9880
10112.5000      .8577      .6780   -38.4447    10.9927   108.2479
10113.0000      .8852      .6948   -38.9534    10.9893   107.8671
10113.5000      .9286      .6985   -39.8268    10.9954   107.7308
10114.0000      .9840      .6987   -40.7457    11.0014   108.7329
10114.5000     1.0010      .7199   -41.3098    11.0050   109.6482
10115.0000     1.0217      .7349   -41.8610    10.9949   108.6660
10115.5000     1.0405      .7452   -41.1448    10.9860   105.7876
10116.0000     1.0475      .7413   -40.6472    10.9856   103.3401
10116.5000     1.0163      .7314   -42.4800    10.9884   101.9875
10117.0000      .9872      .7215   -44.0838    10.9948    99.4039
10117.5000      .9952      .7212   -45.5225    11.1959    98.8893
10118.0000     1.0071      .7227   -45.5299    11.0182    98.6951
10118.5000     1.0158      .7178   -43.3768    10.7646    99.2292
10119.0000     1.0231      .7076   -41.6978    10.6802   100.2449
10119.5000     1.0274      .6858   -42.7017    10.9778   101.2841
10120.0000     1.0338      .6685   -44.1552    11.4414   102.5449
10120.5000     1.0447      .6556   -46.0718    11.2188   103.7018
10121.0000     1.0814      .6432   -48.2151    10.9856   103.6931
10121.5000     1.1100      .6405   -50.6097    10.7188   103.0044
10122.0000     1.1336      .6377   -53.3147    10.3774   102.4291
10122.5000     1.1669      .6350   -56.1083    10.2312   101.9783
10123.0000     1.1790      .6396   -58.5177    10.2047   101.4946
10123.5000     1.2026      .6452   -60.5403    10.0685   102.0470
10124.0000     1.2643      .6513   -62.4298    10.0302   103.1420
10124.5000     1.3268      .6594   -64.2257    10.2394   102.7952
