~VERSION INFORMATION
VERS.                             2.0:   CWLS Log ASCII Standard-VERSION 2.0
WRAP.                              NO:   One line per depth step
~Well Information Block
STRT.F                      3576.0000:   Top Depth
STOP.F                      7908.0000:   Bottom Depth
STEP.F                         .50000:   Depth Increment
NULL.                        -999.250:   Null Value
FLD .                      BA BLK 431:   Field Name
WELL.       OCSG09017   001 ST00 BP00:   NAME
API .                  42704401710000:   WELL API
EDF .F                        80.0000:   ELEV DRILL FLOOR
COMP.        WOLVERINE EXPLORATION CO:   OPERATOR
BN  .                             431:   BLOCK
CTRY.                             USA:   COUNTRY NAME
CNTY.                        BRAZOS L:   COUNTY NAME
EKB .F                        81.0000:   ELEV KELLY BUSHING
TDD .F                       7953.000:   FINAL TD DRILLER
STAT.                           TEXAS:   STATE NAME
UWI .                  42704401710000:   WELL API
DICO.               IHS : Digitizing Company
~PARAMETER INFORMATION (zones)
#MNEM.UNIT                       Value     Description
#=========                       =====     ===========
#ZONATION                          DIL:   ZONATION NAME
#ZONE                            RUN_1:   ZONE NAME
TOP .                       3576.0000:   TOP DEPTH
BOT .                       7908.5000:   BOTTOM DEPTH
RUN .                               1:   RUN NUMBER
LCCD.                             440:   LOGGING CONTRACTOR
SRVC.                    Schlumberger:   LOGGING CONT NAME
DICO.          QC Data Collectors Ltd:   DIG COMPANY NAME
LDAT.                      05/13/1988:   DATE LOGGED
ELD .F                        81.0000:   LOG DATUM ELEVATION
TDD .F                      7953.0000:   TOTAL DEPTH DRILLER
TDL .F                      7911.0000:   TOTAL DEPTH LOGGER
BOTL.F                      7908.0000:   BOTTOM DEPTH LOGGED
TOPL.F                      3608.0000:   TOP DEPTH LOGGED
CS1 .IN                       10.7500:   CASING SIZE 1
BS1 .IN                        9.8750:   BIT SIZE 1
DDB1.F                      7953.0000:   DEPTH DRILLED BIT 1
BHF .                              99:   FLUID CODE
DPT .                   Miscellaneous:   DRILLING FLUID TYPE
MUDD.                         10.0000:   FLUID DENSITY
MUDV.                         43.0000:   FLUID VISCOSITY
DFPH.                         11.3000:   FLUID PH
FL  .                          6.2000:   FLUID LOSS
RM  .OHMM                       .7340:   RM
RMT .DEGF                     73.0000:   RM TEMP
RMF .OHMM                       .5760:   RMF
RMFT.DEGF                     73.0000:   RMF TEMP
FSC .                               M:   RMF CODE
RMC .OHMM                       .8300:   RMC
RMCT.DEGF                     73.0000:   RMC TEMP
CMC .                               M:   RMC CODE
TMAX.DEGF                    164.0000:   MAX REC TEMP
TIMC.                          5.0000:   TIME SINCE CIRCLN
~Curve Information Block
#MNEM.UNIT                    API CODE    No Description
#=========                    ========    == ===========
DEPT.F                   00 001 00 00:     1  DEPTH
DCAL.IN                              :     2  Differential Caliper
DT.US/F                              :     3  Sonic Transit Time
GR.GAPI                              :     4  Gamma Ray
ILD.OHMM                             :     5  Deep Induction Resistivity
ILM.OHMM                             :     6  Medium Induction Resistivity
SFL.OHMM                             :     7  Medium Resistivity
SP.MV                                :     8  Spontaneous Potential
~ASCII
# ...
 3894.5000     9.0718   121.3394    19.4167      .3293      .4388      .6352  -100.7659
 3895.0000     9.0625   122.3145    19.4221      .3272      .4373      .6347  -100.4777
 3895.5000     9.0570   122.7936    17.8668      .3247      .4363      .6342  -100.2913
 3896.0000     9.0515   122.9911    17.2684      .3222      .4354      .6336  -100.1355
 3896.5000     9.0403   122.4167    18.8237      .3196      .4346      .6329  -100.0664
 3897.0000     9.0289   120.8149    20.3580      .3175      .4324      .6325  -100.0531
 3897.5000     9.0214   118.9269    21.3189      .3158      .4302      .6330  -100.0553
 3898.0000     9.0148   119.3484    21.3588      .3156      .4295      .6334  -100.0828
 3898.5000     9.0137   122.3336    20.5459      .3161      .4290      .6333  -100.1708
 3899.0000     9.0205   125.0239    20.3371      .3184      .4279      .6323  -100.2550
 3899.5000     9.0277   126.9257    20.3722      .3210      .4266      .6313  -100.3346
 3900.0000     9.0376   128.0730    21.4521      .3232      .4259      .6314  -100.5352
 3900.5000     9.0474   125.4181    22.3905      .3254      .4252      .6314  -100.9153
 3901.0000     9.0527   122.4379    23.1299      .3263      .4249      .6309  -101.2513
 3901.5000     9.0560   119.7117    21.2358      .3273      .4249      .6299  -101.2141
 3902.0000     9.0594   118.2369    19.6075      .3279      .4249      .6290  -100.8398
 3902.5000     9.0588   117.6425    19.9624      .3276      .4239      .6281  -100.5249
 3903.0000     9.0503   119.2145    20.8513      .3273      .4225      .6146  -100.2634
 3903.5000     9.0409   121.9443    21.9875      .3278      .4197      .6023  -100.7129
 3904.0000     9.0410   124.7214    23.1855      .3283      .4171      .5928  -101.3267
 3904.5000     9.0323   127.0310    24.4234      .3264      .4147      .5838  -101.4867
 3905.0000     9.0318   127.3063    25.0323      .3241      .4123      .5813  -101.4440
 3905.5000     9.0351   125.7504    25.2779      .3218      .4098      .5799  -101.0714
 3906.0000     9.0145   124.0271    24.4107      .3196      .4073      .5814  -100.6732
 3906.5000     8.9954   123.3174    22.8715      .3173      .4051      .5828  -100.1815
 3907.0000     8.9795   123.5814    21.4101      .3130      .4031      .5852  -100.2107
 3907.5000     8.9708   124.2832    20.6967      .3087      .4014      .5787  -100.3981
 3908.0000     8.9630   125.2260    20.3339      .3064      .3999      .5697  -100.5690
 3908.5000     8.9608   126.3052    19.3862      .3041      .3983      .5592  -100.7399
 3909.0000     8.9707   127.4067    17.6739      .3021      .3968      .5536  -100.8871
 3909.5000     8.9745   127.7009    15.9653      .3001      .3953      .5496  -100.8477
 3910.0000     9.0141   126.7905    16.6750      .2981      .3944      .5464  -100.8167
 3910.5000     9.0616   125.4851    18.6877      .2960      .3935      .5434  -100.8622
 3911.0000     9.1009   124.4077    20.3771      .2960      .3938      .5415  -100.9081
 3911.5000     9.1068   124.1316    21.2097      .2973      .3944      .5414  -100.9548
 3912.0000     9.0996   124.1519    21.2549      .3017      .3960      .5425  -101.0016
 3912.5000     9.0734   124.5106    20.9409      .3073      .3980      .5457  -101.0590
 3913.0000     9.0488   125.1339    20.5462      .3149      .4009      .5488  -101.1177
 3913.5000     9.0247   125.4382    20.0906      .3262      .4058      .5517  -101.1250
 3914.0000     9.0018   125.6449    19.6110      .3374      .4159      .5580  -101.1257
 3914.5000     8.9815   125.3168    19.5908      .3478      .4291      .5653  -100.8207
 3915.0000     8.9723   124.7450    19.6190      .3556      .4441      .5740  -100.4019
 3915.5000     8.9668   124.2162    20.0294      .3612      .4563      .5856  -100.2441
 3916.0000     8.9702   125.8285    20.5172      .3654      .4651      .5922  -100.5630
 3916.5000     8.9788   127.0521    21.1261      .3676      .4683      .5975  -100.7709
 3917.0000     8.9904   128.0378    21.6370      .3661      .4667      .5981  -100.6897
 3917.5000     9.0029   128.6982    22.1528      .3558      .4509      .5985  -100.5331
 3918.0000     9.0181   128.8528    22.6950      .3435      .4376      .5959  -100.2563
 3918.5000     9.0623   128.8965    23.2961      .3310      .4289      .5913  -100.0674
 3919.0000     9.0958   128.8328    23.3994      .3201      .4214      .5771   -99.9540
 3919.5000     9.1125   128.6204    22.6520      .3103      .4151      .5655  -100.0903
 3920.0000     9.1156   128.2971    21.7216      .3058      .4102      .5549  -100.2465
 3920.5000     9.0999   127.7302    21.4305      .3031      .4065      .5465  -100.3356
 3921.0000     9.1212   127.2164    22.9197      .3031      .4036      .5388  -100.3845
 3921.5000     9.1609   127.5103    24.4576      .3034      .4015      .5334  -100.3856
 3922.0000     9.2368   127.9580    23.6714      .3039      .4005      .5294  -100.3453
 3922.5000     9.2634   128.3787    21.9776      .3043      .3994      .5256  -100.2709
 3923.0000     9.2041   128.5857    20.2516      .3045      .3982      .5221  -100.1722
 3923.5000     9.1571   128.5217    18.3662      .3026      .3954      .5181  -100.0508
 3924.0000     9.1444   128.3953    17.7957      .2994      .3911      .5134  -100.0573
 3924.5000     9.1580   128.6687    18.2463      .2962      .3837      .5107  -100.0636
 3925.0000     9.1671   128.6577    20.0291      .2930      .3771      .5080  -100.0504
 3925.5000     9.1311   128.3936    22.7713      .2883      .3713      .5048  -100.0121
 3926.0000     9.1084   127.7576    23.0721      .2845      .3665      .5012   -99.9910
 3926.5000     9.0971   127.1538    22.3608      .2816      .3622      .4975  -100.0098
 3927.0000     9.0895   126.9929    21.3675      .2789      .3592      .4909   -99.9989
 3927.5000     9.0886   127.8988    21.2299      .2765      .3567      .4844   -99.8972
 3928.0000     9.0782   129.7522    22.4969      .2741      .3556      .4788   -99.7991
 3928.5000     9.0587   132.1946    24.2561      .2735      .3548      .4771   -99.7091
 3929.0000     9.0568   134.6814    24.6294      .2728      .3548      .4754   -99.6150
 3929.5000     9.0601   136.4368    24.2531      .2736      .3558      .4761   -99.4547
 3930.0000     9.0635   131.8845    22.5685      .2751      .3477      .4778   -99.2821
 3930.5000     9.0695   128.4033    21.0454      .2770      .3504      .4785   -99.0889
 3931.0000     9.0827   124.8876    20.6070      .2793      .3539      .4789   -98.9509
 3931.5000     9.0973   122.1477    21.1251      .2813      .3575      .4782   -98.9487
 3932.0000     9.1127   120.3278    21.8305      .2832      .3607      .4793   -98.9468
 3932.5000     9.1028   121.1782    22.2593      .2857      .3637      .4815   -98.9036
 3933.0000     9.0815   125.7876    22.4458      .2887      .3663      .4880   -98.8488
 3933.5000     9.0602   138.9561    22.4458      .2943      .3682      .4944   -98.7170
 3934.0000     9.0376   148.4031    22.4309      .3012      .3735      .4999   -98.5160
 3934.5000     9.0150   150.2559    22.3165      .3098      .3795      .5044   -98.4957
 3935.0000     8.9928   146.8757    22.0208      .3205      .3867      .5092   -98.4722
 3935.5000     8.9771   139.6396    21.5492      .3348      .3966      .5175   -98.4266
 3936.0000     8.9613   137.6941    20.9137      .3489      .4111      .5343   -98.3492
 3936.5000     8.9482   131.3118    20.1404      .3611      .4329      .5650   -98.2423
 3937.0000     8.9373   123.6056    19.4746      .3677      .4527      .5984   -98.0304
 3937.5000     8.9264   119.0856    19.2568      .3717      .4660      .6118   -97.7543
 3938.0000     8.9457   116.8826    20.7042      .3736      .4713      .6129   -97.4412
 3938.5000     8.9713   116.5850    23.3388      .3724      .4690      .5878   -97.2538
 3939.0000     8.9842   118.6591    23.6763      .3695      .4622      .5638   -97.1307
 3939.5000     8.9966   120.8956    22.4319      .3667      .4543      .5523   -97.0923
