~VERSION INFORMATION
VERS.                             2.0:   CWLS Log ASCII Standard-VERSION 2.0
WRAP.                              NO:   One line per depth step
~Well Information Block
STRT.F                      3012.0000:   Top Depth
STOP.F                      9049.0000:   Bottom Depth
STEP.F                         .50000:   Depth Increment
NULL.                        -999.250:   Null Value
FLD .                      GA BLK 210:   Field Name
WELL.       OCSG01759   002 ST00 BP00:   NAME
API .                  42706400060000:   WELL API
R1  .                      TEXACO INC:   COMMENT  1
EDF .F                        74.0000:   ELEV DRILL FLOOR
COMP.                      TEXACO INC:   OPERATOR
BN  .                             210:   BLOCK
CTRY.                             USA:   COUNTRY NAME
CNTY.                              GA:   COUNTY
CNTY.                        GLVSTN L:   COUNTY NAME
EKB .F                        75.0000:   ELEV KELLY BUSHING
TDD .F                       9050.000:   FINAL TD DRILLER
STAT.                           TEXAS:   STATE NAME
UWI .                  42706400060000:   WELL API
DICO.               IHS : Digitizing Company
~PARAMETER INFORMATION (zones)
#MNEM.UNIT                       Value     Description
#=========                       =====     ===========
#ZONATION                           IE:   ZONATION NAME
#ZONE                            RUN_2:   ZONE NAME
TOP .                       9049.0000:   TOP DEPTH
BOT .                       9050.0000:   BOTTOM DEPTH
RUN .                               2:   RUN NUMBER
LCCD.                             440:   LOGGING CONTRACTOR
SRVC.                    Schlumberger:   LOGGING CONT NAME
DICO.          QC Data Collectors Ltd:   DIG COMPANY NAME
LDAT.                      11/07/1971:   DATE LOGGED
ELD .F                        75.0000:   LOG DATUM ELEVATION
TDD .F                      9050.0000:   TOTAL DEPTH DRILLER
TDL .F                      9050.0000:   TOTAL DEPTH LOGGER
BOTL.F                      9049.0000:   BOTTOM DEPTH LOGGED
TOPL.F                      7103.0000:   TOP DEPTH LOGGED
CS1 .IN                        9.6250:   CASING SIZE 1
BS1 .IN                        8.6250:   BIT SIZE 1
DDB1.F                      9050.0000:   DEPTH DRILLED BIT 1
BHF .                              99:   FLUID CODE
DPT .                   Miscellaneous:   DRILLING FLUID TYPE
MUDD.                         15.0000:   FLUID DENSITY
MUDV.                         45.0000:   FLUID VISCOSITY
DFPH.                         10.5000:   FLUID PH
FL  .                          4.0000:   FLUID LOSS
RM  .OHMM                       .7700:   RM
RMT .DEGF                    100.0000:   RM TEMP
RMF .OHMM                       .5300:   RMF
RMFT.DEGF                     77.0000:   RMF TEMP
FSC .                               M:   RMF CODE
RMC .OHMM                      1.4300:   RMC
RMCT.DEGF                     75.0000:   RMC TEMP
CMC .                               M:   RMC CODE
TMAX.DEGF                    194.0000:   MAX REC TEMP
TIMC.                          4.0000:   TIME SINCE CIRCLN
~PARAMETER INFORMATION (zones)
#MNEM.UNIT                       Value     Description
#=========                       =====     ===========
#ZONATION                           IE:   ZONATION NAME
#ZONE                            RUN_1:   ZONE NAME
TOP .                       3012.0000:   TOP DEPTH
BOT .                       9049.5000:   BOTTOM DEPTH
RUN .                               1:   RUN NUMBER
LCCD.                             440:   LOGGING CONTRACTOR
SRVC.                    Schlumberger:   LOGGING CONT NAME
DICO.          QC Data Collectors Ltd:   DIG COMPANY NAME
LDAT.                      10/28/1971:   DATE LOGGED
ELD .F                        75.0000:   LOG DATUM ELEVATION
TDD .F                      7115.0000:   TOTAL DEPTH DRILLER
TDL .F                      7061.0000:   TOTAL DEPTH LOGGER
BOTL.F                      7060.0000:   BOTTOM DEPTH LOGGED
TOPL.F                      3012.0000:   TOP DEPTH LOGGED
CS1 .IN                       13.3750:   CASING SIZE 1
BS1 .IN                       12.2500:   BIT SIZE 1
DDB1.F                      7115.0000:   DEPTH DRILLED BIT 1
BHF .                              11:   FLUID CODE
DPT .         Caustic (high PH) (CLS):   DRILLING FLUID TYPE
MUDD.                         10.5000:   FLUID DENSITY
MUDV.                         40.0000:   FLUID VISCOSITY
DFPH.                          9.0000:   FLUID PH
FL  .                          4.4000:   FLUID LOSS
RM  .OHMM                       .9400:   RM
RMT .DEGF                     96.0000:   RM TEMP
RMF .OHMM                       .7600:   RMF
RMFT.DEGF                     96.0000:   RMF TEMP
FSC .                               M:   RMF CODE
RMC .OHMM                      1.2600:   RMC
RMCT.DEGF                     96.0000:   RMC TEMP
CMC .                               M:   RMC CODE
TMAX.DEGF                    155.0000:   MAX REC TEMP
TIMC.                          4.0000:   TIME SINCE CIRCLN
~PARAMETER INFORMATION (zones)
#MNEM.UNIT                       Value     Description
#=========                       =====     ===========
#ZONATION                        SONIC:   ZONATION NAME
#ZONE                            RUN_1:   ZONE NAME
TOP .                       3012.0000:   TOP DEPTH
BOT .                       9049.5000:   BOTTOM DEPTH
RUN .                               1:   RUN NUMBER
LCCD.                             440:   LOGGING CONTRACTOR
SRVC.                    Schlumberger:   LOGGING CONT NAME
DICO.          QC Data Collectors Ltd:   DIG COMPANY NAME
LDAT.                      10/28/1971:   DATE LOGGED
ELD .F                        75.0000:   LOG DATUM ELEVATION
TDD .F                      7115.0000:   TOTAL DEPTH DRILLER
TDL .F                      7060.0000:   TOTAL DEPTH LOGGER
BOTL.F                      7050.0000:   BOTTOM DEPTH LOGGED
TOPL.F                      3012.0000:   TOP DEPTH LOGGED
CS1 .IN                       13.3750:   CASING SIZE 1
BS1 .IN                       12.2500:   BIT SIZE 1
DDB1.F                      7115.0000:   DEPTH DRILLED BIT 1
BHF .                              11:   FLUID CODE
DPT .         Caustic (high PH) (CLS):   DRILLING FLUID TYPE
MUDD.                         10.5000:   FLUID DENSITY
MUDV.                         40.0000:   FLUID VISCOSITY
DFPH.                          9.0000:   FLUID PH
FL  .                          4.4000:   FLUID LOSS
RM  .OHMM                       .9400:   RM
RMT .DEGF                     96.0000:   RM TEMP
RMF .OHMM                       .7600:   RMF
RMFT.DEGF                     96.0000:   RMF TEMP
FSC .                               M:   RMF CODE
RMC .OHMM                      1.2600:   RMC
RMCT.DEGF                     96.0000:   RMC TEMP
CMC .                               M:   RMC CODE
TMAX.DEGF                    155.0000:   MAX REC TEMP
TIMC.                          6.0000:   TIME SINCE CIRCLN
~Curve Information Block
#MNEM.UNIT                    API CODE    No Description
#=========                    ========    == ===========
DEPT.F                   00 001 00 00:     1  DEPTH
ASN.OHMM                             :     2  Short-Normal Resistivity
CILD.MMHO                            :     3  Deep Induction Conductivity
ILD.OHMM                             :     4  Deep Induction Resistivity
SP.MV                                :     5  Spontaneous Potential
CALI.IN                              :     6  Caliper
DT.US/F                              :     7  Sonic Transit Time
SP.MV                                :     8  Spontaneous Potential
~ASCII
# ...
 4604.5000      .9295  2312.4922      .5506   -69.6532    13.8569   110.0610   -93.7067
 4605.0000      .8917  2278.9883      .5600   -68.1836    14.0294   122.8519   -90.8906
 4605.5000      .8635  2245.5078      .5694   -65.9955    14.1127   127.8376   -89.5836
 4606.0000      .8471  2210.3086      .5788   -63.7700    14.1587   129.0479   -88.3810
 4606.5000      .8365  2174.6328      .5882   -62.7975    13.9676   129.6958   -86.9874
 4607.0000      .8864  2138.8359      .5976   -63.5311    13.7727   130.3364   -85.4833
 4607.5000      .9397  2082.4219      .6070   -64.6805    13.7267   128.1394   -84.3192
 4608.0000      .9730  2013.0273      .6164   -66.2045    13.7057   126.2163   -83.2926
 4608.5000      .9849  2007.0273      .6099   -66.9891    13.6847   125.1096   -82.2157
 4609.0000      .9298  2002.0469      .6023   -67.6771    13.6635   124.8617   -85.6648
 4609.5000      .8565  2006.6992      .5946   -67.9840    13.6330   125.6066   -87.8849
 4610.0000      .7806  2033.4629      .5867   -66.1951    13.6026   126.4054   -89.5283
 4610.5000      .7655  2118.7695      .5772   -64.9401    13.5721   127.2042   -90.7549
 4611.0000      .7594  2166.3828      .5677   -64.2109    13.5558   127.9752   -91.3737
 4611.5000      .7549  2212.1016      .5530   -63.6277    13.5442   128.3633   -89.2988
 4612.0000      .7515  2257.8203      .5345   -63.8172    13.5471   128.7500   -87.3046
 4612.5000      .7493  2303.5430      .5160   -64.0065    13.5669   128.2375   -85.6815
 4613.0000      .7519  2349.3125      .4975   -66.6392    13.5867   128.5286   -84.0574
 4613.5000      .7795  2484.3242      .4791   -70.9231    13.6064   129.6169   -82.7683
 4614.0000     1.0138  2746.7773      .4606   -75.2070    13.6235   130.3989   -81.7927
 4614.5000     1.1198  2946.8555      .4468   -79.4934    13.6267   131.1814   -81.0040
 4615.0000     1.2308  3028.0742      .4382   -83.7773    13.6299   131.7419   -84.2207
 4615.5000     1.4092  3109.2930      .4296   -99.3762    13.6476   132.8862   -87.7286
 4616.0000     1.5877  3256.7188      .4210  -100.7859    13.6712   134.0542   -90.9219
 4616.5000     1.6602  3293.6719      .4124  -101.4459    13.6964   134.7742   -94.7086
 4617.0000     1.5960  3300.2227      .4038  -101.1078    13.7367   135.4150   -98.4640
 4617.5000     1.5318  3318.3945      .3952   -99.6107    13.7770   135.7412  -101.6644
 4618.0000     1.4231  3322.7305      .3936   -95.8932    13.8110   134.4233  -105.2421
 4618.5000     1.3616  3274.7695      .4063   -85.6586    13.7019   132.2620  -114.3677
 4619.0000     1.3140  3233.6875      .4189   -77.4818    13.4924   130.4390  -119.0625
 4619.5000     1.2131  3199.7578      .4316   -76.6697    13.4074   128.4861  -125.0465
 4620.0000     1.1513  3165.8281      .4442   -75.8575    13.3485   125.9939  -125.0021
 4620.5000     1.0317  3028.3711      .4579   -74.6294    13.3171   128.6824  -119.8411
 4621.0000     1.0065  2855.4648      .4835   -74.4963    13.2823   131.7468  -110.7491
 4621.5000     1.0276  2718.4063      .5090   -74.6139    13.3302   133.9683  -105.6794
 4622.0000     1.0497  2656.4336      .5345   -74.7654    13.4082   134.3350  -102.4718
 4622.5000     1.0777  2594.4609      .5601   -74.9171    13.4872   134.7327  -101.2512
 4623.0000     1.1008  2532.4375      .5856   -75.0687    13.5661   133.4124  -100.0198
 4623.5000     1.0535  2470.4648      .5994   -75.2205    13.6417   129.4558   -98.2982
 4624.0000     1.0331  2218.1367      .6130   -74.2465    13.6661   124.7333   -97.4332
 4624.5000     1.0177  2141.9023      .6266   -71.5344    13.6906   120.0106   -97.8273
 4625.0000      .9983  2048.2187      .6403   -67.0153    13.7150   101.6073   -98.6370
 4625.5000      .9746  1959.5762      .6539   -66.1602    13.7395    99.5647   -99.2932
 4626.0000      .9416  1940.7676      .6583   -65.3043    13.7499    97.7428   -92.2531
 4626.5000      .8953  1917.9590      .6546   -64.0930    13.7598   132.6536   -90.1650
 4627.0000      .8090  1902.1543      .6509   -62.5898    13.7697   135.1494   -88.8021
 4627.5000      .7863  1891.9258      .6473   -60.5620    13.7795   136.5349   -88.1552
 4628.0000      .7718  1887.4355      .6436   -59.7604    13.8052   138.2163   -87.5082
 4628.5000      .7682  1885.4961      .6399   -59.2758    13.8401   141.2891   -86.4036
 4629.0000      .7738  1886.5293      .6348   -58.7450    13.8751   142.7583   -85.1602
 4629.5000      .7843  1895.6465      .6293   -57.8917    13.9100   145.0542   -83.9408
 4630.0000      .7834  1909.9434      .6238   -56.4570    14.0317   144.5125   -82.7767
 4630.5000      .7816  1925.4609      .6183   -56.5671    14.2253   138.6006   -81.6125
 4631.0000      .7763  1960.2383      .6139   -56.9517    14.4198   140.6636   -80.4485
 4631.5000      .7710  1986.5000      .6095   -57.5099    14.6052   145.0300   -79.2026
 4632.0000      .7657  1995.1875      .6051   -58.8436    14.7342   150.8970   -77.9496
 4632.5000      .7603  2011.6504      .6007   -59.6195    14.8495   152.9451   -77.0167
 4633.0000      .7550  2043.2109      .5963   -60.1980    14.9100   154.9043   -76.2029
 4633.5000      .7714  2089.1523      .5920   -60.5826    14.6988   157.7070   -75.5703
 4634.0000      .7945  2122.3789      .5876   -61.9261    14.4359   160.8064   -75.7440
 4634.5000      .8186  2129.9023      .5833   -64.1953    14.1751   160.1919   -76.3818
 4635.0000      .8276  2126.0000      .5790   -65.7061    13.9635   143.5898   -77.1471
 4635.5000      .8342  2116.7617      .5746   -67.7863    13.8107   140.9836   -77.9117
 4636.0000      .8403  2105.0977      .5703   -68.5248    13.6832   135.8682   -79.5402
 4636.5000      .8446  2093.4297      .5659   -68.9611    13.6099   136.6199   -82.2480
 4637.0000      .8489  2082.0859      .5623   -68.7737    13.5939   139.6345   -84.5956
 4637.5000      .8533  2072.6523      .5595   -68.0276    13.5762   141.0061   -86.4768
 4638.0000      .8583  2063.2109      .5567   -67.2479    13.5525   141.9995   -87.8969
 4638.5000      .8636  2101.7695      .5539   -66.3872    13.5288   142.3276   -88.8918
 4639.0000      .8689  2149.7812      .5511   -65.9642    13.5036   141.1340   -89.3607
 4639.5000      .8796  2186.5508      .5483   -66.6729    13.4696   139.7739   -89.8292
 4640.0000      .8898  2212.2031      .5455   -67.2499    13.4355   138.8352   -90.2080
 4640.5000      .8684  2233.5898      .5427   -67.6676    13.4818   138.3945   -89.8815
 4641.0000      .8453  2252.7852      .5448   -67.5786    13.6287   136.8684   -88.6874
 4641.5000      .8864  2262.5586      .5495   -67.4896    13.7409   135.5112   -87.2373
 4642.0000      .9350  2236.7070      .5542   -67.8468    13.7864   134.5354   -86.5874
 4642.5000     1.1297  2207.1680      .5589   -70.3069    13.7944   133.8093   -87.4343
 4643.0000     1.2126  1969.2363      .5806   -74.1865    13.8025   133.4250   -88.2812
 4643.5000     1.2264  1891.6582      .6118   -80.9431    13.8105   132.7222   -88.6808
 4644.0000     1.2281  1814.0293      .6429   -82.2529    13.8930   133.7578   -87.8278
 4644.5000     1.2298  1736.4512      .6812   -79.2689    14.0125   131.9104   -86.7952
 4645.0000     1.2312  1658.8223      .7196   -76.5094    14.0159   128.3982   -89.1511
 4645.5000     1.2318  1406.9922      .7580   -74.2502    13.8950   127.3528   -93.4519
 4646.0000     1.2352  1370.7500      .7973   -73.0027    13.7509   129.3782   -98.2454
 4646.5000     1.2738  1588.1250      .8370   -72.0341    13.6000   135.5386  -103.4088
 4647.0000     1.3278  1805.3750      .8768   -71.2256    13.6777   138.4673  -105.8428
 4647.5000     1.4151  2037.6016      .8275   -71.5718    13.7473   125.4896  -105.9427
 4648.0000     1.4798  2371.0508      .7554   -75.0000    13.8167   120.5634   -95.3333
 4648.5000     1.6615  2704.4961      .4358  -102.6447    13.8862   118.1947   -92.0560
 4649.0000     1.7914  3024.7812      .3898  -107.1182    13.9392   110.1095   -90.2070
 4649.5000     1.6154  3327.9180      .3591  -109.2053    13.9898   100.4678   -89.2634
