~VERSION INFORMATION
VERS.                             2.0:   CWLS Log ASCII Standard-VERSION 2.0
WRAP.                              NO:   One line per depth step
~Well Information Block
STRT.F                      3576.0000:   Top Depth
STOP.F                      7908.0000:   Bottom Depth
STEP.F                         .50000:   Depth Increment
NULL.                        -999.250:   Null Value
FLD .                      BA BLK 431:   Field Name
WELL.       OCSG09017   001 ST00 BP00:   NAME
API .                  42704401710000:   WELL API
EDF .F                        80.0000:   ELEV DRILL FLOOR
COMP.        WOLVERINE EXPLORATION CO:   OPERATOR
BN  .                             431:   BLOCK
CTRY.                             USA:   COUNTRY NAME
CNTY.                        BRAZOS L:   COUNTY NAME
EKB .F                        81.0000:   ELEV KELLY BUSHING
TDD .F                       7953.000:   FINAL TD DRILLER
STAT.                           TEXAS:   STATE NAME
UWI .                  42704401710000:   WELL API
DICO.               IHS : Digitizing Company
~PARAMETER INFORMATION (zones)
#MNEM.UNIT                       Value     Description
#=========                       =====     ===========
#ZONATION                          DIL:   ZONATION NAME
#ZONE                            RUN_1:   ZONE NAME
TOP .                       3576.0000:   TOP DEPTH
BOT .                       7908.5000:   BOTTOM DEPTH
RUN .                               1:   RUN NUMBER
LCCD.                             440:   LOGGING CONTRACTOR
SRVC.                    Schlumberger:   LOGGING CONT NAME
DICO.          QC Data Collectors Ltd:   DIG COMPANY NAME
LDAT.                      05/13/1988:   DATE LOGGED
ELD .F                        81.0000:   LOG DATUM ELEVATION
TDD .F                      7953.0000:   TOTAL DEPTH DRILLER
TDL .F                      7911.0000:   TOTAL DEPTH LOGGER
BOTL.F                      7908.0000:   BOTTOM DEPTH LOGGED
TOPL.F                      3608.0000:   TOP DEPTH LOGGED
CS1 .IN                       10.7500:   CASING SIZE 1
BS1 .IN                        9.8750:   BIT SIZE 1
DDB1.F                      7953.0000:   DEPTH DRILLED BIT 1
BHF .                              99:   FLUID CODE
DPT .                   Miscellaneous:   DRILLING FLUID TYPE
MUDD.                         10.0000:   FLUID DENSITY
MUDV.                         43.0000:   FLUID VISCOSITY
DFPH.                         11.3000:   FLUID PH
FL  .                          6.2000:   FLUID LOSS
RM  .OHMM                       .7340:   RM
RMT .DEGF                     73.0000:   RM TEMP
RMF .OHMM                       .5760:   RMF
RMFT.DEGF                     73.0000:   RMF TEMP
FSC .                               M:   RMF CODE
RMC .OHMM                       .8300:   RMC
RMCT.DEGF                     73.0000:   RMC TEMP
CMC .                               M:   RMC CODE
TMAX.DEGF                    164.0000:   MAX REC TEMP
TIMC.                          5.0000:   TIME SINCE CIRCLN
~Curve Information Block
#MNEM.UNIT                    API CODE    No Description
#=========                    ========    == ===========
DEPT.F                   00 001 00 00:     1  DEPTH
DCAL.IN                              :     2  Differential Caliper
DT.US/F                              :     3  Sonic Transit Time
GR.GAPI                              :     4  Gamma Ray
ILD.OHMM                             :     5  Deep Induction Resistivity
ILM.OHMM                             :     6  Medium Induction Resistivity
SFL.OHMM                             :     7  Medium Resistivity
SP.MV                                :     8  Spontaneous Potential
~ASCII
# ...
 5578.0000     3.4095   114.8279    52.2751      .2562      .3059      .4784   -73.7704
 5578.5000     3.4264   115.4912    50.2249      .2491      .3076      .5573   -74.4181
 5579.0000     3.3268   115.8970    48.4478      .2493      .3064      .6353   -74.4230
 5579.5000     3.1843   115.9358    49.0228      .2727      .3081      .5832   -71.3661
 5580.0000     3.0627   115.6146    52.6387      .2926      .3214      .5227   -67.5548
 5580.5000     2.9778   115.1121    56.6899      .2988      .3459      .4984   -65.6726
 5581.0000     2.9347   114.5176    58.9158      .2950      .3611      .5569   -68.3734
 5581.5000     2.9006   113.8208    56.5662      .2803      .3560      .6255   -72.8550
 5582.0000     2.8861   113.1519    52.6684      .2645      .3361      .6266   -77.5046
 5582.5000     2.8830   112.0176    47.9000      .2506      .3160      .6053   -81.2788
 5583.0000     2.8840   110.8535    43.4135      .2386      .2972      .6236   -82.7034
 5583.5000     2.8850   110.0059    40.9279      .2293      .2805      .6863   -82.5773
 5584.0000     2.8859   110.4092    41.6526      .2315      .2712      .6667   -80.2103
 5584.5000     2.9001   111.5696    47.0887      .2440      .2811      .5566   -71.2869
 5585.0000     2.9252   112.7076    52.4755      .2633      .3065      .4598   -66.4246
 5585.5000     2.9390   114.1161    54.5085      .2827      .3450      .4381   -59.8333
 5586.0000     2.9493   115.2405    56.3461      .3031      .3806      .5496   -57.7422
 5586.5000     2.9804   116.1409    59.3783      .3240      .3981      .6406   -57.3972
 5587.0000     3.0043   116.3560    61.4942      .3447      .4066      .6565   -58.4471
 5587.5000     3.0173   116.0552    62.6158      .3614      .4145      .6262   -60.9265
 5588.0000     3.0143   115.4335    60.5259      .3762      .4127      .5971   -63.5580
 5588.5000     3.0062   114.8893    58.8392      .3791      .4029      .5909   -65.0605
 5589.0000     2.9865   114.5153    57.4801      .3721      .3977      .6017   -64.5547
 5589.5000     2.9662   114.4552    55.9504      .3622      .3938      .6104   -63.3268
 5590.0000     2.9322   114.2876    53.9124      .3542      .3922      .6260   -62.5372
 5590.5000     2.8927   114.0992    52.8582      .3510      .3923      .6534   -62.3644
 5591.0000     2.8774   113.9246    53.6268      .3557      .3934      .6747   -62.5483
 5591.5000     2.8819   113.9015    57.6891      .3589      .3960      .6569   -62.3768
 5592.0000     2.8904   114.0845    62.2695      .3586      .3990      .6404   -61.8329
 5592.5000     2.9076   114.3280    65.9027      .3485      .3994      .6303   -61.8280
 5593.0000     2.9297   114.4774    64.3446      .3295      .3927      .6358   -63.5630
 5593.5000     2.9607   114.3252    61.7947      .3116      .3767      .6499   -67.0725
 5594.0000     2.9754   113.4696    58.5078      .3045      .3571      .6305   -70.5251
 5594.5000     2.9395   112.2385    56.2954      .3064      .3424      .5940   -69.0635
 5595.0000     2.9037   111.5519    57.9661      .3088      .3504      .5444   -65.0444
 5595.5000     2.8691   111.2482    61.6562      .3072      .3702      .5473   -62.0692
 5596.0000     2.8344   112.0226    64.1740      .3019      .3894      .6961   -61.4892
 5596.5000     2.8096   113.4919    61.8170      .2979      .3988      .7808   -63.3552
 5597.0000     2.8256   114.6917    59.1458      .2999      .3888      .7974   -64.8824
 5597.5000     2.8410   114.7590    57.8152      .3144      .3816      .7320   -65.0527
 5598.0000     2.8454   114.0541    59.6429      .3295      .3775      .6474   -63.8227
 5598.5000     2.8366   112.5648    63.1846      .3404      .3793      .5788   -60.1375
 5599.0000     2.7930   111.1564    64.9777      .3505      .3929      .5457   -55.3543
 5599.5000     2.6918   109.7961    65.4847      .3658      .4104      .5880   -52.7351
 5600.0000     2.4902   108.7971    65.9781      .3943      .4324      .6853   -51.3229
 5600.5000     2.2740   107.8788    66.4758      .4430      .4651      .7561   -50.1531
 5601.0000     2.2158   107.2841    66.0363      .4913      .5028      .7832   -49.3492
 5601.5000     2.2760   107.4966    64.0997      .5237      .5536      .7905   -51.2734
 5602.0000     2.3696   108.9784    59.8754      .5441      .5783      .7932   -53.8629
 5602.5000     2.3733   110.4130    54.6668      .5442      .5632      .8153   -57.1993
 5603.0000     2.3368   111.7892    52.3691      .5241      .5310      .8176   -60.9933
 5603.5000     2.2685   112.9496    52.0301      .4865      .4964      .8051   -64.6116
 5604.0000     2.2041   113.1932    51.8142      .4461      .4713      .7829   -65.2308
 5604.5000     2.1410   113.2472    50.6342      .4115      .4530      .7460   -64.2690
 5605.0000     2.1072   113.5415    50.1185      .3882      .4356      .7143   -62.4599
 5605.5000     2.0982   114.1863    51.1066      .3739      .4219      .6804   -59.8160
 5606.0000     2.1397   114.4344    53.1111      .3610      .4157      .6368   -58.2350
 5606.5000     2.2186   114.3265    55.5448      .3485      .4138      .5928   -58.1367
 5607.0000     2.2912   114.1432    53.8630      .3348      .4069      .5866   -59.5056
 5607.5000     2.3341   113.9565    52.2937      .3210      .3951      .5906   -61.9208
 5608.0000     2.3550   113.9752    51.7516      .3097      .3814      .5886   -64.5052
 5608.5000     2.3412   113.8821    52.1367      .2995      .3710      .5723   -67.5375
 5609.0000     2.3512   113.6216    52.3865      .2922      .3645      .5613   -70.3051
 5609.5000     2.3702   112.9236    50.0764      .2911      .3631      .5798   -71.5654
 5610.0000     2.2542   111.3412    48.0904      .2963      .3709      .6092   -70.5770
 5610.5000     2.0539   109.5951    50.5018      .3092      .3931      .6327   -68.5663
 5611.0000     1.9289   107.6368    56.9075      .3282      .4201      .6456   -65.7295
 5611.5000     1.8303   105.3236    59.8631      .3565      .4484      .6599   -62.7493
 5612.0000     1.7834   103.1183    60.9884      .4026      .4868      .7428   -59.3288
 5612.5000     1.7599   101.4863    61.0558      .4848      .5283      .8201   -55.4136
 5613.0000     1.7479   100.7249    60.9142      .5474      .5717      .8809   -51.8176
 5613.5000     1.7391   100.6669    61.6500      .5972      .6113      .9011   -49.1489
 5614.0000     1.7346   100.8292    63.2749      .6477      .6503      .8911   -47.4720
 5614.5000     1.7513   101.3040    64.8195      .6972      .6907      .8763   -46.6435
 5615.0000     1.7966   102.2557    65.7716      .7430      .7349      .8559   -46.1038
 5615.5000     1.8592   103.2433    65.5638      .7812      .7724      .8472   -45.3964
 5616.0000     1.9134   103.1085    64.6847      .8069      .8020      .8454   -44.6396
 5616.5000     1.9432   103.0081    63.9816      .8282      .8238      .8523   -43.6360
 5617.0000     1.9559   103.1517    63.4918      .8499      .8449      .8682   -42.3537
 5617.5000     1.9586   105.5172    63.7897      .8691      .8570      .8878   -40.8759
 5618.0000     1.9524   108.3145    65.2695      .8655      .8541      .9467   -39.7629
 5618.5000     1.9447   111.3772    69.4221      .8438      .8476      .9838   -38.6908
 5619.0000     1.9340   113.9611    74.1956      .8147      .8158      .9310   -37.5272
 5619.5000     1.9272   116.6813    80.8584      .7831      .7834      .8365   -36.2522
 5620.0000     1.9117   118.1432    84.2122      .7479      .7514      .7591   -35.3105
 5620.5000     1.9084   118.6648    83.3514      .7177      .7184      .7223   -34.6879
 5621.0000     1.9055   118.8450    82.0937      .6906      .6854      .7074   -34.2402
 5621.5000     1.9035   119.4441    80.6309      .6660      .6606      .7192   -34.0488
 5622.0000     1.9015   119.7504    79.5829      .6439      .6384      .7382   -34.0865
 5622.5000     1.9021   119.7952    79.7709      .6242      .6297      .7454   -34.1151
 5623.0000     1.9032   120.2994    82.0505      .6094      .6232      .7502   -34.1322
