~VERSION INFORMATION
VERS.                             2.0:   CWLS Log ASCII Standard-VERSION 2.0
WRAP.                              NO:   One line per depth step
~Well Information Block
STRT.F                      2500.0000:   Top Depth
STOP.F                     12867.0000:   Bottom Depth
STEP.F                         .50000:   Depth Increment
NULL.                        -999.250:   Null Value
FLD .                      GA BLK 255:   Field Name
WELL.       OCSG01777  A004 ST00 BP00:   NAME
API .                  42706400140000:   WELL API
EDF .F                        91.0000:   ELEV DRILL FLOOR
COMP.       COASTAL STATES GAS PROD C:   OPERATOR
BN  .                             255:   BLOCK
CTRY.                             USA:   COUNTRY NAME
CNTY.                              GA:   COUNTY
CNTY.                        GLVSTN L:   COUNTY NAME
EKB .F                        92.0000:   ELEV KELLY BUSHING
TDD .F                      12868.000:   FINAL TD DRILLER
STAT.                           TEXAS:   STATE NAME
UWI .                  42706400140000:   WELL API
DICO.               IHS : Digitizing Company
~PARAMETER INFORMATION (zones)
#MNEM.UNIT                       Value     Description
#=========                       =====     ===========
#ZONATION                           IE:   ZONATION NAME
#ZONE                            RUN_1:   ZONE NAME
TOP .                       2500.0000:   TOP DEPTH
BOT .                       8267.5000:   BOTTOM DEPTH
RUN .                               1:   RUN NUMBER
LCCD.                             440:   LOGGING CONTRACTOR
SRVC.                    Schlumberger:   LOGGING CONT NAME
DICO.          QC Data Collectors Ltd:   DIG COMPANY NAME
LDAT.                      05/23/1973:   DATE LOGGED
ELD .F                        92.0000:   LOG DATUM ELEVATION
TDD .F                      8274.0000:   TOTAL DEPTH DRILLER
TDL .F                      8268.0000:   TOTAL DEPTH LOGGER
BOTL.F                      8267.0000:   BOTTOM DEPTH LOGGED
TOPL.F                      2500.0000:   TOP DEPTH LOGGED
CS1 .IN                       13.3750:   CASING SIZE 1
BS1 .IN                       12.2500:   BIT SIZE 1
DDB1.F                      8274.0000:   DEPTH DRILLED BIT 1
BHF .                              99:   FLUID CODE
DPT .                   Miscellaneous:   DRILLING FLUID TYPE
MUDV.                         45.0000:   FLUID VISCOSITY
FL  .                          3.4000:   FLUID LOSS
RM  .OHMM                       .7100:   RM
RMT .DEGF                     82.0000:   RM TEMP
RMF .OHMM                       .4200:   RMF
RMFT.DEGF                     82.0000:   RMF TEMP
FSC .                               M:   RMF CODE
RMC .OHMM                      1.2500:   RMC
RMCT.DEGF                     82.0000:   RMC TEMP
CMC .                               M:   RMC CODE
TMAX.DEGF                     82.0000:   MAX REC TEMP
TIMC.                          6.0000:   TIME SINCE CIRCLN
MUDD.                            NULL:   FLUID DENSITY
DFPH.                            NULL:   FLUID PH
~PARAMETER INFORMATION (zones)
#MNEM.UNIT                       Value     Description
#=========                       =====     ===========
#ZONATION                           IE:   ZONATION NAME
#ZONE                            RUN_2:   ZONE NAME
TOP .                       8273.0000:   TOP DEPTH
BOT .                      12867.5000:   BOTTOM DEPTH
RUN .                               2:   RUN NUMBER
LCCD.                             440:   LOGGING CONTRACTOR
SRVC.                    Schlumberger:   LOGGING CONT NAME
DICO.          QC Data Collectors Ltd:   DIG COMPANY NAME
LDAT.                      06/12/1973:   DATE LOGGED
ELD .F                        92.0000:   LOG DATUM ELEVATION
TDD .F                     12865.0000:   TOTAL DEPTH DRILLER
TDL .F                     12868.0000:   TOTAL DEPTH LOGGER
BOTL.F                     12867.0000:   BOTTOM DEPTH LOGGED
TOPL.F                      8272.0000:   TOP DEPTH LOGGED
CS1 .IN                        9.6250:   CASING SIZE 1
BS1 .IN                        8.5000:   BIT SIZE 1
DDB1.F                     12865.0000:   DEPTH DRILLED BIT 1
BHF .                              11:   FLUID CODE
DPT .         Caustic (high PH) (CLS):   DRILLING FLUID TYPE
MUDV.                         44.0000:   FLUID VISCOSITY
FL  .                          2.6000:   FLUID LOSS
RM  .OHMM                       .9100:   RM
RMT .DEGF                     76.0000:   RM TEMP
RMF .OHMM                       .4600:   RMF
RMFT.DEGF                     78.0000:   RMF TEMP
FSC .                               M:   RMF CODE
RMC .OHMM                      1.3200:   RMC
RMCT.DEGF                     76.0000:   RMC TEMP
CMC .                               C:   RMC CODE
TMAX.DEGF                    248.0000:   MAX REC TEMP
TIMC.                          5.0000:   TIME SINCE CIRCLN
MUDD.                         16.3000:   FLUID DENSITY
DFPH.                         10.5000:   FLUID PH
~PARAMETER INFORMATION (zones)
#MNEM.UNIT                       Value     Description
#=========                       =====     ===========
#ZONATION                        SONIC:   ZONATION NAME
#ZONE                            RUN_1:   ZONE NAME
TOP .                       8272.0000:   TOP DEPTH
BOT .                      12860.5000:   BOTTOM DEPTH
RUN .                               1:   RUN NUMBER
LCCD.                             440:   LOGGING CONTRACTOR
SRVC.                    Schlumberger:   LOGGING CONT NAME
DICO.          QC Data Collectors Ltd:   DIG COMPANY NAME
LDAT.                      06/12/1973:   DATE LOGGED
ELD .F                        92.0000:   LOG DATUM ELEVATION
TDD .F                     12865.0000:   TOTAL DEPTH DRILLER
BOTL.F                     12860.0000:   BOTTOM DEPTH LOGGED
TOPL.F                      8272.0000:   TOP DEPTH LOGGED
CS1 .IN                        9.6250:   CASING SIZE 1
BS1 .IN                        8.5000:   BIT SIZE 1
DDB1.F                     12865.0000:   DEPTH DRILLED BIT 1
BHF .                              11:   FLUID CODE
DPT .         Caustic (high PH) (CLS):   DRILLING FLUID TYPE
MUDD.                         16.3000:   FLUID DENSITY
MUDV.                         44.0000:   FLUID VISCOSITY
DFPH.                         10.5000:   FLUID PH
FL  .                          2.6000:   FLUID LOSS
RM  .OHMM                       .9100:   RM
RMT .DEGF                     76.0000:   RM TEMP
RMF .OHMM                       .4600:   RMF
RMFT.DEGF                     78.0000:   RMF TEMP
FSC .                               M:   RMF CODE
RMC .OHMM                      1.3200:   RMC
RMCT.DEGF                     76.0000:   RMC TEMP
CMC .                               C:   RMC CODE
TMAX.DEGF                    248.0000:   MAX REC TEMP
TIMC.                         10.0000:   TIME SINCE CIRCLN
~Curve Information Block
#MNEM.UNIT                    API CODE    No Description
#=========                    ========    == ===========
DEPT.F                   00 001 00 00:     1  DEPTH
ASN.OHMM                             :     2  Short-Normal Resistivity
ILD.OHMM                             :     3  Deep Induction Resistivity
SP.MV                                :     4  Spontaneous Potential
CALI.IN                              :     5  Caliper
DT.US/F                              :     6  Sonic Transit Time
~ASCII
# ...
10735.0000      .8150      .4956   -41.3941    11.0310   103.8892
10735.5000      .8049      .4768   -40.8433    11.0594   104.7075
10736.0000      .7881      .4627   -40.0747    11.0939   104.1061
10736.5000      .7676      .4485   -39.2950    11.0853   105.5826
10737.0000      .7468      .4388   -38.8109    11.0395   106.3973
10737.5000      .7260      .4348   -38.7217    10.9876   106.3234
10738.0000      .7155      .4308   -38.4969    10.9858   106.7720
10738.5000      .7185      .4276   -38.3555    11.0093   105.4816
10739.0000      .7224      .4313   -38.9962    11.0704   107.0986
10739.5000      .7262      .4350   -39.0239    11.1325   109.6869
10740.0000      .7295      .4395   -38.9346    11.1414   112.2998
10740.5000      .7327      .4453   -38.7195    10.9609   113.8022
10741.0000      .7360      .4511   -38.7847    10.8490   112.9062
10741.5000      .7392      .4567   -39.5422    10.9420   109.9679
10742.0000      .7435      .4617   -40.1467    11.0320   108.2942
10742.5000      .7530      .4667   -40.5168    11.1226   109.0361
10743.0000      .7628      .4765   -40.8870    11.1333   110.1741
10743.5000      .7644      .4905   -41.1827    11.0079   109.8638
10744.0000      .7515      .5045   -41.2578    10.9906   109.4231
10744.5000      .7426      .5183   -40.4399    11.1788   108.0378
10745.0000      .7460      .5302   -38.7946    11.3815   109.8890
10745.5000      .7519      .5329   -37.6287    11.5161   111.2362
10746.0000      .7656      .5225   -40.2358    11.0976   111.1858
10746.5000      .7810      .4953   -40.2039    10.8632   111.0500
10747.0000      .7755      .4669   -39.7623    10.6960   109.5957
10747.5000      .7676      .4367   -39.2330    10.5961   110.3130
10748.0000      .7827      .4088   -39.5152    10.4930   111.5615
10748.5000      .7934      .3880   -39.9280    10.5809   109.0806
10749.0000      .7463      .3684   -39.8140    10.4398   105.4323
10749.5000      .7021      .3712   -39.5564    10.2634   102.9229
10750.0000      .6857      .3760   -39.5582    10.6198   102.9629
10750.5000      .6803      .3891   -39.6626    11.1832   106.7930
10751.0000      .6931      .4021   -39.7878    11.0769   111.1313
10751.5000      .7073      .4212   -39.9286    10.8432   114.6046
10752.0000      .7243      .4407   -39.1168    10.8350   115.4242
10752.5000      .7375      .4636   -38.6314    10.7049   116.1564
10753.0000      .7269      .4871   -40.0907    10.7959   116.7917
10753.5000      .7253      .5046   -39.9899    10.9933   116.0959
10754.0000      .7673      .5186   -39.1155    11.2317   114.0895
10754.5000      .7888      .5222   -38.3076    10.6050   109.5538
10755.0000      .7869      .5273   -38.0222    10.1193   105.8859
10755.5000      .7801      .5204   -38.9544    10.0114   103.6771
10756.0000      .7755      .5089   -39.8964    10.2845   103.1115
10756.5000      .7699      .4939   -40.4418    10.4853   105.6886
10757.0000      .7602      .4737   -40.5245    10.3444   108.4988
10757.5000      .7496      .4490   -40.2358    10.4479   110.5891
10758.0000      .7363      .4242   -39.8577    10.5164   108.2720
10758.5000      .7219      .4099   -39.5293    10.4089   105.6973
10759.0000      .6996      .4075   -39.1512    10.3986   106.4010
10759.5000      .6837      .4052   -38.7404    10.4670   108.4347
10760.0000      .6784      .4091   -38.3647    10.4531   110.6138
10760.5000      .6742      .4131   -38.3272    10.3329   111.9054
10761.0000      .6732      .4189   -38.8265    10.3656   113.0848
10761.5000      .6830      .4261   -39.3701    10.3575   112.9806
10762.0000      .6935      .4268   -39.7931    10.3730   112.7799
10762.5000      .7039      .4228   -39.3670    10.5093   112.7743
10763.0000      .7103      .4167   -38.8972    10.4430   113.5853
10763.5000      .7064      .4028   -38.3948    10.5639   113.6852
10764.0000      .6892      .3862   -38.0490    10.7742   112.9530
10764.5000      .6671      .3704   -37.8319    10.8783   111.4050
10765.0000      .6439      .3574   -37.9706    10.8391   108.3656
10765.5000      .6314      .3443   -39.0897    10.7644   106.2852
10766.0000      .6211      .3469   -39.5219    10.7313   107.4733
10766.5000      .6269      .3558   -39.5241    10.5674   112.2802
10767.0000      .6325      .3674   -39.3753    10.5272   114.6515
10767.5000      .6428      .3858   -39.2268    10.4791   117.7377
10768.0000      .6557      .4046   -39.0651    10.3725   120.1041
10768.5000      .6709      .4286   -38.8929    10.3477   117.1067
10769.0000      .6910      .4552   -39.2637    10.4226   116.2771
10769.5000      .7167      .4936   -39.6935    10.4538   115.8051
10770.0000      .7458      .5177   -40.1375    10.4707   112.6400
10770.5000      .7723      .5384   -40.5611    10.4896   112.8853
10771.0000      .7968      .5461   -40.7621    10.4863   112.4773
10771.5000      .7753      .5471   -40.9632    10.3458   111.1807
10772.0000      .7787      .5394   -41.1569    10.2004   109.4552
10772.5000      .7743      .5309   -41.3395    10.2142   106.4774
10773.0000      .7586      .5167   -41.4955    10.4007   104.8751
10773.5000      .7391      .5025   -41.3984    10.7326   103.8287
10774.0000      .7354      .4892   -41.0007    10.6723   106.5662
10774.5000      .7234      .4787   -40.2949    11.0793   108.8809
10775.0000      .7049      .4681   -40.0599    11.2361   108.1808
10775.5000      .7079      .4579   -40.3367    10.9765   108.5948
10776.0000      .7147      .4491   -40.4719    10.9961   109.8989
10776.5000      .7116      .4404   -40.2493    11.0819   109.6265
10777.0000      .7017      .4311   -39.6578    10.8849   108.5037
10777.5000      .6919      .4204   -38.7994    10.8226   107.2909
10778.0000      .6806      .4096   -38.0112    11.1768   106.9434
10778.5000      .6673      .4009   -37.3939    11.2574   107.9318
10779.0000      .6584      .3939   -37.3741    11.0870   110.0961
10779.5000      .6514      .3868   -37.7944    11.0189   111.7083
10780.0000      .6460      .3779   -38.0179    10.9703   110.5472
10780.5000      .6422      .3691   -38.2415    11.1857   111.6047
10781.0000      .6375      .3594   -38.5000    11.4290   113.2587
10781.5000      .6323      .3461   -38.7589    11.6457   114.4407
10782.0000      .6260      .3328   -39.0140    11.7421   114.7180
10782.5000      .6190      .3231   -38.9544    11.6336   113.0936
10783.0000      .6123      .3135   -38.5474    11.6160   113.2853
10783.5000      .6067      .3110   -38.0757    11.9603   113.3383
10784.0000      .6034      .3119   -37.6355    12.1077   113.3967
10784.5000      .6016      .3222   -37.2715    11.7426   115.0077
10785.0000      .6016      .3514   -36.9788    11.3281   115.2107
10785.5000      .6168      .3912   -37.2844    11.0086   115.5833
10786.0000      .6421      .4361   -39.7267    10.7519   116.9070
10786.5000      .6846      .4809   -38.9298    10.4897   117.5109
10787.0000      .7330      .5252   -39.3258    10.2024   118.6504
10787.5000      .7875      .5672   -40.2952    10.0688   118.3989
10788.0000      .8380      .6005   -40.1553    10.0255   118.2712
10788.5000      .8451      .6195   -39.8933    10.3527   117.8954
10789.0000      .8301      .6230   -39.5545    10.9314   114.6022
10789.5000      .8167      .6239   -39.2157    11.5270   109.4552
10790.0000      .8100      .5905   -38.8770    12.1215   104.3279
10790.5000      .8030      .5539   -38.4994    12.6290   100.3051
10791.0000      .7861      .5180   -38.3043    12.9154   100.4209
10791.5000      .7676      .4821   -38.4692    12.9840   102.0206
10792.0000      .7490      .4463   -38.9913    12.7309   103.3395
10792.5000      .7301      .4200   -38.8130    12.2595   103.9995
10793.0000      .7116      .4038   -38.4612    12.3060   104.7938
10793.5000      .6934      .3876   -38.1520    11.9682   105.3124
10794.0000      .6773      .3762   -37.8427    11.6872   106.0583
10794.5000      .6680      .3798   -37.5303    11.8327   107.0620
10795.0000      .6685      .3833   -37.2155    11.8134   107.6619
10795.5000      .6713      .3909   -36.8730    11.6737   109.8792
