~VERSION INFORMATION
VERS.                             2.0:   CWLS Log ASCII Standard-VERSION 2.0
WRAP.                              NO:   One line per depth step
~Well Information Block
STRT.F                      2726.0000:   Top Depth
STOP.F                     13125.0000:   Bottom Depth
STEP.F                         .50000:   Depth Increment
NULL.                        -999.250:   Null Value
FLD .                      GA BLK 255:   Field Name
WELL.       OCSG01777  A007 ST00 BP00:   NAME
API .                  42706400190000:   WELL API
EDF .F                        92.0000:   ELEV DRILL FLOOR
COMP.       COASTAL STATES GAS PROD C:   OPERATOR
BN  .                             255:   BLOCK
CTRY.                             USA:   COUNTRY NAME
CNTY.                              GA:   COUNTY
CNTY.                        GLVSTN L:   COUNTY NAME
EKB .F                        93.0000:   ELEV KELLY BUSHING
TDD .F                      13136.000:   FINAL TD DRILLER
STAT.                           TEXAS:   STATE NAME
UWI .                  42706400190000:   WELL API
DICO.               IHS : Digitizing Company
~PARAMETER INFORMATION (zones)
#MNEM.UNIT                       Value     Description
#=========                       =====     ===========
#ZONATION                           IE:   ZONATION NAME
#ZONE                            RUN_1:   ZONE NAME
TOP .                       2726.0000:   TOP DEPTH
BOT .                       8780.5000:   BOTTOM DEPTH
RUN .                               1:   RUN NUMBER
LCCD.                             440:   LOGGING CONTRACTOR
SRVC.                    Schlumberger:   LOGGING CONT NAME
DICO.          QC Data Collectors Ltd:   DIG COMPANY NAME
LDAT.                      09/02/1973:   DATE LOGGED
ELD .F                        93.0000:   LOG DATUM ELEVATION
TDD .F                      8829.0000:   TOTAL DEPTH DRILLER
TDL .F                      8822.0000:   TOTAL DEPTH LOGGER
BOTL.F                      8821.0000:   BOTTOM DEPTH LOGGED
TOPL.F                      2726.0000:   TOP DEPTH LOGGED
CS1 .IN                       13.6250:   CASING SIZE 1
BS1 .IN                       12.2500:   BIT SIZE 1
DDB1.F                      8829.0000:   DEPTH DRILLED BIT 1
BHF .                              81:   FLUID CODE
DPT .          Lignosulfonate (Ligno):   DRILLING FLUID TYPE
MUDD.                         12.2000:   FLUID DENSITY
MUDV.                         44.0000:   FLUID VISCOSITY
DFPH.                         10.5000:   FLUID PH
FL  .                          2.0000:   FLUID LOSS
RM  .OHMM                       .9600:   RM
RMT .DEGF                     74.0000:   RM TEMP
RMF .OHMM                       .5900:   RMF
RMFT.DEGF                     71.0000:   RMF TEMP
FSC .                               M:   RMF CODE
RMC .OHMM                      1.8100:   RMC
RMCT.DEGF                     71.0000:   RMC TEMP
CMC .                               M:   RMC CODE
TMAX.DEGF                    160.0000:   MAX REC TEMP
TIMC.                         24.0000:   TIME SINCE CIRCLN
~PARAMETER INFORMATION (zones)
#MNEM.UNIT                       Value     Description
#=========                       =====     ===========
#ZONATION                           IE:   ZONATION NAME
#ZONE                            RUN_2:   ZONE NAME
TOP .                       8780.0000:   TOP DEPTH
BOT .                       9333.5000:   BOTTOM DEPTH
RUN .                               2:   RUN NUMBER
LCCD.                             440:   LOGGING CONTRACTOR
SRVC.                    Schlumberger:   LOGGING CONT NAME
DICO.          QC Data Collectors Ltd:   DIG COMPANY NAME
LDAT.                      09/09/1973:   DATE LOGGED
ELD .F                        93.0000:   LOG DATUM ELEVATION
TDD .F                      9340.0000:   TOTAL DEPTH DRILLER
TDL .F                      9334.0000:   TOTAL DEPTH LOGGER
BOTL.F                      9333.0000:   BOTTOM DEPTH LOGGED
TOPL.F                      8821.0000:   TOP DEPTH LOGGED
CS1 .IN                       13.3750:   CASING SIZE 1
BS1 .IN                       12.2500:   BIT SIZE 1
DDB1.F                      9340.0000:   DEPTH DRILLED BIT 1
BHF .                              99:   FLUID CODE
DPT .                   Miscellaneous:   DRILLING FLUID TYPE
MUDD.                         12.3000:   FLUID DENSITY
MUDV.                         46.0000:   FLUID VISCOSITY
DFPH.                         10.5000:   FLUID PH
FL  .                          3.2000:   FLUID LOSS
RM  .OHMM                       .6500:   RM
RMT .DEGF                     82.0000:   RM TEMP
RMF .OHMM                       .5000:   RMF
RMFT.DEGF                     82.0000:   RMF TEMP
FSC .                               M:   RMF CODE
RMC .OHMM                       .9600:   RMC
RMCT.DEGF                     82.0000:   RMC TEMP
CMC .                               M:   RMC CODE
TMAX.DEGF                    160.0000:   MAX REC TEMP
TIMC.                          4.0000:   TIME SINCE CIRCLN
~PARAMETER INFORMATION (zones)
#MNEM.UNIT                       Value     Description
#=========                       =====     ===========
#ZONATION                           IE:   ZONATION NAME
#ZONE                            RUN_3:   ZONE NAME
TOP .                       9343.0000:   TOP DEPTH
BOT .                      13125.5000:   BOTTOM DEPTH
RUN .                               3:   RUN NUMBER
LCCD.                             440:   LOGGING CONTRACTOR
SRVC.                    Schlumberger:   LOGGING CONT NAME
DICO.          QC Data Collectors Ltd:   DIG COMPANY NAME
LDAT.                      09/22/1973:   DATE LOGGED
ELD .F                        93.0000:   LOG DATUM ELEVATION
TDD .F                     13136.0000:   TOTAL DEPTH DRILLER
TDL .F                     13126.0000:   TOTAL DEPTH LOGGER
BOTL.F                     13125.0000:   BOTTOM DEPTH LOGGED
TOPL.F                      9343.0000:   TOP DEPTH LOGGED
CS1 .IN                        9.6250:   CASING SIZE 1
BS1 .IN                        8.5000:   BIT SIZE 1
DDB1.F                     13136.0000:   DEPTH DRILLED BIT 1
BHF .                              99:   FLUID CODE
DPT .                   Miscellaneous:   DRILLING FLUID TYPE
MUDD.                         16.5000:   FLUID DENSITY
MUDV.                         46.0000:   FLUID VISCOSITY
DFPH.                         11.0000:   FLUID PH
FL  .                          2.2000:   FLUID LOSS
RM  .OHMM                       .6100:   RM
RMT .DEGF                     80.0000:   RM TEMP
RMF .OHMM                       .2300:   RMF
RMFT.DEGF                     80.0000:   RMF TEMP
FSC .                               M:   RMF CODE
RMC .OHMM                      1.0000:   RMC
RMCT.DEGF                     80.0000:   RMC TEMP
CMC .                               M:   RMC CODE
TMAX.DEGF                    232.0000:   MAX REC TEMP
TIMC.                          7.0000:   TIME SINCE CIRCLN
~PARAMETER INFORMATION (zones)
#MNEM.UNIT                       Value     Description
#=========                       =====     ===========
#ZONATION                        SONIC:   ZONATION NAME
#ZONE                            RUN_1:   ZONE NAME
TOP .                       9343.0000:   TOP DEPTH
BOT .                      13014.5000:   BOTTOM DEPTH
RUN .                               1:   RUN NUMBER
LCCD.                             440:   LOGGING CONTRACTOR
SRVC.                    Schlumberger:   LOGGING CONT NAME
DICO.          QC Data Collectors Ltd:   DIG COMPANY NAME
LDAT.                      09/22/1973:   DATE LOGGED
ELD .F                        93.0000:   LOG DATUM ELEVATION
TDD .F                     13136.0000:   TOTAL DEPTH DRILLER
TDL .F                     13126.0000:   TOTAL DEPTH LOGGER
BOTL.F                     13014.0000:   BOTTOM DEPTH LOGGED
TOPL.F                      9343.0000:   TOP DEPTH LOGGED
CS1 .IN                        9.6250:   CASING SIZE 1
BS1 .IN                        8.5000:   BIT SIZE 1
DDB1.F                     13136.0000:   DEPTH DRILLED BIT 1
BHF .                              99:   FLUID CODE
DPT .                   Miscellaneous:   DRILLING FLUID TYPE
MUDD.                         16.5000:   FLUID DENSITY
MUDV.                         46.0000:   FLUID VISCOSITY
DFPH.                         11.0000:   FLUID PH
FL  .                          2.2000:   FLUID LOSS
RM  .OHMM                       .6100:   RM
RMT .DEGF                     80.0000:   RM TEMP
RMF .OHMM                       .2400:   RMF
RMFT.DEGF                     80.0000:   RMF TEMP
FSC .                               M:   RMF CODE
RMC .OHMM                      1.0000:   RMC
RMCT.DEGF                     80.0000:   RMC TEMP
CMC .                               M:   RMC CODE
TMAX.DEGF                    232.0000:   MAX REC TEMP
TIMC.                          6.0000:   TIME SINCE CIRCLN
~Curve Information Block
#MNEM.UNIT                    API CODE    No Description
#=========                    ========    == ===========
DEPT.F                   00 001 00 00:     1  DEPTH
ASN.OHMM                             :     2  Short-Normal Resistivity
ILD.OHMM                             :     3  Deep Induction Resistivity
SP.MV                                :     4  Spontaneous Potential
CALI.IN                              :     5  Caliper
DT.US/F                              :     6  Sonic Transit Time
~ASCII
# ...
 6874.0000      .6636      .3320  -111.1298  -999.2500  -999.2500
 6874.5000      .7021      .3212  -111.6870  -999.2500  -999.2500
 6875.0000      .7365      .3194  -112.4399  -999.2500  -999.2500
 6875.5000      .7473      .3254  -113.2642  -999.2500  -999.2500
 6876.0000      .7254      .3380  -114.2557  -999.2500  -999.2500
 6876.5000      .7103      .3510  -114.8621  -999.2500  -999.2500
 6877.0000      .7088      .3616  -114.6968  -999.2500  -999.2500
 6877.5000      .7103      .3753  -113.9827  -999.2500  -999.2500
 6878.0000      .7111      .3844  -112.1865  -999.2500  -999.2500
 6878.5000      .6922      .3906  -108.7419  -999.2500  -999.2500
 6879.0000      .6479      .3856  -104.2394  -999.2500  -999.2500
 6879.5000      .6114      .3802   -97.3650  -999.2500  -999.2500
 6880.0000      .5804      .3661   -90.4955  -999.2500  -999.2500
 6880.5000      .5813      .3520   -87.9994  -999.2500  -999.2500
 6881.0000      .5820      .3430   -89.0635  -999.2500  -999.2500
 6881.5000      .5794      .3346   -91.2877  -999.2500  -999.2500
 6882.0000      .5670      .3351   -92.7788  -999.2500  -999.2500
 6882.5000      .5495      .3386   -95.6476  -999.2500  -999.2500
 6883.0000      .5306      .3397  -100.9818  -999.2500  -999.2500
 6883.5000      .5224      .3424  -104.4952  -999.2500  -999.2500
 6884.0000      .5246      .3492  -108.1367  -999.2500  -999.2500
 6884.5000      .5348      .3623  -110.3782  -999.2500  -999.2500
 6885.0000      .5339      .3770  -110.2687  -999.2500  -999.2500
 6885.5000      .5294      .3864  -107.2657  -999.2500  -999.2500
 6886.0000      .5332      .3955   -98.8019  -999.2500  -999.2500
 6886.5000      .5415      .4073   -87.9170  -999.2500  -999.2500
 6887.0000      .5620      .4202   -83.2570  -999.2500  -999.2500
 6887.5000      .5717      .4362   -85.0236  -999.2500  -999.2500
 6888.0000      .5950      .4634   -96.0265  -999.2500  -999.2500
 6888.5000      .6081      .5021  -101.9463  -999.2500  -999.2500
 6889.0000      .6083      .5479  -104.4240  -999.2500  -999.2500
 6889.5000      .6016      .6082  -103.8949  -999.2500  -999.2500
 6890.0000      .5962      .6655   -98.5066  -999.2500  -999.2500
 6890.5000      .6033      .7083   -94.7772  -999.2500  -999.2500
 6891.0000      .6305      .7416   -86.4537  -999.2500  -999.2500
 6891.5000      .7024      .7654   -78.8550  -999.2500  -999.2500
 6892.0000      .7747      .7694   -74.8744  -999.2500  -999.2500
 6892.5000      .8332      .7436   -71.8021  -999.2500  -999.2500
 6893.0000      .8266      .7001   -69.7579  -999.2500  -999.2500
 6893.5000      .8205      .6537   -68.2892  -999.2500  -999.2500
 6894.0000      .8409      .6326   -67.0076  -999.2500  -999.2500
 6894.5000      .8881      .6314   -67.3282  -999.2500  -999.2500
 6895.0000      .8910      .6254   -68.7983  -999.2500  -999.2500
 6895.5000      .8585      .6169   -69.1241  -999.2500  -999.2500
 6896.0000      .8206      .6045   -66.7885  -999.2500  -999.2500
 6896.5000      .7855      .5964   -63.8729  -999.2500  -999.2500
 6897.0000      .7624      .5911   -61.6403  -999.2500  -999.2500
 6897.5000      .7562      .5922   -61.3746  -999.2500  -999.2500
 6898.0000      .7670      .5988   -63.5130  -999.2500  -999.2500
 6898.5000      .7799      .6120   -65.1508  -999.2500  -999.2500
 6899.0000      .7945      .6281   -65.7389  -999.2500  -999.2500
 6899.5000      .8102      .6524   -65.2119  -999.2500  -999.2500
 6900.0000      .8286      .6880   -64.7322  -999.2500  -999.2500
 6900.5000      .8551      .7245   -66.0431  -999.2500  -999.2500
 6901.0000      .8792      .7533   -68.2871  -999.2500  -999.2500
 6901.5000      .8997      .7606   -69.1218  -999.2500  -999.2500
 6902.0000      .9128      .7686   -68.5245  -999.2500  -999.2500
 6902.5000      .9207      .7732   -68.6555  -999.2500  -999.2500
 6903.0000      .9641      .7562   -69.5026  -999.2500  -999.2500
 6903.5000     1.0187      .7355   -70.3577  -999.2500  -999.2500
 6904.0000     1.0312      .7163   -69.9332  -999.2500  -999.2500
 6904.5000      .9825      .6939   -68.2944  -999.2500  -999.2500
 6905.0000      .9497      .6703   -66.7825  -999.2500  -999.2500
 6905.5000      .9024      .6464   -65.6936  -999.2500  -999.2500
 6906.0000      .8482      .6225   -65.2321  -999.2500  -999.2500
 6906.5000      .8071      .6041   -65.1099  -999.2500  -999.2500
 6907.0000      .7852      .5871   -64.3022  -999.2500  -999.2500
 6907.5000      .7924      .5714   -64.9777  -999.2500  -999.2500
 6908.0000      .8234      .5564   -68.0927  -999.2500  -999.2500
 6908.5000      .8486      .5370   -71.8868  -999.2500  -999.2500
 6909.0000      .8488      .5183   -73.2020  -999.2500  -999.2500
 6909.5000      .8235      .5026   -73.3632  -999.2500  -999.2500
 6910.0000      .7906      .4863   -71.7466  -999.2500  -999.2500
 6910.5000      .7699      .4698   -69.3156  -999.2500  -999.2500
 6911.0000      .7558      .4699   -67.2500  -999.2500  -999.2500
 6911.5000      .7474      .4766   -66.2743  -999.2500  -999.2500
 6912.0000      .7589      .5176   -68.0435  -999.2500  -999.2500
 6912.5000      .7824      .5617   -73.3188  -999.2500  -999.2500
 6913.0000      .8088      .6117   -76.1140  -999.2500  -999.2500
 6913.5000      .8099      .6461   -78.5254  -999.2500  -999.2500
 6914.0000      .8132      .6762   -82.1917  -999.2500  -999.2500
 6914.5000      .8228      .6687   -84.4805  -999.2500  -999.2500
 6915.0000      .8683      .6558   -83.4132  -999.2500  -999.2500
 6915.5000      .9852      .6348   -81.7733  -999.2500  -999.2500
 6916.0000     1.0710      .6083   -79.1873  -999.2500  -999.2500
 6916.5000     1.0923      .5802   -76.9211  -999.2500  -999.2500
 6917.0000     1.1046      .5511   -76.1423  -999.2500  -999.2500
 6917.5000     1.1534      .5283   -76.3423  -999.2500  -999.2500
 6918.0000     1.1686      .5090   -77.2853  -999.2500  -999.2500
 6918.5000     1.0625      .5019   -80.4545  -999.2500  -999.2500
 6919.0000      .9684      .4991   -87.0364  -999.2500  -999.2500
 6919.5000      .9100      .5176   -89.2189  -999.2500  -999.2500
 6920.0000      .8516      .5459   -89.2115  -999.2500  -999.2500
 6920.5000      .7971      .5934   -84.8441  -999.2500  -999.2500
 6921.0000      .7632      .6315   -78.0186  -999.2500  -999.2500
 6921.5000      .7454      .6660   -73.0138  -999.2500  -999.2500
 6922.0000      .7362      .6973   -62.3990  -999.2500  -999.2500
 6922.5000      .7331      .7107   -55.1945  -999.2500  -999.2500
 6923.0000      .7364      .7242   -52.4110  -999.2500  -999.2500
 6923.5000      .7425      .7321   -50.8039  -999.2500  -999.2500
 6924.0000      .7499      .7314   -49.7733  -999.2500  -999.2500
 6924.5000      .7552      .7297   -49.0572  -999.2500  -999.2500
 6925.0000      .7538      .7266   -48.6404  -999.2500  -999.2500
 6925.5000      .7498      .7224   -48.4271  -999.2500  -999.2500
 6926.0000      .7428      .7175   -48.1796  -999.2500  -999.2500
 6926.5000      .7346      .7156   -47.9222  -999.2500  -999.2500
 6927.0000      .7272      .7148   -47.6392  -999.2500  -999.2500
 6927.5000      .7204      .7159   -47.3567  -999.2500  -999.2500
 6928.0000      .7150      .7197   -47.1694  -999.2500  -999.2500
 6928.5000      .7114      .7235   -46.9825  -999.2500  -999.2500
 6929.0000      .7117      .7266   -46.8930  -999.2500  -999.2500
 6929.5000      .7094      .7295   -46.8277  -999.2500  -999.2500
 6930.0000      .7082      .7328   -46.8749  -999.2500  -999.2500
 6930.5000      .7127      .7362   -46.9742  -999.2500  -999.2500
 6931.0000      .7254      .7427   -47.1269  -999.2500  -999.2500
 6931.5000      .7361      .7496   -47.3279  -999.2500  -999.2500
 6932.0000      .7414      .7562   -47.3005  -999.2500  -999.2500
 6932.5000      .7433      .7631   -47.1719  -999.2500  -999.2500
 6933.0000      .7442      .7720   -46.9246  -999.2500  -999.2500
 6933.5000      .7486      .7774   -46.6260  -999.2500  -999.2500
 6934.0000      .7552      .7830   -46.4459  -999.2500  -999.2500
 6934.5000      .7655      .7889   -46.3276  -999.2500  -999.2500
