~VERSION INFORMATION
VERS.                             2.0:   CWLS Log ASCII Standard-VERSION 2.0
WRAP.                              NO:   One line per depth step
~Well Information Block
STRT.F                      3576.0000:   Top Depth
STOP.F                      7908.0000:   Bottom Depth
STEP.F                         .50000:   Depth Increment
NULL.                        -999.250:   Null Value
FLD .                      BA BLK 431:   Field Name
WELL.       OCSG09017   001 ST00 BP00:   NAME
API .                  42704401710000:   WELL API
EDF .F                        80.0000:   ELEV DRILL FLOOR
COMP.        WOLVERINE EXPLORATION CO:   OPERATOR
BN  .                             431:   BLOCK
CTRY.                             USA:   COUNTRY NAME
CNTY.                        BRAZOS L:   COUNTY NAME
EKB .F                        81.0000:   ELEV KELLY BUSHING
TDD .F                       7953.000:   FINAL TD DRILLER
STAT.                           TEXAS:   STATE NAME
UWI .                  42704401710000:   WELL API
DICO.               IHS : Digitizing Company
~PARAMETER INFORMATION (zones)
#MNEM.UNIT                       Value     Description
#=========                       =====     ===========
#ZONATION                          DIL:   ZONATION NAME
#ZONE                            RUN_1:   ZONE NAME
TOP .                       3576.0000:   TOP DEPTH
BOT .                       7908.5000:   BOTTOM DEPTH
RUN .                               1:   RUN NUMBER
LCCD.                             440:   LOGGING CONTRACTOR
SRVC.                    Schlumberger:   LOGGING CONT NAME
DICO.          QC Data Collectors Ltd:   DIG COMPANY NAME
LDAT.                      05/13/1988:   DATE LOGGED
ELD .F                        81.0000:   LOG DATUM ELEVATION
TDD .F                      7953.0000:   TOTAL DEPTH DRILLER
TDL .F                      7911.0000:   TOTAL DEPTH LOGGER
BOTL.F                      7908.0000:   BOTTOM DEPTH LOGGED
TOPL.F                      3608.0000:   TOP DEPTH LOGGED
CS1 .IN                       10.7500:   CASING SIZE 1
BS1 .IN                        9.8750:   BIT SIZE 1
DDB1.F                      7953.0000:   DEPTH DRILLED BIT 1
BHF .                              99:   FLUID CODE
DPT .                   Miscellaneous:   DRILLING FLUID TYPE
MUDD.                         10.0000:   FLUID DENSITY
MUDV.                         43.0000:   FLUID VISCOSITY
DFPH.                         11.3000:   FLUID PH
FL  .                          6.2000:   FLUID LOSS
RM  .OHMM                       .7340:   RM
RMT .DEGF                     73.0000:   RM TEMP
RMF .OHMM                       .5760:   RMF
RMFT.DEGF                     73.0000:   RMF TEMP
FSC .                               M:   RMF CODE
RMC .OHMM                       .8300:   RMC
RMCT.DEGF                     73.0000:   RMC TEMP
CMC .                               M:   RMC CODE
TMAX.DEGF                    164.0000:   MAX REC TEMP
TIMC.                          5.0000:   TIME SINCE CIRCLN
~Curve Information Block
#MNEM.UNIT                    API CODE    No Description
#=========                    ========    == ===========
DEPT.F                   00 001 00 00:     1  DEPTH
DCAL.IN                              :     2  Differential Caliper
DT.US/F                              :     3  Sonic Transit Time
GR.GAPI                              :     4  Gamma Ray
ILD.OHMM                             :     5  Deep Induction Resistivity
ILM.OHMM                             :     6  Medium Induction Resistivity
SFL.OHMM                             :     7  Medium Resistivity
SP.MV                                :     8  Spontaneous Potential
~ASCII
# ...
 4167.5000     8.0341   117.4938    55.2498      .5083      .5793      .6832   -60.9082
 4168.0000     8.0323   115.3589    50.3910      .5163      .5818      .6819   -61.4883
 4168.5000     7.9863   113.8972    48.0444      .5317      .5876      .7169   -61.7246
 4169.0000     7.6199   114.8568    46.6530      .5514      .5991      .7747   -61.1085
 4169.5000     7.2799   117.3152    48.9692      .5701      .6147      .8484   -59.1897
 4170.0000     6.9628   120.0426    52.4359      .5906      .6319      .8584   -55.8936
 4170.5000     6.8362   123.0676    55.7289      .6118      .6504      .8083   -53.1737
 4171.0000     6.8912   125.4851    55.7589      .6336      .6695      .7628   -51.0225
 4171.5000     7.0001   126.4738    55.4067      .6534      .6861      .7177   -48.9603
 4172.0000     7.1124   126.9211    55.5786      .6625      .6934      .7017   -47.2615
 4172.5000     7.1942   127.0327    58.2368      .6582      .6951      .7017   -46.2743
 4173.0000     7.2783   126.7136    61.4067      .6484      .6925      .6995   -45.7047
 4173.5000     7.4815   125.1504    63.8670      .6339      .6856      .6865   -45.4333
 4174.0000     7.6644   123.0068    64.4926      .6162      .6760      .6661   -45.5492
 4174.5000     7.7174   121.0518    59.0132      .5979      .6626      .6621   -47.4285
 4175.0000     7.7490   119.7172    55.2473      .5804      .6453      .6821   -49.4214
 4175.5000     7.8072   118.9851    52.0576      .5674      .6263      .7122   -51.8582
 4176.0000     7.8584   118.8120    50.3997      .5566      .6106      .7542   -54.1479
 4176.5000     7.8692   119.5560    49.8397      .5491      .5984      .8125   -55.6028
 4177.0000     7.8514   120.7177    49.8868      .5462      .5900      .8432   -55.0028
 4177.5000     7.7905   121.7467    51.7955      .5460      .5830      .7944   -53.9557
 4178.0000     7.6879   123.3676    55.3240      .5533      .5791      .7546   -52.8127
 4178.5000     7.5871   125.3810    59.6685      .5627      .5866      .7239   -51.8768
 4179.0000     7.5092   127.3770    59.6628      .5809      .5975      .7001   -51.0880
 4179.5000     7.4657   129.1863    59.0784      .6078      .6127      .6842   -50.2603
 4180.0000     7.4555   125.6785    58.4942      .6388      .6357      .6788   -49.4084
 4180.5000     7.4699   119.4501    56.9337      .6702      .6630      .6951   -48.9655
 4181.0000     7.5274   115.0750    54.7527      .7054      .6917      .7321   -48.8444
 4181.5000     7.6704   113.3428    51.9315      .7251      .7136      .7818   -49.3466
 4182.0000     7.8577   114.3771    50.5072      .7248      .7308      .8217   -50.7567
 4182.5000     8.0294   116.1437    49.8176      .7205      .7116      .8005   -53.0921
 4183.0000     8.1322   117.3937    49.6632      .6701      .6706      .7235   -57.3624
 4183.5000     8.2230   117.7228    49.6807      .5986      .6299      .6546   -62.5228
 4184.0000     8.3229   118.4025    48.7466      .5323      .5806      .6394   -66.6250
 4184.5000     8.4959   120.5112    44.6321      .4679      .5288      .6519   -71.9214
 4185.0000     8.7447   122.7539    39.4296      .4054      .4820      .7093   -77.0424
 4185.5000     8.9915   123.9259    36.6467      .3663      .4536      .7313   -80.4076
 4186.0000     8.9932   122.4415    36.4377      .3516      .4315      .6876   -82.0532
 4186.5000     8.6337   120.1320    39.5829      .3505      .4239      .6285   -80.4521
 4187.0000     8.3450   118.1991    41.5635      .3477      .4248      .6018   -77.8978
 4187.5000     8.1279   118.0414    44.1129      .3388      .4289      .5989   -76.4755
 4188.0000     7.9911   118.2269    44.7366      .3252      .4298      .5983   -75.5748
 4188.5000     8.1941   118.4502    42.3746      .3077      .4241      .5934   -78.3479
 4189.0000     8.6808   118.8008    38.8041      .2943      .4074      .6156   -82.4846
 4189.5000     9.0527   120.1108    36.7619      .2885      .3838      .6436   -85.8079
 4190.0000     9.1071   121.1361    36.9718      .2859      .3689      .5891   -87.0343
 4190.5000     8.8132   121.9141    40.1467      .2852      .3635      .5289   -84.6111
 4191.0000     8.4727   123.6750    45.4877      .2847      .3623      .4915   -80.4917
 4191.5000     8.2871   125.8409    48.5884      .2854      .3670      .5044   -75.2793
 4192.0000     8.4251   127.1829    49.8383      .2908      .3745      .5513   -71.5084
 4192.5000     8.3274   126.2822    50.9498      .3070      .3881      .5856   -67.8613
 4193.0000     8.1201   124.1362    53.2469      .3304      .3973      .5960   -64.4243
 4193.5000     7.9298   122.2742    56.1436      .3707      .4340      .5919   -60.4557
 4194.0000     7.7809   123.4557    57.1475      .4014      .4636      .6021   -57.2214
 4194.5000     7.7666   125.6283    57.4147      .4265      .4866      .6384   -55.5085
 4195.0000     7.8669   126.5891    58.0656      .4507      .5019      .6521   -54.4421
 4195.5000     7.9605   126.0198    59.1658      .4691      .5153      .6471   -53.7004
 4196.0000     7.9802   125.4342    59.9775      .4784      .5290      .6425   -53.2238
 4196.5000     7.9688   125.3488    60.1208      .4837      .5376      .6379   -52.4003
 4197.0000     7.9399   126.9232    60.1909      .4897      .5387      .6388   -51.9165
 4197.5000     7.9224   128.9141    60.2072      .4925      .5375      .6404   -52.0777
 4198.0000     7.9091   128.3735    60.1780      .4952      .5338      .6394   -52.5685
 4198.5000     7.8735   125.2421    60.3676      .5020      .5331      .6348   -53.1363
 4199.0000     7.8324   121.7435    61.0667      .5089      .5383      .6289   -53.8513
 4199.5000     7.7941   119.5046    61.6583      .5227      .5505      .6230   -54.0284
 4200.0000     7.7460   118.0740    61.1730      .5417      .5671      .6538   -54.1791
 4200.5000     7.5812   119.3149    60.5997      .5592      .5862      .7205   -54.1216
 4201.0000     7.3303   121.3542    60.0610      .5736      .6051      .7865   -53.6710
 4201.5000     7.0104   123.3105    59.6962      .5917      .6215      .7854   -53.0766
 4202.0000     6.6917   124.7251    59.5726      .6145      .6357      .7570   -52.5228
 4202.5000     6.5983   124.8783    60.3521      .6354      .6473      .7285   -52.1001
 4203.0000     6.6477   124.4722    61.6404      .6535      .6700      .7108   -51.8646
 4203.5000     6.7535   123.6627    62.6536      .6619      .6826      .7033   -51.7392
 4204.0000     6.8443   122.8624    62.8556      .6597      .6818      .7044   -51.6973
 4204.5000     6.8471   122.2651    62.7924      .6544      .6736      .7085   -51.6400
 4205.0000     6.7073   122.7102    62.7045      .6498      .6660      .7141   -51.4946
 4205.5000     6.4440   124.1016    62.6279      .6454      .6573      .7147   -51.2614
 4206.0000     6.2192   125.9797    62.5842      .6408      .6486      .7074   -50.7338
 4206.5000     6.0574   127.2009    62.6223      .6359      .6406      .6975   -50.1678
 4207.0000     6.1149   127.2213    62.8463      .6302      .6337      .6877   -49.7614
 4207.5000     6.1797   126.2786    62.7438      .6244      .6278      .6781   -49.3568
 4208.0000     6.2482   124.9198    62.1930      .6185      .6193      .6724   -48.8867
 4208.5000     6.2589   124.9448    61.7693      .6120      .6088      .6730   -48.3369
 4209.0000     6.2593   126.2562    61.9420      .6005      .5970      .6831   -47.7952
 4209.5000     6.2060   128.0142    63.9078      .5855      .5845      .7019   -47.5468
 4210.0000     6.2075   129.3914    67.0023      .5694      .5703      .6826   -47.2729
 4210.5000     6.2926   129.9963    68.8649      .5550      .5570      .6393   -47.3525
 4211.0000     6.3730   129.8887    69.7092      .5423      .5484      .6074   -47.4717
 4211.5000     6.4388   129.3240    70.7633      .5373      .5413      .5891   -47.6629
 4212.0000     6.5094   128.5173    71.5187      .5373      .5405      .5855   -47.8884
 4212.5000     6.6555   125.9908    69.7445      .5450      .5496      .5941   -48.1789
