~VERSION INFORMATION
VERS.                             2.0:   CWLS Log ASCII Standard-VERSION 2.0
WRAP.                              NO:   One line per depth step
~Well Information Block
STRT.F                      3138.0000:   Top Depth
STOP.F                      8628.0000:   Bottom Depth
STEP.F                         .50000:   Depth Increment
NULL.                        -999.250:   Null Value
FLD .                      BA BLK 376:   Field Name
WELL.       OCSG07215   003 ST00 BP00:   NAME
API .                  42704401900000:   WELL API
EDF .F                        90.0000:   ELEV DRILL FLOOR
COMP.         UNION EXPL PARTNERS LTD:   OPERATOR
BN  .                             376:   BLOCK
CTRY.                             USA:   COUNTRY NAME
CNTY.                        BRAZOS L:   COUNTY NAME
EKB .F                        91.0000:   ELEV KELLY BUSHING
TDD .F                       8678.000:   FINAL TD DRILLER
STAT.                           TEXAS:   STATE NAME
UWI .                  42704401900000:   WELL API
DICO.               IHS : Digitizing Company
~PARAMETER INFORMATION (zones)
#MNEM.UNIT                       Value     Description
#=========                       =====     ===========
#ZONATION                          DIL:   ZONATION NAME
#ZONE                            RUN_1:   ZONE NAME
TOP .                       3138.0000:   TOP DEPTH
BOT .                       5660.5000:   BOTTOM DEPTH
RUN .                               1:   RUN NUMBER
SRVC.                               0:   LOGGING CONTRACTOR
SRVC.                         UNKNOWN:   LOGGING CONT NAME
DICO.          QC Data Collectors Ltd:   DIG COMPANY NAME
LDAT.                      06/22/1989:   DATE LOGGED
ELD .F                        91.0000:   LOG DATUM ELEVATION
TDD .F                      5675.0000:   TOTAL DEPTH DRILLER
TDL .F                      5662.0000:   TOTAL DEPTH LOGGER
BOTL.F                      5660.0000:   BOTTOM DEPTH LOGGED
TOPL.F                      3220.0000:   TOP DEPTH LOGGED
CS1 .IN                       10.7500:   CASING SIZE 1
BS1 .IN                        9.8750:   BIT SIZE 1
DDB1.F                      5675.0000:   DEPTH DRILLED BIT 1
BHF .                              20:   FLUID CODE
DPT .                    Gel (Gelchem:   DRILLING FLUID TYPE
MUDD.                          9.0000:   FLUID DENSITY
MUDV.                         68.0000:   FLUID VISCOSITY
DFPH.                          9.0000:   FLUID PH
FL  .                         12.0000:   FLUID LOSS
RM  .OHMM                      1.0500:   RM
RMT .DEGF                     75.0000:   RM TEMP
RMF .OHMM                       .8200:   RMF
RMFT.DEGF                     75.0000:   RMF TEMP
FSC .                               M:   RMF CODE
RMC .OHMM                      1.2200:   RMC
RMCT.DEGF                     75.0000:   RMC TEMP
CMC .                               M:   RMC CODE
TMAX.DEGF                    128.0000:   MAX REC TEMP
TIMC.                          7.0000:   TIME SINCE CIRCLN
~PARAMETER INFORMATION (zones)
#MNEM.UNIT                       Value     Description
#=========                       =====     ===========
#ZONATION                          DIL:   ZONATION NAME
#ZONE                            RUN_2:   ZONE NAME
TOP .                       5664.0000:   TOP DEPTH
BOT .                       8628.5000:   BOTTOM DEPTH
RUN .                               2:   RUN NUMBER
SRVC.                               0:   LOGGING CONTRACTOR
SRVC.                         UNKNOWN:   LOGGING CONT NAME
DICO.          QC Data Collectors Ltd:   DIG COMPANY NAME
LDAT.                      07/04/1989:   DATE LOGGED
ELD .F                        91.0000:   LOG DATUM ELEVATION
TDD .F                      8678.0000:   TOTAL DEPTH DRILLER
TDL .F                      8630.0000:   TOTAL DEPTH LOGGER
BOTL.F                      8628.0000:   BOTTOM DEPTH LOGGED
TOPL.F                      5664.0000:   TOP DEPTH LOGGED
CS1 .IN                        7.6250:   CASING SIZE 1
BS1 .IN                        6.5000:   BIT SIZE 1
DDB1.F                      8678.0000:   DEPTH DRILLED BIT 1
BHF .                              81:   FLUID CODE
DPT .          Lignosulfonate (Ligno):   DRILLING FLUID TYPE
MUDD.                         11.8000:   FLUID DENSITY
MUDV.                         48.0000:   FLUID VISCOSITY
DFPH.                         10.5000:   FLUID PH
FL  .                          6.6000:   FLUID LOSS
RM  .OHMM                       .7200:   RM
RMT .DEGF                     70.0000:   RM TEMP
RMF .OHMM                       .5900:   RMF
RMFT.DEGF                     70.0000:   RMF TEMP
FSC .                               M:   RMF CODE
RMC .OHMM                       .9000:   RMC
RMCT.DEGF                     70.0000:   RMC TEMP
CMC .                               C:   RMC CODE
TMAX.DEGF                    191.0000:   MAX REC TEMP
TIMC.                          5.0000:   TIME SINCE CIRCLN
~Curve Information Block
#MNEM.UNIT                    API CODE    No Description
#=========                    ========    == ===========
DEPT.F                   00 001 00 00:     1  DEPTH
DT.US/F                              :     2  Sonic Transit Time
GR.GAPI                              :     3  Gamma Ray
ILD.OHMM                             :     4  Deep Induction Resistivity
ILM.OHMM                             :     5  Medium Induction Resistivity
RFOC.OHMM                            :     6  Medium Resistivity
SP.MV                                :     7  Spontaneous Potential
~ASCII
# ...
 3554.0000   119.9757    80.5942      .3984      .3876      .4392  -108.9326
 3554.5000   122.0133    80.7308      .3981      .3865      .4467  -108.8281
 3555.0000   127.7404    81.5050      .3975      .3841      .4490  -108.1724
 3555.5000   134.1289    83.3665      .3963      .3845      .4403  -107.0948
 3556.0000   139.6467    89.2208      .3927      .3847      .4325  -105.8005
 3556.5000   142.7585    93.4149      .3868      .3819      .4297  -103.7822
 3557.0000   144.6643    94.1119      .3800      .3763      .4270  -101.3707
 3557.5000   146.0234    93.7390      .3749      .3698      .4255   -99.6604
 3558.0000   147.3918    94.6403      .3710      .3659      .4264   -98.4552
 3558.5000   148.6157    96.5856      .3689      .3653      .4268   -97.2319
 3559.0000   149.5708    98.7445      .3700      .3657      .4267   -96.2319
 3559.5000   150.3584   101.0245      .3721      .3686      .4267   -95.7781
 3560.0000   150.6096   103.4036      .3748      .3727      .4273   -96.0210
 3560.5000   149.7473   102.9738      .3772      .3766      .4275   -96.6232
 3561.0000   147.9678   100.9751      .3785      .3772      .4253   -98.4175
 3561.5000   145.2429    98.2758      .3792      .3749      .4212  -102.4332
 3562.0000   141.0117    93.5073      .3770      .3686      .4164  -112.0195
 3562.5000   137.1963    83.4602      .3678      .3630      .4296  -121.8427
 3563.0000   134.4414    70.6056      .3531      .3526      .4911  -130.1685
 3563.5000   133.1790    56.8657      .3274      .3308      .5367  -135.7051
 3564.0000   133.3833    47.9930      .3054      .3065      .5205  -139.5437
 3564.5000   134.2263    44.8210      .2855      .2856      .5037  -141.7659
 3565.0000   135.2258    42.6035      .2705      .2722      .4881  -142.3086
 3565.5000   136.3137    40.9069      .2575      .2624      .4786  -142.0896
 3566.0000   137.5056    39.3026      .2482      .2655      .4719  -140.7808
 3566.5000   138.7092    39.4947      .2425      .2717      .4667  -139.1101
 3567.0000   139.7017    41.2128      .2405      .2784      .4642  -137.4890
 3567.5000   140.3645    42.8340      .2401      .2853      .4686  -136.0579
 3568.0000   140.1260    44.2338      .2426      .2893      .4854  -135.2175
 3568.5000   137.3821    45.7703      .2462      .2905      .4972  -135.5088
 3569.0000   134.3120    46.7075      .2505      .2890      .5030  -136.5383
 3569.5000   132.3958    46.7510      .2560      .2844      .5028  -137.7832
 3570.0000   131.8218    45.8881      .2627      .2801      .4965  -138.9089
 3570.5000   132.0740    44.3314      .2686      .2761      .4827  -139.5400
 3571.0000   133.6360    42.6946      .2710      .2720      .4671  -139.7468
 3571.5000   136.0510    41.5833      .2701      .2693      .4547  -139.8816
 3572.0000   141.3936    40.9767      .2685      .2676      .4430  -140.0332
 3572.5000   143.7000    40.7581      .2668      .2664      .4332  -140.3748
 3573.0000   143.2451    40.5653      .2654      .2652      .4399  -141.1453
 3573.5000   139.2439    40.4087      .2645      .2635      .4613  -141.7795
 3574.0000   133.5979    40.3296      .2624      .2618      .4676  -142.0076
 3574.5000   130.3999    40.2718  -999.2500  -999.2500  -999.2500  -142.1218
 3575.0000   129.2043    40.2930  -999.2500  -999.2500  -999.2500  -142.2212
 3575.5000   129.7566    40.3663  -999.2500  -999.2500  -999.2500  -142.4238
 3576.0000   131.8772    40.4561  -999.2500  -999.2500  -999.2500  -142.5649
 3576.5000   133.6660    40.6107  -999.2500  -999.2500  -999.2500  -142.5937
 3577.0000   133.2051    40.7363  -999.2500  -999.2500  -999.2500  -142.4978
 3577.5000   131.6655    40.8680  -999.2500  -999.2500  -999.2500  -142.0610
 3578.0000   130.2632    41.0660  -999.2500  -999.2500  -999.2500  -141.3105
 3578.5000   131.0059    41.4170  -999.2500  -999.2500  -999.2500  -139.8418
 3579.0000   132.1670    41.8506  -999.2500  -999.2500  -999.2500  -137.3118
 3579.5000   132.8374    42.5508  -999.2500      .2799  -999.2500  -134.6074
 3580.0000   132.4304    43.5202      .2378      .2888      .4539  -131.2778
 3580.5000   130.1763    44.9291      .2478      .2967      .4934  -128.4536
 3581.0000   128.0632    46.3920      .2567      .3061      .5264  -125.6501
 3581.5000   126.4146    47.9565      .2689      .3177      .5286  -119.8921
 3582.0000   124.8965    50.0452      .2828      .3311      .5072  -112.0612
 3582.5000   124.0073    54.2354      .3017      .3447      .4267  -106.9230
 3583.0000   123.6660    61.4595      .3202      .3564      .3991  -103.7262
 3583.5000   125.0991    72.2360      .3382      .3635      .4010  -101.8160
 3584.0000   127.9338    82.2831      .3540      .3647      .4228  -100.2899
 3584.5000   131.0288    88.1713      .3638      .3634      .4230   -99.0835
 3585.0000   133.4739    91.7755      .3653      .3621      .4223   -98.0529
 3585.5000   135.1887    93.5269      .3643      .3611      .4233   -97.2026
 3586.0000   135.7327    94.5042      .3631      .3606      .4250   -96.5480
 3586.5000   135.0598    95.1428      .3623      .3601      .4276   -96.1105
 3587.0000   134.2236    95.6677      .3611      .3595      .4299   -95.8857
 3587.5000   133.4417    96.3252      .3596      .3579      .4308   -96.0226
 3588.0000   132.8245    97.9216      .3587      .3576      .4300   -96.9572
 3588.5000   132.6506    99.6066      .3583      .3586      .4285   -98.2938
 3589.0000   132.9033   100.6548      .3593      .3604      .4281   -99.6252
 3589.5000   133.0867   100.2888      .3603      .3625      .4315  -101.1376
 3590.0000   132.7793    96.1793      .3616      .3657      .4382  -102.1891
 3590.5000   132.0073    92.3706      .3632      .3717      .4435  -102.9574
 3591.0000   130.3696    91.0464      .3655      .3834      .4478  -102.9496
 3591.5000   128.4397    90.6169      .3703      .3985      .4461  -102.3672
 3592.0000   125.0547    90.3771      .3784      .4149      .4294  -101.6246
 3592.5000   117.4840    89.4421      .3893      .4379      .4239  -101.1794
 3593.0000   109.6022    86.9734      .4083      .4667      .4649  -101.4727
 3593.5000    97.1807    83.0592      .4285      .4985      .5276  -102.0114
 3594.0000    91.7858    76.3611      .4473      .5221      .6051  -103.1012
 3594.5000    89.2793    68.8191      .4596      .5041      .6340  -104.7133
 3595.0000    89.5786    64.5795      .4644      .4803      .6398  -106.2244
 3595.5000    92.2356    61.5468      .4657      .4461      .6402  -107.1997
 3596.0000    96.9506    60.1398      .4666      .4144      .5420  -108.2531
 3596.5000   105.8888    59.7017      .4687      .3940      .4613  -110.1340
 3597.0000   114.4846    61.1406      .4758      .3792      .4535  -115.1055
 3597.5000   121.4694    62.6751      .4949      .3538      .4699  -119.5900
 3598.0000   125.3894    60.4100      .5379      .3262      .5228  -125.2881
 3598.5000   127.6632    57.5884      .5582      .3054      .5601  -126.2751
 3599.0000   128.5215    55.1951      .4743      .2933      .4734  -123.1422
 3599.5000   128.5098    53.0505      .4311      .2897      .4270  -118.4675
 3600.0000   126.8224    51.2926      .4054      .2900      .4330  -112.0924
 3600.5000   122.1571    50.0237      .3954      .2928      .7560  -107.7355
 3601.0000   119.2113    50.4540      .3937      .2981      .6029  -105.9086
 3601.5000   117.5736    52.5596      .4392      .3113      .4553  -107.3083
 3602.0000   115.8876    55.6208      .5097      .3350      .6111  -110.6940
 3602.5000   112.7037    55.2048      .5152      .3717      .6456  -112.4783
 3603.0000   108.5902    50.8186      .5165      .4093      .6524  -111.6750
 3603.5000   104.3224    44.1778      .5127      .4447      .6609  -110.0063
 3604.0000   101.0000    42.4329      .5068      .4639      .6778  -107.3267
 3604.5000   100.1017    43.0905      .4940      .4183      .6986  -104.5765
 3605.0000   106.5269    45.0593      .4770      .3814      .6288  -101.9606
 3605.5000   114.3146    48.4227      .4505      .3539      .4308  -100.3016
