~VERSION INFORMATION
VERS.                             2.0:   CWLS Log ASCII Standard-VERSION 2.0
WRAP.                              NO:   One line per depth step
~Well Information Block
STRT.F                      3138.0000:   Top Depth
STOP.F                      8628.0000:   Bottom Depth
STEP.F                         .50000:   Depth Increment
NULL.                        -999.250:   Null Value
FLD .                      BA BLK 376:   Field Name
WELL.       OCSG07215   003 ST00 BP00:   NAME
API .                  42704401900000:   WELL API
EDF .F                        90.0000:   ELEV DRILL FLOOR
COMP.         UNION EXPL PARTNERS LTD:   OPERATOR
BN  .                             376:   BLOCK
CTRY.                             USA:   COUNTRY NAME
CNTY.                        BRAZOS L:   COUNTY NAME
EKB .F                        91.0000:   ELEV KELLY BUSHING
TDD .F                       8678.000:   FINAL TD DRILLER
STAT.                           TEXAS:   STATE NAME
UWI .                  42704401900000:   WELL API
DICO.               IHS : Digitizing Company
~PARAMETER INFORMATION (zones)
#MNEM.UNIT                       Value     Description
#=========                       =====     ===========
#ZONATION                          DIL:   ZONATION NAME
#ZONE                            RUN_1:   ZONE NAME
TOP .                       3138.0000:   TOP DEPTH
BOT .                       5660.5000:   BOTTOM DEPTH
RUN .                               1:   RUN NUMBER
SRVC.                               0:   LOGGING CONTRACTOR
SRVC.                         UNKNOWN:   LOGGING CONT NAME
DICO.          QC Data Collectors Ltd:   DIG COMPANY NAME
LDAT.                      06/22/1989:   DATE LOGGED
ELD .F                        91.0000:   LOG DATUM ELEVATION
TDD .F                      5675.0000:   TOTAL DEPTH DRILLER
TDL .F                      5662.0000:   TOTAL DEPTH LOGGER
BOTL.F                      5660.0000:   BOTTOM DEPTH LOGGED
TOPL.F                      3220.0000:   TOP DEPTH LOGGED
CS1 .IN                       10.7500:   CASING SIZE 1
BS1 .IN                        9.8750:   BIT SIZE 1
DDB1.F                      5675.0000:   DEPTH DRILLED BIT 1
BHF .                              20:   FLUID CODE
DPT .                    Gel (Gelchem:   DRILLING FLUID TYPE
MUDD.                          9.0000:   FLUID DENSITY
MUDV.                         68.0000:   FLUID VISCOSITY
DFPH.                          9.0000:   FLUID PH
FL  .                         12.0000:   FLUID LOSS
RM  .OHMM                      1.0500:   RM
RMT .DEGF                     75.0000:   RM TEMP
RMF .OHMM                       .8200:   RMF
RMFT.DEGF                     75.0000:   RMF TEMP
FSC .                               M:   RMF CODE
RMC .OHMM                      1.2200:   RMC
RMCT.DEGF                     75.0000:   RMC TEMP
CMC .                               M:   RMC CODE
TMAX.DEGF                    128.0000:   MAX REC TEMP
TIMC.                          7.0000:   TIME SINCE CIRCLN
~PARAMETER INFORMATION (zones)
#MNEM.UNIT                       Value     Description
#=========                       =====     ===========
#ZONATION                          DIL:   ZONATION NAME
#ZONE                            RUN_2:   ZONE NAME
TOP .                       5664.0000:   TOP DEPTH
BOT .                       8628.5000:   BOTTOM DEPTH
RUN .                               2:   RUN NUMBER
SRVC.                               0:   LOGGING CONTRACTOR
SRVC.                         UNKNOWN:   LOGGING CONT NAME
DICO.          QC Data Collectors Ltd:   DIG COMPANY NAME
LDAT.                      07/04/1989:   DATE LOGGED
ELD .F                        91.0000:   LOG DATUM ELEVATION
TDD .F                      8678.0000:   TOTAL DEPTH DRILLER
TDL .F                      8630.0000:   TOTAL DEPTH LOGGER
BOTL.F                      8628.0000:   BOTTOM DEPTH LOGGED
TOPL.F                      5664.0000:   TOP DEPTH LOGGED
CS1 .IN                        7.6250:   CASING SIZE 1
BS1 .IN                        6.5000:   BIT SIZE 1
DDB1.F                      8678.0000:   DEPTH DRILLED BIT 1
BHF .                              81:   FLUID CODE
DPT .          Lignosulfonate (Ligno):   DRILLING FLUID TYPE
MUDD.                         11.8000:   FLUID DENSITY
MUDV.                         48.0000:   FLUID VISCOSITY
DFPH.                         10.5000:   FLUID PH
FL  .                          6.6000:   FLUID LOSS
RM  .OHMM                       .7200:   RM
RMT .DEGF                     70.0000:   RM TEMP
RMF .OHMM                       .5900:   RMF
RMFT.DEGF                     70.0000:   RMF TEMP
FSC .                               M:   RMF CODE
RMC .OHMM                       .9000:   RMC
RMCT.DEGF                     70.0000:   RMC TEMP
CMC .                               C:   RMC CODE
TMAX.DEGF                    191.0000:   MAX REC TEMP
TIMC.                          5.0000:   TIME SINCE CIRCLN
~Curve Information Block
#MNEM.UNIT                    API CODE    No Description
#=========                    ========    == ===========
DEPT.F                   00 001 00 00:     1  DEPTH
DT.US/F                              :     2  Sonic Transit Time
GR.GAPI                              :     3  Gamma Ray
ILD.OHMM                             :     4  Deep Induction Resistivity
ILM.OHMM                             :     5  Medium Induction Resistivity
RFOC.OHMM                            :     6  Medium Resistivity
SP.MV                                :     7  Spontaneous Potential
~ASCII
# ...
 8598.0000   108.1973  -999.2500      .6953      .7452     1.2513   -38.2819
 8598.5000   108.3604  -999.2500      .6960      .7466     1.2554   -38.2604
 8599.0000   108.4729  -999.2500      .7123      .7472     1.2280   -38.2786
 8599.5000   108.5424  -999.2500      .7376      .7421     1.2059   -38.2988
 8600.0000   108.5881  -999.2500      .7532      .7501     1.2368   -38.3508
 8600.5000   108.5779  -999.2500      .7668      .7582     1.2997   -38.4047
 8601.0000   108.5435  -999.2500      .7798      .7663     1.3353   -38.4738
 8601.5000   108.5219  -999.2500      .7900      .7746     1.3214   -38.5565
 8602.0000   108.5084  -999.2500      .7998      .7847     1.2637   -38.6652
 8602.5000   108.4950  -999.2500      .8066      .7950     1.2159   -38.7892
 8603.0000   108.4484  -999.2500      .8134      .8035     1.2005   -38.9299
 8603.5000   108.3928  -999.2500      .8191      .8103     1.2462   -39.0256
 8604.0000   108.3241  -999.2500      .8247      .8165     1.3012   -39.1078
 8604.5000   108.2258  -999.2500      .8263      .8216     1.3326   -39.1406
 8605.0000   108.1274  -999.2500      .8266      .8234     1.3329   -39.1620
 8605.5000   108.0782  -999.2500      .8244      .8129     1.3111   -39.1721
 8606.0000   108.2937  -999.2500      .8189      .7978     1.2977   -39.1199
 8606.5000   108.1787  -999.2500      .8084      .7854     1.2792   -39.0237
 8607.0000   108.2201  -999.2500      .7911      .7700     1.2558   -38.8207
 8607.5000   108.2305  -999.2500      .7676      .7475     1.2312   -38.5458
 8608.0000   108.2394  -999.2500      .7419      .7194     1.1976   -37.9873
 8608.5000   108.2797  -999.2500      .7193      .6983     1.1624   -37.4979
 8609.0000   108.3259  -999.2500      .7074      .6826     1.1272   -37.4671
 8609.5000   108.3722  -999.2500      .6985      .6799     1.1216   -37.6003
 8610.0000   108.4308  -999.2500      .6955      .6795     1.1275   -37.5708
 8610.5000   108.5278  -999.2500      .6923      .6849     1.1399   -37.4514
 8611.0000   108.6467  -999.2500      .6936      .6904     1.1342   -37.2109
 8611.5000   108.7910  -999.2500      .6953      .6970     1.1212   -36.9437
 8612.0000   108.8024  -999.2500      .6973      .7035     1.1116   -36.5908
 8612.5000   108.6539  -999.2500      .7001      .7095     1.1383   -36.1198
 8613.0000   107.6735  -999.2500      .7028      .7177     1.1855   -35.6927
 8613.5000    88.0616  -999.2500      .7083      .7332     1.2183   -35.2906
 8614.0000    51.4963  -999.2500      .7153      .7565     1.2120   -34.9354
 8614.5000  -999.2500  -999.2500      .7221      .7856     1.1865   -34.6750
 8615.0000  -999.2500  -999.2500      .7287      .8170     1.1727   -34.5792
 8615.5000  -999.2500  -999.2500      .7353      .8427     1.1827   -34.9489
 8616.0000  -999.2500  -999.2500      .7428      .8609     1.1997   -35.2716
 8616.5000  -999.2500  -999.2500      .7510      .8671     1.2247   -35.6100
 8617.0000  -999.2500  -999.2500      .7593      .8621     1.2041   -36.1204
 8617.5000  -999.2500  -999.2500      .7666      .8353     1.1774   -36.3719
 8618.0000  -999.2500  -999.2500      .7739      .8177     1.1625   -36.4553
 8618.5000  -999.2500  -999.2500      .7787      .8036     1.1600   -36.3116
 8619.0000  -999.2500  -999.2500      .7827      .7931     1.1848   -36.0378
 8619.5000  -999.2500  -999.2500      .7916      .7910     1.2020   -35.6632
 8620.0000  -999.2500  -999.2500      .8021      .7890     1.2122   -35.4225
 8620.5000  -999.2500  -999.2500      .8119      .7879     1.1765   -35.3196
 8621.0000  -999.2500  -999.2500      .8137      .7871     1.1432   -35.2643
 8621.5000  -999.2500  -999.2500      .8156      .7862     1.1262   -35.1847
 8622.0000  -999.2500  -999.2500      .8175      .7853     1.1194   -35.1050
 8622.5000  -999.2500  -999.2500      .8170      .7844     1.1164   -35.0829
 8623.0000  -999.2500  -999.2500      .8149      .7857     1.1048   -35.0498
 8623.5000  -999.2500  -999.2500      .8127      .7874     1.0895   -35.0115
 8624.0000  -999.2500  -999.2500      .8106      .7846     1.0667   -34.9632
 8624.5000  -999.2500  -999.2500      .8101      .7863     1.0507   -34.8980
 8625.0000  -999.2500  -999.2500      .8101      .7884     1.0428   -34.8063
 8625.5000  -999.2500  -999.2500      .8101      .7898     1.0366   -34.6899
 8626.0000  -999.2500  -999.2500      .8101      .7923     1.0326   -34.5394
 8626.5000  -999.2500  -999.2500      .8106      .7962     1.0286   -34.4156
 8627.0000  -999.2500  -999.2500      .8120      .7963     1.0257   -34.3304
 8627.5000  -999.2500  -999.2500      .8133      .7957     1.0254   -34.2458
 8628.0000  -999.2500  -999.2500      .8147      .7936     1.0251   -34.1623
