~VERSION INFORMATION
VERS.                             2.0:   CWLS Log ASCII Standard-VERSION 2.0
WRAP.                              NO:   One line per depth step
~Well Information Block
STRT.F                      3138.0000:   Top Depth
STOP.F                      8628.0000:   Bottom Depth
STEP.F                         .50000:   Depth Increment
NULL.                        -999.250:   Null Value
FLD .                      BA BLK 376:   Field Name
WELL.       OCSG07215   003 ST00 BP00:   NAME
API .                  42704401900000:   WELL API
EDF .F                        90.0000:   ELEV DRILL FLOOR
COMP.         UNION EXPL PARTNERS LTD:   OPERATOR
BN  .                             376:   BLOCK
CTRY.                             USA:   COUNTRY NAME
CNTY.                        BRAZOS L:   COUNTY NAME
EKB .F                        91.0000:   ELEV KELLY BUSHING
TDD .F                       8678.000:   FINAL TD DRILLER
STAT.                           TEXAS:   STATE NAME
UWI .                  42704401900000:   WELL API
DICO.               IHS : Digitizing Company
~PARAMETER INFORMATION (zones)
#MNEM.UNIT                       Value     Description
#=========                       =====     ===========
#ZONATION                          DIL:   ZONATION NAME
#ZONE                            RUN_1:   ZONE NAME
TOP .                       3138.0000:   TOP DEPTH
BOT .                       5660.5000:   BOTTOM DEPTH
RUN .                               1:   RUN NUMBER
SRVC.                               0:   LOGGING CONTRACTOR
SRVC.                         UNKNOWN:   LOGGING CONT NAME
DICO.          QC Data Collectors Ltd:   DIG COMPANY NAME
LDAT.                      06/22/1989:   DATE LOGGED
ELD .F                        91.0000:   LOG DATUM ELEVATION
TDD .F                      5675.0000:   TOTAL DEPTH DRILLER
TDL .F                      5662.0000:   TOTAL DEPTH LOGGER
BOTL.F                      5660.0000:   BOTTOM DEPTH LOGGED
TOPL.F                      3220.0000:   TOP DEPTH LOGGED
CS1 .IN                       10.7500:   CASING SIZE 1
BS1 .IN                        9.8750:   BIT SIZE 1
DDB1.F                      5675.0000:   DEPTH DRILLED BIT 1
BHF .                              20:   FLUID CODE
DPT .                    Gel (Gelchem:   DRILLING FLUID TYPE
MUDD.                          9.0000:   FLUID DENSITY
MUDV.                         68.0000:   FLUID VISCOSITY
DFPH.                          9.0000:   FLUID PH
FL  .                         12.0000:   FLUID LOSS
RM  .OHMM                      1.0500:   RM
RMT .DEGF                     75.0000:   RM TEMP
RMF .OHMM                       .8200:   RMF
RMFT.DEGF                     75.0000:   RMF TEMP
FSC .                               M:   RMF CODE
RMC .OHMM                      1.2200:   RMC
RMCT.DEGF                     75.0000:   RMC TEMP
CMC .                               M:   RMC CODE
TMAX.DEGF                    128.0000:   MAX REC TEMP
TIMC.                          7.0000:   TIME SINCE CIRCLN
~PARAMETER INFORMATION (zones)
#MNEM.UNIT                       Value     Description
#=========                       =====     ===========
#ZONATION                          DIL:   ZONATION NAME
#ZONE                            RUN_2:   ZONE NAME
TOP .                       5664.0000:   TOP DEPTH
BOT .                       8628.5000:   BOTTOM DEPTH
RUN .                               2:   RUN NUMBER
SRVC.                               0:   LOGGING CONTRACTOR
SRVC.                         UNKNOWN:   LOGGING CONT NAME
DICO.          QC Data Collectors Ltd:   DIG COMPANY NAME
LDAT.                      07/04/1989:   DATE LOGGED
ELD .F                        91.0000:   LOG DATUM ELEVATION
TDD .F                      8678.0000:   TOTAL DEPTH DRILLER
TDL .F                      8630.0000:   TOTAL DEPTH LOGGER
BOTL.F                      8628.0000:   BOTTOM DEPTH LOGGED
TOPL.F                      5664.0000:   TOP DEPTH LOGGED
CS1 .IN                        7.6250:   CASING SIZE 1
BS1 .IN                        6.5000:   BIT SIZE 1
DDB1.F                      8678.0000:   DEPTH DRILLED BIT 1
BHF .                              81:   FLUID CODE
DPT .          Lignosulfonate (Ligno):   DRILLING FLUID TYPE
MUDD.                         11.8000:   FLUID DENSITY
MUDV.                         48.0000:   FLUID VISCOSITY
DFPH.                         10.5000:   FLUID PH
FL  .                          6.6000:   FLUID LOSS
RM  .OHMM                       .7200:   RM
RMT .DEGF                     70.0000:   RM TEMP
RMF .OHMM                       .5900:   RMF
RMFT.DEGF                     70.0000:   RMF TEMP
FSC .                               M:   RMF CODE
RMC .OHMM                       .9000:   RMC
RMCT.DEGF                     70.0000:   RMC TEMP
CMC .                               C:   RMC CODE
TMAX.DEGF                    191.0000:   MAX REC TEMP
TIMC.                          5.0000:   TIME SINCE CIRCLN
~Curve Information Block
#MNEM.UNIT                    API CODE    No Description
#=========                    ========    == ===========
DEPT.F                   00 001 00 00:     1  DEPTH
DT.US/F                              :     2  Sonic Transit Time
GR.GAPI                              :     3  Gamma Ray
ILD.OHMM                             :     4  Deep Induction Resistivity
ILM.OHMM                             :     5  Medium Induction Resistivity
RFOC.OHMM                            :     6  Medium Resistivity
SP.MV                                :     7  Spontaneous Potential
~ASCII
# ...
 4282.0000   125.9014    32.5912      .2381      .2612      .5166  -148.9138
 4282.5000   125.8943    32.7953      .2381      .2611      .5139  -148.8618
 4283.0000   125.8729    33.0909      .2382      .2610      .5121  -148.8081
 4283.5000   125.8500    33.5027      .2383      .2607      .5114  -148.7297
 4284.0000   125.7285    34.0779      .2385      .2610      .5122  -148.6636
 4284.5000   125.3867    35.1593      .2388      .2614      .5134  -148.6941
 4285.0000   124.8560    36.5044      .2393      .2614      .5156  -148.7251
 4285.5000   124.2538    37.8026      .2398      .2617      .5187  -148.7568
 4286.0000   123.6235    37.9419      .2403      .2625      .5229  -148.7368
 4286.5000   123.1141    36.9100      .2409      .2637      .5281  -148.6946
 4287.0000   122.9938    36.0135      .2404      .2647      .5351  -148.6455
 4287.5000   123.0160    35.1593      .2405      .2651      .5377  -148.5859
 4288.0000   123.3950    34.7322      .2410      .2663      .5367  -148.5161
 4288.5000   123.8959    36.9432      .2417      .2673      .5287  -148.4346
 4289.0000   124.3940    40.3652      .2426      .2679      .5180  -148.3311
 4289.5000   124.9766    41.7474      .2425      .2683      .5146  -148.2368
 4290.0000   125.5313    42.2604      .2429      .2691      .5162  -148.0374
 4290.5000   126.0621    41.3535      .2432      .2704      .5162  -147.6653
 4291.0000   126.4580    40.1438      .2436      .2741      .5088  -147.0576
 4291.5000   126.6605    40.4485      .2450      .2797      .4968  -146.3459
 4292.0000   126.7048    42.2832      .2480      .2867      .4883  -145.2373
 4292.5000   126.3203    44.5320      .2510      .2918      .4894  -144.5156
 4293.0000   125.4050    46.4734      .2572      .2948      .4940  -144.3789
 4293.5000   124.0609    46.8693      .2641      .2974      .4946  -144.4905
 4294.0000   122.6501    45.4845      .2714      .3012      .4966  -144.6353
 4294.5000   121.1791    44.3516      .2784      .3076      .5005  -144.7517
 4295.0000   119.6676    43.6777      .2845      .3151      .5096  -144.8545
 4295.5000   119.0134    43.6381      .2910      .3167      .5146  -144.9170
 4296.0000   120.1371    43.6107      .2985      .3163      .5117  -144.9751
 4296.5000   121.9833    42.5866      .3018      .3155      .5035  -145.0308
 4297.0000   123.6923    41.0032      .3034      .3159      .4992  -145.1262
 4297.5000   124.2524    40.6142      .3035      .3164      .4956  -145.2234
 4298.0000   124.1157    41.3476      .3027      .3159      .4928  -145.2983
 4298.5000   123.9869    42.1243      .3012      .3158      .4905  -145.3613
 4299.0000   124.0477    42.6035      .2992      .3174      .4905  -145.3945
 4299.5000   124.3950    42.9779      .2992      .3176      .4954  -145.3445
 4300.0000   124.8350    43.9772      .2982      .3177      .5095  -145.1633
 4300.5000   125.2126    45.3328      .2970      .3181      .5291  -144.7922
 4301.0000   125.2975    46.5704      .2960      .3186      .5127  -144.2451
 4301.5000   124.9004    47.3192      .2956      .3188      .4915  -143.5100
 4302.0000   124.2119    47.6147      .2956      .3116      .4856  -142.7444
 4302.5000   123.3706    47.1724      .2954      .3016      .4980  -142.5945
 4303.0000   122.5822    46.8472      .2911      .2943      .5141  -143.3328
 4303.5000   122.7766    46.7009      .2837      .2900      .5287  -144.1780
 4304.0000   124.0596    46.7490      .2768      .2883      .5191  -144.6855
 4304.5000   125.5359    46.8243      .2716      .2882      .5024  -144.1538
 4305.0000   126.0732    45.7325      .2680      .2902      .4881  -142.8796
 4305.5000   125.6261    43.6700      .2656      .2958      .4865  -141.5815
 4306.0000   124.6617    41.0527      .2645      .3012      .4958  -140.3965
 4306.5000   123.4359    38.2545      .2640      .3043      .5037  -140.1357
 4307.0000   121.8407    35.9783      .2667      .3058      .5094  -140.6353
 4307.5000   120.0991    35.8754      .2707      .3047      .5122  -141.4116
 4308.0000   118.6484    36.9178      .2756      .3026      .5154  -142.2703
 4308.5000   117.6194    36.9666      .2811      .2998      .5173  -143.1440
 4309.0000   116.8623    35.7570      .2861      .2943      .5165  -144.2385
 4309.5000   116.1249    35.5040      .2857      .2869      .5146  -145.2627
 4310.0000   116.0555    35.8911      .2806      .2807      .5119  -146.0190
 4310.5000   117.6697    35.6912      .2750      .2755      .5083  -146.6660
 4311.0000   120.2979    34.6260      .2680      .2700      .5061  -147.1702
 4311.5000   122.7939    33.7751      .2616      .2643      .5013  -147.5613
 4312.0000   123.6079    33.3685      .2558      .2626      .4964  -147.7000
 4312.5000   123.7526    33.3780      .2495      .2621      .4910  -147.6746
 4313.0000   123.4852    33.7644      .2443      .2632      .4857  -147.6294
 4313.5000   123.1212    34.3096      .2413      .2644      .4828  -147.4973
 4314.0000   123.4242    33.2178      .2402      .2643      .4825  -147.3892
 4314.5000   125.1488    31.4665      .2396      .2645      .4835  -147.2666
 4315.0000   126.5767    31.1364      .2395      .2650      .4839  -147.1584
 4315.5000   128.0344    32.9769      .2395      .2659      .4807  -147.1047
 4316.0000   129.0093    35.6515      .2387      .2682      .4776  -146.7810
 4316.5000   129.6423    37.3299      .2393      .2718      .4753  -146.2834
 4317.0000   129.3733    38.2089      .2392      .2757      .4764  -145.7192
 4317.5000   128.0332    38.5631      .2406      .2809      .4758  -145.0256
 4318.0000   126.3008    38.0650      .2435      .2871      .4761  -144.0471
 4318.5000   124.3970    37.1652      .2479      .2937      .4741  -143.2664
 4319.0000   122.9116    36.0597      .2537      .3008      .4700  -142.6860
 4319.5000   121.4681    34.6918      .2609      .3077      .4679  -142.2654
 4320.0000   119.6257    33.7263      .2689      .3132      .4686  -141.9314
 4320.5000   118.4620    34.7452      .2778      .3174      .4674  -141.8594
 4321.0000   123.5563    35.7479      .2860      .3184      .4650  -142.0007
 4321.5000   130.7004    35.8520      .2905      .3174      .4623  -142.0996
 4322.0000   140.1670    34.7784      .2938      .3181      .4603  -142.1355
 4322.5000   151.4485    33.9594      .2959      .3183      .4590  -142.0881
 4323.0000   158.2214    33.4297      .2961      .3192      .4583  -141.9841
 4323.5000   164.2832    33.1393      .2943      .3200      .4577  -141.9636
 4324.0000   167.3181    33.0110      .2906      .3199      .4571  -141.9473
 4324.5000   167.3167    33.0051      .2882      .3217      .4567  -141.9233
 4325.0000   164.2466    32.9650      .2865      .3223      .4565  -141.8013
 4325.5000   158.3469    32.4938      .2850      .3227      .4570  -141.4817
 4326.0000   155.0925    31.4574      .2846      .3251      .4578  -141.0483
 4326.5000   160.6326    30.3480      .2854      .3280      .4575  -140.5652
 4327.0000   171.6943    31.0882      .2866      .3311      .4569  -140.0427
 4327.5000   180.5698    30.9717      .2879      .3344      .4562  -139.4421
 4328.0000   189.1289    29.7802      .2905      .3385      .4555  -138.7507
 4328.5000   186.5034    29.6943      .2948      .3425      .4548  -137.8613
 4329.0000   179.8689    32.0629      .2998      .3458      .4546  -137.0046
 4329.5000   170.7163    34.6124      .3047      .3496      .4563  -136.2493
 4330.0000   160.4600    37.1385      .3098      .3516      .4718  -135.4863
 4330.5000   146.4641    39.8157      .3146      .3520      .4924  -134.9448
 4331.0000   138.1797    42.3379      .3188      .3507      .5052  -134.6641
 4331.5000   133.5327    44.4473      .3206      .3490      .5109  -134.6768
 4332.0000   130.8940    45.1362      .3212      .3467      .5084  -135.7649
 4332.5000   129.7087    45.1186      .3213      .3446      .5059  -137.2781
 4333.0000   129.0151    44.0619      .3207      .3424      .5074  -138.5664
 4333.5000   129.7356    42.6309      .3180      .3384      .5107  -139.5464
