~VERSION INFORMATION
VERS.                             2.0:   CWLS Log ASCII Standard-VERSION 2.0
WRAP.                              NO:   One line per depth step
~Well Information Block
STRT.F                      2726.0000:   Top Depth
STOP.F                     13125.0000:   Bottom Depth
STEP.F                         .50000:   Depth Increment
NULL.                        -999.250:   Null Value
FLD .                      GA BLK 255:   Field Name
WELL.       OCSG01777  A007 ST00 BP00:   NAME
API .                  42706400190000:   WELL API
EDF .F                        92.0000:   ELEV DRILL FLOOR
COMP.       COASTAL STATES GAS PROD C:   OPERATOR
BN  .                             255:   BLOCK
CTRY.                             USA:   COUNTRY NAME
CNTY.                              GA:   COUNTY
CNTY.                        GLVSTN L:   COUNTY NAME
EKB .F                        93.0000:   ELEV KELLY BUSHING
TDD .F                      13136.000:   FINAL TD DRILLER
STAT.                           TEXAS:   STATE NAME
UWI .                  42706400190000:   WELL API
DICO.               IHS : Digitizing Company
~PARAMETER INFORMATION (zones)
#MNEM.UNIT                       Value     Description
#=========                       =====     ===========
#ZONATION                           IE:   ZONATION NAME
#ZONE                            RUN_1:   ZONE NAME
TOP .                       2726.0000:   TOP DEPTH
BOT .                       8780.5000:   BOTTOM DEPTH
RUN .                               1:   RUN NUMBER
LCCD.                             440:   LOGGING CONTRACTOR
SRVC.                    Schlumberger:   LOGGING CONT NAME
DICO.          QC Data Collectors Ltd:   DIG COMPANY NAME
LDAT.                      09/02/1973:   DATE LOGGED
ELD .F                        93.0000:   LOG DATUM ELEVATION
TDD .F                      8829.0000:   TOTAL DEPTH DRILLER
TDL .F                      8822.0000:   TOTAL DEPTH LOGGER
BOTL.F                      8821.0000:   BOTTOM DEPTH LOGGED
TOPL.F                      2726.0000:   TOP DEPTH LOGGED
CS1 .IN                       13.6250:   CASING SIZE 1
BS1 .IN                       12.2500:   BIT SIZE 1
DDB1.F                      8829.0000:   DEPTH DRILLED BIT 1
BHF .                              81:   FLUID CODE
DPT .          Lignosulfonate (Ligno):   DRILLING FLUID TYPE
MUDD.                         12.2000:   FLUID DENSITY
MUDV.                         44.0000:   FLUID VISCOSITY
DFPH.                         10.5000:   FLUID PH
FL  .                          2.0000:   FLUID LOSS
RM  .OHMM                       .9600:   RM
RMT .DEGF                     74.0000:   RM TEMP
RMF .OHMM                       .5900:   RMF
RMFT.DEGF                     71.0000:   RMF TEMP
FSC .                               M:   RMF CODE
RMC .OHMM                      1.8100:   RMC
RMCT.DEGF                     71.0000:   RMC TEMP
CMC .                               M:   RMC CODE
TMAX.DEGF                    160.0000:   MAX REC TEMP
TIMC.                         24.0000:   TIME SINCE CIRCLN
~PARAMETER INFORMATION (zones)
#MNEM.UNIT                       Value     Description
#=========                       =====     ===========
#ZONATION                           IE:   ZONATION NAME
#ZONE                            RUN_2:   ZONE NAME
TOP .                       8780.0000:   TOP DEPTH
BOT .                       9333.5000:   BOTTOM DEPTH
RUN .                               2:   RUN NUMBER
LCCD.                             440:   LOGGING CONTRACTOR
SRVC.                    Schlumberger:   LOGGING CONT NAME
DICO.          QC Data Collectors Ltd:   DIG COMPANY NAME
LDAT.                      09/09/1973:   DATE LOGGED
ELD .F                        93.0000:   LOG DATUM ELEVATION
TDD .F                      9340.0000:   TOTAL DEPTH DRILLER
TDL .F                      9334.0000:   TOTAL DEPTH LOGGER
BOTL.F                      9333.0000:   BOTTOM DEPTH LOGGED
TOPL.F                      8821.0000:   TOP DEPTH LOGGED
CS1 .IN                       13.3750:   CASING SIZE 1
BS1 .IN                       12.2500:   BIT SIZE 1
DDB1.F                      9340.0000:   DEPTH DRILLED BIT 1
BHF .                              99:   FLUID CODE
DPT .                   Miscellaneous:   DRILLING FLUID TYPE
MUDD.                         12.3000:   FLUID DENSITY
MUDV.                         46.0000:   FLUID VISCOSITY
DFPH.                         10.5000:   FLUID PH
FL  .                          3.2000:   FLUID LOSS
RM  .OHMM                       .6500:   RM
RMT .DEGF                     82.0000:   RM TEMP
RMF .OHMM                       .5000:   RMF
RMFT.DEGF                     82.0000:   RMF TEMP
FSC .                               M:   RMF CODE
RMC .OHMM                       .9600:   RMC
RMCT.DEGF                     82.0000:   RMC TEMP
CMC .                               M:   RMC CODE
TMAX.DEGF                    160.0000:   MAX REC TEMP
TIMC.                          4.0000:   TIME SINCE CIRCLN
~PARAMETER INFORMATION (zones)
#MNEM.UNIT                       Value     Description
#=========                       =====     ===========
#ZONATION                           IE:   ZONATION NAME
#ZONE                            RUN_3:   ZONE NAME
TOP .                       9343.0000:   TOP DEPTH
BOT .                      13125.5000:   BOTTOM DEPTH
RUN .                               3:   RUN NUMBER
LCCD.                             440:   LOGGING CONTRACTOR
SRVC.                    Schlumberger:   LOGGING CONT NAME
DICO.          QC Data Collectors Ltd:   DIG COMPANY NAME
LDAT.                      09/22/1973:   DATE LOGGED
ELD .F                        93.0000:   LOG DATUM ELEVATION
TDD .F                     13136.0000:   TOTAL DEPTH DRILLER
TDL .F                     13126.0000:   TOTAL DEPTH LOGGER
BOTL.F                     13125.0000:   BOTTOM DEPTH LOGGED
TOPL.F                      9343.0000:   TOP DEPTH LOGGED
CS1 .IN                        9.6250:   CASING SIZE 1
BS1 .IN                        8.5000:   BIT SIZE 1
DDB1.F                     13136.0000:   DEPTH DRILLED BIT 1
BHF .                              99:   FLUID CODE
DPT .                   Miscellaneous:   DRILLING FLUID TYPE
MUDD.                         16.5000:   FLUID DENSITY
MUDV.                         46.0000:   FLUID VISCOSITY
DFPH.                         11.0000:   FLUID PH
FL  .                          2.2000:   FLUID LOSS
RM  .OHMM                       .6100:   RM
RMT .DEGF                     80.0000:   RM TEMP
RMF .OHMM                       .2300:   RMF
RMFT.DEGF                     80.0000:   RMF TEMP
FSC .                               M:   RMF CODE
RMC .OHMM                      1.0000:   RMC
RMCT.DEGF                     80.0000:   RMC TEMP
CMC .                               M:   RMC CODE
TMAX.DEGF                    232.0000:   MAX REC TEMP
TIMC.                          7.0000:   TIME SINCE CIRCLN
~PARAMETER INFORMATION (zones)
#MNEM.UNIT                       Value     Description
#=========                       =====     ===========
#ZONATION                        SONIC:   ZONATION NAME
#ZONE                            RUN_1:   ZONE NAME
TOP .                       9343.0000:   TOP DEPTH
BOT .                      13014.5000:   BOTTOM DEPTH
RUN .                               1:   RUN NUMBER
LCCD.                             440:   LOGGING CONTRACTOR
SRVC.                    Schlumberger:   LOGGING CONT NAME
DICO.          QC Data Collectors Ltd:   DIG COMPANY NAME
LDAT.                      09/22/1973:   DATE LOGGED
ELD .F                        93.0000:   LOG DATUM ELEVATION
TDD .F                     13136.0000:   TOTAL DEPTH DRILLER
TDL .F                     13126.0000:   TOTAL DEPTH LOGGER
BOTL.F                     13014.0000:   BOTTOM DEPTH LOGGED
TOPL.F                      9343.0000:   TOP DEPTH LOGGED
CS1 .IN                        9.6250:   CASING SIZE 1
BS1 .IN                        8.5000:   BIT SIZE 1
DDB1.F                     13136.0000:   DEPTH DRILLED BIT 1
BHF .                              99:   FLUID CODE
DPT .                   Miscellaneous:   DRILLING FLUID TYPE
MUDD.                         16.5000:   FLUID DENSITY
MUDV.                         46.0000:   FLUID VISCOSITY
DFPH.                         11.0000:   FLUID PH
FL  .                          2.2000:   FLUID LOSS
RM  .OHMM                       .6100:   RM
RMT .DEGF                     80.0000:   RM TEMP
RMF .OHMM                       .2400:   RMF
RMFT.DEGF                     80.0000:   RMF TEMP
FSC .                               M:   RMF CODE
RMC .OHMM                      1.0000:   RMC
RMCT.DEGF                     80.0000:   RMC TEMP
CMC .                               M:   RMC CODE
TMAX.DEGF                    232.0000:   MAX REC TEMP
TIMC.                          6.0000:   TIME SINCE CIRCLN
~Curve Information Block
#MNEM.UNIT                    API CODE    No Description
#=========                    ========    == ===========
DEPT.F                   00 001 00 00:     1  DEPTH
ASN.OHMM                             :     2  Short-Normal Resistivity
ILD.OHMM                             :     3  Deep Induction Resistivity
SP.MV                                :     4  Spontaneous Potential
CALI.IN                              :     5  Caliper
DT.US/F                              :     6  Sonic Transit Time
~ASCII
 2726.0000      .1205      .1266   -74.2615  -999.2500  -999.2500
 2726.5000      .2572      .2711   -67.6616  -999.2500  -999.2500
 2727.0000      .4454      .4122   -63.8376  -999.2500  -999.2500
 2727.5000      .6084      .5338   -61.5248  -999.2500  -999.2500
 2728.0000      .6557      .6194   -60.4486  -999.2500  -999.2500
 2728.5000      .6868      .6642   -59.8251  -999.2500  -999.2500
 2729.0000      .7125      .6820   -59.5457  -999.2500  -999.2500
 2729.5000      .7324      .6895   -59.4869  -999.2500  -999.2500
 2730.0000      .7451      .7012   -59.4949  -999.2500  -999.2500
 2730.5000      .7528      .7090   -59.5460  -999.2500  -999.2500
 2731.0000      .7602      .7097   -59.5938  -999.2500  -999.2500
 2731.5000      .7680      .7104   -59.6292  -999.2500  -999.2500
 2732.0000      .7783      .7124   -59.6635  -999.2500  -999.2500
 2732.5000      .7950      .7144   -59.7300  -999.2500  -999.2500
 2733.0000      .8217      .7116   -59.8184  -999.2500  -999.2500
 2733.5000      .7885      .7060   -59.8873  -999.2500  -999.2500
 2734.0000      .7990      .6975   -59.8269  -999.2500  -999.2500
 2734.5000      .8065      .6865   -59.7042  -999.2500  -999.2500
 2735.0000      .8065      .6773   -59.5682  -999.2500  -999.2500
 2735.5000      .8119      .6725   -59.4144  -999.2500  -999.2500
 2736.0000      .8178      .6766   -59.3495  -999.2500  -999.2500
 2736.5000      .8238      .6837   -59.5343  -999.2500  -999.2500
 2737.0000      .8294      .6895   -59.5264  -999.2500  -999.2500
 2737.5000      .8348      .6910   -59.2706  -999.2500  -999.2500
 2738.0000      .8382      .6956   -59.0178  -999.2500  -999.2500
 2738.5000      .8413      .7027   -59.0845  -999.2500  -999.2500
 2739.0000      .8439      .7089   -59.3891  -999.2500  -999.2500
 2739.5000      .8454      .7072   -59.5622  -999.2500  -999.2500
 2740.0000      .8464      .7064   -59.3264  -999.2500  -999.2500
 2740.5000      .8471      .7078   -58.8887  -999.2500  -999.2500
 2741.0000      .8466      .7139   -58.4123  -999.2500  -999.2500
 2741.5000      .8438      .7187   -58.4532  -999.2500  -999.2500
 2742.0000      .8400      .7245   -59.2074  -999.2500  -999.2500
 2742.5000      .8365      .7306   -59.9584  -999.2500  -999.2500
 2743.0000      .8309      .7342   -60.2407  -999.2500  -999.2500
 2743.5000      .8245      .7382   -60.0380  -999.2500  -999.2500
 2744.0000      .8230      .7428   -59.1504  -999.2500  -999.2500
 2744.5000      .8227      .7471   -59.5151  -999.2500  -999.2500
 2745.0000      .8213      .7461   -60.1708  -999.2500  -999.2500
 2745.5000      .8185      .7410   -60.3405  -999.2500  -999.2500
 2746.0000      .8176      .7338   -60.1565  -999.2500  -999.2500
 2746.5000      .8183      .7263   -59.8778  -999.2500  -999.2500
 2747.0000      .8203      .7235   -59.5895  -999.2500  -999.2500
 2747.5000      .8216      .7190   -59.5868  -999.2500  -999.2500
 2748.0000      .8226      .7175   -59.6915  -999.2500  -999.2500
 2748.5000      .8227      .7176   -59.8380  -999.2500  -999.2500
 2749.0000      .8210      .7151   -59.9898  -999.2500  -999.2500
 2749.5000      .8184      .7130   -60.1884  -999.2500  -999.2500
 2750.0000      .8156      .7122   -60.4036  -999.2500  -999.2500
 2750.5000      .8140      .7136   -60.6157  -999.2500  -999.2500
 2751.0000      .8127      .7169   -60.7507  -999.2500  -999.2500
 2751.5000      .8072      .7172   -60.7316  -999.2500  -999.2500
 2752.0000      .8027      .7175   -60.5073  -999.2500  -999.2500
 2752.5000      .8056      .7178   -60.0742  -999.2500  -999.2500
 2753.0000      .7943      .7181   -59.6652  -999.2500  -999.2500
 2753.5000      .7501      .7196   -59.3724  -999.2500  -999.2500
 2754.0000      .8031      .7247   -59.2325  -999.2500  -999.2500
 2754.5000      .8169      .7312   -59.3002  -999.2500  -999.2500
 2755.0000      .8174      .7341   -59.3437  -999.2500  -999.2500
 2755.5000      .8193      .7356   -59.2748  -999.2500  -999.2500
 2756.0000      .8215      .7359   -59.2457  -999.2500  -999.2500
 2756.5000      .8181      .7317   -59.4827  -999.2500  -999.2500
 2757.0000      .8042      .7286   -59.9794  -999.2500  -999.2500
 2757.5000      .7866      .7289   -60.3846  -999.2500  -999.2500
 2758.0000      .7703      .7292   -60.6378  -999.2500  -999.2500
 2758.5000      .7565      .7295   -60.6881  -999.2500  -999.2500
 2759.0000      .7467      .7324   -60.3498  -999.2500  -999.2500
 2759.5000      .7420      .7397   -59.9081  -999.2500  -999.2500
 2760.0000      .7428      .7481   -59.5443  -999.2500  -999.2500
 2760.5000      .7424      .7666   -59.3422  -999.2500  -999.2500
 2761.0000      .7405      .7788   -59.3552  -999.2500  -999.2500
 2761.5000      .7369      .7868   -59.5247  -999.2500  -999.2500
 2762.0000      .7331      .7866   -59.6461  -999.2500  -999.2500
 2762.5000      .7293      .7835   -59.6777  -999.2500  -999.2500
 2763.0000      .7285      .7838   -59.6370  -999.2500  -999.2500
 2763.5000      .7282      .7842   -59.9390  -999.2500  -999.2500
 2764.0000      .7278      .7851   -61.4946  -999.2500  -999.2500
 2764.5000      .7268      .7891   -62.8900  -999.2500  -999.2500
 2765.0000      .7274      .7924   -62.9822  -999.2500  -999.2500
 2765.5000      .7308      .8000   -62.8002  -999.2500  -999.2500
 2766.0000      .7390      .8098   -62.4576  -999.2500  -999.2500
 2766.5000      .7506      .8216   -62.0737  -999.2500  -999.2500
 2767.0000      .7664      .8386   -61.7733  -999.2500  -999.2500
 2767.5000      .7857      .8576   -61.5826  -999.2500  -999.2500
 2768.0000      .8084      .8782   -61.6155  -999.2500  -999.2500
 2768.5000      .8301      .8990   -62.1201  -999.2500  -999.2500
 2769.0000      .8504      .9025   -62.7783  -999.2500  -999.2500
 2769.5000      .8676      .8959   -63.2747  -999.2500  -999.2500
 2770.0000      .8773      .8872   -63.5371  -999.2500  -999.2500
 2770.5000      .8741      .8764   -63.5340  -999.2500  -999.2500
 2771.0000      .8576      .8639   -63.4409  -999.2500  -999.2500
 2771.5000      .8331      .8511   -63.1059  -999.2500  -999.2500
 2772.0000      .8116      .8422   -62.8536  -999.2500  -999.2500
 2772.5000      .7974      .8370   -62.8379  -999.2500  -999.2500
 2773.0000      .7883      .8290   -62.6521  -999.2500  -999.2500
 2773.5000      .7820      .8226   -62.3676  -999.2500  -999.2500
 2774.0000      .7805      .8174   -62.3899  -999.2500  -999.2500
 2774.5000      .7810      .8130   -62.6270  -999.2500  -999.2500
 2775.0000      .7818      .8089   -62.5499  -999.2500  -999.2500
 2775.5000      .7835      .8052   -62.3749  -999.2500  -999.2500
 2776.0000      .7866      .8013   -62.5296  -999.2500  -999.2500
 2776.5000      .7865      .7974   -62.7344  -999.2500  -999.2500
 2777.0000      .7739      .7907   -62.9547  -999.2500  -999.2500
 2777.5000      .7644      .7831   -62.8287  -999.2500  -999.2500
 2778.0000      .7575      .7775   -62.4907  -999.2500  -999.2500
 2778.5000      .7542      .7709   -62.0366  -999.2500  -999.2500
 2779.0000      .7515      .7616   -61.9742  -999.2500  -999.2500
 2779.5000      .7478      .7591   -62.3353  -999.2500  -999.2500
 2780.0000      .7427      .7611   -62.8311  -999.2500  -999.2500
 2780.5000      .7380      .7648   -63.2632  -999.2500  -999.2500
 2781.0000      .7335      .7701   -63.4120  -999.2500  -999.2500
 2781.5000      .7287      .7718   -63.1235  -999.2500  -999.2500
 2782.0000      .7209      .7738   -62.9362  -999.2500  -999.2500
 2782.5000      .7136      .7793   -63.5752  -999.2500  -999.2500
 2783.0000      .7080      .7829   -63.7657  -999.2500  -999.2500
 2783.5000      .7040      .7864   -63.5917  -999.2500  -999.2500
 2784.0000      .7045      .7901   -62.9910  -999.2500  -999.2500
 2784.5000      .7094      .7933   -62.7172  -999.2500  -999.2500
 2785.0000      .7161      .7993   -62.7086  -999.2500  -999.2500
 2785.5000      .7223      .8038   -62.5782  -999.2500  -999.2500
 2786.0000      .7280      .8071   -62.3539  -999.2500  -999.2500
 2786.5000      .7301      .8103   -62.1303  -999.2500  -999.2500
