~VERSION INFORMATION
VERS.                             2.0:   CWLS Log ASCII Standard-VERSION 2.0
WRAP.                              NO:   One line per depth step
~Well Information Block
STRT.F                      3576.0000:   Top Depth
STOP.F                      7908.0000:   Bottom Depth
STEP.F                         .50000:   Depth Increment
NULL.                        -999.250:   Null Value
FLD .                      BA BLK 431:   Field Name
WELL.       OCSG09017   001 ST00 BP00:   NAME
API .                  42704401710000:   WELL API
EDF .F                        80.0000:   ELEV DRILL FLOOR
COMP.        WOLVERINE EXPLORATION CO:   OPERATOR
BN  .                             431:   BLOCK
CTRY.                             USA:   COUNTRY NAME
CNTY.                        BRAZOS L:   COUNTY NAME
EKB .F                        81.0000:   ELEV KELLY BUSHING
TDD .F                       7953.000:   FINAL TD DRILLER
STAT.                           TEXAS:   STATE NAME
UWI .                  42704401710000:   WELL API
DICO.               IHS : Digitizing Company
~PARAMETER INFORMATION (zones)
#MNEM.UNIT                       Value     Description
#=========                       =====     ===========
#ZONATION                          DIL:   ZONATION NAME
#ZONE                            RUN_1:   ZONE NAME
TOP .                       3576.0000:   TOP DEPTH
BOT .                       7908.5000:   BOTTOM DEPTH
RUN .                               1:   RUN NUMBER
LCCD.                             440:   LOGGING CONTRACTOR
SRVC.                    Schlumberger:   LOGGING CONT NAME
DICO.          QC Data Collectors Ltd:   DIG COMPANY NAME
LDAT.                      05/13/1988:   DATE LOGGED
ELD .F                        81.0000:   LOG DATUM ELEVATION
TDD .F                      7953.0000:   TOTAL DEPTH DRILLER
TDL .F                      7911.0000:   TOTAL DEPTH LOGGER
BOTL.F                      7908.0000:   BOTTOM DEPTH LOGGED
TOPL.F                      3608.0000:   TOP DEPTH LOGGED
CS1 .IN                       10.7500:   CASING SIZE 1
BS1 .IN                        9.8750:   BIT SIZE 1
DDB1.F                      7953.0000:   DEPTH DRILLED BIT 1
BHF .                              99:   FLUID CODE
DPT .                   Miscellaneous:   DRILLING FLUID TYPE
MUDD.                         10.0000:   FLUID DENSITY
MUDV.                         43.0000:   FLUID VISCOSITY
DFPH.                         11.3000:   FLUID PH
FL  .                          6.2000:   FLUID LOSS
RM  .OHMM                       .7340:   RM
RMT .DEGF                     73.0000:   RM TEMP
RMF .OHMM                       .5760:   RMF
RMFT.DEGF                     73.0000:   RMF TEMP
FSC .                               M:   RMF CODE
RMC .OHMM                       .8300:   RMC
RMCT.DEGF                     73.0000:   RMC TEMP
CMC .                               M:   RMC CODE
TMAX.DEGF                    164.0000:   MAX REC TEMP
TIMC.                          5.0000:   TIME SINCE CIRCLN
~Curve Information Block
#MNEM.UNIT                    API CODE    No Description
#=========                    ========    == ===========
DEPT.F                   00 001 00 00:     1  DEPTH
DCAL.IN                              :     2  Differential Caliper
DT.US/F                              :     3  Sonic Transit Time
GR.GAPI                              :     4  Gamma Ray
ILD.OHMM                             :     5  Deep Induction Resistivity
ILM.OHMM                             :     6  Medium Induction Resistivity
SFL.OHMM                             :     7  Medium Resistivity
SP.MV                                :     8  Spontaneous Potential
~ASCII
# ...
 5305.0000     2.8804   113.7419    51.2600      .3491      .4673      .7686   -74.1263
 5305.5000     2.8931   114.5558    53.5755      .3376      .4578      .7908   -73.0416
 5306.0000     2.9399   115.7103    54.8776      .3357      .4425      .7053   -71.3868
 5306.5000     2.9988   116.5646    54.9025      .3427      .4302      .6186   -68.4318
 5307.0000     3.0480   115.7936    55.3493      .3549      .4245      .5645   -64.2296
 5307.5000     3.0940   114.8562    56.8182      .3715      .4316      .5330   -60.6349
 5308.0000     3.1090   114.2639    60.2146      .3920      .4702      .5371   -57.6798
 5308.5000     3.1129   113.7935    63.1548      .4192      .5265      .6147   -56.5568
 5309.0000     3.1221   112.6587    64.7947      .4551      .5761      .7433   -57.2943
 5309.5000     3.1901   109.9546    63.5887      .5028      .6253      .9300   -57.9513
 5310.0000     3.1889   106.4683    60.5319      .5717      .6758     1.0771   -58.2316
 5310.5000     2.9039   100.0123    57.4801      .6695      .7309     1.1152   -58.0777
 5311.0000     2.6600    96.3361    58.7197      .8097      .8002     1.1221   -57.3873
 5311.5000     2.5433    99.0935    61.5756      .8718      .8425     1.1400   -56.7371
 5312.0000     2.4706   103.3098    62.5920      .9097      .8744     1.1669   -56.0771
 5312.5000     2.4065   107.3871    62.9398      .9344      .8820     1.1040   -55.3085
 5313.0000     2.3452   109.9670    63.3636      .9610      .8831      .9698   -54.3813
 5313.5000     2.2972   111.5537    64.0275      .9840      .8889      .8499   -53.6035
 5314.0000     2.2753   112.4396    64.9453      .9905      .8951      .7907   -53.0944
 5314.5000     2.2638   110.8807    65.8998      .9860      .9040      .7874   -53.5483
 5315.0000     2.2563   107.0543    66.7217      .9680      .9201      .7907   -54.7929
 5315.5000     2.2491   100.9807    61.9921      .9427      .9316      .8067   -57.1369
 5316.0000     2.2421    98.1177    56.7711      .9138      .9276      .8421   -59.4921
 5316.5000     2.2346    99.1482    50.0675      .8689      .8679     1.0149   -62.3133
 5317.0000     2.2294   102.3861    49.0560      .7969      .7927     1.1531   -65.2188
 5317.5000     2.2289   106.4832    53.7416      .6985      .7156     1.0689   -66.2466
 5318.0000     2.2518   109.0911    56.7388      .6191      .6577      .9118   -66.4614
 5318.5000     2.3144   109.7904    58.7841      .5480      .6076      .7575   -67.9607
 5319.0000     2.4209   110.0391    57.5817      .4769      .5522      .6583   -71.8604
 5319.5000     2.6459   110.0244    53.6325      .4079      .4986      .6436   -77.1954
 5320.0000     3.1887   110.1451    47.1669      .3582      .4579      .6693   -84.5287
 5320.5000     3.7399   110.8646    41.0038      .3257      .4205      .6454   -88.0103
 5321.0000     4.1948   111.7865    37.9360      .3103      .3915      .5933   -87.9003
 5321.5000     3.6724   111.9044    39.0466      .2988      .3798      .5567   -87.2358
 5322.0000     3.1469   110.8845    40.5663      .2839      .3882      .5481   -86.3726
 5322.5000     3.3223   109.1625    39.3230      .2676      .3777      .6280   -86.2262
 5323.0000     3.7836   111.3948    37.2381      .2568      .3602      .8426   -86.8596
 5323.5000     4.1110   114.9257    35.8969      .2543      .3458      .8827   -86.9694
 5324.0000     4.2239   117.4696    38.2421      .2844      .3384      .7250   -83.4825
 5324.5000     3.7603   117.3728    44.1573      .3204      .3705      .5678   -77.3442
 5325.0000     2.9340   114.2850    49.5122      .3347      .4118      .4595   -71.4166
 5325.5000     2.8666   112.1918    53.6920      .3511      .4445      .5365   -69.1085
 5326.0000     2.8512   111.3948    52.6483      .3783      .4690      .6553   -69.8250
 5326.5000     2.8250   110.5685    49.3139      .4081      .4932      .7811   -72.5173
 5327.0000     2.7978   109.7249    46.5596      .4316      .5087      .8939   -75.7749
 5327.5000     2.7529   110.9093    45.4449      .4335      .4918      .8483   -79.0349
 5328.0000     2.7026   112.5903    45.2363      .4224      .4747      .7798   -81.7496
 5328.5000     2.6488   113.4800    45.0533      .4073      .4579      .6876   -82.8679
 5329.0000     2.5894   112.0887    44.6661      .3870      .4414      .6146   -83.0002
 5329.5000     2.5507   110.0538    44.8019      .3673      .4266      .6118   -81.3406
 5330.0000     2.5198   108.1915    46.7381      .3620      .4249      .6468   -78.4027
 5330.5000     2.5100   107.6940    49.6957      .3705      .4390      .7013   -73.1941
 5331.0000     2.5036   107.9553    53.9399      .3872      .4633      .7384   -70.1188
 5331.5000     2.5024   108.1272    58.7841      .4008      .4923      .7387   -70.7200
 5332.0000     2.5005   109.3785    62.1359      .4038      .5206      .7400   -73.5883
 5332.5000     2.4992   113.8207    62.4954      .4006      .5166      .7767   -76.0204
 5333.0000     2.5167   116.1884    58.5957      .3975      .4902      .7598   -78.2069
 5333.5000     2.5031   117.1580    52.1450      .3944      .4673      .6971   -78.6377
 5334.0000     2.4344   112.9839    45.0002      .3837      .4468      .6932   -77.2450
 5334.5000     2.3816   109.0085    43.3677      .3724      .4311      .8628   -74.7262
 5335.0000     2.3746   106.7228    43.6590      .3626      .4278     1.0073   -71.2704
 5335.5000     2.3786   108.6088    46.2472      .3577      .4348     1.0164   -69.2883
 5336.0000     2.3942   110.7256    49.0114      .3597      .4442      .9080   -72.4504
 5336.5000     2.4192   112.2775    51.3195      .3788      .4570      .8112   -74.2936
 5337.0000     2.4336   113.3303    53.7986      .4104      .4776      .7469   -73.8765
 5337.5000     2.4734   114.0983    56.6521      .4502      .5096      .7129   -71.2902
 5338.0000     2.5986   111.9435    59.5725      .4979      .5425      .6901   -66.4906
 5338.5000     2.7442   109.5890    62.2834      .5322      .5704      .7070   -63.2684
 5339.0000     2.8480   109.1909    63.4969      .5431      .5893      .7926   -62.7357
 5339.5000     2.9406   110.6486    60.7277      .5318      .5977      .8779   -64.5891
 5340.0000     2.9914   112.1447    57.5347      .5025      .6024      .8963   -69.2078
 5340.5000     3.0428   113.3875    51.3715      .4553      .5261      .7798   -76.3773
 5341.0000     3.1399   114.1442    43.1061      .3935      .4315      .6770   -83.4032
 5341.5000     3.3015   114.7172    40.1163      .3449      .3872      .5892   -88.1210
 5342.0000     3.5634   116.1176    40.0761      .3113      .3540      .5320   -89.4745
 5342.5000     3.9348   118.1190    42.7393      .2905      .3355      .5064   -86.1971
 5343.0000     3.5964   118.5510    46.0662      .2768      .3301      .5041   -82.5603
 5343.5000     3.2428   115.3950    49.4527      .2679      .3370      .5230   -79.5332
 5344.0000     3.0942   113.6184    51.4224      .2663      .3523      .6040   -77.1930
 5344.5000     3.0058   113.7444    49.8209      .2701      .3677      .7124   -79.1366
 5345.0000     3.0035   114.2271    48.5407      .2769      .3721      .7577   -81.1348
 5345.5000     3.0585   114.6327    48.1267      .2842      .3667      .6627   -83.0375
 5346.0000     3.1679   114.8483    48.1964      .2882      .3578      .5772   -84.7109
 5346.5000     3.2846   114.5645    48.0266      .2855      .3502      .5192   -85.6783
 5347.0000     3.3422   113.7488    47.3132      .2790      .3451      .4804   -84.7047
 5347.5000     3.1527   112.6052    46.2621      .2711      .3422      .4663   -82.1587
 5348.0000     2.9738   111.2557    45.3014      .2631      .3413      .5259   -79.2631
 5348.5000     2.8332   110.9326    45.1911      .2614      .3426      .6053   -76.9773
 5349.0000     2.7299   111.1216    46.2274      .2762      .3449      .6661   -73.0281
 5349.5000     2.6727   112.3656    49.9832      .3069      .3573      .6333   -69.3837
 5350.0000     2.6639   115.3131    54.3217      .3488      .3929      .6007   -66.2600
