~VERSION INFORMATION
VERS.                             2.0:   CWLS Log ASCII Standard-VERSION 2.0
WRAP.                              NO:   One line per depth step
~Well Information Block
STRT.F                      2500.0000:   Top Depth
STOP.F                     12867.0000:   Bottom Depth
STEP.F                         .50000:   Depth Increment
NULL.                        -999.250:   Null Value
FLD .                      GA BLK 255:   Field Name
WELL.       OCSG01777  A004 ST00 BP00:   NAME
API .                  42706400140000:   WELL API
EDF .F                        91.0000:   ELEV DRILL FLOOR
COMP.       COASTAL STATES GAS PROD C:   OPERATOR
BN  .                             255:   BLOCK
CTRY.                             USA:   COUNTRY NAME
CNTY.                              GA:   COUNTY
CNTY.                        GLVSTN L:   COUNTY NAME
EKB .F                        92.0000:   ELEV KELLY BUSHING
TDD .F                      12868.000:   FINAL TD DRILLER
STAT.                           TEXAS:   STATE NAME
UWI .                  42706400140000:   WELL API
DICO.               IHS : Digitizing Company
~PARAMETER INFORMATION (zones)
#MNEM.UNIT                       Value     Description
#=========                       =====     ===========
#ZONATION                           IE:   ZONATION NAME
#ZONE                            RUN_1:   ZONE NAME
TOP .                       2500.0000:   TOP DEPTH
BOT .                       8267.5000:   BOTTOM DEPTH
RUN .                               1:   RUN NUMBER
LCCD.                             440:   LOGGING CONTRACTOR
SRVC.                    Schlumberger:   LOGGING CONT NAME
DICO.          QC Data Collectors Ltd:   DIG COMPANY NAME
LDAT.                      05/23/1973:   DATE LOGGED
ELD .F                        92.0000:   LOG DATUM ELEVATION
TDD .F                      8274.0000:   TOTAL DEPTH DRILLER
TDL .F                      8268.0000:   TOTAL DEPTH LOGGER
BOTL.F                      8267.0000:   BOTTOM DEPTH LOGGED
TOPL.F                      2500.0000:   TOP DEPTH LOGGED
CS1 .IN                       13.3750:   CASING SIZE 1
BS1 .IN                       12.2500:   BIT SIZE 1
DDB1.F                      8274.0000:   DEPTH DRILLED BIT 1
BHF .                              99:   FLUID CODE
DPT .                   Miscellaneous:   DRILLING FLUID TYPE
MUDV.                         45.0000:   FLUID VISCOSITY
FL  .                          3.4000:   FLUID LOSS
RM  .OHMM                       .7100:   RM
RMT .DEGF                     82.0000:   RM TEMP
RMF .OHMM                       .4200:   RMF
RMFT.DEGF                     82.0000:   RMF TEMP
FSC .                               M:   RMF CODE
RMC .OHMM                      1.2500:   RMC
RMCT.DEGF                     82.0000:   RMC TEMP
CMC .                               M:   RMC CODE
TMAX.DEGF                     82.0000:   MAX REC TEMP
TIMC.                          6.0000:   TIME SINCE CIRCLN
MUDD.                            NULL:   FLUID DENSITY
DFPH.                            NULL:   FLUID PH
~PARAMETER INFORMATION (zones)
#MNEM.UNIT                       Value     Description
#=========                       =====     ===========
#ZONATION                           IE:   ZONATION NAME
#ZONE                            RUN_2:   ZONE NAME
TOP .                       8273.0000:   TOP DEPTH
BOT .                      12867.5000:   BOTTOM DEPTH
RUN .                               2:   RUN NUMBER
LCCD.                             440:   LOGGING CONTRACTOR
SRVC.                    Schlumberger:   LOGGING CONT NAME
DICO.          QC Data Collectors Ltd:   DIG COMPANY NAME
LDAT.                      06/12/1973:   DATE LOGGED
ELD .F                        92.0000:   LOG DATUM ELEVATION
TDD .F                     12865.0000:   TOTAL DEPTH DRILLER
TDL .F                     12868.0000:   TOTAL DEPTH LOGGER
BOTL.F                     12867.0000:   BOTTOM DEPTH LOGGED
TOPL.F                      8272.0000:   TOP DEPTH LOGGED
CS1 .IN                        9.6250:   CASING SIZE 1
BS1 .IN                        8.5000:   BIT SIZE 1
DDB1.F                     12865.0000:   DEPTH DRILLED BIT 1
BHF .                              11:   FLUID CODE
DPT .         Caustic (high PH) (CLS):   DRILLING FLUID TYPE
MUDV.                         44.0000:   FLUID VISCOSITY
FL  .                          2.6000:   FLUID LOSS
RM  .OHMM                       .9100:   RM
RMT .DEGF                     76.0000:   RM TEMP
RMF .OHMM                       .4600:   RMF
RMFT.DEGF                     78.0000:   RMF TEMP
FSC .                               M:   RMF CODE
RMC .OHMM                      1.3200:   RMC
RMCT.DEGF                     76.0000:   RMC TEMP
CMC .                               C:   RMC CODE
TMAX.DEGF                    248.0000:   MAX REC TEMP
TIMC.                          5.0000:   TIME SINCE CIRCLN
MUDD.                         16.3000:   FLUID DENSITY
DFPH.                         10.5000:   FLUID PH
~PARAMETER INFORMATION (zones)
#MNEM.UNIT                       Value     Description
#=========                       =====     ===========
#ZONATION                        SONIC:   ZONATION NAME
#ZONE                            RUN_1:   ZONE NAME
TOP .                       8272.0000:   TOP DEPTH
BOT .                      12860.5000:   BOTTOM DEPTH
RUN .                               1:   RUN NUMBER
LCCD.                             440:   LOGGING CONTRACTOR
SRVC.                    Schlumberger:   LOGGING CONT NAME
DICO.          QC Data Collectors Ltd:   DIG COMPANY NAME
LDAT.                      06/12/1973:   DATE LOGGED
ELD .F                        92.0000:   LOG DATUM ELEVATION
TDD .F                     12865.0000:   TOTAL DEPTH DRILLER
BOTL.F                     12860.0000:   BOTTOM DEPTH LOGGED
TOPL.F                      8272.0000:   TOP DEPTH LOGGED
CS1 .IN                        9.6250:   CASING SIZE 1
BS1 .IN                        8.5000:   BIT SIZE 1
DDB1.F                     12865.0000:   DEPTH DRILLED BIT 1
BHF .                              11:   FLUID CODE
DPT .         Caustic (high PH) (CLS):   DRILLING FLUID TYPE
MUDD.                         16.3000:   FLUID DENSITY
MUDV.                         44.0000:   FLUID VISCOSITY
DFPH.                         10.5000:   FLUID PH
FL  .                          2.6000:   FLUID LOSS
RM  .OHMM                       .9100:   RM
RMT .DEGF                     76.0000:   RM TEMP
RMF .OHMM                       .4600:   RMF
RMFT.DEGF                     78.0000:   RMF TEMP
FSC .                               M:   RMF CODE
RMC .OHMM                      1.3200:   RMC
RMCT.DEGF                     76.0000:   RMC TEMP
CMC .                               C:   RMC CODE
TMAX.DEGF                    248.0000:   MAX REC TEMP
TIMC.                         10.0000:   TIME SINCE CIRCLN
~Curve Information Block
#MNEM.UNIT                    API CODE    No Description
#=========                    ========    == ===========
DEPT.F                   00 001 00 00:     1  DEPTH
ASN.OHMM                             :     2  Short-Normal Resistivity
ILD.OHMM                             :     3  Deep Induction Resistivity
SP.MV                                :     4  Spontaneous Potential
CALI.IN                              :     5  Caliper
DT.US/F                              :     6  Sonic Transit Time
~ASCII
# ...
 9393.0000      .6258      .4198   -39.6693     9.2349   124.4990
 9393.5000      .6277      .4185   -39.6595     9.2402   123.6796
 9394.0000      .6297      .4171   -39.5240     9.2433   122.7559
 9394.5000      .6317      .4191   -39.3885     9.2470   121.6874
 9395.0000      .6338      .4231   -39.0009     9.2587   120.6864
 9395.5000      .6342      .4272   -38.6122     9.2731   119.9620
 9396.0000      .6334      .4292   -38.1251     9.2877   120.1908
 9396.5000      .6330      .4305   -38.7305     9.3002   121.6064
 9397.0000      .6330      .4318   -39.9247     9.3072   122.5964
 9397.5000      .6333      .4264   -40.0274     9.3098   123.0404
 9398.0000      .6364      .4210   -39.9860     9.3094   122.4933
 9398.5000      .6395      .4148   -39.8859     9.2852   121.7904
 9399.0000      .6431      .3980   -39.7415     9.2485   120.9796
 9399.5000      .6391      .3811   -39.5792     9.2017   120.1614
 9400.0000      .6272      .3662   -39.4150     9.1937   122.6614
 9400.5000      .6098      .3520   -39.0889     9.2033   124.5408
 9401.0000      .5882      .3402   -38.7206     9.2438   126.1256
 9401.5000      .5727      .3354   -39.2836     9.2904   127.4247
 9402.0000      .5610      .3305   -39.6462     9.3458   126.7623
 9402.5000      .5644      .3261   -39.5150     9.3928   125.1443
 9403.0000      .5677      .3241   -39.3923     9.3527   123.0907
 9403.5000      .5735      .3220   -39.3122     9.2931   121.2972
 9404.0000      .5797      .3200   -39.8317     9.2602   121.8885
 9404.5000      .5860      .3239   -40.3324     9.2310   123.2845
 9405.0000      .5926      .3309   -40.3835     9.2216   124.2905
 9405.5000      .5991      .3379   -40.3738     9.2160   124.7631
 9406.0000      .6057      .3446   -40.4102     9.2411   123.7520
 9406.5000      .6124      .3505   -40.7494     9.2676   122.7252
 9407.0000      .6194      .3563   -40.0842     9.3079   121.6837
 9407.5000      .6307      .3622   -39.2404     9.3044   120.4950
 9408.0000      .6374      .3669   -40.4722     9.2918   120.5759
 9408.5000      .6299      .3711   -40.3638     9.2419   122.5460
 9409.0000      .6228      .3754   -39.3439     9.1990   124.6854
 9409.5000      .6244      .3802   -38.2501     9.1986   126.4863
 9410.0000      .6259      .3850   -38.1417     9.2071   127.6921
 9410.5000      .6272      .3884   -39.2208     9.2357   126.3146
 9411.0000      .6285      .3886   -39.9124     9.2643   124.0868
 9411.5000      .6298      .3888   -40.4550     9.2716   122.6320
 9412.0000      .6273      .3858   -41.0413     9.2755   121.3856
 9412.5000      .6244      .3820   -41.5740     9.2772   120.3466
 9413.0000      .6199      .3782   -41.3431     9.2593   119.5591
 9413.5000      .6100      .3803   -40.4230     9.2414   119.2371
 9414.0000      .6001      .3833   -40.0313     9.2235   119.3695
 9414.5000      .5935      .3861   -41.2507     9.2158   119.9503
 9415.0000      .5981      .3863   -42.0036     9.2086   120.5258
 9415.5000      .6058      .3865   -42.1419     9.2230   120.5526
 9416.0000      .6200      .3867   -42.3091     9.2503   119.8252
 9416.5000      .6334      .3888   -42.0218     9.2947   119.6731
 9417.0000      .6438      .3918   -41.4355     9.3101   121.5868
 9417.5000      .6541      .3947   -40.4328     9.2979   122.8944
 9418.0000      .6605      .4051   -39.2798     9.2951   123.6412
 9418.5000      .6668      .4166   -40.4993     9.3393   122.6982
 9419.0000      .6730      .4284   -40.9033     9.3723   121.5499
 9419.5000      .6791      .4407   -41.4268     9.3172   120.4644
 9420.0000      .6862      .4509   -42.0206     9.2665   119.2266
 9420.5000      .6953      .4588   -41.0007     9.2383   117.8821
 9421.0000      .6956      .4592   -39.8563     9.2100   116.3536
 9421.5000      .6777      .4529   -38.7133     9.2089   115.8147
 9422.0000      .6671      .4443   -39.5287     9.2085   115.8306
 9422.5000      .6623      .4342   -40.8911     9.2069   115.9503
 9423.0000      .6588      .4240   -41.6400     9.2047   116.0122
 9423.5000      .6580      .4190   -41.6775     9.2033   115.9949
 9424.0000      .6572      .4163   -41.1423     9.2029   115.6526
 9424.5000      .6556      .4136   -40.5751     9.2026   115.9144
 9425.0000      .6534      .4137   -40.2985     9.2083   118.1643
 9425.5000      .6511      .4139   -40.1243     9.2145   120.7747
 9426.0000      .6480      .4172   -39.7313     9.2040   122.1254
 9426.5000      .6445      .4215   -39.3211     9.1794   122.3065
 9427.0000      .6411      .4167   -39.3230     9.1425   121.9830
 9427.5000      .6395      .4101   -39.9059     9.1015   121.0961
 9428.0000      .6383      .4017   -40.1158     9.0724   120.4484
 9428.5000      .6370      .3917   -40.2034     9.0460   120.1490
 9429.0000      .6361      .3816   -40.2961     9.0475   121.0814
 9429.5000      .6352      .3760   -40.4063     9.0521   121.6334
 9430.0000      .6343      .3713   -40.5164     9.0865   121.1593
 9430.5000      .6337      .3666   -40.6616     9.1184   120.5564
 9431.0000      .6334      .3651   -40.8193     9.1380   119.9037
 9431.5000      .6332      .3653   -40.9375     9.1576   119.2205
 9432.0000      .6326      .3655   -40.6865     9.1695   120.3135
 9432.5000      .6317      .3689   -40.1014     9.1762   121.6235
 9433.0000      .6309      .3756   -39.4585     9.1741   122.6283
 9433.5000      .6280      .3824   -39.4966     9.1589   123.3459
 9434.0000      .6251      .3895   -39.7073     9.1437   122.9865
 9434.5000      .6173      .3966   -39.5028     9.1268   121.8346
 9435.0000      .6088      .3980   -39.0095     9.1100   120.6840
 9435.5000      .6042      .3982   -39.6285     9.1290   119.7700
 9436.0000      .6016      .3968   -39.8256     9.1765   119.7737
 9436.5000      .5991      .3931   -39.4477     9.2392   121.2654
 9437.0000      .6018      .3895   -39.9327     9.2900   122.0210
 9437.5000      .6049      .3873   -40.9452     9.3279   122.0474
 9438.0000      .6082      .3874   -41.7841     9.3359   121.9713
 9438.5000      .6120      .3881   -42.3100     9.3326   122.7853
 9439.0000      .6159      .3917   -42.4443     9.3175   123.5409
 9439.5000      .6197      .3952   -41.4527     9.2993   124.2831
 9440.0000      .6235      .3974   -40.6613     9.2772   124.6156
 9440.5000      .6273      .3992   -40.3170     9.2552   124.2119
 9441.0000      .6310      .4022   -40.2069     9.2478   123.2428
 9441.5000      .6346      .4074   -40.1164     9.2532   122.8328
 9442.0000      .6381      .4126   -39.9536     9.2738   123.2655
 9442.5000      .6417      .4183   -39.6291     9.3076   123.7911
 9443.0000      .6432      .4239   -40.1544     9.3189   124.3187
 9443.5000      .6447      .4275   -41.0573     9.3117   124.6019
 9444.0000      .6437      .4307   -40.0201     9.2777   124.6322
 9444.5000      .6410      .4340   -38.9436     9.2447   123.8195
 9445.0000      .6366      .4375   -38.4152     9.2163   122.4553
 9445.5000      .6322      .4409   -38.0352     9.1897   121.3525
 9446.0000      .6321      .4416   -38.3277     9.1856   120.3159
 9446.5000      .6323      .4418   -39.0860     9.1816   119.5143
 9447.0000      .6326      .4381   -39.1929     9.1758   119.3973
 9447.5000      .6350      .4317   -39.2762     9.1698   119.7562
 9448.0000      .6391      .4254   -38.9319     9.1740   119.7786
 9448.5000      .6432      .4193   -39.4930     9.1808   119.3192
 9449.0000      .6460      .4133   -40.1520     9.1995   118.7126
 9449.5000      .6482      .4074   -40.5748     9.2261   118.1605
 9450.0000      .6501      .4044   -40.7687     9.2540   117.8514
 9450.5000      .6483      .4014   -39.7800     9.2781   118.7457
 9451.0000      .6449      .4030   -38.4139     9.2930   119.5088
 9451.5000      .6374      .4084   -39.0187     9.3044   119.7445
 9452.0000      .6299      .4109   -40.0349     9.3147   119.7793
 9452.5000      .6255      .4080   -40.0731     9.3172   119.7681
 9453.0000      .6225      .4052   -38.6837     9.3184   119.2290
 9453.5000      .6195      .3990   -37.8128     9.3196   118.6390
