~VERSION INFORMATION
VERS.                             2.0:   CWLS Log ASCII Standard-VERSION 2.0
WRAP.                              NO:   One line per depth step
~Well Information Block
STRT.F                      3576.0000:   Top Depth
STOP.F                      7908.0000:   Bottom Depth
STEP.F                         .50000:   Depth Increment
NULL.                        -999.250:   Null Value
FLD .                      BA BLK 431:   Field Name
WELL.       OCSG09017   001 ST00 BP00:   NAME
API .                  42704401710000:   WELL API
EDF .F                        80.0000:   ELEV DRILL FLOOR
COMP.        WOLVERINE EXPLORATION CO:   OPERATOR
BN  .                             431:   BLOCK
CTRY.                             USA:   COUNTRY NAME
CNTY.                        BRAZOS L:   COUNTY NAME
EKB .F                        81.0000:   ELEV KELLY BUSHING
TDD .F                       7953.000:   FINAL TD DRILLER
STAT.                           TEXAS:   STATE NAME
UWI .                  42704401710000:   WELL API
DICO.               IHS : Digitizing Company
~PARAMETER INFORMATION (zones)
#MNEM.UNIT                       Value     Description
#=========                       =====     ===========
#ZONATION                          DIL:   ZONATION NAME
#ZONE                            RUN_1:   ZONE NAME
TOP .                       3576.0000:   TOP DEPTH
BOT .                       7908.5000:   BOTTOM DEPTH
RUN .                               1:   RUN NUMBER
LCCD.                             440:   LOGGING CONTRACTOR
SRVC.                    Schlumberger:   LOGGING CONT NAME
DICO.          QC Data Collectors Ltd:   DIG COMPANY NAME
LDAT.                      05/13/1988:   DATE LOGGED
ELD .F                        81.0000:   LOG DATUM ELEVATION
TDD .F                      7953.0000:   TOTAL DEPTH DRILLER
TDL .F                      7911.0000:   TOTAL DEPTH LOGGER
BOTL.F                      7908.0000:   BOTTOM DEPTH LOGGED
TOPL.F                      3608.0000:   TOP DEPTH LOGGED
CS1 .IN                       10.7500:   CASING SIZE 1
BS1 .IN                        9.8750:   BIT SIZE 1
DDB1.F                      7953.0000:   DEPTH DRILLED BIT 1
BHF .                              99:   FLUID CODE
DPT .                   Miscellaneous:   DRILLING FLUID TYPE
MUDD.                         10.0000:   FLUID DENSITY
MUDV.                         43.0000:   FLUID VISCOSITY
DFPH.                         11.3000:   FLUID PH
FL  .                          6.2000:   FLUID LOSS
RM  .OHMM                       .7340:   RM
RMT .DEGF                     73.0000:   RM TEMP
RMF .OHMM                       .5760:   RMF
RMFT.DEGF                     73.0000:   RMF TEMP
FSC .                               M:   RMF CODE
RMC .OHMM                       .8300:   RMC
RMCT.DEGF                     73.0000:   RMC TEMP
CMC .                               M:   RMC CODE
TMAX.DEGF                    164.0000:   MAX REC TEMP
TIMC.                          5.0000:   TIME SINCE CIRCLN
~Curve Information Block
#MNEM.UNIT                    API CODE    No Description
#=========                    ========    == ===========
DEPT.F                   00 001 00 00:     1  DEPTH
DCAL.IN                              :     2  Differential Caliper
DT.US/F                              :     3  Sonic Transit Time
GR.GAPI                              :     4  Gamma Ray
ILD.OHMM                             :     5  Deep Induction Resistivity
ILM.OHMM                             :     6  Medium Induction Resistivity
SFL.OHMM                             :     7  Medium Resistivity
SP.MV                                :     8  Spontaneous Potential
~ASCII
# ...
 6988.5000     1.0617   104.5497    69.3374      .9855      .9924     1.2254   -45.4413
 6989.0000     1.0483   105.1489    70.5216      .9619      .9784     1.2375   -44.7332
 6989.5000     1.0423   106.0559    73.3073      .9424      .9612     1.2458   -44.0917
 6990.0000     1.0349   107.2063    76.4609      .9264      .9405     1.2335   -43.8521
 6990.5000     1.0183   108.4338    79.6195      .9184      .9258     1.1923   -43.8906
 6991.0000     1.0016   108.9301    79.2219      .9161      .9132     1.1256   -43.9815
 6991.5000      .9798   108.0255    77.4438      .9116      .9017     1.0581   -44.1170
 6992.0000      .9580   106.9763    75.6335      .9051      .8916     1.0375   -44.2871
 6992.5000      .9485   106.6417    74.0802      .8940      .8831     1.0589   -44.4217
 6993.0000      .9440   106.6132    71.5514      .8799      .8773     1.0720   -44.5564
 6993.5000      .9465   105.6151    68.2274      .8744      .8792     1.0550   -44.6910
 6994.0000      .9613   103.3691    68.0063      .8812      .8862     1.0281   -44.8389
 6994.5000      .9827   100.3164    68.6959      .9065      .9327     1.0237   -45.1014
 6995.0000     1.0122    98.5149    68.3805      .9486      .9899     1.1185   -45.9389
 6995.5000     1.0397    98.1703    67.0889      .9891     1.0244     1.3563   -46.6180
 6996.0000     1.0497   101.2252    66.0393      .9962     1.0076     1.6315   -46.8157
 6996.5000     1.0588   105.4235    68.7855      .9887      .9648     1.5936   -46.7349
 6997.0000     1.0406   108.6530    73.6851      .9805      .9357     1.2182   -46.6550
 6997.5000     1.0177   110.3923    79.7108      .9731      .9148     1.0505   -46.5844
 6998.0000      .9896   110.1221    84.0992      .9719      .9006      .9938   -46.5257
 6998.5000      .9722   109.0339    82.6941      .9529      .8939      .9773   -46.5000
 6999.0000      .9607   107.8114    79.6022      .8914      .8903      .9893   -46.4177
 6999.5000      .9466   107.3246    77.1376      .8774      .8875     1.0337   -46.1396
 7000.0000      .9274   107.0653    75.1396      .8822      .8867     1.1157   -46.0303
 7000.5000      .9073   106.9658    73.7642      .8883      .8872     1.1641   -46.0460
 7001.0000      .8863   106.6840    72.9010      .8981      .8889     1.1455   -46.0274
 7001.5000      .8734   106.6635    73.0096      .9100      .8931     1.1025   -45.9263
 7002.0000      .8631   106.7257    74.4161      .9202      .8964     1.0639   -45.7498
 7002.5000      .8634   107.4005    75.6670      .9273      .8988     1.0446   -45.1055
 7003.0000      .8664   107.8612    76.3615      .9299      .9006     1.0370   -45.0406
 7003.5000      .8771   108.1644    76.1423      .9304      .9019     1.0487   -45.0719
 7004.0000      .8884   108.3036    75.0261      .9302      .9014     1.0816   -45.1126
 7004.5000      .9016   107.5150    73.6802      .9297      .9005     1.1070   -45.1938
 7005.0000      .9148   106.2987    72.5491      .9285      .8992     1.0818   -45.2457
 7005.5000      .9273   105.7400    72.8572      .9278      .8993     1.0585   -45.2881
 7006.0000      .9398   105.7844    71.4724      .9294      .8980     1.0506   -45.3250
 7006.5000      .9543   106.3118    68.8374      .9312      .8959     1.0863   -45.3574
 7007.0000      .9693   106.1543    67.9829      .9334      .8960     1.1072   -45.3396
 7007.5000      .9794   105.8467    69.8523      .9356      .8966     1.0782   -45.3057
 7008.0000      .9778   105.4390    71.7107      .9376      .8972     1.0475   -45.3242
 7008.5000      .9769   105.1456    70.6884      .9396      .8970     1.0283   -45.2548
 7009.0000      .9800   105.1055    69.2942      .9370      .8959     1.0537   -45.0474
 7009.5000      .9913   105.6165    68.3940      .9332      .8940     1.0953   -44.7090
 7010.0000     1.0068   106.4281    69.4622      .9285      .8926     1.1351   -44.2349
 7010.5000     1.0303   107.3407    69.4418      .9231      .8923     1.1270   -44.2847
 7011.0000     1.0547   108.3143    69.6918      .9148      .8923     1.1046   -44.3508
 7011.5000     1.0801   109.3932    73.7938      .9066      .8929     1.0764   -44.3683
 7012.0000     1.1048   109.2924    79.0638      .9004      .8927     1.0505   -44.3649
 7012.5000     1.1198   108.8381    81.9779      .8944      .8912     1.0366   -44.3325
 7013.0000     1.1167   108.9182    80.6246      .8906      .8898     1.0348   -44.3103
 7013.5000     1.0510   108.3535    77.0289      .8891      .8887     1.0210   -44.2989
 7014.0000      .8456   107.7092    74.6359      .8909      .8901     1.0106   -44.2890
 7014.5000      .6842   107.0195    74.3816      .8927      .8925     1.0025   -44.3058
 7015.0000      .7204   106.7581    75.7769      .8972      .8970     1.0283   -44.3160
 7015.5000      .8683   106.5277    77.3278      .9024      .9047     1.0625   -44.3229
 7016.0000     1.0112   106.2881    78.2378      .9050      .9143     1.1036   -44.3104
 7016.5000      .9605   105.6954    77.8895      .9286      .9306     1.1127   -44.2783
 7017.0000      .8269   105.1222    76.0905      .9450      .9457     1.1219   -44.2104
 7017.5000      .6872   104.6425    74.6816      .9613      .9547     1.1324   -44.1161
 7018.0000      .6164   104.6864    74.4655      .9712      .9557     1.1250   -44.0199
 7018.5000      .6056   104.9718    76.2584      .9797      .9463     1.0974   -43.9265
 7019.0000      .6365   104.6285    77.9279      .9858      .9358     1.0676   -43.8343
 7019.5000      .6558   103.4886    77.7253      .9905      .9298     1.0502   -43.8108
 7020.0000      .6643   101.8328    75.5842      .9927      .9399     1.0588   -43.8596
 7020.5000      .6643   100.4783    72.7294      .9928      .9798     1.1311   -43.9445
 7021.0000      .6474    99.6204    72.2231      .9815      .9851     1.1881   -44.1068
 7021.5000      .6381   102.1864    74.6384      .9661      .9700     1.2334   -44.3198
 7022.0000      .6443   105.3885    80.0468      .9488      .9498     1.2170   -44.5551
 7022.5000      .6722   107.6670    84.7908      .9322      .9305     1.1520   -44.7939
 7023.0000      .6991   108.8435    86.9393      .9166      .9128     1.0744   -44.9682
 7023.5000      .6931   109.5662    84.6796      .9019      .8960     1.0232   -44.8391
 7024.0000      .6267   109.9534    82.5804      .8878      .8821     1.0068   -44.7217
 7024.5000      .5556   109.6820    80.5011      .8743      .8727     1.0061   -44.7261
 7025.0000      .4873   108.9456    79.0045      .8690      .8684     1.0158   -44.7852
 7025.5000      .4554   107.8737    79.2861      .8667      .8720     1.0157   -44.8329
 7026.0000      .4316   106.5801    80.5974      .8693      .8778     1.0195   -44.8805
 7026.5000      .4180   105.5685    82.9410      .8753      .8842     1.0418   -44.9304
 7027.0000      .4190   105.1469    83.2966      .8814      .8918     1.0755   -44.9860
 7027.5000      .5122   105.4526    77.8538      .8877      .8997     1.1112   -45.0416
 7028.0000      .6814   106.1654    72.9937      .8928      .9050     1.1224   -45.1258
 7028.5000      .8144   106.9548    71.6477      .8963      .9075     1.1082   -45.2115
 7029.0000      .9106   107.4976    74.4408      .8983      .9087     1.0810   -45.2865
 7029.5000      .9863   107.7526    77.5796      .8997      .9094     1.0483   -45.3510
 7030.0000     1.0549   107.8326    78.3075      .8994      .9089     1.0247   -44.8850
 7030.5000     1.1093   107.8019    77.2747      .8978      .9076     1.0116   -45.1555
 7031.0000     1.1474   107.7240    76.2633      .8931      .9053     1.0097   -45.2524
 7031.5000     1.1221   107.7496    77.2413      .8886      .9021     1.0108   -45.2541
 7032.0000     1.0523   107.6985    79.0663      .8844      .8991     1.0244   -45.2214
 7032.5000     1.0058   107.4718    79.8641      .8824      .8984     1.0384   -45.2360
 7033.0000     1.0132   106.9990    79.9038      .8839      .8976     1.0638   -45.2669
 7033.5000     1.0675   106.4985    79.6312      .8861      .8966     1.0931   -45.3062
