~VERSION INFORMATION
VERS.                             2.0:   CWLS Log ASCII Standard-VERSION 2.0
WRAP.                              NO:   One line per depth step
~Well Information Block
STRT.F                      3138.0000:   Top Depth
STOP.F                      8628.0000:   Bottom Depth
STEP.F                         .50000:   Depth Increment
NULL.                        -999.250:   Null Value
FLD .                      BA BLK 376:   Field Name
WELL.       OCSG07215   003 ST00 BP00:   NAME
API .                  42704401900000:   WELL API
EDF .F                        90.0000:   ELEV DRILL FLOOR
COMP.         UNION EXPL PARTNERS LTD:   OPERATOR
BN  .                             376:   BLOCK
CTRY.                             USA:   COUNTRY NAME
CNTY.                        BRAZOS L:   COUNTY NAME
EKB .F                        91.0000:   ELEV KELLY BUSHING
TDD .F                       8678.000:   FINAL TD DRILLER
STAT.                           TEXAS:   STATE NAME
UWI .                  42704401900000:   WELL API
DICO.               IHS : Digitizing Company
~PARAMETER INFORMATION (zones)
#MNEM.UNIT                       Value     Description
#=========                       =====     ===========
#ZONATION                          DIL:   ZONATION NAME
#ZONE                            RUN_1:   ZONE NAME
TOP .                       3138.0000:   TOP DEPTH
BOT .                       5660.5000:   BOTTOM DEPTH
RUN .                               1:   RUN NUMBER
SRVC.                               0:   LOGGING CONTRACTOR
SRVC.                         UNKNOWN:   LOGGING CONT NAME
DICO.          QC Data Collectors Ltd:   DIG COMPANY NAME
LDAT.                      06/22/1989:   DATE LOGGED
ELD .F                        91.0000:   LOG DATUM ELEVATION
TDD .F                      5675.0000:   TOTAL DEPTH DRILLER
TDL .F                      5662.0000:   TOTAL DEPTH LOGGER
BOTL.F                      5660.0000:   BOTTOM DEPTH LOGGED
TOPL.F                      3220.0000:   TOP DEPTH LOGGED
CS1 .IN                       10.7500:   CASING SIZE 1
BS1 .IN                        9.8750:   BIT SIZE 1
DDB1.F                      5675.0000:   DEPTH DRILLED BIT 1
BHF .                              20:   FLUID CODE
DPT .                    Gel (Gelchem:   DRILLING FLUID TYPE
MUDD.                          9.0000:   FLUID DENSITY
MUDV.                         68.0000:   FLUID VISCOSITY
DFPH.                          9.0000:   FLUID PH
FL  .                         12.0000:   FLUID LOSS
RM  .OHMM                      1.0500:   RM
RMT .DEGF                     75.0000:   RM TEMP
RMF .OHMM                       .8200:   RMF
RMFT.DEGF                     75.0000:   RMF TEMP
FSC .                               M:   RMF CODE
RMC .OHMM                      1.2200:   RMC
RMCT.DEGF                     75.0000:   RMC TEMP
CMC .                               M:   RMC CODE
TMAX.DEGF                    128.0000:   MAX REC TEMP
TIMC.                          7.0000:   TIME SINCE CIRCLN
~PARAMETER INFORMATION (zones)
#MNEM.UNIT                       Value     Description
#=========                       =====     ===========
#ZONATION                          DIL:   ZONATION NAME
#ZONE                            RUN_2:   ZONE NAME
TOP .                       5664.0000:   TOP DEPTH
BOT .                       8628.5000:   BOTTOM DEPTH
RUN .                               2:   RUN NUMBER
SRVC.                               0:   LOGGING CONTRACTOR
SRVC.                         UNKNOWN:   LOGGING CONT NAME
DICO.          QC Data Collectors Ltd:   DIG COMPANY NAME
LDAT.                      07/04/1989:   DATE LOGGED
ELD .F                        91.0000:   LOG DATUM ELEVATION
TDD .F                      8678.0000:   TOTAL DEPTH DRILLER
TDL .F                      8630.0000:   TOTAL DEPTH LOGGER
BOTL.F                      8628.0000:   BOTTOM DEPTH LOGGED
TOPL.F                      5664.0000:   TOP DEPTH LOGGED
CS1 .IN                        7.6250:   CASING SIZE 1
BS1 .IN                        6.5000:   BIT SIZE 1
DDB1.F                      8678.0000:   DEPTH DRILLED BIT 1
BHF .                              81:   FLUID CODE
DPT .          Lignosulfonate (Ligno):   DRILLING FLUID TYPE
MUDD.                         11.8000:   FLUID DENSITY
MUDV.                         48.0000:   FLUID VISCOSITY
DFPH.                         10.5000:   FLUID PH
FL  .                          6.6000:   FLUID LOSS
RM  .OHMM                       .7200:   RM
RMT .DEGF                     70.0000:   RM TEMP
RMF .OHMM                       .5900:   RMF
RMFT.DEGF                     70.0000:   RMF TEMP
FSC .                               M:   RMF CODE
RMC .OHMM                       .9000:   RMC
RMCT.DEGF                     70.0000:   RMC TEMP
CMC .                               C:   RMC CODE
TMAX.DEGF                    191.0000:   MAX REC TEMP
TIMC.                          5.0000:   TIME SINCE CIRCLN
~Curve Information Block
#MNEM.UNIT                    API CODE    No Description
#=========                    ========    == ===========
DEPT.F                   00 001 00 00:     1  DEPTH
DT.US/F                              :     2  Sonic Transit Time
GR.GAPI                              :     3  Gamma Ray
ILD.OHMM                             :     4  Deep Induction Resistivity
ILM.OHMM                             :     5  Medium Induction Resistivity
RFOC.OHMM                            :     6  Medium Resistivity
SP.MV                                :     7  Spontaneous Potential
~ASCII
# ...
 6778.0000   111.4926    74.6926      .8446      .8433     1.0571   -60.8054
 6778.5000   112.3441    75.2114      .8363      .8371     1.0517   -60.5452
 6779.0000   113.2561    75.1791      .8344      .8332     1.0538   -60.2937
 6779.5000   113.7855    74.2966      .8396      .8366     1.0598   -60.3312
 6780.0000   113.7941    73.8290      .8491      .8462     1.0692   -60.8352
 6780.5000   113.4532    73.8196      .8572      .8605     1.0794   -61.1960
 6781.0000   112.9655    73.8876      .8599      .8719     1.0917   -61.2514
 6781.5000   112.5774    74.0161      .8590      .8749     1.1053   -61.1396
 6782.0000   112.3553    74.5951      .8583      .8709     1.1208   -61.0121
 6782.5000   112.3175    76.2264      .8506      .8585     1.1325   -60.8783
 6783.0000   112.4938    77.2548      .8364      .8438     1.1358   -60.7585
 6783.5000   113.0541    77.4655      .8193      .8307     1.1317   -60.6202
 6784.0000   113.5219    77.1113      .8077      .8208     1.1255   -60.4271
 6784.5000   113.8735    76.8027      .8001      .8124     1.1185   -60.2665
 6785.0000   114.1543    76.4862      .7950      .8062     1.1010   -60.1492
 6785.5000   114.4312    76.1252      .7921      .8014     1.0694   -60.1146
 6786.0000   114.6425    75.7429      .7920      .7972     1.0332   -60.1710
 6786.5000   114.9246    75.5752      .7912      .7953     1.0274   -60.3191
 6787.0000   115.1184    76.0149      .7895      .7937     1.0419   -60.5103
 6787.5000   115.0406    77.7555      .7880      .7935     1.0567   -60.5057
 6788.0000   114.7041    79.6904      .7866      .7935     1.0716   -60.3214
 6788.5000   114.3088    76.9647      .7850      .7929     1.0779   -60.0124
 6789.0000   114.1748    74.2155      .7833      .7921     1.0715   -59.7198
 6789.5000   114.3433    73.8646      .7803      .7892     1.0625   -59.5710
 6790.0000   114.8715    75.7551      .7769      .7853     1.0525   -59.6943
 6790.5000   115.4363    77.5032      .7731      .7802     1.0351   -59.7463
 6791.0000   115.9448    76.9229      .7697      .7727     1.0184   -59.6887
 6791.5000   116.3578    75.6660      .7671      .7662     1.0087   -59.4642
 6792.0000   116.7358    74.5363      .7643      .7616     1.0075   -59.2700
 6792.5000   116.8965    74.3510      .7614      .7572     1.0089   -59.1291
 6793.0000   116.8466    74.6603      .7576      .7540     1.0137   -59.1753
 6793.5000   116.7386    75.1777      .7526      .7504     1.0208   -59.2266
 6794.0000   116.5057    76.4385      .7466      .7459     1.0162   -59.2665
 6794.5000   116.3818    77.2725      .7398      .7406     1.0096   -59.2214
 6795.0000   116.2740    77.5497      .7330      .7341     1.0054   -59.1572
 6795.5000   116.3170    77.2672      .7267      .7301     1.0025   -58.8387
 6796.0000   116.5251    76.6165      .7229      .7272     1.0016   -58.2738
 6796.5000   116.8837    75.5848      .7204      .7266     1.0015   -57.5826
 6797.0000   117.3036    74.6266      .7225      .7260     1.0030   -57.2774
 6797.5000   117.8435    73.5557      .7245      .7280     1.0051   -57.2965
 6798.0000   118.4767    75.4199      .7228      .7287     1.0013   -57.5194
 6798.5000   118.9333    78.4363      .7206      .7287      .9961   -57.7656
 6799.0000   118.9429    79.9982      .7162      .7287      .9897   -58.0729
 6799.5000   118.6334    79.5713      .7144      .7279      .9767   -58.2228
 6800.0000   118.0200    78.0775      .7118      .7224      .9655   -58.2814
 6800.5000   117.1298    77.1040      .7078      .7157      .9702   -58.2309
 6801.0000   116.4047    77.2797      .7016      .7110      .9957   -58.1531
 6801.5000   115.9258    78.3787      .6951      .7067     1.0299   -58.0549
 6802.0000   117.6965    79.5726      .6872      .7000     1.0553   -57.9197
 6802.5000   119.2279    79.6538      .6796      .6927     1.0034   -57.8201
 6803.0000   120.8505    77.5931      .6728      .6818      .9579   -57.7923
 6803.5000   121.2471    75.8687      .6666      .6765      .9347   -57.7927
 6804.0000   121.0391    77.0381      .6634      .6755      .9646   -57.8536
 6804.5000   120.7936    78.4441      .6613      .6754      .9740   -57.9437
 6805.0000   120.8806    78.2150      .6613      .6755      .9734   -58.0761
 6805.5000   122.0819    76.1792      .6619      .6756      .9724   -58.1128
 6806.0000   123.4033    75.3597      .6627      .6735      .9703   -58.1204
 6806.5000   124.0017    77.1323      .6645      .6732      .9682   -58.0961
 6807.0000   124.0754    79.5150      .6665      .6733      .9660   -58.1069
 6807.5000   123.3351    81.5155      .6679      .6734      .9631   -58.1375
 6808.0000   121.7460    82.4181      .6692      .6737      .9600   -58.2159
 6808.5000   120.5454    82.1962      .6714      .6755      .9592   -58.3056
 6809.0000   119.7928    82.0481      .6743      .6774      .9584   -58.4558
 6809.5000   119.1151    81.9957      .6771      .6810      .9605   -58.7494
 6810.0000   119.6807    81.9960      .6801      .6847      .9625   -58.9293
 6810.5000   120.6005    81.3440      .6831      .6893      .9648   -58.5618
 6811.0000   121.0929    80.4098      .6884      .6942      .9667   -57.9701
 6811.5000   121.3523    80.7954      .6937      .6999      .9678   -57.3430
 6812.0000   121.4640    82.6597      .6979      .7033      .9694   -57.0059
 6812.5000   121.4347    83.9623      .7033      .7051      .9716   -57.0145
 6813.0000   121.2480    83.0027      .7112      .7096      .9770   -57.0466
 6813.5000   120.9430    79.8947      .7224      .7281      .9850   -57.0341
 6814.0000   120.4634    77.6246      .7416      .7599      .9972   -56.8256
 6814.5000   119.7823    76.5648      .7606      .7939     1.0029   -56.7546
 6815.0000   118.9878    76.1710      .7824      .8256     1.0018   -56.9791
 6815.5000   118.3566    75.2583      .7918      .8503     1.0049   -57.3967
 6816.0000   117.8475    74.5879      .7994      .8670     1.0138   -57.8182
 6816.5000   117.2229    75.0216      .8069      .8767     1.0510   -58.2411
 6817.0000   116.1968    75.1423      .8174      .8719     1.1004   -58.6312
 6817.5000   114.9712    74.5363      .8306      .8646     1.1443   -58.9287
 6818.0000   113.7009    73.2977      .8469      .8559     1.1550   -59.0132
 6818.5000   112.3888    72.1365      .8504      .8432     1.1235   -58.9403
 6819.0000   112.9333    73.1210      .8207      .8251     1.0986   -58.7353
 6819.5000   114.6707    76.1190      .7965      .8056     1.0766   -58.3989
 6820.0000   116.9014    78.8029      .7767      .7872     1.0474   -58.0316
 6820.5000   118.7279    79.1144      .7611      .7726     1.0265   -57.8264
 6821.0000   119.5402    78.2759      .7548      .7626     1.0450   -57.7366
 6821.5000   119.3915    77.6737      .7519      .7565     1.0724   -57.8954
 6822.0000   118.3999    76.4227      .7501      .7641     1.0897   -58.1219
 6822.5000   117.2603    73.5975      .7523      .7755     1.1008   -58.3103
 6823.0000   116.4841    71.5343      .7614      .7938     1.1010   -58.4778
 6823.5000   115.7802    73.0372      .7809      .8259     1.1011   -58.4165
 6824.0000   114.9817    78.0854      .8402      .8731     1.1035   -58.3552
 6824.5000   114.1104    81.8245      .9062      .9177     1.1033   -58.2350
 6825.0000   113.4418    83.2318      .9652      .9576     1.0986   -58.1144
 6825.5000   112.5659    79.7716     1.0141      .9968     1.1005   -58.0625
 6826.0000   110.8127    76.7552     1.0556     1.0353     1.1158   -58.0629
 6826.5000   108.3643    72.7964     1.0691     1.0520     1.3902   -58.0634
 6827.0000   105.7897    69.4082     1.0464     1.0346     1.6094   -58.0105
 6827.5000   108.2723    65.6587     1.0018      .9826     1.6376   -57.8552
 6828.0000   111.3271    62.4775      .9538      .9084     1.4060   -57.7142
 6828.5000   112.2681    64.7423      .9062      .8596     1.1187   -57.6123
 6829.0000   112.3857    69.8848      .8592      .8211     1.0733   -57.6047
 6829.5000   112.3224    72.9247      .8280      .8060     1.0796   -57.8015
