~VERSION INFORMATION
VERS.                             2.0:   CWLS Log ASCII Standard-VERSION 2.0
WRAP.                              NO:   One line per depth step
~Well Information Block
STRT.F                      2726.0000:   Top Depth
STOP.F                     13125.0000:   Bottom Depth
STEP.F                         .50000:   Depth Increment
NULL.                        -999.250:   Null Value
FLD .                      GA BLK 255:   Field Name
WELL.       OCSG01777  A007 ST00 BP00:   NAME
API .                  42706400190000:   WELL API
EDF .F                        92.0000:   ELEV DRILL FLOOR
COMP.       COASTAL STATES GAS PROD C:   OPERATOR
BN  .                             255:   BLOCK
CTRY.                             USA:   COUNTRY NAME
CNTY.                              GA:   COUNTY
CNTY.                        GLVSTN L:   COUNTY NAME
EKB .F                        93.0000:   ELEV KELLY BUSHING
TDD .F                      13136.000:   FINAL TD DRILLER
STAT.                           TEXAS:   STATE NAME
UWI .                  42706400190000:   WELL API
DICO.               IHS : Digitizing Company
~PARAMETER INFORMATION (zones)
#MNEM.UNIT                       Value     Description
#=========                       =====     ===========
#ZONATION                           IE:   ZONATION NAME
#ZONE                            RUN_1:   ZONE NAME
TOP .                       2726.0000:   TOP DEPTH
BOT .                       8780.5000:   BOTTOM DEPTH
RUN .                               1:   RUN NUMBER
LCCD.                             440:   LOGGING CONTRACTOR
SRVC.                    Schlumberger:   LOGGING CONT NAME
DICO.          QC Data Collectors Ltd:   DIG COMPANY NAME
LDAT.                      09/02/1973:   DATE LOGGED
ELD .F                        93.0000:   LOG DATUM ELEVATION
TDD .F                      8829.0000:   TOTAL DEPTH DRILLER
TDL .F                      8822.0000:   TOTAL DEPTH LOGGER
BOTL.F                      8821.0000:   BOTTOM DEPTH LOGGED
TOPL.F                      2726.0000:   TOP DEPTH LOGGED
CS1 .IN                       13.6250:   CASING SIZE 1
BS1 .IN                       12.2500:   BIT SIZE 1
DDB1.F                      8829.0000:   DEPTH DRILLED BIT 1
BHF .                              81:   FLUID CODE
DPT .          Lignosulfonate (Ligno):   DRILLING FLUID TYPE
MUDD.                         12.2000:   FLUID DENSITY
MUDV.                         44.0000:   FLUID VISCOSITY
DFPH.                         10.5000:   FLUID PH
FL  .                          2.0000:   FLUID LOSS
RM  .OHMM                       .9600:   RM
RMT .DEGF                     74.0000:   RM TEMP
RMF .OHMM                       .5900:   RMF
RMFT.DEGF                     71.0000:   RMF TEMP
FSC .                               M:   RMF CODE
RMC .OHMM                      1.8100:   RMC
RMCT.DEGF                     71.0000:   RMC TEMP
CMC .                               M:   RMC CODE
TMAX.DEGF                    160.0000:   MAX REC TEMP
TIMC.                         24.0000:   TIME SINCE CIRCLN
~PARAMETER INFORMATION (zones)
#MNEM.UNIT                       Value     Description
#=========                       =====     ===========
#ZONATION                           IE:   ZONATION NAME
#ZONE                            RUN_2:   ZONE NAME
TOP .                       8780.0000:   TOP DEPTH
BOT .                       9333.5000:   BOTTOM DEPTH
RUN .                               2:   RUN NUMBER
LCCD.                             440:   LOGGING CONTRACTOR
SRVC.                    Schlumberger:   LOGGING CONT NAME
DICO.          QC Data Collectors Ltd:   DIG COMPANY NAME
LDAT.                      09/09/1973:   DATE LOGGED
ELD .F                        93.0000:   LOG DATUM ELEVATION
TDD .F                      9340.0000:   TOTAL DEPTH DRILLER
TDL .F                      9334.0000:   TOTAL DEPTH LOGGER
BOTL.F                      9333.0000:   BOTTOM DEPTH LOGGED
TOPL.F                      8821.0000:   TOP DEPTH LOGGED
CS1 .IN                       13.3750:   CASING SIZE 1
BS1 .IN                       12.2500:   BIT SIZE 1
DDB1.F                      9340.0000:   DEPTH DRILLED BIT 1
BHF .                              99:   FLUID CODE
DPT .                   Miscellaneous:   DRILLING FLUID TYPE
MUDD.                         12.3000:   FLUID DENSITY
MUDV.                         46.0000:   FLUID VISCOSITY
DFPH.                         10.5000:   FLUID PH
FL  .                          3.2000:   FLUID LOSS
RM  .OHMM                       .6500:   RM
RMT .DEGF                     82.0000:   RM TEMP
RMF .OHMM                       .5000:   RMF
RMFT.DEGF                     82.0000:   RMF TEMP
FSC .                               M:   RMF CODE
RMC .OHMM                       .9600:   RMC
RMCT.DEGF                     82.0000:   RMC TEMP
CMC .                               M:   RMC CODE
TMAX.DEGF                    160.0000:   MAX REC TEMP
TIMC.                          4.0000:   TIME SINCE CIRCLN
~PARAMETER INFORMATION (zones)
#MNEM.UNIT                       Value     Description
#=========                       =====     ===========
#ZONATION                           IE:   ZONATION NAME
#ZONE                            RUN_3:   ZONE NAME
TOP .                       9343.0000:   TOP DEPTH
BOT .                      13125.5000:   BOTTOM DEPTH
RUN .                               3:   RUN NUMBER
LCCD.                             440:   LOGGING CONTRACTOR
SRVC.                    Schlumberger:   LOGGING CONT NAME
DICO.          QC Data Collectors Ltd:   DIG COMPANY NAME
LDAT.                      09/22/1973:   DATE LOGGED
ELD .F                        93.0000:   LOG DATUM ELEVATION
TDD .F                     13136.0000:   TOTAL DEPTH DRILLER
TDL .F                     13126.0000:   TOTAL DEPTH LOGGER
BOTL.F                     13125.0000:   BOTTOM DEPTH LOGGED
TOPL.F                      9343.0000:   TOP DEPTH LOGGED
CS1 .IN                        9.6250:   CASING SIZE 1
BS1 .IN                        8.5000:   BIT SIZE 1
DDB1.F                     13136.0000:   DEPTH DRILLED BIT 1
BHF .                              99:   FLUID CODE
DPT .                   Miscellaneous:   DRILLING FLUID TYPE
MUDD.                         16.5000:   FLUID DENSITY
MUDV.                         46.0000:   FLUID VISCOSITY
DFPH.                         11.0000:   FLUID PH
FL  .                          2.2000:   FLUID LOSS
RM  .OHMM                       .6100:   RM
RMT .DEGF                     80.0000:   RM TEMP
RMF .OHMM                       .2300:   RMF
RMFT.DEGF                     80.0000:   RMF TEMP
FSC .                               M:   RMF CODE
RMC .OHMM                      1.0000:   RMC
RMCT.DEGF                     80.0000:   RMC TEMP
CMC .                               M:   RMC CODE
TMAX.DEGF                    232.0000:   MAX REC TEMP
TIMC.                          7.0000:   TIME SINCE CIRCLN
~PARAMETER INFORMATION (zones)
#MNEM.UNIT                       Value     Description
#=========                       =====     ===========
#ZONATION                        SONIC:   ZONATION NAME
#ZONE                            RUN_1:   ZONE NAME
TOP .                       9343.0000:   TOP DEPTH
BOT .                      13014.5000:   BOTTOM DEPTH
RUN .                               1:   RUN NUMBER
LCCD.                             440:   LOGGING CONTRACTOR
SRVC.                    Schlumberger:   LOGGING CONT NAME
DICO.          QC Data Collectors Ltd:   DIG COMPANY NAME
LDAT.                      09/22/1973:   DATE LOGGED
ELD .F                        93.0000:   LOG DATUM ELEVATION
TDD .F                     13136.0000:   TOTAL DEPTH DRILLER
TDL .F                     13126.0000:   TOTAL DEPTH LOGGER
BOTL.F                     13014.0000:   BOTTOM DEPTH LOGGED
TOPL.F                      9343.0000:   TOP DEPTH LOGGED
CS1 .IN                        9.6250:   CASING SIZE 1
BS1 .IN                        8.5000:   BIT SIZE 1
DDB1.F                     13136.0000:   DEPTH DRILLED BIT 1
BHF .                              99:   FLUID CODE
DPT .                   Miscellaneous:   DRILLING FLUID TYPE
MUDD.                         16.5000:   FLUID DENSITY
MUDV.                         46.0000:   FLUID VISCOSITY
DFPH.                         11.0000:   FLUID PH
FL  .                          2.2000:   FLUID LOSS
RM  .OHMM                       .6100:   RM
RMT .DEGF                     80.0000:   RM TEMP
RMF .OHMM                       .2400:   RMF
RMFT.DEGF                     80.0000:   RMF TEMP
FSC .                               M:   RMF CODE
RMC .OHMM                      1.0000:   RMC
RMCT.DEGF                     80.0000:   RMC TEMP
CMC .                               M:   RMC CODE
TMAX.DEGF                    232.0000:   MAX REC TEMP
TIMC.                          6.0000:   TIME SINCE CIRCLN
~Curve Information Block
#MNEM.UNIT                    API CODE    No Description
#=========                    ========    == ===========
DEPT.F                   00 001 00 00:     1  DEPTH
ASN.OHMM                             :     2  Short-Normal Resistivity
ILD.OHMM                             :     3  Deep Induction Resistivity
SP.MV                                :     4  Spontaneous Potential
CALI.IN                              :     5  Caliper
DT.US/F                              :     6  Sonic Transit Time
~ASCII
# ...
12364.0000      .6706      .6212   -42.5185    10.1223   113.9546
12364.5000      .6968      .6734   -43.6832     9.9945   108.3318
12365.0000      .7672      .7253   -45.5713     9.6524   102.6300
12365.5000      .8867      .7740   -48.8030     9.3030    94.3634
12366.0000     1.0615      .8135   -54.7369     8.8995    87.2511
12366.5000     1.1800      .8337   -61.0338     8.7344    84.6677
12367.0000     1.2317      .8434   -67.1736     8.7411    84.7109
12367.5000     1.2457      .8419   -68.9685     8.7267    88.1290
12368.0000     1.2475      .8087   -70.3318     8.6621    93.8505
12368.5000     1.1579      .7553   -71.7981     8.6528    96.7507
12369.0000     1.0538      .6985   -72.8942     8.6674    99.0096
12369.5000      .9933      .6505   -72.9463     8.6845   100.4080
12370.0000      .9583      .6155   -73.0118     8.6903   101.3920
12370.5000      .9276      .5886   -73.1962     8.6858   101.2773
12371.0000      .9019      .5663   -73.6508     8.6796   100.8612
12371.5000      .8870      .5550   -73.5391     8.6731   101.4166
12372.0000      .8854      .5501   -71.0951     8.6625   102.4821
12372.5000      .8901      .5527   -69.8781     8.6464   103.6215
12373.0000      .8912      .5583   -69.0093     8.6303   104.6597
12373.5000      .8864      .5665   -68.6179     8.6172   103.7496
12374.0000      .8775      .5747   -68.5436     8.6117   102.3390
12374.5000      .8782      .5821   -68.5718     8.6223   101.2539
12375.0000      .8873      .5898   -68.5333     8.6420   100.5104
12375.5000      .8934      .5866   -67.5935     8.6557   100.6694
12376.0000      .8888      .5819   -66.2003     8.6607   101.8162
12376.5000      .8803      .5814   -66.3567     8.6741   102.6707
12377.0000      .8725      .5816   -68.0009     8.6914   102.2588
12377.5000      .8705      .5798   -69.7112     8.7240   102.2909
12378.0000      .8742      .5770   -71.3307     8.7534   102.7830
12378.5000      .8737      .5726   -72.6263     8.7268   101.3723
12379.0000      .8739      .5705   -71.4926     8.6878    99.4585
12379.5000      .8801      .5769   -69.3872     8.6762    98.3364
12380.0000      .8829      .6265   -66.6488     8.8392   100.8248
12380.5000      .8781      .6838   -64.3323     9.0478   102.4253
12381.0000      .8787      .7249   -59.0468     9.2186   104.8495
12381.5000      .8847      .7428   -55.5526     9.0649   103.4487
12382.0000      .8792      .7352   -55.1622     8.7710   100.9235
12382.5000      .8844      .7148   -57.9671     8.7353    99.8851
12383.0000      .9091      .6970   -62.2368     8.7432    99.2748
12383.5000      .9302      .6915   -67.7432     8.7770    98.6287
12384.0000      .9414      .7017   -72.1454     8.8317    98.0590
12384.5000      .9376      .7176   -74.1869     8.8522    99.2267
12385.0000      .9267      .7362   -73.6962     8.8935   100.2576
12385.5000      .9161      .7590   -71.1196     9.0002   100.8691
12386.0000      .9215      .7765   -67.8610     9.0659   100.4401
12386.5000      .9460      .7802   -62.2564     8.7818    97.1157
12387.0000      .9681      .7714   -58.0260     8.7106    94.0428
12387.5000      .9966      .7256   -58.3843     8.7069    94.1390
12388.0000      .9993      .6890   -59.8835     8.8966    97.6385
12388.5000      .9416      .6503   -59.7878     9.1881   101.7422
12389.0000      .8697      .5946   -57.2948     9.7245   107.8385
12389.5000      .7933      .5218   -53.9919     9.9209   109.8263
12390.0000      .7054      .4730   -49.7811    10.0978   112.0112
12390.5000      .6519      .4354   -45.7863    10.2271   113.6932
12391.0000      .6262      .4189   -44.0809    10.2156   112.8497
12391.5000      .6141      .4322   -43.0258    10.1142   110.6450
12392.0000      .6135      .4589   -42.2552    10.0538   108.7806
12392.5000      .6429      .5016   -41.7363    10.0323   105.6584
12393.0000      .6993      .5595   -41.4743    10.0070   100.1343
12393.5000      .7562      .6425   -41.3685     9.8595    94.8074
12394.0000      .8302      .7488   -41.4786     9.6929    85.2683
12394.5000      .9467      .8652   -41.9460     9.5913    82.7627
12395.0000     1.0678      .9791   -42.4577     9.5172    83.9266
12395.5000     1.2134     1.0650   -43.0110     9.4692    86.1166
12396.0000     1.3093     1.1370   -43.4871     9.4815    86.9354
12396.5000     1.3703     1.1909   -43.9250     9.5342    85.2437
12397.0000     1.3979     1.2392   -44.1680     9.5852    81.3422
12397.5000     1.3995     1.2830   -44.3309     9.5612    80.0079
12398.0000     1.4107     1.3032   -44.4888     9.4891    79.4457
12398.5000     1.4208     1.1802   -44.6327     9.4291    80.6097
12399.0000     1.4204     1.0736   -45.0379     9.4425    81.7860
12399.5000     1.3461      .9745   -45.3968     9.5680    83.9414
12400.0000     1.2420      .8861   -45.4690     9.7466    87.5765
12400.5000     1.1241      .8000   -45.0808     9.9346    98.0331
12401.0000     1.0304      .7344   -44.5643    10.1135   103.5079
12401.5000      .9497      .6831   -43.9276    10.2202   106.1912
12402.0000      .8869      .6396   -43.3570    10.3188   104.9186
12402.5000      .8523      .6237   -42.8932    10.2821   106.2627
12403.0000      .8479      .6272   -42.7725    10.1307   105.2096
12403.5000      .8621      .6392   -42.8207     9.9297    99.7693
12404.0000      .8699      .6624   -42.8903     9.7780    97.0911
12404.5000      .8655      .6879   -42.9310     9.8890    94.7186
12405.0000      .9191      .7162   -42.9495     9.9984    97.8308
12405.5000      .9938      .7377   -42.9868    10.1029    99.5830
12406.0000      .9971      .7533   -43.0687    10.1891    99.3007
12406.5000      .9772      .7533   -43.1596    10.2550   100.3439
12407.0000      .9561      .7519   -43.2625    10.3072   101.2563
12407.5000      .9427      .7459   -43.3423    10.2764   100.5682
12408.0000      .9389      .7306   -43.4048    10.2321    99.9999
12408.5000      .9376      .7173   -43.4969    10.1662    99.6361
12409.0000      .9295      .6976   -43.5964    10.0845    98.8962
12409.5000      .9097      .6854   -43.7211    10.1908    98.5535
12410.0000      .8968      .6736   -43.8530    10.2993   100.6274
12410.5000      .8925      .6621   -44.0162    10.3426   103.4192
12411.0000      .8876      .6562   -44.1944    10.3029   104.4014
12411.5000      .8833      .6540   -44.4398    10.2237   102.8865
12412.0000      .8825      .6790   -44.5821    10.1187   102.1812
12412.5000      .8883      .7187   -44.6005    10.0224   103.4241
12413.0000      .8970      .7635   -44.7072     9.9260   103.0837
12413.5000      .9182      .8080   -44.8609     9.8502    97.8555
12414.0000      .9743      .8573   -45.0538     9.7589    91.3646
12414.5000     1.0566      .9099   -45.0155     9.5184    82.7231
12415.0000     1.1621      .9677   -44.9177     9.3515    77.7218
12415.5000     1.2690     1.0213   -44.7634     9.3390    83.8674
12416.0000     1.3195     1.0707   -44.8526     9.4195    88.0304
12416.5000     1.3646     1.1167   -45.0140     9.5130    91.8776
12417.0000     1.4530     1.1415   -45.3857     9.5416    95.0786
12417.5000     1.4559     1.1400   -45.6602     9.4945    91.5372
12418.0000     1.4018     1.1200   -45.7313     9.4102    87.1523
12418.5000     1.4076     1.0979   -46.1556     9.3206    85.0044
12419.0000     1.5274     1.0783   -46.8782     9.2284    86.6370
12419.5000     1.5808     1.0840   -47.9113     9.1310    84.9033
12420.0000     1.6076     1.1602   -49.1113     9.0405    86.7529
12420.5000     1.6894     1.2646   -50.0499     9.0446    86.5309
12421.0000     1.7434     1.3622   -50.1679     9.0804    83.3397
12421.5000     1.7139     1.4430   -50.0112     9.1192    80.4642
12422.0000     1.7141     1.4970   -49.7849     9.0809    78.0646
12422.5000     1.8382     1.5379   -49.5723     8.9766    77.4160
12423.0000     1.9327     1.5590   -49.7284     8.8907    77.3174
12423.5000     2.0072     1.5749   -50.2351     8.9248    81.6874
12424.0000     2.0195     1.5698   -51.1332     9.0438    81.9106
12424.5000     1.9184     1.5450   -51.7086     9.2144    81.3594
