~VERSION INFORMATION
VERS.                             2.0:   CWLS Log ASCII Standard-VERSION 2.0
WRAP.                              NO:   One line per depth step
~Well Information Block
STRT.F                      3012.0000:   Top Depth
STOP.F                      9049.0000:   Bottom Depth
STEP.F                         .50000:   Depth Increment
NULL.                        -999.250:   Null Value
FLD .                      GA BLK 210:   Field Name
WELL.       OCSG01759   002 ST00 BP00:   NAME
API .                  42706400060000:   WELL API
R1  .                      TEXACO INC:   COMMENT  1
EDF .F                        74.0000:   ELEV DRILL FLOOR
COMP.                      TEXACO INC:   OPERATOR
BN  .                             210:   BLOCK
CTRY.                             USA:   COUNTRY NAME
CNTY.                              GA:   COUNTY
CNTY.                        GLVSTN L:   COUNTY NAME
EKB .F                        75.0000:   ELEV KELLY BUSHING
TDD .F                       9050.000:   FINAL TD DRILLER
STAT.                           TEXAS:   STATE NAME
UWI .                  42706400060000:   WELL API
DICO.               IHS : Digitizing Company
~PARAMETER INFORMATION (zones)
#MNEM.UNIT                       Value     Description
#=========                       =====     ===========
#ZONATION                           IE:   ZONATION NAME
#ZONE                            RUN_2:   ZONE NAME
TOP .                       9049.0000:   TOP DEPTH
BOT .                       9050.0000:   BOTTOM DEPTH
RUN .                               2:   RUN NUMBER
LCCD.                             440:   LOGGING CONTRACTOR
SRVC.                    Schlumberger:   LOGGING CONT NAME
DICO.          QC Data Collectors Ltd:   DIG COMPANY NAME
LDAT.                      11/07/1971:   DATE LOGGED
ELD .F                        75.0000:   LOG DATUM ELEVATION
TDD .F                      9050.0000:   TOTAL DEPTH DRILLER
TDL .F                      9050.0000:   TOTAL DEPTH LOGGER
BOTL.F                      9049.0000:   BOTTOM DEPTH LOGGED
TOPL.F                      7103.0000:   TOP DEPTH LOGGED
CS1 .IN                        9.6250:   CASING SIZE 1
BS1 .IN                        8.6250:   BIT SIZE 1
DDB1.F                      9050.0000:   DEPTH DRILLED BIT 1
BHF .                              99:   FLUID CODE
DPT .                   Miscellaneous:   DRILLING FLUID TYPE
MUDD.                         15.0000:   FLUID DENSITY
MUDV.                         45.0000:   FLUID VISCOSITY
DFPH.                         10.5000:   FLUID PH
FL  .                          4.0000:   FLUID LOSS
RM  .OHMM                       .7700:   RM
RMT .DEGF                    100.0000:   RM TEMP
RMF .OHMM                       .5300:   RMF
RMFT.DEGF                     77.0000:   RMF TEMP
FSC .                               M:   RMF CODE
RMC .OHMM                      1.4300:   RMC
RMCT.DEGF                     75.0000:   RMC TEMP
CMC .                               M:   RMC CODE
TMAX.DEGF                    194.0000:   MAX REC TEMP
TIMC.                          4.0000:   TIME SINCE CIRCLN
~PARAMETER INFORMATION (zones)
#MNEM.UNIT                       Value     Description
#=========                       =====     ===========
#ZONATION                           IE:   ZONATION NAME
#ZONE                            RUN_1:   ZONE NAME
TOP .                       3012.0000:   TOP DEPTH
BOT .                       9049.5000:   BOTTOM DEPTH
RUN .                               1:   RUN NUMBER
LCCD.                             440:   LOGGING CONTRACTOR
SRVC.                    Schlumberger:   LOGGING CONT NAME
DICO.          QC Data Collectors Ltd:   DIG COMPANY NAME
LDAT.                      10/28/1971:   DATE LOGGED
ELD .F                        75.0000:   LOG DATUM ELEVATION
TDD .F                      7115.0000:   TOTAL DEPTH DRILLER
TDL .F                      7061.0000:   TOTAL DEPTH LOGGER
BOTL.F                      7060.0000:   BOTTOM DEPTH LOGGED
TOPL.F                      3012.0000:   TOP DEPTH LOGGED
CS1 .IN                       13.3750:   CASING SIZE 1
BS1 .IN                       12.2500:   BIT SIZE 1
DDB1.F                      7115.0000:   DEPTH DRILLED BIT 1
BHF .                              11:   FLUID CODE
DPT .         Caustic (high PH) (CLS):   DRILLING FLUID TYPE
MUDD.                         10.5000:   FLUID DENSITY
MUDV.                         40.0000:   FLUID VISCOSITY
DFPH.                          9.0000:   FLUID PH
FL  .                          4.4000:   FLUID LOSS
RM  .OHMM                       .9400:   RM
RMT .DEGF                     96.0000:   RM TEMP
RMF .OHMM                       .7600:   RMF
RMFT.DEGF                     96.0000:   RMF TEMP
FSC .                               M:   RMF CODE
RMC .OHMM                      1.2600:   RMC
RMCT.DEGF                     96.0000:   RMC TEMP
CMC .                               M:   RMC CODE
TMAX.DEGF                    155.0000:   MAX REC TEMP
TIMC.                          4.0000:   TIME SINCE CIRCLN
~PARAMETER INFORMATION (zones)
#MNEM.UNIT                       Value     Description
#=========                       =====     ===========
#ZONATION                        SONIC:   ZONATION NAME
#ZONE                            RUN_1:   ZONE NAME
TOP .                       3012.0000:   TOP DEPTH
BOT .                       9049.5000:   BOTTOM DEPTH
RUN .                               1:   RUN NUMBER
LCCD.                             440:   LOGGING CONTRACTOR
SRVC.                    Schlumberger:   LOGGING CONT NAME
DICO.          QC Data Collectors Ltd:   DIG COMPANY NAME
LDAT.                      10/28/1971:   DATE LOGGED
ELD .F                        75.0000:   LOG DATUM ELEVATION
TDD .F                      7115.0000:   TOTAL DEPTH DRILLER
TDL .F                      7060.0000:   TOTAL DEPTH LOGGER
BOTL.F                      7050.0000:   BOTTOM DEPTH LOGGED
TOPL.F                      3012.0000:   TOP DEPTH LOGGED
CS1 .IN                       13.3750:   CASING SIZE 1
BS1 .IN                       12.2500:   BIT SIZE 1
DDB1.F                      7115.0000:   DEPTH DRILLED BIT 1
BHF .                              11:   FLUID CODE
DPT .         Caustic (high PH) (CLS):   DRILLING FLUID TYPE
MUDD.                         10.5000:   FLUID DENSITY
MUDV.                         40.0000:   FLUID VISCOSITY
DFPH.                          9.0000:   FLUID PH
FL  .                          4.4000:   FLUID LOSS
RM  .OHMM                       .9400:   RM
RMT .DEGF                     96.0000:   RM TEMP
RMF .OHMM                       .7600:   RMF
RMFT.DEGF                     96.0000:   RMF TEMP
FSC .                               M:   RMF CODE
RMC .OHMM                      1.2600:   RMC
RMCT.DEGF                     96.0000:   RMC TEMP
CMC .                               M:   RMC CODE
TMAX.DEGF                    155.0000:   MAX REC TEMP
TIMC.                          6.0000:   TIME SINCE CIRCLN
~Curve Information Block
#MNEM.UNIT                    API CODE    No Description
#=========                    ========    == ===========
DEPT.F                   00 001 00 00:     1  DEPTH
ASN.OHMM                             :     2  Short-Normal Resistivity
CILD.MMHO                            :     3  Deep Induction Conductivity
ILD.OHMM                             :     4  Deep Induction Resistivity
SP.MV                                :     5  Spontaneous Potential
CALI.IN                              :     6  Caliper
DT.US/F                              :     7  Sonic Transit Time
SP.MV                                :     8  Spontaneous Potential
~ASCII
# ...
 7835.0000      .6529  1694.5957      .6546   -47.7978     8.6746   147.8098   -45.3928
 7835.5000      .6522  1702.5371      .6568   -48.0848     8.6743   148.1733   -45.3412
 7836.0000      .6517  1710.4785      .6590   -48.3505     8.6741   148.5867   -45.2897
 7836.5000      .6518  1715.9863      .6612   -48.2772     8.6738   149.0005   -45.2387
 7837.0000      .6519  1720.4961      .6635   -48.2037     8.6735   149.4146   -45.2415
 7837.5000      .6521  1725.0059      .6657   -48.1304     8.6732   149.2048   -45.2441
 7838.0000      .6522  1727.5156      .6677   -48.0400     8.6730   148.6248   -45.2468
 7838.5000      .6523  1719.3848      .6673   -47.9421     8.6727   148.0356   -45.2495
 7839.0000      .6524  1711.2559      .6669   -47.8444     8.6724   147.2383   -45.2849
 7839.5000      .6525  1703.1758      .6665   -47.7465     8.6722   147.5095   -45.3549
 7840.0000      .6530  1695.3223      .6661   -47.6437     8.6719   147.7803   -45.4250
 7840.5000      .6535  1687.4824      .6656   -47.5405     8.6716   148.0515   -45.4951
 7841.0000      .6540  1683.3027      .6652   -47.4375     8.6714   148.3225   -45.5651
 7841.5000      .6545  1684.0352      .6648   -47.3343     8.6711   148.5286   -45.6353
 7842.0000      .6550  1685.7500      .6644   -47.3086     8.6708   148.5347   -45.6682
 7842.5000      .6555  1690.3047      .6641   -47.3385     8.6705   148.5408   -45.5510
 7843.0000      .6556  1694.8516      .6638   -47.3685     8.6703   148.5469   -45.4337
 7843.5000      .6547  1699.4063      .6635   -47.3984     8.6700   148.5498   -45.1915
 7844.0000      .6539  1703.9609      .6632   -47.4604     8.6697   148.5466   -44.8762
 7844.5000      .6531  1708.5156      .6629   -47.5292     8.6695   148.5432   -44.5607
 7845.0000      .6522  1713.0684      .6626   -47.5981     8.6692   148.5398   -44.6252
 7845.5000      .6514  1718.3945      .6623   -47.6669     8.6689   148.5361   -44.8293
 7846.0000      .6506  1723.9766      .6620   -47.6962     8.6687   148.4851   -45.1451
 7846.5000      .6502  1729.5664      .6617   -47.7195     8.6684   148.4341   -45.4704
 7847.0000      .6500  1735.1563      .6614   -47.7429     8.6676   148.3833   -45.6490
 7847.5000      .6497  1740.7520      .6616   -47.7484     8.6668   148.3831   -45.8278
 7848.0000      .6495  1747.8652      .6625   -47.7463     8.6660   148.4089   -46.0065
 7848.5000      .6492  1754.9902      .6633   -47.7443     8.6652   148.6382   -46.1346
 7849.0000      .6490  1765.0645      .6642   -47.7206     8.6644   149.3132   -46.1918
 7849.5000      .6489  1776.8203      .6651   -47.6780     8.6636   150.0271   -46.2488
 7850.0000      .6489  1786.8574      .6758   -47.6757     8.6628   150.8318   -46.3060
 7850.5000      .6489  1730.6152      .7008   -47.7048     8.6620   151.6560   -46.3903
 7851.0000      .6490  1649.5176      .7362   -47.7339     8.6612   152.6233   -46.4783
 7851.5000      .6594  1581.3691      .7742   -47.8922     8.6604   146.1196   -46.5662
 7852.0000      .7149  1513.2188      .8190   -48.0536     8.6596   141.7561   -46.6542
 7852.5000      .7554  1444.9707      .8655   -48.3554     8.6588   135.4827   -46.8702
 7853.0000      .7952  1376.8203      .9001   -48.6572     8.6580   132.3169   -47.3105
 7853.5000      .8379  1250.6602      .9171   -48.9903     8.6572   130.2903   -47.7510
 7854.0000      .8669  1158.1211      .9341   -49.4188     8.6566   128.4917   -48.1914
 7854.5000      .8817  1123.7207      .9389   -49.8503     8.6564   130.9861   -48.6318
 7855.0000      .8914  1117.7480      .9408   -50.2325     8.6561   132.7241   -48.9315
 7855.5000      .9011  1130.4199      .9334   -50.4883     8.6558   134.4622   -49.1707
 7856.0000      .9031  1152.6016      .9203   -50.7057     8.6556   135.8101   -49.4098
 7856.5000      .9026  1182.2598      .9072   -50.6025     8.6553   137.0220   -49.2771
 7857.0000      .8903  1208.3809      .8941   -50.4995     8.6550   137.6716   -49.0341
 7857.5000      .8779  1229.0547      .8810   -50.3962     8.6548   138.5454   -48.7910
 7858.0000      .8656  1249.7559      .8679   -50.2197     8.6545   139.2710   -48.7893
 7858.5000      .8422  1268.5742      .8548   -49.9820     8.6542   139.5022   -48.8501
 7859.0000      .8325  1287.0430      .8423   -49.7440     8.6540   139.7310   -48.9109
 7859.5000      .8229  1305.5098      .8301   -49.5063     8.6537   139.9514   -48.9716
 7860.0000      .8133  1324.0020      .8178   -49.5493     8.6534   140.1719   -49.0324
 7860.5000      .8051  1342.5195      .8057   -49.6314     8.6532   140.6472   -49.0170
 7861.0000      .7987  1358.0781      .7934   -49.7645     8.6529   141.1477   -48.9223
 7861.5000      .7922  1372.4297      .7812   -49.8974     8.6526   141.6138   -48.8275
 7862.0000      .7860  1386.8066      .7690   -50.0303     8.6523   141.8083   -48.7326
 7862.5000      .7800  1403.1172      .7568   -50.1634     8.6521   142.0029   -48.6379
 7863.0000      .7740  1422.8887      .7446   -50.2082     8.6518   141.7468   -48.5431
 7863.5000      .7667  1442.6875      .7324   -50.2062     8.6515   141.5225   -48.4316
 7864.0000      .7564  1462.1582      .7246   -50.1933     8.6513   142.3694   -48.3196
 7864.5000      .7463  1481.4023      .7171   -50.0565     8.6510   143.2336   -48.2076
 7865.0000      .7368  1500.0215      .7095   -49.9196     8.6507   144.0361   -48.0476
 7865.5000      .7273  1517.7871      .7020   -49.7828     8.6505   144.4070   -47.8560
 7866.0000      .7186  1534.8477      .6945   -49.6460     8.6502   144.8801   -47.7367
 7866.5000      .7113  1549.9531      .6886   -49.4066     8.6499   145.5027   -47.8656
 7867.0000      .7040  1565.0840      .6912   -49.1592     8.6496   145.9001   -47.9945
 7867.5000      .6971  1577.8809      .6938   -48.9215     8.6494   146.1240   -48.1234
 7868.0000      .6920  1588.3809      .6964   -48.7357     8.6491   146.1670   -48.2525
 7868.5000      .6955  1594.8672      .7006   -48.5496     8.6482   146.0317   -48.3814
 7869.0000      .7019  1576.4004      .7049   -48.6744     8.6471   145.6777   -48.3649
 7869.5000      .7092  1557.9336      .7092   -48.8075     8.6460   145.3167   -48.2960
 7870.0000      .7164  1532.7148      .7134   -48.9407     8.6449   144.6936   -48.2271
 7870.5000      .7237  1515.1016      .7177   -49.1007     8.6437   144.0701   -48.1583
 7871.0000      .7310  1503.2715      .7220   -49.2607     8.6426   143.4470   -48.0894
 7871.5000      .7352  1493.5547      .7262   -49.4149     8.6415   143.1140   -48.0206
 7872.0000      .7386  1486.9414      .7305   -49.4440     8.6404   142.9211   -47.9923
 7872.5000      .7419  1480.3301      .7360   -49.4732     8.6393   142.7639   -47.9733
 7873.0000      .7453  1474.2520      .7431   -49.4478     8.6381   142.6458   -47.9542
 7873.5000      .7487  1469.8555      .7502   -49.3616     8.6370   142.6482   -47.9352
 7874.0000      .7521  1465.4570      .7573   -49.2671     8.6359   142.4919   -47.9162
 7874.5000      .7556  1461.0605      .7644   -49.0938     8.6348   141.8828   -47.8781
 7875.0000      .7591  1456.6563      .7715   -48.9208     8.6339   141.2732   -47.8207
 7875.5000      .7644  1449.4863      .7786   -48.7875     8.6344   140.6641   -47.7633
 7876.0000      .7700  1435.9375      .7861   -48.6902     8.6350   140.0540   -47.7059
 7876.5000      .7770  1421.6602      .7995   -48.5931     8.6355   139.4431   -47.6486
 7877.0000      .7859  1406.7051      .8129   -48.5045     8.6361   138.8328   -47.6134
 7877.5000      .7947  1391.7500      .8263   -48.4620     8.6366   138.4761   -47.6161
 7878.0000      .8071  1376.7949      .8397   -48.4196     8.6372   138.2761   -47.6188
 7878.5000      .8218  1361.8418      .8573   -48.4062     8.6377   138.3103   -47.6215
 7879.0000      .8365  1313.8906      .8865   -48.5168     8.6383   138.3445   -47.6434
 7879.5000      .8520  1242.4297      .9157   -48.6873     8.6388   136.8110   -47.7278
 7880.0000      .8676  1170.8672      .9602   -48.9427     8.6393   126.8046   -47.8122
