~VERSION INFORMATION
VERS.                             2.0:   CWLS Log ASCII Standard-VERSION 2.0
WRAP.                              NO:   One line per depth step
~Well Information Block
STRT.F                      2500.0000:   Top Depth
STOP.F                     12867.0000:   Bottom Depth
STEP.F                         .50000:   Depth Increment
NULL.                        -999.250:   Null Value
FLD .                      GA BLK 255:   Field Name
WELL.       OCSG01777  A004 ST00 BP00:   NAME
API .                  42706400140000:   WELL API
EDF .F                        91.0000:   ELEV DRILL FLOOR
COMP.       COASTAL STATES GAS PROD C:   OPERATOR
BN  .                             255:   BLOCK
CTRY.                             USA:   COUNTRY NAME
CNTY.                              GA:   COUNTY
CNTY.                        GLVSTN L:   COUNTY NAME
EKB .F                        92.0000:   ELEV KELLY BUSHING
TDD .F                      12868.000:   FINAL TD DRILLER
STAT.                           TEXAS:   STATE NAME
UWI .                  42706400140000:   WELL API
DICO.               IHS : Digitizing Company
~PARAMETER INFORMATION (zones)
#MNEM.UNIT                       Value     Description
#=========                       =====     ===========
#ZONATION                           IE:   ZONATION NAME
#ZONE                            RUN_1:   ZONE NAME
TOP .                       2500.0000:   TOP DEPTH
BOT .                       8267.5000:   BOTTOM DEPTH
RUN .                               1:   RUN NUMBER
LCCD.                             440:   LOGGING CONTRACTOR
SRVC.                    Schlumberger:   LOGGING CONT NAME
DICO.          QC Data Collectors Ltd:   DIG COMPANY NAME
LDAT.                      05/23/1973:   DATE LOGGED
ELD .F                        92.0000:   LOG DATUM ELEVATION
TDD .F                      8274.0000:   TOTAL DEPTH DRILLER
TDL .F                      8268.0000:   TOTAL DEPTH LOGGER
BOTL.F                      8267.0000:   BOTTOM DEPTH LOGGED
TOPL.F                      2500.0000:   TOP DEPTH LOGGED
CS1 .IN                       13.3750:   CASING SIZE 1
BS1 .IN                       12.2500:   BIT SIZE 1
DDB1.F                      8274.0000:   DEPTH DRILLED BIT 1
BHF .                              99:   FLUID CODE
DPT .                   Miscellaneous:   DRILLING FLUID TYPE
MUDV.                         45.0000:   FLUID VISCOSITY
FL  .                          3.4000:   FLUID LOSS
RM  .OHMM                       .7100:   RM
RMT .DEGF                     82.0000:   RM TEMP
RMF .OHMM                       .4200:   RMF
RMFT.DEGF                     82.0000:   RMF TEMP
FSC .                               M:   RMF CODE
RMC .OHMM                      1.2500:   RMC
RMCT.DEGF                     82.0000:   RMC TEMP
CMC .                               M:   RMC CODE
TMAX.DEGF                     82.0000:   MAX REC TEMP
TIMC.                          6.0000:   TIME SINCE CIRCLN
MUDD.                            NULL:   FLUID DENSITY
DFPH.                            NULL:   FLUID PH
~PARAMETER INFORMATION (zones)
#MNEM.UNIT                       Value     Description
#=========                       =====     ===========
#ZONATION                           IE:   ZONATION NAME
#ZONE                            RUN_2:   ZONE NAME
TOP .                       8273.0000:   TOP DEPTH
BOT .                      12867.5000:   BOTTOM DEPTH
RUN .                               2:   RUN NUMBER
LCCD.                             440:   LOGGING CONTRACTOR
SRVC.                    Schlumberger:   LOGGING CONT NAME
DICO.          QC Data Collectors Ltd:   DIG COMPANY NAME
LDAT.                      06/12/1973:   DATE LOGGED
ELD .F                        92.0000:   LOG DATUM ELEVATION
TDD .F                     12865.0000:   TOTAL DEPTH DRILLER
TDL .F                     12868.0000:   TOTAL DEPTH LOGGER
BOTL.F                     12867.0000:   BOTTOM DEPTH LOGGED
TOPL.F                      8272.0000:   TOP DEPTH LOGGED
CS1 .IN                        9.6250:   CASING SIZE 1
BS1 .IN                        8.5000:   BIT SIZE 1
DDB1.F                     12865.0000:   DEPTH DRILLED BIT 1
BHF .                              11:   FLUID CODE
DPT .         Caustic (high PH) (CLS):   DRILLING FLUID TYPE
MUDV.                         44.0000:   FLUID VISCOSITY
FL  .                          2.6000:   FLUID LOSS
RM  .OHMM                       .9100:   RM
RMT .DEGF                     76.0000:   RM TEMP
RMF .OHMM                       .4600:   RMF
RMFT.DEGF                     78.0000:   RMF TEMP
FSC .                               M:   RMF CODE
RMC .OHMM                      1.3200:   RMC
RMCT.DEGF                     76.0000:   RMC TEMP
CMC .                               C:   RMC CODE
TMAX.DEGF                    248.0000:   MAX REC TEMP
TIMC.                          5.0000:   TIME SINCE CIRCLN
MUDD.                         16.3000:   FLUID DENSITY
DFPH.                         10.5000:   FLUID PH
~PARAMETER INFORMATION (zones)
#MNEM.UNIT                       Value     Description
#=========                       =====     ===========
#ZONATION                        SONIC:   ZONATION NAME
#ZONE                            RUN_1:   ZONE NAME
TOP .                       8272.0000:   TOP DEPTH
BOT .                      12860.5000:   BOTTOM DEPTH
RUN .                               1:   RUN NUMBER
LCCD.                             440:   LOGGING CONTRACTOR
SRVC.                    Schlumberger:   LOGGING CONT NAME
DICO.          QC Data Collectors Ltd:   DIG COMPANY NAME
LDAT.                      06/12/1973:   DATE LOGGED
ELD .F                        92.0000:   LOG DATUM ELEVATION
TDD .F                     12865.0000:   TOTAL DEPTH DRILLER
BOTL.F                     12860.0000:   BOTTOM DEPTH LOGGED
TOPL.F                      8272.0000:   TOP DEPTH LOGGED
CS1 .IN                        9.6250:   CASING SIZE 1
BS1 .IN                        8.5000:   BIT SIZE 1
DDB1.F                     12865.0000:   DEPTH DRILLED BIT 1
BHF .                              11:   FLUID CODE
DPT .         Caustic (high PH) (CLS):   DRILLING FLUID TYPE
MUDD.                         16.3000:   FLUID DENSITY
MUDV.                         44.0000:   FLUID VISCOSITY
DFPH.                         10.5000:   FLUID PH
FL  .                          2.6000:   FLUID LOSS
RM  .OHMM                       .9100:   RM
RMT .DEGF                     76.0000:   RM TEMP
RMF .OHMM                       .4600:   RMF
RMFT.DEGF                     78.0000:   RMF TEMP
FSC .                               M:   RMF CODE
RMC .OHMM                      1.3200:   RMC
RMCT.DEGF                     76.0000:   RMC TEMP
CMC .                               C:   RMC CODE
TMAX.DEGF                    248.0000:   MAX REC TEMP
TIMC.                         10.0000:   TIME SINCE CIRCLN
~Curve Information Block
#MNEM.UNIT                    API CODE    No Description
#=========                    ========    == ===========
DEPT.F                   00 001 00 00:     1  DEPTH
ASN.OHMM                             :     2  Short-Normal Resistivity
ILD.OHMM                             :     3  Deep Induction Resistivity
SP.MV                                :     4  Spontaneous Potential
CALI.IN                              :     5  Caliper
DT.US/F                              :     6  Sonic Transit Time
~ASCII
# ...
 3171.0000      .8553      .6716   -83.9833  -999.2500  -999.2500
 3171.5000      .8786      .6820   -84.7188  -999.2500  -999.2500
 3172.0000      .9039      .6871   -84.9949  -999.2500  -999.2500
 3172.5000      .9224      .6817   -84.9473  -999.2500  -999.2500
 3173.0000      .9409      .6708   -85.6542  -999.2500  -999.2500
 3173.5000      .9546      .6625   -86.7008  -999.2500  -999.2500
 3174.0000      .9650      .6581   -87.6920  -999.2500  -999.2500
 3174.5000      .9737      .6566   -88.5988  -999.2500  -999.2500
 3175.0000      .9815      .6557   -89.3065  -999.2500  -999.2500
 3175.5000      .9865      .6549   -89.9828  -999.2500  -999.2500
 3176.0000      .9863      .6509   -90.4255  -999.2500  -999.2500
 3176.5000      .9726      .6428   -89.6102  -999.2500  -999.2500
 3177.0000      .9515      .6335   -88.3278  -999.2500  -999.2500
 3177.5000      .9289      .6271   -87.1117  -999.2500  -999.2500
 3178.0000      .9119      .6210   -85.8641  -999.2500  -999.2500
 3178.5000      .8996      .6201   -84.5817  -999.2500  -999.2500
 3179.0000      .8881      .6228   -83.3014  -999.2500  -999.2500
 3179.5000      .8717      .6344   -82.2423  -999.2500  -999.2500
 3180.0000      .8553      .6472   -81.3115  -999.2500  -999.2500
 3180.5000      .8397      .6600   -80.4659  -999.2500  -999.2500
 3181.0000      .8281      .6680   -79.9557  -999.2500  -999.2500
 3181.5000      .8350      .6766   -79.8567  -999.2500  -999.2500
 3182.0000      .8460      .6862   -80.1262  -999.2500  -999.2500
 3182.5000      .8558      .6932   -80.4690  -999.2500  -999.2500
 3183.0000      .8640      .6978   -80.8307  -999.2500  -999.2500
 3183.5000      .8720      .7043   -81.1881  -999.2500  -999.2500
 3184.0000      .8781      .7154   -81.6006  -999.2500  -999.2500
 3184.5000      .8801      .7248   -81.7273  -999.2500  -999.2500
 3185.0000      .8789      .7306   -81.1216  -999.2500  -999.2500
 3185.5000      .8737      .7329   -80.5214  -999.2500  -999.2500
 3186.0000      .8655      .7325   -80.0366  -999.2500  -999.2500
 3186.5000      .8565      .7352   -79.7008  -999.2500  -999.2500
 3187.0000      .8480      .7309   -79.5571  -999.2500  -999.2500
 3187.5000      .8408      .7224   -79.6982  -999.2500  -999.2500
 3188.0000      .8382      .7162   -79.9103  -999.2500  -999.2500
 3188.5000      .8383      .7098   -80.1443  -999.2500  -999.2500
 3189.0000      .8400      .7026   -80.3097  -999.2500  -999.2500
 3189.5000      .8420      .6998   -79.7441  -999.2500  -999.2500
 3190.0000      .8435      .7010   -79.4058  -999.2500  -999.2500
 3190.5000      .8441      .6995   -79.0851  -999.2500  -999.2500
 3191.0000      .8403      .6963   -79.1906  -999.2500  -999.2500
 3191.5000      .8234      .6927   -79.3530  -999.2500  -999.2500
 3192.0000      .8047      .6892   -79.3541  -999.2500  -999.2500
 3192.5000      .8060      .6856   -79.3375  -999.2500  -999.2500
 3193.0000      .8104      .6821   -79.3506  -999.2500  -999.2500
 3193.5000      .8126      .6769   -79.3635  -999.2500  -999.2500
 3194.0000      .8128      .6707   -79.3766  -999.2500  -999.2500
 3194.5000      .8097      .6655   -79.3895  -999.2500  -999.2500
 3195.0000      .8060      .6613   -79.4026  -999.2500  -999.2500
 3195.5000      .8016      .6586   -79.4617  -999.2500  -999.2500
 3196.0000      .7997      .6558   -79.6028  -999.2500  -999.2500
 3196.5000      .7991      .6526   -79.8317  -999.2500  -999.2500
 3197.0000      .7974      .6494   -80.0992  -999.2500  -999.2500
 3197.5000      .7952      .6460   -80.4353  -999.2500  -999.2500
 3198.0000      .7890      .6431   -80.7582  -999.2500  -999.2500
 3198.5000      .7828      .6405   -81.1755  -999.2500  -999.2500
 3199.0000      .7768      .6397   -81.1807  -999.2500  -999.2500
 3199.5000      .7709      .6389   -80.8446  -999.2500  -999.2500
 3200.0000      .7657      .6382   -80.4385  -999.2500  -999.2500
 3200.5000      .7605      .6365   -80.1940  -999.2500  -999.2500
 3201.0000      .7572      .6343   -80.0035  -999.2500  -999.2500
 3201.5000      .7544      .6314   -79.8832  -999.2500  -999.2500
 3202.0000      .7521      .6273   -79.7937  -999.2500  -999.2500
 3202.5000      .7499      .6236   -79.6915  -999.2500  -999.2500
 3203.0000      .7487      .6212   -79.5667  -999.2500  -999.2500
 3203.5000      .7478      .6214   -79.4374  -999.2500  -999.2500
 3204.0000      .7468      .6295   -79.2703  -999.2500  -999.2500
 3204.5000      .7460      .6375   -78.9521  -999.2500  -999.2500
 3205.0000      .7459      .6398   -78.5350  -999.2500  -999.2500
 3205.5000      .7497      .6416   -78.0498  -999.2500  -999.2500
 3206.0000      .7628      .6437   -77.8958  -999.2500  -999.2500
 3206.5000      .7771      .6431   -78.8337  -999.2500  -999.2500
 3207.0000      .7955      .6409   -80.5807  -999.2500  -999.2500
 3207.5000      .8093      .6370   -81.8840  -999.2500  -999.2500
 3208.0000      .8094      .6311   -81.1522  -999.2500  -999.2500
 3208.5000      .7819      .6216   -79.6648  -999.2500  -999.2500
 3209.0000      .7576      .6030   -78.7548  -999.2500  -999.2500
 3209.5000      .7628      .5965   -78.1716  -999.2500  -999.2500
 3210.0000      .7793      .6001   -79.9104  -999.2500  -999.2500
 3210.5000      .7970      .6014   -82.8873  -999.2500  -999.2500
 3211.0000      .8211      .5968   -85.8734  -999.2500  -999.2500
 3211.5000      .8497      .5926   -88.2695  -999.2500  -999.2500
 3212.0000      .8620      .5970   -89.0369  -999.2500  -999.2500
 3212.5000      .8512      .6150   -86.7469  -999.2500  -999.2500
 3213.0000      .8273      .6268   -84.3979  -999.2500  -999.2500
 3213.5000      .8069      .6263   -82.7081  -999.2500  -999.2500
 3214.0000      .7929      .6213   -80.7649  -999.2500  -999.2500
 3214.5000      .7885      .6162   -79.5895  -999.2500  -999.2500
 3215.0000      .7858      .6132   -78.8582  -999.2500  -999.2500
 3215.5000      .7860      .6128   -78.4060  -999.2500  -999.2500
 3216.0000      .7897      .6142   -78.0770  -999.2500  -999.2500
 3216.5000      .7934      .6175   -77.8676  -999.2500  -999.2500
 3217.0000      .7971      .6208   -78.2423  -999.2500  -999.2500
 3217.5000      .8008      .6242   -79.4845  -999.2500  -999.2500
 3218.0000      .8007      .6269   -79.0247  -999.2500  -999.2500
 3218.5000      .7996      .6282   -78.6733  -999.2500  -999.2500
 3219.0000      .7976      .6294   -78.0483  -999.2500  -999.2500
 3219.5000      .7923      .6268   -77.3304  -999.2500  -999.2500
 3220.0000      .7854      .6252   -76.8877  -999.2500  -999.2500
 3220.5000      .7783      .6270   -77.1135  -999.2500  -999.2500
 3221.0000      .7702      .6277   -77.3854  -999.2500  -999.2500
 3221.5000      .7623      .6273   -77.5135  -999.2500  -999.2500
 3222.0000      .7553      .6246   -77.6399  -999.2500  -999.2500
 3222.5000      .7485      .6199   -77.7654  -999.2500  -999.2500
 3223.0000      .7422      .6165   -77.8937  -999.2500  -999.2500
 3223.5000      .7371      .6138   -78.0841  -999.2500  -999.2500
 3224.0000      .7331      .6110   -78.3180  -999.2500  -999.2500
 3224.5000      .7316      .6066   -78.4736  -999.2500  -999.2500
 3225.0000      .7314      .5993   -77.9545  -999.2500  -999.2500
 3225.5000      .7320      .5926   -77.4946  -999.2500  -999.2500
 3226.0000      .7352      .5969   -77.0270  -999.2500  -999.2500
 3226.5000      .7429      .6030   -76.4928  -999.2500  -999.2500
 3227.0000      .7350      .6127   -75.9960  -999.2500  -999.2500
 3227.5000      .7284      .6308   -75.5214  -999.2500  -999.2500
 3228.0000      .7418      .6598   -75.6809  -999.2500  -999.2500
 3228.5000      .7678      .6890   -76.4801  -999.2500  -999.2500
 3229.0000      .8037      .7182   -77.3988  -999.2500  -999.2500
 3229.5000      .8524      .7492   -78.7838  -999.2500  -999.2500
 3230.0000      .9165      .7740   -80.8346  -999.2500  -999.2500
 3230.5000      .9558      .7844   -82.0626  -999.2500  -999.2500
 3231.0000      .9842      .7772   -82.1920  -999.2500  -999.2500
 3231.5000      .9930      .7503   -82.4653  -999.2500  -999.2500
