~VERSION INFORMATION
VERS.                             2.0:   CWLS Log ASCII Standard-VERSION 2.0
WRAP.                              NO:   One line per depth step
~Well Information Block
STRT.F                      3138.0000:   Top Depth
STOP.F                      8628.0000:   Bottom Depth
STEP.F                         .50000:   Depth Increment
NULL.                        -999.250:   Null Value
FLD .                      BA BLK 376:   Field Name
WELL.       OCSG07215   003 ST00 BP00:   NAME
API .                  42704401900000:   WELL API
EDF .F                        90.0000:   ELEV DRILL FLOOR
COMP.         UNION EXPL PARTNERS LTD:   OPERATOR
BN  .                             376:   BLOCK
CTRY.                             USA:   COUNTRY NAME
CNTY.                        BRAZOS L:   COUNTY NAME
EKB .F                        91.0000:   ELEV KELLY BUSHING
TDD .F                       8678.000:   FINAL TD DRILLER
STAT.                           TEXAS:   STATE NAME
UWI .                  42704401900000:   WELL API
DICO.               IHS : Digitizing Company
~PARAMETER INFORMATION (zones)
#MNEM.UNIT                       Value     Description
#=========                       =====     ===========
#ZONATION                          DIL:   ZONATION NAME
#ZONE                            RUN_1:   ZONE NAME
TOP .                       3138.0000:   TOP DEPTH
BOT .                       5660.5000:   BOTTOM DEPTH
RUN .                               1:   RUN NUMBER
SRVC.                               0:   LOGGING CONTRACTOR
SRVC.                         UNKNOWN:   LOGGING CONT NAME
DICO.          QC Data Collectors Ltd:   DIG COMPANY NAME
LDAT.                      06/22/1989:   DATE LOGGED
ELD .F                        91.0000:   LOG DATUM ELEVATION
TDD .F                      5675.0000:   TOTAL DEPTH DRILLER
TDL .F                      5662.0000:   TOTAL DEPTH LOGGER
BOTL.F                      5660.0000:   BOTTOM DEPTH LOGGED
TOPL.F                      3220.0000:   TOP DEPTH LOGGED
CS1 .IN                       10.7500:   CASING SIZE 1
BS1 .IN                        9.8750:   BIT SIZE 1
DDB1.F                      5675.0000:   DEPTH DRILLED BIT 1
BHF .                              20:   FLUID CODE
DPT .                    Gel (Gelchem:   DRILLING FLUID TYPE
MUDD.                          9.0000:   FLUID DENSITY
MUDV.                         68.0000:   FLUID VISCOSITY
DFPH.                          9.0000:   FLUID PH
FL  .                         12.0000:   FLUID LOSS
RM  .OHMM                      1.0500:   RM
RMT .DEGF                     75.0000:   RM TEMP
RMF .OHMM                       .8200:   RMF
RMFT.DEGF                     75.0000:   RMF TEMP
FSC .                               M:   RMF CODE
RMC .OHMM                      1.2200:   RMC
RMCT.DEGF                     75.0000:   RMC TEMP
CMC .                               M:   RMC CODE
TMAX.DEGF                    128.0000:   MAX REC TEMP
TIMC.                          7.0000:   TIME SINCE CIRCLN
~PARAMETER INFORMATION (zones)
#MNEM.UNIT                       Value     Description
#=========                       =====     ===========
#ZONATION                          DIL:   ZONATION NAME
#ZONE                            RUN_2:   ZONE NAME
TOP .                       5664.0000:   TOP DEPTH
BOT .                       8628.5000:   BOTTOM DEPTH
RUN .                               2:   RUN NUMBER
SRVC.                               0:   LOGGING CONTRACTOR
SRVC.                         UNKNOWN:   LOGGING CONT NAME
DICO.          QC Data Collectors Ltd:   DIG COMPANY NAME
LDAT.                      07/04/1989:   DATE LOGGED
ELD .F                        91.0000:   LOG DATUM ELEVATION
TDD .F                      8678.0000:   TOTAL DEPTH DRILLER
TDL .F                      8630.0000:   TOTAL DEPTH LOGGER
BOTL.F                      8628.0000:   BOTTOM DEPTH LOGGED
TOPL.F                      5664.0000:   TOP DEPTH LOGGED
CS1 .IN                        7.6250:   CASING SIZE 1
BS1 .IN                        6.5000:   BIT SIZE 1
DDB1.F                      8678.0000:   DEPTH DRILLED BIT 1
BHF .                              81:   FLUID CODE
DPT .          Lignosulfonate (Ligno):   DRILLING FLUID TYPE
MUDD.                         11.8000:   FLUID DENSITY
MUDV.                         48.0000:   FLUID VISCOSITY
DFPH.                         10.5000:   FLUID PH
FL  .                          6.6000:   FLUID LOSS
RM  .OHMM                       .7200:   RM
RMT .DEGF                     70.0000:   RM TEMP
RMF .OHMM                       .5900:   RMF
RMFT.DEGF                     70.0000:   RMF TEMP
FSC .                               M:   RMF CODE
RMC .OHMM                       .9000:   RMC
RMCT.DEGF                     70.0000:   RMC TEMP
CMC .                               C:   RMC CODE
TMAX.DEGF                    191.0000:   MAX REC TEMP
TIMC.                          5.0000:   TIME SINCE CIRCLN
~Curve Information Block
#MNEM.UNIT                    API CODE    No Description
#=========                    ========    == ===========
DEPT.F                   00 001 00 00:     1  DEPTH
DT.US/F                              :     2  Sonic Transit Time
GR.GAPI                              :     3  Gamma Ray
ILD.OHMM                             :     4  Deep Induction Resistivity
ILM.OHMM                             :     5  Medium Induction Resistivity
RFOC.OHMM                            :     6  Medium Resistivity
SP.MV                                :     7  Spontaneous Potential
~ASCII
# ...
 5010.0000   121.5675    86.5485      .3714      .3115      .4157  -103.6869
 5010.5000   119.9943    81.0514      .3429      .2950      .4109  -111.3672
 5011.0000   117.5413    74.5070      .3190      .2821      .4283  -121.6423
 5011.5000   115.0857    69.2028      .2955      .2706      .4668  -131.8809
 5012.0000   116.0575    64.2788      .2749      .2596      .4986  -139.5715
 5012.5000   117.9305    60.4882      .2581      .2490      .4761  -142.1118
 5013.0000   119.9054    57.8360      .2441      .2413      .4540  -142.6091
 5013.5000   121.6956    55.3727      .2327      .2372      .4437  -142.2825
 5014.0000   120.1354    56.0983      .2242      .2403      .4466  -140.3142
 5014.5000   116.1281    58.6775      .2178      .2512      .4798  -134.4185
 5015.0000   113.9636    62.1477      .2168      .2672      .4949  -125.0187
 5015.5000   112.6941    66.4099      .2224      .2847      .4679  -111.2682
 5016.0000   112.4557    70.0104      .2309      .3043      .4289  -100.1334
 5016.5000   114.3516    74.3507      .2437      .3239      .4168   -92.4141
 5017.0000   116.1998    78.6442      .2631      .3482      .4315   -91.5022
 5017.5000   116.4977    82.2837      .2861      .3764      .4548   -91.9467
 5018.0000   115.6565    85.0270      .3159      .3975      .4692   -91.0332
 5018.5000   114.5358    86.3770      .3594      .4141      .4677   -88.8722
 5019.0000   113.6411    86.3674      .3993      .4278      .4626   -87.1586
 5019.5000   113.4484    87.7612      .4352      .4375      .4615   -86.1067
 5020.0000   114.1133    88.8557      .4628      .4359      .4659   -85.2255
 5020.5000   114.8492    88.9592      .4756      .4323      .4691   -84.5947
 5021.0000   115.7029    88.6268      .4765      .4284      .4715   -84.1697
 5021.5000   116.7889    87.4043      .4737      .4205      .4719   -84.0227
 5022.0000   118.1343    85.9441      .4691      .4096      .4693   -84.5469
 5022.5000   119.8428    85.7520      .4595      .3917      .4547   -85.9113
 5023.0000   120.7832    86.5836      .4446      .3664      .4328   -88.3499
 5023.5000   118.9363    87.1418      .4200      .3378      .4176  -101.2068
 5024.0000   115.6473    87.5840      .3873      .3161      .4289  -116.4631
 5024.5000   111.7654    86.7830      .3548      .3030      .4790  -125.4877
 5025.0000   108.0637    77.3363      .3274      .3033      .5143  -130.8362
 5025.5000   105.0360    68.5410      .3104      .3115      .5031  -132.6143
 5026.0000    99.5919    63.6171      .3017      .3193      .4848  -129.7864
 5026.5000    90.5062    60.2641      .2997      .3255      .5635  -124.1954
 5027.0000    76.4414    58.2685      .2982      .3267      .7990  -120.6055
 5027.5000    73.2465    56.8871      .2973      .3240      .9645  -118.3818
 5028.0000    82.6431    57.8152      .2968      .3204      .7134  -115.1500
 5028.5000    90.6995    62.0331      .2990      .3167      .5082  -110.9686
 5029.0000   103.0088    67.2227      .3020      .3102      .4306  -107.2118
 5029.5000   109.3855    72.9542      .2985      .3018      .3708  -106.9487
 5030.0000   111.7894    76.9058      .2912      .2927      .4009  -120.1417
 5030.5000   111.4716    76.2343      .2822      .2835      .4535  -129.0100
 5031.0000   111.0571    69.7810      .2732      .2737      .4961  -135.2991
 5031.5000   111.1431    65.1907      .2639      .2650      .4861  -139.9937
 5032.0000   112.1180    62.2676      .2545      .2583      .4709  -141.8948
 5032.5000   113.5614    60.5637      .2463      .2535      .4662  -142.1240
 5033.0000   114.8317    59.1530      .2401      .2535      .4642  -141.7881
 5033.5000   115.4902    58.0776      .2359      .2621      .4605  -140.8618
 5034.0000   113.9597    58.8534      .2345      .2738      .4544  -138.9229
 5034.5000   106.0706    60.6171      .2359      .2890      .4491  -135.4814
 5035.0000    99.1531    61.7146      .2424      .3052      .4499  -130.4636
 5035.5000    95.2280    62.2620      .2531      .3208      .4572  -124.1642
 5036.0000    96.1384    64.9562      .2679      .3316      .4638  -111.5444
 5036.5000   102.4237    69.9999      .2837      .3310      .4458  -105.8051
 5037.0000   106.1123    74.1840      .2996      .3165      .4113  -107.8553
 5037.5000   106.3969    78.1934      .3106      .3001      .3909  -115.4001
 5038.0000   106.5027    75.6064      .3141      .2848      .4619  -124.9874
 5038.5000   106.5959    67.4833      .3095      .2726      .5028  -132.6052
 5039.0000   106.8748    62.7782      .2946      .2651      .4936  -135.8044
 5039.5000   107.4191    60.5742      .2799      .2621      .4783  -137.6399
 5040.0000   109.6102    58.9367      .2659      .2632      .4605  -137.9106
 5040.5000   114.2262    58.5378      .2566      .2711      .4451  -135.2964
 5041.0000   117.1207    58.1750      .2514      .2921      .4363  -131.0212
 5041.5000   115.9033    58.0168      .2505      .3217      .4643  -126.4880
 5042.0000   110.6838    57.9243      .2602      .3483      .5248  -121.5537
 5042.5000   102.8521    57.8719      .2771      .3683      .5962  -116.6715
 5043.0000    95.4017    57.8634      .2961      .3858      .6165  -112.7402
 5043.5000    90.4148    57.9388      .3160      .3999      .5771  -110.4733
 5044.0000    91.2377    58.8625      .3369      .3858      .4934  -113.1544
 5044.5000   100.5532    62.0852      .3581      .3768      .4613  -119.3289
 5045.0000   108.7612    64.0404      .3635      .3681      .4844  -125.1411
 5045.5000   115.1615    60.3448      .3622      .3628      .5032  -126.2015
 5046.0000   120.4645    56.5204      .3608      .3638      .4695  -119.7405
 5046.5000   124.0121    54.2486      .3622      .3694      .4713  -103.1503
 5047.0000   125.4391    59.4226      .3659      .3764      .5164   -96.6007
 5047.5000   126.5264    66.2900      .3697      .3845      .5006   -90.0823
 5048.0000   128.5496    70.9795      .3737      .3942      .4609   -88.1974
 5048.5000   131.6399    73.5548      .3784      .4042      .4429   -90.0354
 5049.0000   128.2021    75.3407      .3839      .3984      .4566   -94.1777
 5049.5000   121.9221    76.6074      .3861      .3769      .5049   -98.7109
 5050.0000   113.6254    76.8973      .3735      .3497      .4762  -104.1090
 5050.5000   108.3302    74.0068      .3591      .3318      .4506  -118.3441
 5051.0000   104.7461    69.4371      .3396      .3241      .5014  -126.4568
 5051.5000   102.0266    64.5809      .3252      .3196      .5632  -132.5635
 5052.0000   100.8687    61.1343      .3147      .3179      .5731  -134.5798
 5052.5000   100.5485    60.0430      .3067      .3172      .5629  -130.7034
 5053.0000   101.3330    61.4990      .3013      .3170      .5423  -121.4131
 5053.5000   103.0833    64.6877      .2980      .3177      .4723  -113.7015
 5054.0000   105.8224    69.6925      .2969      .3200      .4051  -105.1563
 5054.5000   108.5470    72.5557      .2971      .3259      .4312  -101.9375
 5055.0000   110.2855    74.8743      .2987      .3360      .4747  -101.3416
 5055.5000   110.9086    77.5577      .3031      .3483      .4625  -100.5991
 5056.0000   110.2366    79.3293      .3093      .3611      .4340   -99.1121
 5056.5000   108.7234    78.7242      .3174      .3723      .4183  -100.8524
 5057.0000   106.1671    78.1785      .3285      .3821      .4321  -110.0854
 5057.5000   101.5459    74.8405      .3395      .3913      .4883  -117.9454
 5058.0000    92.9043    67.0977      .3505      .3986      .5891  -120.9154
 5058.5000    84.5605    60.2667      .3600      .3909      .6746  -122.3718
 5059.0000    81.0417    57.9344      .3680      .3785      .7046  -124.3831
 5059.5000    84.0381    58.0829      .3708      .3671      .6656  -126.8580
 5060.0000    89.4482    58.4080      .3661      .3611      .5883  -129.3616
 5060.5000    93.0819    57.6888      .3609      .3584      .5516  -131.1099
 5061.0000    96.4036    56.7881      .3572      .3595      .5601  -130.3125
 5061.5000    98.2452    56.1869      .3559      .3729      .5751  -126.0087
