~VERSION INFORMATION
VERS.                             2.0:   CWLS Log ASCII Standard-VERSION 2.0
WRAP.                              NO:   One line per depth step
~Well Information Block
STRT.F                      2726.0000:   Top Depth
STOP.F                     13125.0000:   Bottom Depth
STEP.F                         .50000:   Depth Increment
NULL.                        -999.250:   Null Value
FLD .                      GA BLK 255:   Field Name
WELL.       OCSG01777  A007 ST00 BP00:   NAME
API .                  42706400190000:   WELL API
EDF .F                        92.0000:   ELEV DRILL FLOOR
COMP.       COASTAL STATES GAS PROD C:   OPERATOR
BN  .                             255:   BLOCK
CTRY.                             USA:   COUNTRY NAME
CNTY.                              GA:   COUNTY
CNTY.                        GLVSTN L:   COUNTY NAME
EKB .F                        93.0000:   ELEV KELLY BUSHING
TDD .F                      13136.000:   FINAL TD DRILLER
STAT.                           TEXAS:   STATE NAME
UWI .                  42706400190000:   WELL API
DICO.               IHS : Digitizing Company
~PARAMETER INFORMATION (zones)
#MNEM.UNIT                       Value     Description
#=========                       =====     ===========
#ZONATION                           IE:   ZONATION NAME
#ZONE                            RUN_1:   ZONE NAME
TOP .                       2726.0000:   TOP DEPTH
BOT .                       8780.5000:   BOTTOM DEPTH
RUN .                               1:   RUN NUMBER
LCCD.                             440:   LOGGING CONTRACTOR
SRVC.                    Schlumberger:   LOGGING CONT NAME
DICO.          QC Data Collectors Ltd:   DIG COMPANY NAME
LDAT.                      09/02/1973:   DATE LOGGED
ELD .F                        93.0000:   LOG DATUM ELEVATION
TDD .F                      8829.0000:   TOTAL DEPTH DRILLER
TDL .F                      8822.0000:   TOTAL DEPTH LOGGER
BOTL.F                      8821.0000:   BOTTOM DEPTH LOGGED
TOPL.F                      2726.0000:   TOP DEPTH LOGGED
CS1 .IN                       13.6250:   CASING SIZE 1
BS1 .IN                       12.2500:   BIT SIZE 1
DDB1.F                      8829.0000:   DEPTH DRILLED BIT 1
BHF .                              81:   FLUID CODE
DPT .          Lignosulfonate (Ligno):   DRILLING FLUID TYPE
MUDD.                         12.2000:   FLUID DENSITY
MUDV.                         44.0000:   FLUID VISCOSITY
DFPH.                         10.5000:   FLUID PH
FL  .                          2.0000:   FLUID LOSS
RM  .OHMM                       .9600:   RM
RMT .DEGF                     74.0000:   RM TEMP
RMF .OHMM                       .5900:   RMF
RMFT.DEGF                     71.0000:   RMF TEMP
FSC .                               M:   RMF CODE
RMC .OHMM                      1.8100:   RMC
RMCT.DEGF                     71.0000:   RMC TEMP
CMC .                               M:   RMC CODE
TMAX.DEGF                    160.0000:   MAX REC TEMP
TIMC.                         24.0000:   TIME SINCE CIRCLN
~PARAMETER INFORMATION (zones)
#MNEM.UNIT                       Value     Description
#=========                       =====     ===========
#ZONATION                           IE:   ZONATION NAME
#ZONE                            RUN_2:   ZONE NAME
TOP .                       8780.0000:   TOP DEPTH
BOT .                       9333.5000:   BOTTOM DEPTH
RUN .                               2:   RUN NUMBER
LCCD.                             440:   LOGGING CONTRACTOR
SRVC.                    Schlumberger:   LOGGING CONT NAME
DICO.          QC Data Collectors Ltd:   DIG COMPANY NAME
LDAT.                      09/09/1973:   DATE LOGGED
ELD .F                        93.0000:   LOG DATUM ELEVATION
TDD .F                      9340.0000:   TOTAL DEPTH DRILLER
TDL .F                      9334.0000:   TOTAL DEPTH LOGGER
BOTL.F                      9333.0000:   BOTTOM DEPTH LOGGED
TOPL.F                      8821.0000:   TOP DEPTH LOGGED
CS1 .IN                       13.3750:   CASING SIZE 1
BS1 .IN                       12.2500:   BIT SIZE 1
DDB1.F                      9340.0000:   DEPTH DRILLED BIT 1
BHF .                              99:   FLUID CODE
DPT .                   Miscellaneous:   DRILLING FLUID TYPE
MUDD.                         12.3000:   FLUID DENSITY
MUDV.                         46.0000:   FLUID VISCOSITY
DFPH.                         10.5000:   FLUID PH
FL  .                          3.2000:   FLUID LOSS
RM  .OHMM                       .6500:   RM
RMT .DEGF                     82.0000:   RM TEMP
RMF .OHMM                       .5000:   RMF
RMFT.DEGF                     82.0000:   RMF TEMP
FSC .                               M:   RMF CODE
RMC .OHMM                       .9600:   RMC
RMCT.DEGF                     82.0000:   RMC TEMP
CMC .                               M:   RMC CODE
TMAX.DEGF                    160.0000:   MAX REC TEMP
TIMC.                          4.0000:   TIME SINCE CIRCLN
~PARAMETER INFORMATION (zones)
#MNEM.UNIT                       Value     Description
#=========                       =====     ===========
#ZONATION                           IE:   ZONATION NAME
#ZONE                            RUN_3:   ZONE NAME
TOP .                       9343.0000:   TOP DEPTH
BOT .                      13125.5000:   BOTTOM DEPTH
RUN .                               3:   RUN NUMBER
LCCD.                             440:   LOGGING CONTRACTOR
SRVC.                    Schlumberger:   LOGGING CONT NAME
DICO.          QC Data Collectors Ltd:   DIG COMPANY NAME
LDAT.                      09/22/1973:   DATE LOGGED
ELD .F                        93.0000:   LOG DATUM ELEVATION
TDD .F                     13136.0000:   TOTAL DEPTH DRILLER
TDL .F                     13126.0000:   TOTAL DEPTH LOGGER
BOTL.F                     13125.0000:   BOTTOM DEPTH LOGGED
TOPL.F                      9343.0000:   TOP DEPTH LOGGED
CS1 .IN                        9.6250:   CASING SIZE 1
BS1 .IN                        8.5000:   BIT SIZE 1
DDB1.F                     13136.0000:   DEPTH DRILLED BIT 1
BHF .                              99:   FLUID CODE
DPT .                   Miscellaneous:   DRILLING FLUID TYPE
MUDD.                         16.5000:   FLUID DENSITY
MUDV.                         46.0000:   FLUID VISCOSITY
DFPH.                         11.0000:   FLUID PH
FL  .                          2.2000:   FLUID LOSS
RM  .OHMM                       .6100:   RM
RMT .DEGF                     80.0000:   RM TEMP
RMF .OHMM                       .2300:   RMF
RMFT.DEGF                     80.0000:   RMF TEMP
FSC .                               M:   RMF CODE
RMC .OHMM                      1.0000:   RMC
RMCT.DEGF                     80.0000:   RMC TEMP
CMC .                               M:   RMC CODE
TMAX.DEGF                    232.0000:   MAX REC TEMP
TIMC.                          7.0000:   TIME SINCE CIRCLN
~PARAMETER INFORMATION (zones)
#MNEM.UNIT                       Value     Description
#=========                       =====     ===========
#ZONATION                        SONIC:   ZONATION NAME
#ZONE                            RUN_1:   ZONE NAME
TOP .                       9343.0000:   TOP DEPTH
BOT .                      13014.5000:   BOTTOM DEPTH
RUN .                               1:   RUN NUMBER
LCCD.                             440:   LOGGING CONTRACTOR
SRVC.                    Schlumberger:   LOGGING CONT NAME
DICO.          QC Data Collectors Ltd:   DIG COMPANY NAME
LDAT.                      09/22/1973:   DATE LOGGED
ELD .F                        93.0000:   LOG DATUM ELEVATION
TDD .F                     13136.0000:   TOTAL DEPTH DRILLER
TDL .F                     13126.0000:   TOTAL DEPTH LOGGER
BOTL.F                     13014.0000:   BOTTOM DEPTH LOGGED
TOPL.F                      9343.0000:   TOP DEPTH LOGGED
CS1 .IN                        9.6250:   CASING SIZE 1
BS1 .IN                        8.5000:   BIT SIZE 1
DDB1.F                     13136.0000:   DEPTH DRILLED BIT 1
BHF .                              99:   FLUID CODE
DPT .                   Miscellaneous:   DRILLING FLUID TYPE
MUDD.                         16.5000:   FLUID DENSITY
MUDV.                         46.0000:   FLUID VISCOSITY
DFPH.                         11.0000:   FLUID PH
FL  .                          2.2000:   FLUID LOSS
RM  .OHMM                       .6100:   RM
RMT .DEGF                     80.0000:   RM TEMP
RMF .OHMM                       .2400:   RMF
RMFT.DEGF                     80.0000:   RMF TEMP
FSC .                               M:   RMF CODE
RMC .OHMM                      1.0000:   RMC
RMCT.DEGF                     80.0000:   RMC TEMP
CMC .                               M:   RMC CODE
TMAX.DEGF                    232.0000:   MAX REC TEMP
TIMC.                          6.0000:   TIME SINCE CIRCLN
~Curve Information Block
#MNEM.UNIT                    API CODE    No Description
#=========                    ========    == ===========
DEPT.F                   00 001 00 00:     1  DEPTH
ASN.OHMM                             :     2  Short-Normal Resistivity
ILD.OHMM                             :     3  Deep Induction Resistivity
SP.MV                                :     4  Spontaneous Potential
CALI.IN                              :     5  Caliper
DT.US/F                              :     6  Sonic Transit Time
~ASCII
# ...
11632.0000      .6237      .4695   -42.9701     9.8901   113.1348
11632.5000      .6129      .4709   -43.1881     9.8283   114.9498
11633.0000      .6025      .4763   -43.0937     9.7739   115.2737
11633.5000      .5955      .4807   -42.8886     9.7982   113.5452
11634.0000      .5915      .4840   -42.6024     9.8776   111.8340
11634.5000      .5906      .4860   -42.3207     9.9364   110.2786
11635.0000      .5938      .4879   -42.0886     9.9854   108.9086
11635.5000      .6068      .4896   -41.9968    10.0154   109.3278
11636.0000      .6280      .4909   -42.0877    10.0151   108.6687
11636.5000      .6371      .4908   -42.3312    10.0132   111.3196
11637.0000      .6320      .4908   -42.5335    10.0219   113.2040
11637.5000      .6261      .4869   -42.6765    10.0244   114.6852
11638.0000      .6196      .4803   -42.5400    10.0062   115.8944
11638.5000      .6125      .4735   -42.3103     9.9746   113.4908
11639.0000      .6040      .4664   -42.0237     9.9249   111.4828
11639.5000      .6041      .4616   -41.8030     9.8657   109.9744
11640.0000      .6112      .4591   -41.6357     9.8241   109.5045
11640.5000      .6122      .4589   -41.5304     9.8083   112.6055
11641.0000      .6110      .4589   -41.4832     9.7996   114.7371
11641.5000      .6101      .4588   -41.5641     9.7950   116.2950
11642.0000      .6099      .4732   -41.7820     9.7883   117.5240
11642.5000      .6118      .4988   -42.0926     9.7676   118.5231
11643.0000      .6198      .5299   -42.5034     9.6808   115.4889
11643.5000      .6584      .5694   -43.0482     9.5435   108.9111
11644.0000      .7373      .5960   -43.7259     9.2896   100.8496
11644.5000      .7529      .6265   -44.8795     8.9881    94.2075
11645.0000      .7773      .6444   -46.9014     8.9120    94.5686
11645.5000      .8921      .6479   -50.1384     8.9836    97.5112
11646.0000      .9098      .6362   -52.7137     9.4654   103.1049
11646.5000      .7982      .6166   -53.6730     9.8996   110.0288
11647.0000      .7258      .5896   -51.6339    10.1353   112.5066
11647.5000      .6675      .5537   -48.6970    10.1960   114.5986
11648.0000      .6108      .5169   -46.7538    10.2309   117.7343
11648.5000      .5730      .4756   -45.3936    10.2630   120.7906
11649.0000      .5501      .4346   -44.6064    10.2442   123.0211
11649.5000      .5358      .4057   -44.0837    10.1380   124.3788
11650.0000      .5231      .3963   -43.7339    10.0366   124.1958
11650.5000      .5095      .3933   -43.4141     9.9962   122.6775
11651.0000      .4952      .3908   -43.1282     9.9692   121.3000
11651.5000      .4888      .3901   -42.8773     9.9426   120.7745
11652.0000      .4887      .3897   -42.7205     9.9277   120.6077
11652.5000      .4895      .3938   -42.5688     9.9418   120.8907
11653.0000      .4909      .3980   -42.4579     9.9598   121.2024
11653.5000      .4886      .4019   -42.3466     9.9783   121.3224
11654.0000      .4842      .4067   -42.2325     9.9940   120.9712
11654.5000      .4859      .4128   -42.0929    10.0078   120.1168
11655.0000      .4975      .4194   -41.8718    10.0128   119.8182
11655.5000      .5120      .4265   -41.7478    10.0069   118.4958
11656.0000      .5258      .4332   -41.7072     9.9892   118.4833
11656.5000      .5332      .4393   -41.7060     9.9839   118.0977
11657.0000      .5329      .4470   -41.7258    10.0000   117.0294
11657.5000      .5279      .4561   -41.7775    10.0315   115.5630
11658.0000      .5223      .4612   -41.8620    10.0667   114.6444
11658.5000      .5179      .4662   -42.1086    10.1114   113.8370
11659.0000      .5187      .4731   -42.3681    10.1555   113.1112
11659.5000      .5296      .4770   -42.7438    10.1989   112.8262
11660.0000      .5461      .4786   -43.1626    10.2384   112.7291
11660.5000      .5604      .4792   -43.6373    10.2349   116.0280
11661.0000      .5694      .4788   -43.7763    10.1973   118.2189
11661.5000      .5616      .4765   -43.8194    10.1608   119.6655
11662.0000      .5499      .4713   -43.7409    10.1268   119.9115
11662.5000      .5379      .4646   -43.5811    10.1033   119.0992
11663.0000      .5304      .4574   -43.3526    10.1075   118.8247
11663.5000      .5274      .4502   -43.0550    10.1160   119.5394
11664.0000      .5298      .4429   -42.7905    10.1130   120.4890
11664.5000      .5356      .4391   -42.5701    10.0997   120.6323
11665.0000      .5447      .4476   -42.4570    10.0732   118.3722
11665.5000      .5599      .4623   -42.3810    10.0209   114.7272
11666.0000      .5965      .5104   -42.3149     9.9048   110.7509
11666.5000      .6476      .5771   -42.4714     9.7324   102.2739
11667.0000      .7061      .6308   -42.8084     9.5578    97.4469
11667.5000      .7510      .6672   -43.3938     9.5126    94.9197
11668.0000      .7538      .6793   -44.1711     9.5656   102.5114
11668.5000      .7719      .6735   -45.1550     9.7503   106.5470
11669.0000      .7991      .6551   -46.0602    10.0332   111.8390
11669.5000      .7403      .6272   -46.3455    10.1395   115.9735
11670.0000      .6794      .5814   -45.8499    10.0775   115.8870
11670.5000      .6221      .5285   -45.0529    10.0054   114.4379
11671.0000      .5839      .4823   -44.3703     9.9727   113.7889
11671.5000      .5731      .4503   -43.7665     9.9803   114.5529
11672.0000      .5762      .4320   -43.2364    10.0127   115.5928
11672.5000      .5864      .4282   -42.7863    10.0238   115.8867
11673.0000      .6012      .4342   -42.6331     9.9924   115.3677
11673.5000      .6146      .4556   -42.8563     9.8981   113.9384
11674.0000      .6174      .4802   -43.0276     9.8646   112.7489
11674.5000      .6191      .5017   -43.0823     9.8546   111.2800
11675.0000      .6281      .5209   -42.9904     9.8605   109.8434
11675.5000      .6424      .5370   -42.8388     9.8748   109.0663
11676.0000      .6616      .5482   -42.7225     9.9125   108.7562
11676.5000      .6845      .5594   -42.7214     9.9725   108.8196
11677.0000      .7078      .5651   -42.9258     9.9923   110.1376
11677.5000      .7150      .5706   -43.2352     9.9696   109.8087
11678.0000      .7069      .5729   -43.5131     9.9191   108.3448
11678.5000      .6997      .5740   -43.6511     9.8678   107.6215
11679.0000      .6960      .5718   -43.4955     9.8474   108.8542
11679.5000      .6948      .5690   -43.2444     9.9138   110.1920
11680.0000      .6907      .5641   -43.0061     9.9794   111.0698
11680.5000      .6851      .5572   -42.9046    10.0264   111.0476
11681.0000      .6809      .5477   -43.0365    10.0314   109.8137
11681.5000      .6813      .5407   -43.2711     9.9864   109.0310
11682.0000      .6831      .5346   -43.4430     9.9650   108.8341
11682.5000      .6831      .5300   -43.3449     9.9733   109.2759
11683.0000      .6818      .5260   -43.2247     9.9683   110.0437
11683.5000      .6764      .5207   -43.0534     9.9351   111.0204
11684.0000      .6675      .5140   -42.8791     9.9076   111.5734
11684.5000      .6525      .5058   -42.7498     9.9366   111.0563
11685.0000      .6351      .4967   -42.6428    10.0026   110.4652
11685.5000      .6274      .4877   -42.5200    10.0817   110.1908
11686.0000      .6290      .4788   -42.3770    10.1657   110.1771
11686.5000      .6296      .4701   -42.3807    10.1753   112.9121
11687.0000      .6199      .4629   -42.5341    10.1606   114.7025
11687.5000      .6009      .4563   -42.7180    10.1564   116.2975
11688.0000      .5886      .4508   -42.8420    10.1246   117.4845
11688.5000      .5803      .4455   -42.8055    10.1048   117.8380
11689.0000      .5701      .4419   -42.7635    10.0963   115.9192
11689.5000      .5658      .4383   -42.6008    10.1099   115.6094
11690.0000      .5656      .4338   -42.4382    10.1638   115.9165
11690.5000      .5643      .4288   -42.2528    10.2012   116.6907
11691.0000      .5574      .4245   -42.0532    10.1793   117.9344
11691.5000      .5486      .4254   -41.9372    10.1455   116.9552
11692.0000      .5441      .4263   -41.8711    10.1049   114.6827
11692.5000      .5493      .4272   -41.9567    10.0723   111.2455
