~VERSION INFORMATION
VERS.                             2.0:   CWLS Log ASCII Standard-VERSION 2.0
WRAP.                              NO:   One line per depth step
~Well Information Block
STRT.F                      2500.0000:   Top Depth
STOP.F                     12867.0000:   Bottom Depth
STEP.F                         .50000:   Depth Increment
NULL.                        -999.250:   Null Value
FLD .                      GA BLK 255:   Field Name
WELL.       OCSG01777  A004 ST00 BP00:   NAME
API .                  42706400140000:   WELL API
EDF .F                        91.0000:   ELEV DRILL FLOOR
COMP.       COASTAL STATES GAS PROD C:   OPERATOR
BN  .                             255:   BLOCK
CTRY.                             USA:   COUNTRY NAME
CNTY.                              GA:   COUNTY
CNTY.                        GLVSTN L:   COUNTY NAME
EKB .F                        92.0000:   ELEV KELLY BUSHING
TDD .F                      12868.000:   FINAL TD DRILLER
STAT.                           TEXAS:   STATE NAME
UWI .                  42706400140000:   WELL API
DICO.               IHS : Digitizing Company
~PARAMETER INFORMATION (zones)
#MNEM.UNIT                       Value     Description
#=========                       =====     ===========
#ZONATION                           IE:   ZONATION NAME
#ZONE                            RUN_1:   ZONE NAME
TOP .                       2500.0000:   TOP DEPTH
BOT .                       8267.5000:   BOTTOM DEPTH
RUN .                               1:   RUN NUMBER
LCCD.                             440:   LOGGING CONTRACTOR
SRVC.                    Schlumberger:   LOGGING CONT NAME
DICO.          QC Data Collectors Ltd:   DIG COMPANY NAME
LDAT.                      05/23/1973:   DATE LOGGED
ELD .F                        92.0000:   LOG DATUM ELEVATION
TDD .F                      8274.0000:   TOTAL DEPTH DRILLER
TDL .F                      8268.0000:   TOTAL DEPTH LOGGER
BOTL.F                      8267.0000:   BOTTOM DEPTH LOGGED
TOPL.F                      2500.0000:   TOP DEPTH LOGGED
CS1 .IN                       13.3750:   CASING SIZE 1
BS1 .IN                       12.2500:   BIT SIZE 1
DDB1.F                      8274.0000:   DEPTH DRILLED BIT 1
BHF .                              99:   FLUID CODE
DPT .                   Miscellaneous:   DRILLING FLUID TYPE
MUDV.                         45.0000:   FLUID VISCOSITY
FL  .                          3.4000:   FLUID LOSS
RM  .OHMM                       .7100:   RM
RMT .DEGF                     82.0000:   RM TEMP
RMF .OHMM                       .4200:   RMF
RMFT.DEGF                     82.0000:   RMF TEMP
FSC .                               M:   RMF CODE
RMC .OHMM                      1.2500:   RMC
RMCT.DEGF                     82.0000:   RMC TEMP
CMC .                               M:   RMC CODE
TMAX.DEGF                     82.0000:   MAX REC TEMP
TIMC.                          6.0000:   TIME SINCE CIRCLN
MUDD.                            NULL:   FLUID DENSITY
DFPH.                            NULL:   FLUID PH
~PARAMETER INFORMATION (zones)
#MNEM.UNIT                       Value     Description
#=========                       =====     ===========
#ZONATION                           IE:   ZONATION NAME
#ZONE                            RUN_2:   ZONE NAME
TOP .                       8273.0000:   TOP DEPTH
BOT .                      12867.5000:   BOTTOM DEPTH
RUN .                               2:   RUN NUMBER
LCCD.                             440:   LOGGING CONTRACTOR
SRVC.                    Schlumberger:   LOGGING CONT NAME
DICO.          QC Data Collectors Ltd:   DIG COMPANY NAME
LDAT.                      06/12/1973:   DATE LOGGED
ELD .F                        92.0000:   LOG DATUM ELEVATION
TDD .F                     12865.0000:   TOTAL DEPTH DRILLER
TDL .F                     12868.0000:   TOTAL DEPTH LOGGER
BOTL.F                     12867.0000:   BOTTOM DEPTH LOGGED
TOPL.F                      8272.0000:   TOP DEPTH LOGGED
CS1 .IN                        9.6250:   CASING SIZE 1
BS1 .IN                        8.5000:   BIT SIZE 1
DDB1.F                     12865.0000:   DEPTH DRILLED BIT 1
BHF .                              11:   FLUID CODE
DPT .         Caustic (high PH) (CLS):   DRILLING FLUID TYPE
MUDV.                         44.0000:   FLUID VISCOSITY
FL  .                          2.6000:   FLUID LOSS
RM  .OHMM                       .9100:   RM
RMT .DEGF                     76.0000:   RM TEMP
RMF .OHMM                       .4600:   RMF
RMFT.DEGF                     78.0000:   RMF TEMP
FSC .                               M:   RMF CODE
RMC .OHMM                      1.3200:   RMC
RMCT.DEGF                     76.0000:   RMC TEMP
CMC .                               C:   RMC CODE
TMAX.DEGF                    248.0000:   MAX REC TEMP
TIMC.                          5.0000:   TIME SINCE CIRCLN
MUDD.                         16.3000:   FLUID DENSITY
DFPH.                         10.5000:   FLUID PH
~PARAMETER INFORMATION (zones)
#MNEM.UNIT                       Value     Description
#=========                       =====     ===========
#ZONATION                        SONIC:   ZONATION NAME
#ZONE                            RUN_1:   ZONE NAME
TOP .                       8272.0000:   TOP DEPTH
BOT .                      12860.5000:   BOTTOM DEPTH
RUN .                               1:   RUN NUMBER
LCCD.                             440:   LOGGING CONTRACTOR
SRVC.                    Schlumberger:   LOGGING CONT NAME
DICO.          QC Data Collectors Ltd:   DIG COMPANY NAME
LDAT.                      06/12/1973:   DATE LOGGED
ELD .F                        92.0000:   LOG DATUM ELEVATION
TDD .F                     12865.0000:   TOTAL DEPTH DRILLER
BOTL.F                     12860.0000:   BOTTOM DEPTH LOGGED
TOPL.F                      8272.0000:   TOP DEPTH LOGGED
CS1 .IN                        9.6250:   CASING SIZE 1
BS1 .IN                        8.5000:   BIT SIZE 1
DDB1.F                     12865.0000:   DEPTH DRILLED BIT 1
BHF .                              11:   FLUID CODE
DPT .         Caustic (high PH) (CLS):   DRILLING FLUID TYPE
MUDD.                         16.3000:   FLUID DENSITY
MUDV.                         44.0000:   FLUID VISCOSITY
DFPH.                         10.5000:   FLUID PH
FL  .                          2.6000:   FLUID LOSS
RM  .OHMM                       .9100:   RM
RMT .DEGF                     76.0000:   RM TEMP
RMF .OHMM                       .4600:   RMF
RMFT.DEGF                     78.0000:   RMF TEMP
FSC .                               M:   RMF CODE
RMC .OHMM                      1.3200:   RMC
RMCT.DEGF                     76.0000:   RMC TEMP
CMC .                               C:   RMC CODE
TMAX.DEGF                    248.0000:   MAX REC TEMP
TIMC.                         10.0000:   TIME SINCE CIRCLN
~Curve Information Block
#MNEM.UNIT                    API CODE    No Description
#=========                    ========    == ===========
DEPT.F                   00 001 00 00:     1  DEPTH
ASN.OHMM                             :     2  Short-Normal Resistivity
ILD.OHMM                             :     3  Deep Induction Resistivity
SP.MV                                :     4  Spontaneous Potential
CALI.IN                              :     5  Caliper
DT.US/F                              :     6  Sonic Transit Time
~ASCII
# ...
12138.0000     1.0392      .7510   -43.5318    11.8784   108.0691
12138.5000      .9930      .7082   -44.0089    11.9897   106.9442
12139.0000      .9534      .6562   -44.4847    12.1469   108.7147
12139.5000      .9348      .6045   -44.4020    11.8089   109.0376
12140.0000      .9139      .5544   -43.7303    11.3752   108.4474
12140.5000      .8881      .5143   -43.2534    11.1525   108.7054
12141.0000      .8564      .4876   -43.1791    11.0372   107.9312
12141.5000      .8218      .4798   -43.1737    10.9603   107.7802
12142.0000      .8035      .4788   -43.6008    10.9095   107.1622
12142.5000      .8010      .4783   -44.4760    11.0002   108.3105
12143.0000      .7995      .4825   -44.2689    11.0776   110.0762
12143.5000      .7984      .4866   -43.1324    10.6346   108.7911
12144.0000      .7972      .4908   -42.0304    10.4702   109.7078
12144.5000      .7952      .4949   -41.5903    10.5001   107.8547
12145.0000      .7933      .4987   -41.8246    10.7262   106.9808
12145.5000      .7909      .5026   -41.4560    10.8026   106.9701
12146.0000      .7873      .5065   -41.0942    10.6681   107.0596
12146.5000      .7838      .5090   -41.4319    10.6390   106.6104
12147.0000      .7820      .5089   -40.8939    10.5017   107.2485
12147.5000      .7854      .5089   -40.0224    10.4151   108.3920
12148.0000      .7889      .5088   -40.9925    10.4946   106.0485
12148.5000      .7923      .5074   -41.9293    10.8046   108.1431
12149.0000      .7991      .5043   -42.6097    11.0355   109.7842
12149.5000      .8046      .5013   -42.1574    10.9623   110.5485
12150.0000      .7946      .4982   -41.6150    10.2872   109.2322
12150.5000      .7810      .4999   -41.0480    10.1289   108.0383
12151.0000      .7793      .5055   -41.7272    10.0712   106.9355
12151.5000      .7821      .5112   -42.4471    10.0600   107.8719
12152.0000      .7885      .5221   -42.7277    10.2699   105.3979
12152.5000      .7951      .5381   -42.6309    10.6420   104.0642
12153.0000      .8027      .5541   -42.0329    11.0756   104.2668
12153.5000      .8121      .5675   -41.3851    11.4866   105.4398
12154.0000      .8212      .5779   -42.2424    11.2787   106.7532
12154.5000      .8280      .5883   -42.1315    10.2694   105.8325
12155.0000      .8381      .5948   -43.0363    10.2980   107.0637
12155.5000      .8521      .5994   -43.5142    11.3821   109.7743
12156.0000      .8662      .5982   -42.6862    11.4955   105.0480
12156.5000      .8652      .5911   -41.7173    11.1993   103.9415
12157.0000      .8563      .5840   -41.3993    10.8844   103.7543
12157.5000      .8438      .5740   -42.6467    10.5385   105.1810
12158.0000      .8394      .5638   -43.3087    10.3811   105.9714
12158.5000      .8320      .5537   -43.3939    10.5429   105.9718
12159.0000      .8142      .5463   -43.4014    10.8667   105.2415
12159.5000      .8092      .5411   -43.1213    10.5725   105.1820
12160.0000      .8120      .5359   -42.8230    10.5217   105.0911
12160.5000      .8159      .5307   -42.3214    10.9588   104.4097
12161.0000      .8208      .5266   -41.6927    11.2110   104.4618
12161.5000      .8263      .5225   -40.9432    11.1308   104.8361
12162.0000      .8299      .5185   -40.1210    10.5947   106.1864
12162.5000      .8323      .5159   -40.7189    10.2527   107.5664
12163.0000      .8332      .5206   -42.0970    10.1975   106.0238
12163.5000      .8341      .5254   -42.4002    10.5710   104.5724
12164.0000      .8385      .5301   -41.3475    11.0170   103.9231
12164.5000      .8431      .5345   -40.5401    11.1715   103.0421
12165.0000      .8384      .5388   -40.7657    11.1882   101.6985
12165.5000      .8294      .5430   -41.1916    11.1959   102.2339
12166.0000      .8217      .5472   -41.0110  -999.2500   102.9657
12166.5000      .8282      .5518   -40.6597  -999.2500   102.1748
12167.0000      .8363      .5565   -41.5780  -999.2500   100.8466
12167.5000      .8496      .5612   -41.3647  -999.2500    99.4888
12168.0000      .8630      .5717   -40.2585  -999.2500    99.4690
12168.5000      .8750      .5825   -40.1287  -999.2500   100.6790
12169.0000      .8868      .5935   -40.1263  -999.2500   100.9624
12169.5000      .8974      .6055   -39.9423  -999.2500    99.5110
12170.0000      .8932      .6174   -39.5712    11.5112    97.3893
12170.5000      .8902      .6295   -38.9266    10.7319    94.5061
12171.0000      .9005      .6424   -41.3105    10.8175    93.8950
12171.5000      .9290      .6553   -41.6911    11.0293    96.3593
12172.0000      .9483      .6701   -41.4498    11.4708    99.6760
12172.5000      .9611      .6899   -41.2609    11.9607   100.7073
12173.0000      .9731      .7100   -41.3975    12.4505   101.1490
12173.5000      .9855      .7319   -41.5380    12.9413   100.8933
12174.0000      .9818      .7440   -41.7635    13.4094    99.3163
12174.5000      .9500      .7502   -41.8738    12.3805    98.1926
12175.0000      .9458      .7444   -41.6027    11.3181    98.0614
12175.5000      .9678      .7377   -41.0369    10.3503    97.6677
12176.0000      .9909      .7240   -40.3318    10.3670    97.9413
12176.5000      .9961      .7083   -41.1737    10.7366    98.8542
12177.0000      .9721      .6870   -41.0652    11.1141    98.2123
12177.5000      .9607      .6662   -40.5339    11.5585    98.8037
12178.0000      .9528      .6580   -39.4172    11.2767   101.5193
12178.5000      .9449      .6497   -38.4014    10.5464   102.5000
12179.0000      .9417      .6454   -39.6193    10.5779   103.1062
12179.5000      .9430      .6414   -40.5315    11.1486   103.4697
12180.0000      .9430      .6380   -40.9493    11.9133   102.3558
12180.5000      .9428      .6356   -40.5611    12.6781   101.4404
12181.0000      .9316      .6333   -40.1050    13.4646   100.3821
12181.5000      .9179      .6294   -40.0280    13.5314   101.1151
12182.0000      .9066      .6249   -40.2886    13.3360   101.8464
12182.5000      .8965      .6204   -40.7336    13.1426   101.4611
12183.0000      .8872      .6159   -41.1786    13.3167   102.0984
12183.5000      .8882      .6116   -41.6150    13.2697   103.1161
12184.0000      .8944      .6073   -41.9182    13.1404   103.2262
12184.5000      .8928      .6031   -42.2215    12.9915   103.2823
12185.0000      .8782      .6034   -41.9953    12.3923   102.7859
12185.5000      .8728      .6038   -40.7756    11.6177   101.5802
12186.0000      .8831      .6042   -40.5414    10.8805   101.5981
12186.5000      .8906      .6053   -41.2809    10.4582   100.6864
12187.0000      .8915      .6064   -41.6717    10.1797    96.8521
12187.5000      .8860      .6097   -41.4227     9.9265    90.8591
12188.0000      .8799      .6094   -40.9987     9.7072    84.8563
12188.5000      .8816      .5764   -40.4243     9.5581    77.7299
12189.0000      .8856      .5852   -39.8849     9.5514    76.3597
12189.5000      .8935      .6248   -40.7213     9.6845    78.3903
12190.0000      .8973      .6871   -42.1130     9.9348    82.8652
12190.5000      .9372      .7633   -42.8120    10.2892    91.8940
12191.0000     1.0043      .8521   -42.2325    10.6095    95.2122
12191.5000     1.0936      .9468   -41.0788    10.8460    95.8663
12192.0000     1.1832     1.0403   -41.0887    10.1916    95.8898
12192.5000     1.2726     1.1333   -42.7577    10.1300    94.0576
12193.0000     1.3657     1.2138   -44.3651    10.1533    91.0563
12193.5000     1.4794     1.2959   -45.5657    10.1008    87.2219
12194.0000     1.5642     1.2814   -46.1642    10.1738    82.0471
12194.5000     1.5999     1.2404   -46.4267    10.3394    78.2153
12195.0000     1.5973     1.2088   -46.5717    10.3241    77.9745
12195.5000     1.5800     1.1971   -46.6432    10.2056    77.8395
12196.0000     1.5663     1.2176   -46.5632    10.2211    77.8728
12196.5000     1.5791     1.2927   -46.4880    10.4626    84.7874
12197.0000     1.6305     1.4004   -47.5676    11.1959    95.8663
12197.5000     1.7345     1.5143   -48.2233    12.1341   104.7178
12198.0000     1.8552     1.6349   -50.3140    12.8900   108.9489
12198.5000     1.9594     1.7424   -50.8846    12.9196   107.3545
