~VERSION INFORMATION
VERS.                             2.0:   CWLS Log ASCII Standard-VERSION 2.0
WRAP.                              NO:   One line per depth step
~Well Information Block
STRT.F                      2500.0000:   Top Depth
STOP.F                     12867.0000:   Bottom Depth
STEP.F                         .50000:   Depth Increment
NULL.                        -999.250:   Null Value
FLD .                      GA BLK 255:   Field Name
WELL.       OCSG01777  A004 ST00 BP00:   NAME
API .                  42706400140000:   WELL API
EDF .F                        91.0000:   ELEV DRILL FLOOR
COMP.       COASTAL STATES GAS PROD C:   OPERATOR
BN  .                             255:   BLOCK
CTRY.                             USA:   COUNTRY NAME
CNTY.                              GA:   COUNTY
CNTY.                        GLVSTN L:   COUNTY NAME
EKB .F                        92.0000:   ELEV KELLY BUSHING
TDD .F                      12868.000:   FINAL TD DRILLER
STAT.                           TEXAS:   STATE NAME
UWI .                  42706400140000:   WELL API
DICO.               IHS : Digitizing Company
~PARAMETER INFORMATION (zones)
#MNEM.UNIT                       Value     Description
#=========                       =====     ===========
#ZONATION                           IE:   ZONATION NAME
#ZONE                            RUN_1:   ZONE NAME
TOP .                       2500.0000:   TOP DEPTH
BOT .                       8267.5000:   BOTTOM DEPTH
RUN .                               1:   RUN NUMBER
LCCD.                             440:   LOGGING CONTRACTOR
SRVC.                    Schlumberger:   LOGGING CONT NAME
DICO.          QC Data Collectors Ltd:   DIG COMPANY NAME
LDAT.                      05/23/1973:   DATE LOGGED
ELD .F                        92.0000:   LOG DATUM ELEVATION
TDD .F                      8274.0000:   TOTAL DEPTH DRILLER
TDL .F                      8268.0000:   TOTAL DEPTH LOGGER
BOTL.F                      8267.0000:   BOTTOM DEPTH LOGGED
TOPL.F                      2500.0000:   TOP DEPTH LOGGED
CS1 .IN                       13.3750:   CASING SIZE 1
BS1 .IN                       12.2500:   BIT SIZE 1
DDB1.F                      8274.0000:   DEPTH DRILLED BIT 1
BHF .                              99:   FLUID CODE
DPT .                   Miscellaneous:   DRILLING FLUID TYPE
MUDV.                         45.0000:   FLUID VISCOSITY
FL  .                          3.4000:   FLUID LOSS
RM  .OHMM                       .7100:   RM
RMT .DEGF                     82.0000:   RM TEMP
RMF .OHMM                       .4200:   RMF
RMFT.DEGF                     82.0000:   RMF TEMP
FSC .                               M:   RMF CODE
RMC .OHMM                      1.2500:   RMC
RMCT.DEGF                     82.0000:   RMC TEMP
CMC .                               M:   RMC CODE
TMAX.DEGF                     82.0000:   MAX REC TEMP
TIMC.                          6.0000:   TIME SINCE CIRCLN
MUDD.                            NULL:   FLUID DENSITY
DFPH.                            NULL:   FLUID PH
~PARAMETER INFORMATION (zones)
#MNEM.UNIT                       Value     Description
#=========                       =====     ===========
#ZONATION                           IE:   ZONATION NAME
#ZONE                            RUN_2:   ZONE NAME
TOP .                       8273.0000:   TOP DEPTH
BOT .                      12867.5000:   BOTTOM DEPTH
RUN .                               2:   RUN NUMBER
LCCD.                             440:   LOGGING CONTRACTOR
SRVC.                    Schlumberger:   LOGGING CONT NAME
DICO.          QC Data Collectors Ltd:   DIG COMPANY NAME
LDAT.                      06/12/1973:   DATE LOGGED
ELD .F                        92.0000:   LOG DATUM ELEVATION
TDD .F                     12865.0000:   TOTAL DEPTH DRILLER
TDL .F                     12868.0000:   TOTAL DEPTH LOGGER
BOTL.F                     12867.0000:   BOTTOM DEPTH LOGGED
TOPL.F                      8272.0000:   TOP DEPTH LOGGED
CS1 .IN                        9.6250:   CASING SIZE 1
BS1 .IN                        8.5000:   BIT SIZE 1
DDB1.F                     12865.0000:   DEPTH DRILLED BIT 1
BHF .                              11:   FLUID CODE
DPT .         Caustic (high PH) (CLS):   DRILLING FLUID TYPE
MUDV.                         44.0000:   FLUID VISCOSITY
FL  .                          2.6000:   FLUID LOSS
RM  .OHMM                       .9100:   RM
RMT .DEGF                     76.0000:   RM TEMP
RMF .OHMM                       .4600:   RMF
RMFT.DEGF                     78.0000:   RMF TEMP
FSC .                               M:   RMF CODE
RMC .OHMM                      1.3200:   RMC
RMCT.DEGF                     76.0000:   RMC TEMP
CMC .                               C:   RMC CODE
TMAX.DEGF                    248.0000:   MAX REC TEMP
TIMC.                          5.0000:   TIME SINCE CIRCLN
MUDD.                         16.3000:   FLUID DENSITY
DFPH.                         10.5000:   FLUID PH
~PARAMETER INFORMATION (zones)
#MNEM.UNIT                       Value     Description
#=========                       =====     ===========
#ZONATION                        SONIC:   ZONATION NAME
#ZONE                            RUN_1:   ZONE NAME
TOP .                       8272.0000:   TOP DEPTH
BOT .                      12860.5000:   BOTTOM DEPTH
RUN .                               1:   RUN NUMBER
LCCD.                             440:   LOGGING CONTRACTOR
SRVC.                    Schlumberger:   LOGGING CONT NAME
DICO.          QC Data Collectors Ltd:   DIG COMPANY NAME
LDAT.                      06/12/1973:   DATE LOGGED
ELD .F                        92.0000:   LOG DATUM ELEVATION
TDD .F                     12865.0000:   TOTAL DEPTH DRILLER
BOTL.F                     12860.0000:   BOTTOM DEPTH LOGGED
TOPL.F                      8272.0000:   TOP DEPTH LOGGED
CS1 .IN                        9.6250:   CASING SIZE 1
BS1 .IN                        8.5000:   BIT SIZE 1
DDB1.F                     12865.0000:   DEPTH DRILLED BIT 1
BHF .                              11:   FLUID CODE
DPT .         Caustic (high PH) (CLS):   DRILLING FLUID TYPE
MUDD.                         16.3000:   FLUID DENSITY
MUDV.                         44.0000:   FLUID VISCOSITY
DFPH.                         10.5000:   FLUID PH
FL  .                          2.6000:   FLUID LOSS
RM  .OHMM                       .9100:   RM
RMT .DEGF                     76.0000:   RM TEMP
RMF .OHMM                       .4600:   RMF
RMFT.DEGF                     78.0000:   RMF TEMP
FSC .                               M:   RMF CODE
RMC .OHMM                      1.3200:   RMC
RMCT.DEGF                     76.0000:   RMC TEMP
CMC .                               C:   RMC CODE
TMAX.DEGF                    248.0000:   MAX REC TEMP
TIMC.                         10.0000:   TIME SINCE CIRCLN
~Curve Information Block
#MNEM.UNIT                    API CODE    No Description
#=========                    ========    == ===========
DEPT.F                   00 001 00 00:     1  DEPTH
ASN.OHMM                             :     2  Short-Normal Resistivity
ILD.OHMM                             :     3  Deep Induction Resistivity
SP.MV                                :     4  Spontaneous Potential
CALI.IN                              :     5  Caliper
DT.US/F                              :     6  Sonic Transit Time
~ASCII
# ...
 8661.0000      .6531      .4052   -41.8857     9.3502   120.8064
 8661.5000      .6512      .4026   -42.1267     9.3466   120.8630
 8662.0000      .6476      .4000   -42.9374     9.3980   121.4221
 8662.5000      .6445      .4035   -42.9681     9.4243   121.9719
 8663.0000      .6432      .4135   -42.4492     9.4164   122.4231
 8663.5000      .6430      .4176   -41.8798     9.4031   122.6332
 8664.0000      .6441      .4145   -41.2325     9.3877   122.7798
 8664.5000      .6449      .4118   -40.5102     9.3636   122.3878
 8665.0000      .6458      .4088   -39.7547     9.3182   121.9196
 8665.5000      .6470      .4040   -40.0975     9.2856   121.4227
 8666.0000      .6473      .3996   -41.6083     9.2648   121.2839
 8666.5000      .6445      .3955   -41.0065     9.2592   121.9374
 8667.0000      .6377      .3942   -40.0913     9.2852   122.3213
 8667.5000      .6281      .3961   -39.3211     9.2735   122.7008
 8668.0000      .6240      .3931   -39.0901     9.2147   122.7255
 8668.5000      .6293      .3864   -40.9524     9.1902   122.4021
 8669.0000      .6347      .3862   -41.6169     9.1845   122.8044
 8669.5000      .6397      .3880   -41.4456     9.1915   123.4807
 8670.0000      .6438      .3883   -41.1802     9.1993   122.9895
 8670.5000      .6447      .3882   -41.0206     9.1975   122.3737
 8671.0000      .6421      .3861   -41.5506     9.1795   121.7184
 8671.5000      .6376      .3840   -41.8130     9.1499   120.7568
 8672.0000      .6359      .3861   -41.8843     9.1238   120.4310
 8672.5000      .6323      .3865   -41.9555     9.1001   121.3888
 8673.0000      .6278      .3823   -41.6213     9.1033   122.1071
 8673.5000      .6231      .3799   -41.2331     9.1255   122.6384
 8674.0000      .6175      .3817   -40.7110     9.1617   122.9030
 8674.5000      .6169      .3840   -40.1705     9.2112   122.8600
 8675.0000      .6217      .3881   -41.0359     9.2726   122.5736
 8675.5000      .6354      .3967   -43.3047     9.3516   122.7242
 8676.0000      .6569      .4124   -42.6783     9.4141   124.0769
 8676.5000      .6843      .4517   -41.7459     9.4471   124.9828
 8677.0000      .7093      .4955   -41.0789     9.4626   124.4644
 8677.5000      .7313      .5407   -41.2368     9.4722   123.5524
 8678.0000      .7535      .5712   -41.3025     9.4704   121.9196
 8678.5000      .7776      .5862   -41.5469     9.4639   119.7275
 8679.0000      .7962      .5907   -43.2765     9.4526   117.1259
 8679.5000      .7921      .5670   -44.5515     9.4458   114.5292
 8680.0000      .7684      .5398   -43.6278     9.4399   112.6952
 8680.5000      .7465      .5229   -42.6635     9.4365   110.6483
 8681.0000      .7307      .5063   -42.0466     9.4370   109.0078
 8681.5000      .7155      .4905   -41.8685     9.4376   107.8909
 8682.0000      .7065      .4761   -41.6888     9.4382   108.0710
 8682.5000      .6994      .4664   -41.5280     9.4301   109.5530
 8683.0000      .6956      .4641   -41.4130     9.4161   112.4523
 8683.5000      .6926      .4630   -41.3306     9.3748   116.1892
 8684.0000      .6898      .4628   -40.9788     9.3058   118.5272
 8684.5000      .6870      .4599   -40.3051     9.2575   119.1536
 8685.0000      .6829      .4553   -42.9841     9.3178   119.0873
 8685.5000      .6788      .4435   -42.8699     9.3847   118.2844
 8686.0000      .6745      .4304   -41.7140     9.4274   117.6324
 8686.5000      .6701      .4181   -40.5839     9.4592   117.5881
 8687.0000      .6657      .4060   -39.5557     9.4833   118.1035
 8687.5000      .6606      .3939   -39.5926     9.4877   118.7504
 8688.0000      .6554      .3896   -40.5040     9.4882   119.9360
 8688.5000      .6510      .3881   -40.0219     9.4886   120.1405
 8689.0000      .6482      .3866   -39.8508     9.4875   119.2533
 8689.5000      .6458      .3911   -40.5642     9.4865   118.8107
 8690.0000      .6514      .3979   -41.6514     9.4713   119.2031
 8690.5000      .6587      .4047   -41.4192     9.4458   119.5228
 8691.0000      .6690      .4218   -40.8124     9.3965   119.8796
 8691.5000      .6846      .4405   -40.3715     9.3596   120.6943
 8692.0000      .7047      .4604   -40.3444     9.3378   122.0201
 8692.5000      .7262      .4870   -40.8701     9.4161   122.7434
 8693.0000      .7444      .5137   -42.0334     9.5222   122.6787
 8693.5000      .7558      .5398   -43.2200     9.6255   120.2136
 8694.0000      .7550      .5544   -43.6757     9.6243   117.1458
 8694.5000      .7488      .5542   -42.6599     9.5616   113.9391
 8695.0000      .7443      .5457   -41.6059     9.5265   111.9592
 8695.5000      .7406      .5350   -40.9119     9.4914   110.3101
 8696.0000      .7379      .5257   -40.7943     9.4762   111.1538
 8696.5000      .7352      .5165   -41.0789     9.4750   111.7882
 8697.0000      .7320      .5072   -42.0702     9.4711   112.2373
 8697.5000      .7288      .4979   -42.6519     9.4639   112.6208
 8698.0000      .7256      .4886   -42.4645     9.4566   113.1127
 8698.5000      .7224      .4768   -42.2870     9.4476   113.8375
 8699.0000      .7193      .4642   -41.9566     9.4383   114.5636
 8699.5000      .7148      .4515   -40.7166     9.4291   114.5416
 8700.0000      .7085      .4376   -40.5052     9.4189   114.3538
 8700.5000      .7018      .4202   -41.1882     9.4064   114.9703
 8701.0000      .6938      .4029   -41.7877     9.3940   115.5585
 8701.5000      .6860      .3869   -42.3835     9.3807   116.1978
 8702.0000      .6798      .3767   -41.8958     9.3681   116.7716
 8702.5000      .6763      .3855   -41.1060     9.3655   117.2844
 8703.0000      .6796      .4129   -40.3296     9.3649   117.7762
 8703.5000      .6893      .4580   -39.6736     9.3651   118.2539
 8704.0000      .7077      .5061   -39.1400     9.3614   118.6508
 8704.5000      .7334      .5649   -40.1146     9.3489   119.0129
 8705.0000      .7626      .6123   -42.0567     9.3365   119.2870
 8705.5000      .7963      .6467   -42.0886     9.3241   119.3973
 8706.0000      .8281      .6568   -41.5635     9.3113   119.1265
 8706.5000      .8522      .6579   -42.1710     9.3130   118.6433
 8707.0000      .8565      .6378   -43.4951     9.3436   117.1309
 8707.5000      .8026      .5992   -43.6734     9.4010   114.4254
 8708.0000      .7555      .5526   -43.5394     9.4560   109.9528
 8708.5000      .7358      .5019   -43.3953     9.5096   105.6157
 8709.0000      .7102      .4283   -43.2513     9.5624   104.0477
 8709.5000      .6732      .3780   -43.2470     9.3112   106.4180
 8710.0000      .6490      .3572   -43.3748     9.2380   111.3054
 8710.5000      .6396      .3517   -43.7985     9.3022   119.3820
 8711.0000      .6292      .3585   -44.1511     9.2547   126.2046
 8711.5000      .6186      .3647   -42.4584     9.2099   129.3616
 8712.0000      .6097      .3689   -42.1341     9.1965   128.8877
 8712.5000      .6022      .3719   -42.8257     9.1831   126.8365
 8713.0000      .5958      .3721   -43.4472     9.1842   125.1852
 8713.5000      .5923      .3723   -44.0338     9.1793   124.9921
 8714.0000      .5911      .3688   -43.4263     9.1553   125.2460
 8714.5000      .5903      .3652   -41.8933     9.1309   125.1654
 8715.0000      .5934      .3650   -40.7144     9.1064   125.3536
 8715.5000      .5966      .3652   -41.0500     9.1048   126.2157
 8716.0000      .6004      .3668   -41.2816     9.1036   127.4635
 8716.5000      .6057      .3686   -41.2822     9.1034   129.1394
 8717.0000      .6110      .3727   -41.7509     9.1050   130.2563
 8717.5000      .6174      .3808   -43.0431     9.1067   130.6057
 8718.0000      .6240      .3911   -43.8502     9.1286   128.9790
 8718.5000      .6305      .4048   -42.4854     9.1644   126.6539
 8719.0000      .6371      .4182   -40.8664     9.2249   124.6891
 8719.5000      .6443      .4312   -40.6355     9.2827   124.1084
 8720.0000      .6511      .4425   -41.6649     9.2545   123.7400
 8720.5000      .6571      .4479   -41.8972     9.2015   123.1882
 8721.0000      .6611      .4506   -41.9752     9.1596   123.1650
 8721.5000      .6641      .4528   -41.7349     9.1459   122.9149
