~VERSION INFORMATION
VERS.                             2.0:   CWLS Log ASCII Standard-VERSION 2.0
WRAP.                              NO:   One line per depth step
~Well Information Block
STRT.F                      3012.0000:   Top Depth
STOP.F                      9049.0000:   Bottom Depth
STEP.F                         .50000:   Depth Increment
NULL.                        -999.250:   Null Value
FLD .                      GA BLK 210:   Field Name
WELL.       OCSG01759   002 ST00 BP00:   NAME
API .                  42706400060000:   WELL API
R1  .                      TEXACO INC:   COMMENT  1
EDF .F                        74.0000:   ELEV DRILL FLOOR
COMP.                      TEXACO INC:   OPERATOR
BN  .                             210:   BLOCK
CTRY.                             USA:   COUNTRY NAME
CNTY.                              GA:   COUNTY
CNTY.                        GLVSTN L:   COUNTY NAME
EKB .F                        75.0000:   ELEV KELLY BUSHING
TDD .F                       9050.000:   FINAL TD DRILLER
STAT.                           TEXAS:   STATE NAME
UWI .                  42706400060000:   WELL API
DICO.               IHS : Digitizing Company
~PARAMETER INFORMATION (zones)
#MNEM.UNIT                       Value     Description
#=========                       =====     ===========
#ZONATION                           IE:   ZONATION NAME
#ZONE                            RUN_2:   ZONE NAME
TOP .                       9049.0000:   TOP DEPTH
BOT .                       9050.0000:   BOTTOM DEPTH
RUN .                               2:   RUN NUMBER
LCCD.                             440:   LOGGING CONTRACTOR
SRVC.                    Schlumberger:   LOGGING CONT NAME
DICO.          QC Data Collectors Ltd:   DIG COMPANY NAME
LDAT.                      11/07/1971:   DATE LOGGED
ELD .F                        75.0000:   LOG DATUM ELEVATION
TDD .F                      9050.0000:   TOTAL DEPTH DRILLER
TDL .F                      9050.0000:   TOTAL DEPTH LOGGER
BOTL.F                      9049.0000:   BOTTOM DEPTH LOGGED
TOPL.F                      7103.0000:   TOP DEPTH LOGGED
CS1 .IN                        9.6250:   CASING SIZE 1
BS1 .IN                        8.6250:   BIT SIZE 1
DDB1.F                      9050.0000:   DEPTH DRILLED BIT 1
BHF .                              99:   FLUID CODE
DPT .                   Miscellaneous:   DRILLING FLUID TYPE
MUDD.                         15.0000:   FLUID DENSITY
MUDV.                         45.0000:   FLUID VISCOSITY
DFPH.                         10.5000:   FLUID PH
FL  .                          4.0000:   FLUID LOSS
RM  .OHMM                       .7700:   RM
RMT .DEGF                    100.0000:   RM TEMP
RMF .OHMM                       .5300:   RMF
RMFT.DEGF                     77.0000:   RMF TEMP
FSC .                               M:   RMF CODE
RMC .OHMM                      1.4300:   RMC
RMCT.DEGF                     75.0000:   RMC TEMP
CMC .                               M:   RMC CODE
TMAX.DEGF                    194.0000:   MAX REC TEMP
TIMC.                          4.0000:   TIME SINCE CIRCLN
~PARAMETER INFORMATION (zones)
#MNEM.UNIT                       Value     Description
#=========                       =====     ===========
#ZONATION                           IE:   ZONATION NAME
#ZONE                            RUN_1:   ZONE NAME
TOP .                       3012.0000:   TOP DEPTH
BOT .                       9049.5000:   BOTTOM DEPTH
RUN .                               1:   RUN NUMBER
LCCD.                             440:   LOGGING CONTRACTOR
SRVC.                    Schlumberger:   LOGGING CONT NAME
DICO.          QC Data Collectors Ltd:   DIG COMPANY NAME
LDAT.                      10/28/1971:   DATE LOGGED
ELD .F                        75.0000:   LOG DATUM ELEVATION
TDD .F                      7115.0000:   TOTAL DEPTH DRILLER
TDL .F                      7061.0000:   TOTAL DEPTH LOGGER
BOTL.F                      7060.0000:   BOTTOM DEPTH LOGGED
TOPL.F                      3012.0000:   TOP DEPTH LOGGED
CS1 .IN                       13.3750:   CASING SIZE 1
BS1 .IN                       12.2500:   BIT SIZE 1
DDB1.F                      7115.0000:   DEPTH DRILLED BIT 1
BHF .                              11:   FLUID CODE
DPT .         Caustic (high PH) (CLS):   DRILLING FLUID TYPE
MUDD.                         10.5000:   FLUID DENSITY
MUDV.                         40.0000:   FLUID VISCOSITY
DFPH.                          9.0000:   FLUID PH
FL  .                          4.4000:   FLUID LOSS
RM  .OHMM                       .9400:   RM
RMT .DEGF                     96.0000:   RM TEMP
RMF .OHMM                       .7600:   RMF
RMFT.DEGF                     96.0000:   RMF TEMP
FSC .                               M:   RMF CODE
RMC .OHMM                      1.2600:   RMC
RMCT.DEGF                     96.0000:   RMC TEMP
CMC .                               M:   RMC CODE
TMAX.DEGF                    155.0000:   MAX REC TEMP
TIMC.                          4.0000:   TIME SINCE CIRCLN
~PARAMETER INFORMATION (zones)
#MNEM.UNIT                       Value     Description
#=========                       =====     ===========
#ZONATION                        SONIC:   ZONATION NAME
#ZONE                            RUN_1:   ZONE NAME
TOP .                       3012.0000:   TOP DEPTH
BOT .                       9049.5000:   BOTTOM DEPTH
RUN .                               1:   RUN NUMBER
LCCD.                             440:   LOGGING CONTRACTOR
SRVC.                    Schlumberger:   LOGGING CONT NAME
DICO.          QC Data Collectors Ltd:   DIG COMPANY NAME
LDAT.                      10/28/1971:   DATE LOGGED
ELD .F                        75.0000:   LOG DATUM ELEVATION
TDD .F                      7115.0000:   TOTAL DEPTH DRILLER
TDL .F                      7060.0000:   TOTAL DEPTH LOGGER
BOTL.F                      7050.0000:   BOTTOM DEPTH LOGGED
TOPL.F                      3012.0000:   TOP DEPTH LOGGED
CS1 .IN                       13.3750:   CASING SIZE 1
BS1 .IN                       12.2500:   BIT SIZE 1
DDB1.F                      7115.0000:   DEPTH DRILLED BIT 1
BHF .                              11:   FLUID CODE
DPT .         Caustic (high PH) (CLS):   DRILLING FLUID TYPE
MUDD.                         10.5000:   FLUID DENSITY
MUDV.                         40.0000:   FLUID VISCOSITY
DFPH.                          9.0000:   FLUID PH
FL  .                          4.4000:   FLUID LOSS
RM  .OHMM                       .9400:   RM
RMT .DEGF                     96.0000:   RM TEMP
RMF .OHMM                       .7600:   RMF
RMFT.DEGF                     96.0000:   RMF TEMP
FSC .                               M:   RMF CODE
RMC .OHMM                      1.2600:   RMC
RMCT.DEGF                     96.0000:   RMC TEMP
CMC .                               M:   RMC CODE
TMAX.DEGF                    155.0000:   MAX REC TEMP
TIMC.                          6.0000:   TIME SINCE CIRCLN
~Curve Information Block
#MNEM.UNIT                    API CODE    No Description
#=========                    ========    == ===========
DEPT.F                   00 001 00 00:     1  DEPTH
ASN.OHMM                             :     2  Short-Normal Resistivity
CILD.MMHO                            :     3  Deep Induction Conductivity
ILD.OHMM                             :     4  Deep Induction Resistivity
SP.MV                                :     5  Spontaneous Potential
CALI.IN                              :     6  Caliper
DT.US/F                              :     7  Sonic Transit Time
SP.MV                                :     8  Spontaneous Potential
~ASCII
# ...
 5423.5000      .9056  1168.8340      .8778   -57.8505    12.9878   107.5591   -77.7898
 5424.0000      .9082  1177.8965      .8947   -57.8909    12.9893   110.4235   -78.4794
 5424.5000      .9089  1208.2344      .9116   -58.0464    12.9908   110.9786   -79.4562
 5425.0000      .9020  1238.5723      .9284   -58.5997    12.9840   111.3553   -80.4316
 5425.5000      .8814  1295.7598      .9331   -59.1579    12.9764   107.6852   -81.3975
 5426.0000      .8608  1422.5469      .9022   -59.7155    12.9688   105.2039   -82.3202
 5426.5000      .8346  1510.2969      .8713   -60.2083    12.9611   104.3607   -83.2434
 5427.0000      .7702  1655.1836      .8404   -56.4771    12.9501   103.6741   -84.1660
 5427.5000      .7058  1964.8984      .8094   -55.2595    12.9382   103.8955   -83.6993
 5428.0000      .6354  1981.5859      .7708   -54.8325    12.9263   105.4596   -81.5609
 5428.5000      .5813  1991.6016      .6998   -55.2320    12.9052   110.1628   -79.4850
 5429.0000      .5428  2001.6250      .6287   -56.4097    12.8823   112.5436   -77.7394
 5429.5000      .5036  2274.1250      .5576   -59.0544    12.8594   115.2297   -77.2848
 5430.0000      .4782  2676.9766      .4391   -68.8423    12.8437   119.7415   -87.4908
 5430.5000      .4802  3079.8242      .3459   -83.5129    12.8468   121.1827  -101.2584
 5431.0000      .4701  4124.9531      .2768   -98.1936    12.8499   116.1195  -112.1523
 5431.5000      .4600  4287.4844      .2563  -102.7158    12.8530   114.5364  -125.8383
 5432.0000      .4522  4449.8203      .2614  -106.3822    12.8500   113.7559  -129.3774
 5432.5000      .4451  4612.3594      .2978  -107.9933    12.8452   113.5686  -134.7139
 5433.0000      .4448  4347.1172      .3338  -108.5045    12.8403   113.3291  -136.3596
 5433.5000      .4480  4065.7187      .3689  -108.7493    12.8354   112.7059  -136.8892
 5434.0000      .4587  3969.7500      .4040  -108.1985    12.8305   111.4684  -137.1711
 5434.5000      .4705  3628.2500      .4392  -105.4216    12.8331   110.3865  -137.6304
 5435.0000      .4858  3286.7500      .4744  -101.6367    12.8372   110.8174  -138.0735
 5435.5000      .5071  3008.4297      .5067   -97.4152    12.8413   111.2859  -138.3840
 5436.0000      .5438  2775.8945      .5355   -93.1936    12.8454   110.6089  -138.6360
 5436.5000      .5803  2558.3125      .5366   -88.9771    12.8522   107.9930  -120.0909
 5437.0000      .5797  2346.3203      .4961   -83.1936    12.8645   105.1710  -112.0178
 5437.5000      .5696  2434.0703      .4556   -77.0159    12.8958   100.4412  -107.7842
 5438.0000      .5513  2843.6992      .4150   -79.6906    13.0041    98.1477  -105.0728
 5438.5000      .5291  3253.3281      .3768   -86.8263    13.0970    96.4082  -103.2659
 5439.0000      .4990  3286.0859      .3518   -93.9570    13.1633   108.7355  -101.2728
 5439.5000      .4160  3307.5000      .3267  -101.0928    13.1653   109.4404  -105.1172
 5440.0000      .3603  3346.7617      .3017  -108.2285    13.1489   110.1398  -135.9680
 5440.5000      .3386  4772.7031      .2766  -113.0563    13.1141   110.8265  -144.2361
 5441.0000      .3285  5152.8125      .2666  -115.2020    13.0493   110.4410  -144.6929
 5441.5000      .3204  5338.9844      .2648  -117.3502    12.9845   109.9210  -145.6509
 5442.0000      .3163  5381.9141      .2629  -119.7080    12.9364   109.6611  -147.7112
 5442.5000      .3122  5483.2187      .2610  -121.9211    12.9004   110.2052  -148.8513
 5443.0000      .3081  5400.5078      .2591  -123.2303    12.8645   111.0065  -149.8437
 5443.5000      .3091  5214.4375      .2627  -123.6177    12.8352   111.6851  -150.7783
 5444.0000      .3101  5028.1719      .2690  -121.4520    12.8058   112.1166  -151.4409
 5444.5000      .3115  4878.8984      .2753  -119.5883    12.7765   112.5266  -152.0781
 5445.0000      .3141  4764.9219      .2817  -116.9360    12.8359   112.7954  -151.5881
 5445.5000      .3166  4650.9453      .2880  -114.7198    12.9118   113.0642  -148.9355
 5446.0000      .3192  4434.6172      .2932  -113.8523    12.9877   113.3330  -146.9412
 5446.5000      .3218  4424.6953      .2946  -113.7509    13.0624   113.5631  -144.9495
 5447.0000      .3237  4446.5547      .2961  -115.0548    12.8942   113.7795  -143.6567
 5447.5000      .3242  4474.5547      .2976  -116.8700    12.7881   112.8442  -147.0205
 5448.0000      .3247  4566.2891      .2991  -119.9501    12.7301   111.8590  -151.1003
 5448.5000      .3252  4630.4531      .3005  -122.8667    12.6720   111.4038  -155.6824
 5449.0000      .3257  4658.1250      .3020  -124.3363    12.6642   110.9486  -158.2351
 5449.5000      .3262  4685.0000      .3023  -125.3218    12.6712   111.1720  -158.7632
 5450.0000      .3267  4628.5625      .3011  -125.1409    12.6781   111.7151  -159.1367
 5450.5000      .3264  4572.1719      .2998  -124.2811    12.6849   112.2581  -158.4341
 5451.0000      .3242  4515.7344      .2986  -123.8451    12.6918   112.3278  -157.7312
 5451.5000      .3220  4487.9375      .2973  -123.4091    12.6987   111.6865  -157.0283
 5452.0000      .3198  4464.0781      .2961  -123.4624    12.7056   110.9672  -156.3047
 5452.5000      .3176  4449.4453      .2948  -124.1460    12.7088   110.2483  -155.3677
 5453.0000      .3154  4436.1094      .2936  -124.8297    12.7106   109.5288  -154.9568
 5453.5000      .3132  4442.2344      .2927  -125.7609    12.7125   109.2358  -155.4631
 5454.0000      .3110  4448.9844      .2929  -126.4318    12.7143   109.2130  -155.9851
 5454.5000      .3088  4499.8828      .2930  -126.7852    12.7161   109.1941  -156.5063
 5455.0000      .3065  4590.2187      .2932  -126.8978    12.7177   109.2638  -157.0283
 5455.5000      .3039  4731.8203      .2934  -126.8269    12.7128   109.4224  -157.5505
 5456.0000      .3013  4764.9453      .2936  -126.3678    12.7080   109.6279  -157.9814
 5456.5000      .2987  4812.3359      .2938  -125.8922    12.7031   109.8336  -158.2749
 5457.0000      .2962  4843.2734      .2940  -125.3168    12.6983   110.0428  -158.0059
 5457.5000      .2936  4872.7109      .2941  -124.6226    12.7000   110.2998  -157.5942
 5458.0000      .2910  4878.5859      .2959  -123.9283    12.7023   110.5571  -157.1633
 5458.5000      .2884  4878.2031      .2986  -123.2179    12.7047   110.8822  -156.4824
 5459.0000      .2860  4875.0312      .3012  -122.4912    12.7070   111.3793  -155.2942
 5459.5000      .2837  4871.8672      .3038  -121.1676    12.7093   111.8762  -153.1257
 5460.0000      .2813  4864.8125      .3065  -117.8306    12.7116   112.3478  -150.7302
 5460.5000      .2790  4853.0547      .3091  -116.1239    12.7139   112.7903  -149.0002
 5461.0000      .2767  4841.3047      .3117  -115.4191    12.7152   113.2327  -147.4470
 5461.5000      .2744  4829.5391      .3143  -114.8680    12.7139   113.6249  -146.6138
 5462.0000      .2721  4820.1953      .3171  -115.3069    12.7125   113.9918  -147.1587
 5462.5000      .2697  4812.0937      .3202  -115.8932    12.7111   114.3591  -149.0750
 5463.0000      .2697  4803.9844      .3232  -117.0234    12.7097   113.3036  -151.1868
 5463.5000      .2703  4795.8828      .3262  -118.0988    12.7083   111.7096  -151.9382
 5464.0000      .2710  4775.3906      .3293  -119.1354    12.7070   109.8307  -152.6904
 5464.5000      .2716  4754.0781      .3323  -119.8035    12.7090   109.1173  -152.4055
 5465.0000      .2731  4708.1875      .3353  -119.2920    12.7119   109.1466  -151.9746
 5465.5000      .2789  4638.8828      .3384  -118.6071    12.7148   109.3395  -151.7192
 5466.0000      .2847  4596.8984      .3414  -118.0719    12.7183   109.7446  -151.5298
 5466.5000      .2933  4541.7578      .3444  -117.5367    12.7279   110.1498  -151.3650
 5467.0000      .3030  4444.2344      .3451  -117.0016    12.7376   110.5549  -151.2004
 5467.5000      .3199  4326.5234      .3452  -116.4664    12.7472   110.9602  -150.4431
 5468.0000      .3368  4304.4844      .3453  -116.0649    12.8229   110.8978  -149.3643
 5468.5000      .3525  4285.9688      .3454  -115.7291    12.9400   110.8132  -148.2844
