~VERSION INFORMATION
VERS.                             2.0:   CWLS Log ASCII Standard-VERSION 2.0
WRAP.                              NO:   One line per depth step
~Well Information Block
STRT.F                      2726.0000:   Top Depth
STOP.F                     13125.0000:   Bottom Depth
STEP.F                         .50000:   Depth Increment
NULL.                        -999.250:   Null Value
FLD .                      GA BLK 255:   Field Name
WELL.       OCSG01777  A007 ST00 BP00:   NAME
API .                  42706400190000:   WELL API
EDF .F                        92.0000:   ELEV DRILL FLOOR
COMP.       COASTAL STATES GAS PROD C:   OPERATOR
BN  .                             255:   BLOCK
CTRY.                             USA:   COUNTRY NAME
CNTY.                              GA:   COUNTY
CNTY.                        GLVSTN L:   COUNTY NAME
EKB .F                        93.0000:   ELEV KELLY BUSHING
TDD .F                      13136.000:   FINAL TD DRILLER
STAT.                           TEXAS:   STATE NAME
UWI .                  42706400190000:   WELL API
DICO.               IHS : Digitizing Company
~PARAMETER INFORMATION (zones)
#MNEM.UNIT                       Value     Description
#=========                       =====     ===========
#ZONATION                           IE:   ZONATION NAME
#ZONE                            RUN_1:   ZONE NAME
TOP .                       2726.0000:   TOP DEPTH
BOT .                       8780.5000:   BOTTOM DEPTH
RUN .                               1:   RUN NUMBER
LCCD.                             440:   LOGGING CONTRACTOR
SRVC.                    Schlumberger:   LOGGING CONT NAME
DICO.          QC Data Collectors Ltd:   DIG COMPANY NAME
LDAT.                      09/02/1973:   DATE LOGGED
ELD .F                        93.0000:   LOG DATUM ELEVATION
TDD .F                      8829.0000:   TOTAL DEPTH DRILLER
TDL .F                      8822.0000:   TOTAL DEPTH LOGGER
BOTL.F                      8821.0000:   BOTTOM DEPTH LOGGED
TOPL.F                      2726.0000:   TOP DEPTH LOGGED
CS1 .IN                       13.6250:   CASING SIZE 1
BS1 .IN                       12.2500:   BIT SIZE 1
DDB1.F                      8829.0000:   DEPTH DRILLED BIT 1
BHF .                              81:   FLUID CODE
DPT .          Lignosulfonate (Ligno):   DRILLING FLUID TYPE
MUDD.                         12.2000:   FLUID DENSITY
MUDV.                         44.0000:   FLUID VISCOSITY
DFPH.                         10.5000:   FLUID PH
FL  .                          2.0000:   FLUID LOSS
RM  .OHMM                       .9600:   RM
RMT .DEGF                     74.0000:   RM TEMP
RMF .OHMM                       .5900:   RMF
RMFT.DEGF                     71.0000:   RMF TEMP
FSC .                               M:   RMF CODE
RMC .OHMM                      1.8100:   RMC
RMCT.DEGF                     71.0000:   RMC TEMP
CMC .                               M:   RMC CODE
TMAX.DEGF                    160.0000:   MAX REC TEMP
TIMC.                         24.0000:   TIME SINCE CIRCLN
~PARAMETER INFORMATION (zones)
#MNEM.UNIT                       Value     Description
#=========                       =====     ===========
#ZONATION                           IE:   ZONATION NAME
#ZONE                            RUN_2:   ZONE NAME
TOP .                       8780.0000:   TOP DEPTH
BOT .                       9333.5000:   BOTTOM DEPTH
RUN .                               2:   RUN NUMBER
LCCD.                             440:   LOGGING CONTRACTOR
SRVC.                    Schlumberger:   LOGGING CONT NAME
DICO.          QC Data Collectors Ltd:   DIG COMPANY NAME
LDAT.                      09/09/1973:   DATE LOGGED
ELD .F                        93.0000:   LOG DATUM ELEVATION
TDD .F                      9340.0000:   TOTAL DEPTH DRILLER
TDL .F                      9334.0000:   TOTAL DEPTH LOGGER
BOTL.F                      9333.0000:   BOTTOM DEPTH LOGGED
TOPL.F                      8821.0000:   TOP DEPTH LOGGED
CS1 .IN                       13.3750:   CASING SIZE 1
BS1 .IN                       12.2500:   BIT SIZE 1
DDB1.F                      9340.0000:   DEPTH DRILLED BIT 1
BHF .                              99:   FLUID CODE
DPT .                   Miscellaneous:   DRILLING FLUID TYPE
MUDD.                         12.3000:   FLUID DENSITY
MUDV.                         46.0000:   FLUID VISCOSITY
DFPH.                         10.5000:   FLUID PH
FL  .                          3.2000:   FLUID LOSS
RM  .OHMM                       .6500:   RM
RMT .DEGF                     82.0000:   RM TEMP
RMF .OHMM                       .5000:   RMF
RMFT.DEGF                     82.0000:   RMF TEMP
FSC .                               M:   RMF CODE
RMC .OHMM                       .9600:   RMC
RMCT.DEGF                     82.0000:   RMC TEMP
CMC .                               M:   RMC CODE
TMAX.DEGF                    160.0000:   MAX REC TEMP
TIMC.                          4.0000:   TIME SINCE CIRCLN
~PARAMETER INFORMATION (zones)
#MNEM.UNIT                       Value     Description
#=========                       =====     ===========
#ZONATION                           IE:   ZONATION NAME
#ZONE                            RUN_3:   ZONE NAME
TOP .                       9343.0000:   TOP DEPTH
BOT .                      13125.5000:   BOTTOM DEPTH
RUN .                               3:   RUN NUMBER
LCCD.                             440:   LOGGING CONTRACTOR
SRVC.                    Schlumberger:   LOGGING CONT NAME
DICO.          QC Data Collectors Ltd:   DIG COMPANY NAME
LDAT.                      09/22/1973:   DATE LOGGED
ELD .F                        93.0000:   LOG DATUM ELEVATION
TDD .F                     13136.0000:   TOTAL DEPTH DRILLER
TDL .F                     13126.0000:   TOTAL DEPTH LOGGER
BOTL.F                     13125.0000:   BOTTOM DEPTH LOGGED
TOPL.F                      9343.0000:   TOP DEPTH LOGGED
CS1 .IN                        9.6250:   CASING SIZE 1
BS1 .IN                        8.5000:   BIT SIZE 1
DDB1.F                     13136.0000:   DEPTH DRILLED BIT 1
BHF .                              99:   FLUID CODE
DPT .                   Miscellaneous:   DRILLING FLUID TYPE
MUDD.                         16.5000:   FLUID DENSITY
MUDV.                         46.0000:   FLUID VISCOSITY
DFPH.                         11.0000:   FLUID PH
FL  .                          2.2000:   FLUID LOSS
RM  .OHMM                       .6100:   RM
RMT .DEGF                     80.0000:   RM TEMP
RMF .OHMM                       .2300:   RMF
RMFT.DEGF                     80.0000:   RMF TEMP
FSC .                               M:   RMF CODE
RMC .OHMM                      1.0000:   RMC
RMCT.DEGF                     80.0000:   RMC TEMP
CMC .                               M:   RMC CODE
TMAX.DEGF                    232.0000:   MAX REC TEMP
TIMC.                          7.0000:   TIME SINCE CIRCLN
~PARAMETER INFORMATION (zones)
#MNEM.UNIT                       Value     Description
#=========                       =====     ===========
#ZONATION                        SONIC:   ZONATION NAME
#ZONE                            RUN_1:   ZONE NAME
TOP .                       9343.0000:   TOP DEPTH
BOT .                      13014.5000:   BOTTOM DEPTH
RUN .                               1:   RUN NUMBER
LCCD.                             440:   LOGGING CONTRACTOR
SRVC.                    Schlumberger:   LOGGING CONT NAME
DICO.          QC Data Collectors Ltd:   DIG COMPANY NAME
LDAT.                      09/22/1973:   DATE LOGGED
ELD .F                        93.0000:   LOG DATUM ELEVATION
TDD .F                     13136.0000:   TOTAL DEPTH DRILLER
TDL .F                     13126.0000:   TOTAL DEPTH LOGGER
BOTL.F                     13014.0000:   BOTTOM DEPTH LOGGED
TOPL.F                      9343.0000:   TOP DEPTH LOGGED
CS1 .IN                        9.6250:   CASING SIZE 1
BS1 .IN                        8.5000:   BIT SIZE 1
DDB1.F                     13136.0000:   DEPTH DRILLED BIT 1
BHF .                              99:   FLUID CODE
DPT .                   Miscellaneous:   DRILLING FLUID TYPE
MUDD.                         16.5000:   FLUID DENSITY
MUDV.                         46.0000:   FLUID VISCOSITY
DFPH.                         11.0000:   FLUID PH
FL  .                          2.2000:   FLUID LOSS
RM  .OHMM                       .6100:   RM
RMT .DEGF                     80.0000:   RM TEMP
RMF .OHMM                       .2400:   RMF
RMFT.DEGF                     80.0000:   RMF TEMP
FSC .                               M:   RMF CODE
RMC .OHMM                      1.0000:   RMC
RMCT.DEGF                     80.0000:   RMC TEMP
CMC .                               M:   RMC CODE
TMAX.DEGF                    232.0000:   MAX REC TEMP
TIMC.                          6.0000:   TIME SINCE CIRCLN
~Curve Information Block
#MNEM.UNIT                    API CODE    No Description
#=========                    ========    == ===========
DEPT.F                   00 001 00 00:     1  DEPTH
ASN.OHMM                             :     2  Short-Normal Resistivity
ILD.OHMM                             :     3  Deep Induction Resistivity
SP.MV                                :     4  Spontaneous Potential
CALI.IN                              :     5  Caliper
DT.US/F                              :     6  Sonic Transit Time
~ASCII
# ...
 4800.0000      .6041      .3243  -119.6837  -999.2500  -999.2500
 4800.5000      .6166      .3372  -117.9845  -999.2500  -999.2500
 4801.0000      .6160      .3521  -115.7830  -999.2500  -999.2500
 4801.5000      .5928      .3667  -112.3577  -999.2500  -999.2500
 4802.0000      .5408      .3812  -106.3820  -999.2500  -999.2500
 4802.5000      .4995      .3804  -100.9861  -999.2500  -999.2500
 4803.0000      .4713      .3779   -97.8655  -999.2500  -999.2500
 4803.5000      .4752      .3632   -99.3939  -999.2500  -999.2500
 4804.0000      .5184      .3484  -101.6428  -999.2500  -999.2500
 4804.5000      .5429      .3310  -101.3994  -999.2500  -999.2500
 4805.0000      .5570      .3142  -101.5580  -999.2500  -999.2500
 4805.5000      .5531      .3052  -102.6888  -999.2500  -999.2500
 4806.0000      .5414      .2964  -103.6681  -999.2500  -999.2500
 4806.5000      .5297      .2917  -104.1671  -999.2500  -999.2500
 4807.0000      .5196      .2870  -104.4435  -999.2500  -999.2500
 4807.5000      .5160      .2867  -106.2369  -999.2500  -999.2500
 4808.0000      .5371      .2874  -109.5984  -999.2500  -999.2500
 4808.5000      .5864      .2884  -111.2335  -999.2500  -999.2500
 4809.0000      .6267      .2904  -112.4523  -999.2500  -999.2500
 4809.5000      .6620      .2923  -113.2109  -999.2500  -999.2500
 4810.0000      .6829      .2945  -113.6637  -999.2500  -999.2500
 4810.5000      .6955      .2979  -114.0314  -999.2500  -999.2500
 4811.0000      .6930      .3012  -114.2656  -999.2500  -999.2500
 4811.5000      .6850      .3055  -114.3610  -999.2500  -999.2500
 4812.0000      .6671      .3144  -114.4563  -999.2500  -999.2500
 4812.5000      .6294      .3233  -114.3900  -999.2500  -999.2500
 4813.0000      .5998      .3324  -114.2998  -999.2500  -999.2500
 4813.5000      .5918      .3415  -114.2094  -999.2500  -999.2500
 4814.0000      .6039      .3491  -114.1189  -999.2500  -999.2500
 4814.5000      .6481      .3545  -113.9960  -999.2500  -999.2500
 4815.0000      .7151      .3599  -113.8459  -999.2500  -999.2500
 4815.5000      .7695      .3627  -113.7412  -999.2500  -999.2500
 4816.0000      .7884      .3652  -113.7305  -999.2500  -999.2500
 4816.5000      .7679      .3694  -114.0796  -999.2500  -999.2500
 4817.0000      .7108      .3741  -114.7589  -999.2500  -999.2500
 4817.5000      .6605      .3835  -115.4604  -999.2500  -999.2500
 4818.0000      .6356      .3940  -115.7280  -999.2500  -999.2500
 4818.5000      .6372      .4005  -115.6647  -999.2500  -999.2500
 4819.0000      .6533      .4060  -115.1993  -999.2500  -999.2500
 4819.5000      .6999      .4147  -114.6643  -999.2500  -999.2500
 4820.0000      .7736      .4295  -113.8811  -999.2500  -999.2500
 4820.5000      .8487      .4489  -112.6108  -999.2500  -999.2500
 4821.0000      .9152      .4729  -111.5007  -999.2500  -999.2500
 4821.5000      .9190      .4918  -110.7489  -999.2500  -999.2500
 4822.0000      .9014      .5051  -110.1970  -999.2500  -999.2500
 4822.5000      .9194      .5165  -109.7491  -999.2500  -999.2500
 4823.0000      .9358      .5234  -109.1752  -999.2500  -999.2500
 4823.5000      .9518      .5297  -108.5369  -999.2500  -999.2500
 4824.0000      .9699      .5381  -107.8937  -999.2500  -999.2500
 4824.5000      .9762      .5469  -107.2512  -999.2500  -999.2500
 4825.0000      .9782      .5447  -106.2904  -999.2500  -999.2500
 4825.5000      .9775      .5412  -105.1534  -999.2500  -999.2500
 4826.0000      .9812      .5281  -103.7098  -999.2500  -999.2500
 4826.5000     1.0050      .5150  -102.4899  -999.2500  -999.2500
 4827.0000     1.0196      .5023  -101.8925  -999.2500  -999.2500
 4827.5000     1.0312      .4897  -101.8131  -999.2500  -999.2500
 4828.0000     1.0611      .4801  -102.8167  -999.2500  -999.2500
 4828.5000     1.0799      .4709  -104.7271  -999.2500  -999.2500
 4829.0000     1.0867      .4684  -106.3611  -999.2500  -999.2500
 4829.5000     1.0946      .4671  -107.7678  -999.2500  -999.2500
 4830.0000     1.1173      .4700  -108.8920  -999.2500  -999.2500
 4830.5000     1.1210      .4757  -109.6671  -999.2500  -999.2500
 4831.0000     1.1409      .4816  -110.1616  -999.2500  -999.2500
 4831.5000     1.1488      .4883  -110.4059  -999.2500  -999.2500
 4832.0000     1.1488      .4948  -110.4498  -999.2500  -999.2500
 4832.5000     1.1565      .5001  -110.3768  -999.2500  -999.2500
 4833.0000     1.1738      .5022  -110.2781  -999.2500  -999.2500
 4833.5000     1.1910      .4923  -110.1654  -999.2500  -999.2500
 4834.0000     1.1998      .4833  -110.0336  -999.2500  -999.2500
 4834.5000     1.2054      .4724  -110.0730  -999.2500  -999.2500
 4835.0000     1.2085      .4538  -110.2852  -999.2500  -999.2500
 4835.5000     1.2063      .4331  -110.6844  -999.2500  -999.2500
 4836.0000     1.1751      .4112  -111.4215  -999.2500  -999.2500
 4836.5000     1.0929      .3939  -112.5248  -999.2500  -999.2500
 4837.0000      .9874      .3778  -113.8442  -999.2500  -999.2500
 4837.5000      .9059      .3657  -115.1724  -999.2500  -999.2500
 4838.0000      .8254      .3540  -116.4169  -999.2500  -999.2500
 4838.5000      .7574      .3476  -117.5706  -999.2500  -999.2500
 4839.0000      .7025      .3411  -118.5602  -999.2500  -999.2500
 4839.5000      .6650      .3383  -119.4109  -999.2500  -999.2500
 4840.0000      .6535      .3353  -120.1155  -999.2500  -999.2500
 4840.5000      .6357      .3299  -120.4583  -999.2500  -999.2500
 4841.0000      .6128      .3245  -120.6603  -999.2500  -999.2500
 4841.5000      .5918      .3233  -120.5807  -999.2500  -999.2500
 4842.0000      .5901      .3245  -120.4474  -999.2500  -999.2500
 4842.5000      .6160      .3257  -120.3083  -999.2500  -999.2500
 4843.0000      .6537      .3258  -119.9923  -999.2500  -999.2500
 4843.5000      .6757      .3258  -119.7040  -999.2500  -999.2500
 4844.0000      .6930      .3257  -119.6145  -999.2500  -999.2500
 4844.5000      .7035      .3298  -119.6213  -999.2500  -999.2500
 4845.0000      .7059      .3360  -119.9908  -999.2500  -999.2500
 4845.5000      .7059      .3422  -120.3864  -999.2500  -999.2500
 4846.0000      .7027      .3459  -120.9749  -999.2500  -999.2500
 4846.5000      .6984      .3470  -121.4451  -999.2500  -999.2500
 4847.0000      .6907      .3482  -121.8157  -999.2500  -999.2500
 4847.5000      .6800      .3468  -122.0338  -999.2500  -999.2500
 4848.0000      .6656      .3446  -122.1610  -999.2500  -999.2500
 4848.5000      .6423      .3447  -121.9437  -999.2500  -999.2500
 4849.0000      .6113      .3476  -121.6484  -999.2500  -999.2500
 4849.5000      .5741      .3495  -121.2003  -999.2500  -999.2500
 4850.0000      .5463      .3470  -120.7734  -999.2500  -999.2500
 4850.5000      .5338      .3444  -120.4116  -999.2500  -999.2500
 4851.0000      .5439      .3431  -120.1455  -999.2500  -999.2500
 4851.5000      .5722      .3419  -120.2963  -999.2500  -999.2500
 4852.0000      .5900      .3394  -120.7187  -999.2500  -999.2500
 4852.5000      .5961      .3365  -121.0557  -999.2500  -999.2500
 4853.0000      .5909      .3337  -121.2921  -999.2500  -999.2500
 4853.5000      .5892      .3308  -121.2769  -999.2500  -999.2500
 4854.0000      .5893      .3279  -121.2356  -999.2500  -999.2500
 4854.5000      .6048      .3248  -121.1163  -999.2500  -999.2500
 4855.0000      .6213      .3221  -120.9614  -999.2500  -999.2500
 4855.5000      .6319      .3209  -120.8064  -999.2500  -999.2500
 4856.0000      .6306      .3195  -120.7095  -999.2500  -999.2500
 4856.5000      .6105      .3160  -120.6287  -999.2500  -999.2500
 4857.0000      .5827      .3124  -120.6272  -999.2500  -999.2500
 4857.5000      .5525      .3084  -120.6617  -999.2500  -999.2500
 4858.0000      .5274      .3034  -120.8324  -999.2500  -999.2500
 4858.5000      .5041      .2983  -121.0490  -999.2500  -999.2500
 4859.0000      .4943      .2954  -121.3555  -999.2500  -999.2500
 4859.5000      .4927      .2942  -121.6835  -999.2500  -999.2500
 4860.0000      .5045      .2962  -121.9352  -999.2500  -999.2500
 4860.5000      .5243      .3034  -122.0938  -999.2500  -999.2500
