~VERSION INFORMATION
VERS.                             2.0:   CWLS Log ASCII Standard-VERSION 2.0
WRAP.                              NO:   One line per depth step
~Well Information Block
STRT.F                      2726.0000:   Top Depth
STOP.F                     13125.0000:   Bottom Depth
STEP.F                         .50000:   Depth Increment
NULL.                        -999.250:   Null Value
FLD .                      GA BLK 255:   Field Name
WELL.       OCSG01777  A007 ST00 BP00:   NAME
API .                  42706400190000:   WELL API
EDF .F                        92.0000:   ELEV DRILL FLOOR
COMP.       COASTAL STATES GAS PROD C:   OPERATOR
BN  .                             255:   BLOCK
CTRY.                             USA:   COUNTRY NAME
CNTY.                              GA:   COUNTY
CNTY.                        GLVSTN L:   COUNTY NAME
EKB .F                        93.0000:   ELEV KELLY BUSHING
TDD .F                      13136.000:   FINAL TD DRILLER
STAT.                           TEXAS:   STATE NAME
UWI .                  42706400190000:   WELL API
DICO.               IHS : Digitizing Company
~PARAMETER INFORMATION (zones)
#MNEM.UNIT                       Value     Description
#=========                       =====     ===========
#ZONATION                           IE:   ZONATION NAME
#ZONE                            RUN_1:   ZONE NAME
TOP .                       2726.0000:   TOP DEPTH
BOT .                       8780.5000:   BOTTOM DEPTH
RUN .                               1:   RUN NUMBER
LCCD.                             440:   LOGGING CONTRACTOR
SRVC.                    Schlumberger:   LOGGING CONT NAME
DICO.          QC Data Collectors Ltd:   DIG COMPANY NAME
LDAT.                      09/02/1973:   DATE LOGGED
ELD .F                        93.0000:   LOG DATUM ELEVATION
TDD .F                      8829.0000:   TOTAL DEPTH DRILLER
TDL .F                      8822.0000:   TOTAL DEPTH LOGGER
BOTL.F                      8821.0000:   BOTTOM DEPTH LOGGED
TOPL.F                      2726.0000:   TOP DEPTH LOGGED
CS1 .IN                       13.6250:   CASING SIZE 1
BS1 .IN                       12.2500:   BIT SIZE 1
DDB1.F                      8829.0000:   DEPTH DRILLED BIT 1
BHF .                              81:   FLUID CODE
DPT .          Lignosulfonate (Ligno):   DRILLING FLUID TYPE
MUDD.                         12.2000:   FLUID DENSITY
MUDV.                         44.0000:   FLUID VISCOSITY
DFPH.                         10.5000:   FLUID PH
FL  .                          2.0000:   FLUID LOSS
RM  .OHMM                       .9600:   RM
RMT .DEGF                     74.0000:   RM TEMP
RMF .OHMM                       .5900:   RMF
RMFT.DEGF                     71.0000:   RMF TEMP
FSC .                               M:   RMF CODE
RMC .OHMM                      1.8100:   RMC
RMCT.DEGF                     71.0000:   RMC TEMP
CMC .                               M:   RMC CODE
TMAX.DEGF                    160.0000:   MAX REC TEMP
TIMC.                         24.0000:   TIME SINCE CIRCLN
~PARAMETER INFORMATION (zones)
#MNEM.UNIT                       Value     Description
#=========                       =====     ===========
#ZONATION                           IE:   ZONATION NAME
#ZONE                            RUN_2:   ZONE NAME
TOP .                       8780.0000:   TOP DEPTH
BOT .                       9333.5000:   BOTTOM DEPTH
RUN .                               2:   RUN NUMBER
LCCD.                             440:   LOGGING CONTRACTOR
SRVC.                    Schlumberger:   LOGGING CONT NAME
DICO.          QC Data Collectors Ltd:   DIG COMPANY NAME
LDAT.                      09/09/1973:   DATE LOGGED
ELD .F                        93.0000:   LOG DATUM ELEVATION
TDD .F                      9340.0000:   TOTAL DEPTH DRILLER
TDL .F                      9334.0000:   TOTAL DEPTH LOGGER
BOTL.F                      9333.0000:   BOTTOM DEPTH LOGGED
TOPL.F                      8821.0000:   TOP DEPTH LOGGED
CS1 .IN                       13.3750:   CASING SIZE 1
BS1 .IN                       12.2500:   BIT SIZE 1
DDB1.F                      9340.0000:   DEPTH DRILLED BIT 1
BHF .                              99:   FLUID CODE
DPT .                   Miscellaneous:   DRILLING FLUID TYPE
MUDD.                         12.3000:   FLUID DENSITY
MUDV.                         46.0000:   FLUID VISCOSITY
DFPH.                         10.5000:   FLUID PH
FL  .                          3.2000:   FLUID LOSS
RM  .OHMM                       .6500:   RM
RMT .DEGF                     82.0000:   RM TEMP
RMF .OHMM                       .5000:   RMF
RMFT.DEGF                     82.0000:   RMF TEMP
FSC .                               M:   RMF CODE
RMC .OHMM                       .9600:   RMC
RMCT.DEGF                     82.0000:   RMC TEMP
CMC .                               M:   RMC CODE
TMAX.DEGF                    160.0000:   MAX REC TEMP
TIMC.                          4.0000:   TIME SINCE CIRCLN
~PARAMETER INFORMATION (zones)
#MNEM.UNIT                       Value     Description
#=========                       =====     ===========
#ZONATION                           IE:   ZONATION NAME
#ZONE                            RUN_3:   ZONE NAME
TOP .                       9343.0000:   TOP DEPTH
BOT .                      13125.5000:   BOTTOM DEPTH
RUN .                               3:   RUN NUMBER
LCCD.                             440:   LOGGING CONTRACTOR
SRVC.                    Schlumberger:   LOGGING CONT NAME
DICO.          QC Data Collectors Ltd:   DIG COMPANY NAME
LDAT.                      09/22/1973:   DATE LOGGED
ELD .F                        93.0000:   LOG DATUM ELEVATION
TDD .F                     13136.0000:   TOTAL DEPTH DRILLER
TDL .F                     13126.0000:   TOTAL DEPTH LOGGER
BOTL.F                     13125.0000:   BOTTOM DEPTH LOGGED
TOPL.F                      9343.0000:   TOP DEPTH LOGGED
CS1 .IN                        9.6250:   CASING SIZE 1
BS1 .IN                        8.5000:   BIT SIZE 1
DDB1.F                     13136.0000:   DEPTH DRILLED BIT 1
BHF .                              99:   FLUID CODE
DPT .                   Miscellaneous:   DRILLING FLUID TYPE
MUDD.                         16.5000:   FLUID DENSITY
MUDV.                         46.0000:   FLUID VISCOSITY
DFPH.                         11.0000:   FLUID PH
FL  .                          2.2000:   FLUID LOSS
RM  .OHMM                       .6100:   RM
RMT .DEGF                     80.0000:   RM TEMP
RMF .OHMM                       .2300:   RMF
RMFT.DEGF                     80.0000:   RMF TEMP
FSC .                               M:   RMF CODE
RMC .OHMM                      1.0000:   RMC
RMCT.DEGF                     80.0000:   RMC TEMP
CMC .                               M:   RMC CODE
TMAX.DEGF                    232.0000:   MAX REC TEMP
TIMC.                          7.0000:   TIME SINCE CIRCLN
~PARAMETER INFORMATION (zones)
#MNEM.UNIT                       Value     Description
#=========                       =====     ===========
#ZONATION                        SONIC:   ZONATION NAME
#ZONE                            RUN_1:   ZONE NAME
TOP .                       9343.0000:   TOP DEPTH
BOT .                      13014.5000:   BOTTOM DEPTH
RUN .                               1:   RUN NUMBER
LCCD.                             440:   LOGGING CONTRACTOR
SRVC.                    Schlumberger:   LOGGING CONT NAME
DICO.          QC Data Collectors Ltd:   DIG COMPANY NAME
LDAT.                      09/22/1973:   DATE LOGGED
ELD .F                        93.0000:   LOG DATUM ELEVATION
TDD .F                     13136.0000:   TOTAL DEPTH DRILLER
TDL .F                     13126.0000:   TOTAL DEPTH LOGGER
BOTL.F                     13014.0000:   BOTTOM DEPTH LOGGED
TOPL.F                      9343.0000:   TOP DEPTH LOGGED
CS1 .IN                        9.6250:   CASING SIZE 1
BS1 .IN                        8.5000:   BIT SIZE 1
DDB1.F                     13136.0000:   DEPTH DRILLED BIT 1
BHF .                              99:   FLUID CODE
DPT .                   Miscellaneous:   DRILLING FLUID TYPE
MUDD.                         16.5000:   FLUID DENSITY
MUDV.                         46.0000:   FLUID VISCOSITY
DFPH.                         11.0000:   FLUID PH
FL  .                          2.2000:   FLUID LOSS
RM  .OHMM                       .6100:   RM
RMT .DEGF                     80.0000:   RM TEMP
RMF .OHMM                       .2400:   RMF
RMFT.DEGF                     80.0000:   RMF TEMP
FSC .                               M:   RMF CODE
RMC .OHMM                      1.0000:   RMC
RMCT.DEGF                     80.0000:   RMC TEMP
CMC .                               M:   RMC CODE
TMAX.DEGF                    232.0000:   MAX REC TEMP
TIMC.                          6.0000:   TIME SINCE CIRCLN
~Curve Information Block
#MNEM.UNIT                    API CODE    No Description
#=========                    ========    == ===========
DEPT.F                   00 001 00 00:     1  DEPTH
ASN.OHMM                             :     2  Short-Normal Resistivity
ILD.OHMM                             :     3  Deep Induction Resistivity
SP.MV                                :     4  Spontaneous Potential
CALI.IN                              :     5  Caliper
DT.US/F                              :     6  Sonic Transit Time
~ASCII
# ...
13035.0000      .9295      .6492   -40.5500  -999.2500  -999.2500
13035.5000      .9152      .6340   -40.5766  -999.2500  -999.2500
13036.0000      .9046      .6193   -40.6509  -999.2500  -999.2500
13036.5000      .8997      .6063   -40.7780  -999.2500  -999.2500
13037.0000      .9037      .5986   -40.8114  -999.2500  -999.2500
13037.5000      .9150      .5970   -40.8257  -999.2500  -999.2500
13038.0000      .9270      .6182   -40.7717  -999.2500  -999.2500
13038.5000      .9407      .6587   -40.7858  -999.2500  -999.2500
13039.0000      .9690      .7182   -40.8817  -999.2500  -999.2500
13039.5000     1.0225      .7805   -41.0005  -999.2500  -999.2500
13040.0000     1.0944      .8308   -41.2449  -999.2500  -999.2500
13040.5000     1.1620      .8751   -41.6734  -999.2500  -999.2500
13041.0000     1.1896      .9295   -42.2444  -999.2500  -999.2500
13041.5000     1.1893      .9847   -42.7675  -999.2500  -999.2500
13042.0000     1.2217     1.0406   -43.0747  -999.2500  -999.2500
13042.5000     1.3089     1.1051   -42.8558  -999.2500  -999.2500
13043.0000     1.3355     1.1379   -42.3426  -999.2500  -999.2500
13043.5000     1.3491     1.0677   -42.4016  -999.2500  -999.2500
13044.0000     1.3411      .9852   -43.2426  -999.2500  -999.2500
13044.5000     1.2770      .9301   -43.9149  -999.2500  -999.2500
13045.0000     1.2375      .8777   -44.2863  -999.2500  -999.2500
13045.5000     1.1832      .8219   -44.2047  -999.2500  -999.2500
13046.0000     1.1054      .7634   -43.5778  -999.2500  -999.2500
13046.5000     1.0172      .7066   -42.4028  -999.2500  -999.2500
13047.0000      .9530      .6679   -42.0104  -999.2500  -999.2500
13047.5000      .9033      .6425   -41.8029  -999.2500  -999.2500
13048.0000      .8809      .6213   -41.5678  -999.2500  -999.2500
13048.5000      .8856      .6069   -41.1976  -999.2500  -999.2500
13049.0000      .8862      .6001   -40.9514  -999.2500  -999.2500
13049.5000      .8713      .6000   -40.7758  -999.2500  -999.2500
13050.0000      .8556      .6068   -40.6039  -999.2500  -999.2500
13050.5000      .8564      .6230   -40.4976  -999.2500  -999.2500
13051.0000      .8704      .6379   -40.4267  -999.2500  -999.2500
13051.5000      .8759      .6514   -40.3634  -999.2500  -999.2500
13052.0000      .8821      .6670   -40.3107  -999.2500  -999.2500
13052.5000      .8938      .6833   -40.2834  -999.2500  -999.2500
13053.0000      .9158      .6988   -40.3517  -999.2500  -999.2500
13053.5000      .9357      .7143   -40.5345  -999.2500  -999.2500
13054.0000      .9255      .7274   -40.7587  -999.2500  -999.2500
13054.5000      .8803      .7367   -40.9827  -999.2500  -999.2500
13055.0000      .9159      .7321   -41.1160  -999.2500  -999.2500
13055.5000      .9736      .7268   -41.1796  -999.2500  -999.2500
13056.0000      .9603      .6978   -41.1732  -999.2500  -999.2500
13056.5000      .9229      .6633   -41.1234  -999.2500  -999.2500
13057.0000      .9152      .6308   -41.0313  -999.2500  -999.2500
13057.5000      .9213      .6287   -40.9391  -999.2500  -999.2500
13058.0000      .9119      .6485   -40.8185  -999.2500  -999.2500
13058.5000      .9118      .6757   -40.6957  -999.2500  -999.2500
13059.0000      .9267      .7086   -40.5742  -999.2500  -999.2500
13059.5000      .9451      .7380   -40.4539  -999.2500  -999.2500
13060.0000      .9627      .7605   -40.3374  -999.2500  -999.2500
13060.5000      .9583      .7751   -40.3113  -999.2500  -999.2500
13061.0000      .9370      .7812   -40.2858  -999.2500  -999.2500
13061.5000      .9696      .7731   -40.2644  -999.2500  -999.2500
13062.0000      .9929      .7529   -40.2430  -999.2500  -999.2500
13062.5000      .9838      .7311   -40.1926  -999.2500  -999.2500
13063.0000      .9609      .7073   -40.1412  -999.2500  -999.2500
13063.5000      .9324      .6840   -40.0678  -999.2500  -999.2500
13064.0000      .9089      .6635   -39.9796  -999.2500  -999.2500
13064.5000      .8877      .6438   -39.8893  -999.2500  -999.2500
13065.0000      .8732      .6345   -39.7948  -999.2500  -999.2500
13065.5000      .8721      .6337   -39.7116  -999.2500  -999.2500
13066.0000      .8840      .6411   -39.6390  -999.2500  -999.2500
13066.5000      .8859      .6509   -39.5947  -999.2500  -999.2500
13067.0000      .8871      .6587   -39.5614  -999.2500  -999.2500
13067.5000      .8946      .6642   -39.5252  -999.2500  -999.2500
13068.0000      .8814      .6660   -39.4808  -999.2500  -999.2500
13068.5000      .8609      .6652   -39.4365  -999.2500  -999.2500
13069.0000      .8684      .6593   -39.4160  -999.2500  -999.2500
13069.5000      .8765      .6515   -39.4099  -999.2500  -999.2500
13070.0000      .8764      .6409   -39.3746  -999.2500  -999.2500
13070.5000      .8774      .6218   -39.3293  -999.2500  -999.2500
13071.0000      .8805      .6005   -39.2760  -999.2500  -999.2500
13071.5000      .8719      .5837   -39.2286  -999.2500  -999.2500
13072.0000      .8584      .5937   -39.2435  -999.2500  -999.2500
13072.5000      .8585      .6144   -39.2786  -999.2500  -999.2500
13073.0000      .8697      .6460   -39.3318  -999.2500  -999.2500
13073.5000      .8974      .6865   -39.4326  -999.2500  -999.2500
13074.0000      .9567      .7345   -39.5477  -999.2500  -999.2500
13074.5000     1.0259      .7702   -39.6864  -999.2500  -999.2500
13075.0000     1.0670      .8039   -39.9839  -999.2500  -999.2500
13075.5000     1.0445      .8290   -40.3436  -999.2500  -999.2500
13076.0000     1.0678      .8335   -40.5508  -999.2500  -999.2500
13076.5000     1.1009      .8177   -40.6180  -999.2500  -999.2500
13077.0000     1.0806      .7876   -40.4443  -999.2500  -999.2500
13077.5000      .9338      .7479   -40.2123  -999.2500  -999.2500
13078.0000      .8868      .7002   -40.0431  -999.2500  -999.2500
13078.5000      .8427      .6435   -39.9510  -999.2500  -999.2500
13079.0000      .8048      .5827   -39.8728  -999.2500  -999.2500
13079.5000      .7726      .5346   -39.8379  -999.2500  -999.2500
13080.0000      .7391      .5126   -39.8030  -999.2500  -999.2500
13080.5000      .7213      .5103   -39.8265  -999.2500  -999.2500
13081.0000      .7114      .5165   -39.8583  -999.2500  -999.2500
13081.5000      .7067      .5235   -39.8574  -999.2500  -999.2500
13082.0000      .7049      .5192   -39.8298  -999.2500  -999.2500
13082.5000      .7043      .5148   -39.8022  -999.2500  -999.2500
13083.0000      .7028      .5097   -39.7609  -999.2500  -999.2500
13083.5000      .6937      .5022   -39.7156  -999.2500  -999.2500
13084.0000      .6828      .4954   -39.6772  -999.2500  -999.2500
13084.5000      .6731      .4887   -39.6733  -999.2500  -999.2500
13085.0000      .6688      .4815   -39.6743  -999.2500  -999.2500
13085.5000      .6647      .4748   -39.7256  -999.2500  -999.2500
13086.0000      .6590      .4687   -39.7768  -999.2500  -999.2500
13086.5000      .6542      .4643   -39.8486  -999.2500  -999.2500
13087.0000      .6517      .4599   -39.9220  -999.2500  -999.2500
13087.5000      .6512      .4555   -39.9875  -999.2500  -999.2500
13088.0000      .6529      .4514   -40.0282  -999.2500  -999.2500
13088.5000      .6560      .4448   -40.0689  -999.2500  -999.2500
13089.0000      .6617      .4419   -40.1047  -999.2500  -999.2500
13089.5000      .6728      .4550   -40.1197  -999.2500  -999.2500
13090.0000      .6929      .4862   -40.1346  -999.2500  -999.2500
13090.5000      .7157      .5256   -40.1463  -999.2500  -999.2500
13091.0000      .7302      .5665   -40.1457  -999.2500  -999.2500
13091.5000      .7392      .6078   -40.1451  -999.2500  -999.2500
13092.0000      .7688      .6424   -40.1223  -999.2500  -999.2500
13092.5000      .8284      .6676   -40.0890  -999.2500  -999.2500
13093.0000      .8725      .6856   -40.0630  -999.2500  -999.2500
13093.5000      .8814      .6899   -40.0607  -999.2500  -999.2500
13094.0000      .8243      .6740   -40.0585  -999.2500  -999.2500
13094.5000      .8053      .6419   -40.1051  -999.2500  -999.2500
13095.0000      .7882      .6090   -40.1545  -999.2500  -999.2500
13095.5000      .7455      .5759   -40.1809  -999.2500  -999.2500
