~VERSION INFORMATION
VERS.                             2.0:   CWLS Log ASCII Standard-VERSION 2.0
WRAP.                              NO:   One line per depth step
~Well Information Block
STRT.F                      2726.0000:   Top Depth
STOP.F                     13125.0000:   Bottom Depth
STEP.F                         .50000:   Depth Increment
NULL.                        -999.250:   Null Value
FLD .                      GA BLK 255:   Field Name
WELL.       OCSG01777  A007 ST00 BP00:   NAME
API .                  42706400190000:   WELL API
EDF .F                        92.0000:   ELEV DRILL FLOOR
COMP.       COASTAL STATES GAS PROD C:   OPERATOR
BN  .                             255:   BLOCK
CTRY.                             USA:   COUNTRY NAME
CNTY.                              GA:   COUNTY
CNTY.                        GLVSTN L:   COUNTY NAME
EKB .F                        93.0000:   ELEV KELLY BUSHING
TDD .F                      13136.000:   FINAL TD DRILLER
STAT.                           TEXAS:   STATE NAME
UWI .                  42706400190000:   WELL API
DICO.               IHS : Digitizing Company
~PARAMETER INFORMATION (zones)
#MNEM.UNIT                       Value     Description
#=========                       =====     ===========
#ZONATION                           IE:   ZONATION NAME
#ZONE                            RUN_1:   ZONE NAME
TOP .                       2726.0000:   TOP DEPTH
BOT .                       8780.5000:   BOTTOM DEPTH
RUN .                               1:   RUN NUMBER
LCCD.                             440:   LOGGING CONTRACTOR
SRVC.                    Schlumberger:   LOGGING CONT NAME
DICO.          QC Data Collectors Ltd:   DIG COMPANY NAME
LDAT.                      09/02/1973:   DATE LOGGED
ELD .F                        93.0000:   LOG DATUM ELEVATION
TDD .F                      8829.0000:   TOTAL DEPTH DRILLER
TDL .F                      8822.0000:   TOTAL DEPTH LOGGER
BOTL.F                      8821.0000:   BOTTOM DEPTH LOGGED
TOPL.F                      2726.0000:   TOP DEPTH LOGGED
CS1 .IN                       13.6250:   CASING SIZE 1
BS1 .IN                       12.2500:   BIT SIZE 1
DDB1.F                      8829.0000:   DEPTH DRILLED BIT 1
BHF .                              81:   FLUID CODE
DPT .          Lignosulfonate (Ligno):   DRILLING FLUID TYPE
MUDD.                         12.2000:   FLUID DENSITY
MUDV.                         44.0000:   FLUID VISCOSITY
DFPH.                         10.5000:   FLUID PH
FL  .                          2.0000:   FLUID LOSS
RM  .OHMM                       .9600:   RM
RMT .DEGF                     74.0000:   RM TEMP
RMF .OHMM                       .5900:   RMF
RMFT.DEGF                     71.0000:   RMF TEMP
FSC .                               M:   RMF CODE
RMC .OHMM                      1.8100:   RMC
RMCT.DEGF                     71.0000:   RMC TEMP
CMC .                               M:   RMC CODE
TMAX.DEGF                    160.0000:   MAX REC TEMP
TIMC.                         24.0000:   TIME SINCE CIRCLN
~PARAMETER INFORMATION (zones)
#MNEM.UNIT                       Value     Description
#=========                       =====     ===========
#ZONATION                           IE:   ZONATION NAME
#ZONE                            RUN_2:   ZONE NAME
TOP .                       8780.0000:   TOP DEPTH
BOT .                       9333.5000:   BOTTOM DEPTH
RUN .                               2:   RUN NUMBER
LCCD.                             440:   LOGGING CONTRACTOR
SRVC.                    Schlumberger:   LOGGING CONT NAME
DICO.          QC Data Collectors Ltd:   DIG COMPANY NAME
LDAT.                      09/09/1973:   DATE LOGGED
ELD .F                        93.0000:   LOG DATUM ELEVATION
TDD .F                      9340.0000:   TOTAL DEPTH DRILLER
TDL .F                      9334.0000:   TOTAL DEPTH LOGGER
BOTL.F                      9333.0000:   BOTTOM DEPTH LOGGED
TOPL.F                      8821.0000:   TOP DEPTH LOGGED
CS1 .IN                       13.3750:   CASING SIZE 1
BS1 .IN                       12.2500:   BIT SIZE 1
DDB1.F                      9340.0000:   DEPTH DRILLED BIT 1
BHF .                              99:   FLUID CODE
DPT .                   Miscellaneous:   DRILLING FLUID TYPE
MUDD.                         12.3000:   FLUID DENSITY
MUDV.                         46.0000:   FLUID VISCOSITY
DFPH.                         10.5000:   FLUID PH
FL  .                          3.2000:   FLUID LOSS
RM  .OHMM                       .6500:   RM
RMT .DEGF                     82.0000:   RM TEMP
RMF .OHMM                       .5000:   RMF
RMFT.DEGF                     82.0000:   RMF TEMP
FSC .                               M:   RMF CODE
RMC .OHMM                       .9600:   RMC
RMCT.DEGF                     82.0000:   RMC TEMP
CMC .                               M:   RMC CODE
TMAX.DEGF                    160.0000:   MAX REC TEMP
TIMC.                          4.0000:   TIME SINCE CIRCLN
~PARAMETER INFORMATION (zones)
#MNEM.UNIT                       Value     Description
#=========                       =====     ===========
#ZONATION                           IE:   ZONATION NAME
#ZONE                            RUN_3:   ZONE NAME
TOP .                       9343.0000:   TOP DEPTH
BOT .                      13125.5000:   BOTTOM DEPTH
RUN .                               3:   RUN NUMBER
LCCD.                             440:   LOGGING CONTRACTOR
SRVC.                    Schlumberger:   LOGGING CONT NAME
DICO.          QC Data Collectors Ltd:   DIG COMPANY NAME
LDAT.                      09/22/1973:   DATE LOGGED
ELD .F                        93.0000:   LOG DATUM ELEVATION
TDD .F                     13136.0000:   TOTAL DEPTH DRILLER
TDL .F                     13126.0000:   TOTAL DEPTH LOGGER
BOTL.F                     13125.0000:   BOTTOM DEPTH LOGGED
TOPL.F                      9343.0000:   TOP DEPTH LOGGED
CS1 .IN                        9.6250:   CASING SIZE 1
BS1 .IN                        8.5000:   BIT SIZE 1
DDB1.F                     13136.0000:   DEPTH DRILLED BIT 1
BHF .                              99:   FLUID CODE
DPT .                   Miscellaneous:   DRILLING FLUID TYPE
MUDD.                         16.5000:   FLUID DENSITY
MUDV.                         46.0000:   FLUID VISCOSITY
DFPH.                         11.0000:   FLUID PH
FL  .                          2.2000:   FLUID LOSS
RM  .OHMM                       .6100:   RM
RMT .DEGF                     80.0000:   RM TEMP
RMF .OHMM                       .2300:   RMF
RMFT.DEGF                     80.0000:   RMF TEMP
FSC .                               M:   RMF CODE
RMC .OHMM                      1.0000:   RMC
RMCT.DEGF                     80.0000:   RMC TEMP
CMC .                               M:   RMC CODE
TMAX.DEGF                    232.0000:   MAX REC TEMP
TIMC.                          7.0000:   TIME SINCE CIRCLN
~PARAMETER INFORMATION (zones)
#MNEM.UNIT                       Value     Description
#=========                       =====     ===========
#ZONATION                        SONIC:   ZONATION NAME
#ZONE                            RUN_1:   ZONE NAME
TOP .                       9343.0000:   TOP DEPTH
BOT .                      13014.5000:   BOTTOM DEPTH
RUN .                               1:   RUN NUMBER
LCCD.                             440:   LOGGING CONTRACTOR
SRVC.                    Schlumberger:   LOGGING CONT NAME
DICO.          QC Data Collectors Ltd:   DIG COMPANY NAME
LDAT.                      09/22/1973:   DATE LOGGED
ELD .F                        93.0000:   LOG DATUM ELEVATION
TDD .F                     13136.0000:   TOTAL DEPTH DRILLER
TDL .F                     13126.0000:   TOTAL DEPTH LOGGER
BOTL.F                     13014.0000:   BOTTOM DEPTH LOGGED
TOPL.F                      9343.0000:   TOP DEPTH LOGGED
CS1 .IN                        9.6250:   CASING SIZE 1
BS1 .IN                        8.5000:   BIT SIZE 1
DDB1.F                     13136.0000:   DEPTH DRILLED BIT 1
BHF .                              99:   FLUID CODE
DPT .                   Miscellaneous:   DRILLING FLUID TYPE
MUDD.                         16.5000:   FLUID DENSITY
MUDV.                         46.0000:   FLUID VISCOSITY
DFPH.                         11.0000:   FLUID PH
FL  .                          2.2000:   FLUID LOSS
RM  .OHMM                       .6100:   RM
RMT .DEGF                     80.0000:   RM TEMP
RMF .OHMM                       .2400:   RMF
RMFT.DEGF                     80.0000:   RMF TEMP
FSC .                               M:   RMF CODE
RMC .OHMM                      1.0000:   RMC
RMCT.DEGF                     80.0000:   RMC TEMP
CMC .                               M:   RMC CODE
TMAX.DEGF                    232.0000:   MAX REC TEMP
TIMC.                          6.0000:   TIME SINCE CIRCLN
~Curve Information Block
#MNEM.UNIT                    API CODE    No Description
#=========                    ========    == ===========
DEPT.F                   00 001 00 00:     1  DEPTH
ASN.OHMM                             :     2  Short-Normal Resistivity
ILD.OHMM                             :     3  Deep Induction Resistivity
SP.MV                                :     4  Spontaneous Potential
CALI.IN                              :     5  Caliper
DT.US/F                              :     6  Sonic Transit Time
~ASCII
# ...
 9619.0000      .5805      .6203   -48.2504     9.3263   116.8333
 9619.5000      .6119      .6524   -48.6638     9.3665   115.6982
 9620.0000      .6495      .6730   -49.0926     9.4352   113.7236
 9620.5000      .6788      .6767   -49.3985     9.5067   111.9940
 9621.0000      .6977      .6735   -49.6310     9.5607   111.1188
 9621.5000      .7056      .6704   -49.8051     9.5842   108.9767
 9622.0000      .7104      .6660   -49.8884     9.5710   106.1256
 9622.5000      .7084      .6592   -49.9717     9.5121   105.3131
 9623.0000      .7023      .6524   -49.9072     9.4397   107.5487
 9623.5000      .6927      .6455   -49.8370     9.4077   109.9664
 9624.0000      .6832      .6364   -49.7501     9.3906   111.6924
 9624.5000      .6743      .6254   -49.5876     9.3833   112.3522
 9625.0000      .6683      .6144   -49.4370     9.3790   110.5106
 9625.5000      .6625      .6037   -49.3614     9.3785   109.1638
 9626.0000      .6576      .5961   -49.4155     9.3694   109.4039
 9626.5000      .6526      .5885   -49.3922     9.3543   110.0206
 9627.0000      .6475      .5806   -49.3034     9.3278   111.2960
 9627.5000      .6421      .5723   -49.1337     9.3067   111.9694
 9628.0000      .6353      .5643   -48.8616     9.2913   112.0875
 9628.5000      .6290      .5609   -48.6957     9.3089   113.0046
 9629.0000      .6232      .5575   -48.6445     9.3269   114.5188
 9629.5000      .6180      .5537   -48.6074     9.3370   115.9026
 9630.0000      .6130      .5497   -48.6104     9.3375   116.8424
 9630.5000      .6073      .5457   -48.6134     9.3232   117.2592
 9631.0000      .6013      .5424   -48.6227     9.2924   117.9535
 9631.5000      .5959      .5392   -48.6127     9.2637   117.1902
 9632.0000      .5908      .5360   -48.5448     9.2379   115.7942
 9632.5000      .5866      .5320   -48.4792     9.2364   114.8093
 9633.0000      .5826      .5274   -48.4141     9.2543   114.6217
 9633.5000      .5781      .5228   -48.4113     9.2871   115.4791
 9634.0000      .5731      .5185   -48.4695     9.3101   118.0790
 9634.5000      .5681      .5149   -48.5314     9.3263   119.8517
 9635.0000      .5631      .5114   -48.6010     9.3345   120.3386
 9635.5000      .5589      .5035   -48.5125     9.3360   120.2317
 9636.0000      .5556      .4955   -48.4049     9.3343   119.9146
 9636.5000      .5526      .4896   -48.2960     9.3365   118.3990
 9637.0000      .5497      .4840   -48.3193     9.3493   117.6727
 9637.5000      .5457      .4770   -48.3711     9.3624   117.2203
 9638.0000      .5407      .4696   -48.6294     9.3645   117.7885
 9638.5000      .5347      .4626   -48.9279     9.3298   119.6350
 9639.0000      .5292      .4624   -49.0624     9.2905   121.5728
 9639.5000      .5239      .4622   -48.9844     9.2373   122.9583
 9640.0000      .5194      .4619   -48.8646     9.1961   122.6918
 9640.5000      .5160      .4617   -48.8508     9.2019   123.1017
 9641.0000      .5142      .4625   -48.8570     9.2435   124.0902
 9641.5000      .5129      .4641   -48.9344     9.2930   124.8097
 9642.0000      .5150      .4656   -48.8175     9.3416   124.7512
 9642.5000      .5170      .4671   -48.6454     9.3750   123.3479
 9643.0000      .5211      .4687   -48.3690     9.3897   121.6810
 9643.5000      .5260      .4702   -48.1773     9.3930   120.0315
 9644.0000      .5319      .4718   -48.0360     9.3920   118.5789
 9644.5000      .5375      .4733   -48.2047     9.3891   117.9653
 9645.0000      .5426      .4748   -48.3205     9.3861   118.5493
 9645.5000      .5335      .4765   -48.2565     9.3808   120.2432
 9646.0000      .5284      .4794   -47.8364     9.3428   122.4246
 9646.5000      .5239      .4823   -47.6877     9.2979   123.8367
 9647.0000      .5264      .4855   -47.9282     9.2877   124.5106
 9647.5000      .5290      .4898   -48.1365     9.2847   123.2100
 9648.0000      .5358      .4940   -48.0723     9.2829   120.8932
 9648.5000      .5428      .4979   -47.8539     9.2824   117.7441
 9649.0000      .5481      .5010   -47.6874     9.3001   117.0192
 9649.5000      .5528      .5041   -47.6200     9.3125   116.6578
 9650.0000      .5566      .5093   -47.6450     9.2975   116.4602
 9650.5000      .5566      .5156   -47.6928     9.2681   117.8969
 9651.0000      .5563      .5177   -47.7573     9.2496   118.8239
 9651.5000      .5555      .5185   -47.7508     9.2448   119.0997
 9652.0000      .5564      .5174   -47.7230     9.2387   118.8657
 9652.5000      .5606      .5187   -47.6675     9.2514   118.2268
 9653.0000      .5659      .5170   -47.6217     9.2869   116.8677
 9653.5000      .5670      .5188   -47.6186     9.3252   115.6785
 9654.0000      .5653      .5207   -47.6155     9.3456   114.9238
 9654.5000      .5605      .5161   -47.6152     9.3271   115.9222
 9655.0000      .5604      .5111   -47.6179     9.2519   117.4882
 9655.5000      .5607      .5081   -47.6251     9.1954   118.3818
 9656.0000      .5596      .5063   -47.6206     9.1687   119.1132
 9656.5000      .5576      .5060   -47.5427     9.1664   119.6271
 9657.0000      .5593      .5079   -47.3560     9.1957   119.0035
 9657.5000      .5603      .5097   -47.2084     9.2479   118.1973
 9658.0000      .5597      .5115   -47.0989     9.2844   117.5922
 9658.5000      .5576      .5133   -47.0706     9.2980   116.9871
 9659.0000      .5547      .5151   -47.0529     9.2846   117.9731
 9659.5000      .5545      .5129   -47.0504     9.2577   120.2850
 9660.0000      .5553      .5077   -47.0493     9.2490   121.0908
 9660.5000      .5594      .5026   -47.0718     9.2542   119.9724
 9661.0000      .5635      .5002   -47.1141     9.2742   117.2345
 9661.5000      .5677      .4987   -47.1624     9.3083   115.8336
 9662.0000      .5697      .4972   -47.2150     9.3432   115.2408
 9662.5000      .5688      .4956   -47.2249     9.3596   115.4213
 9663.0000      .5679      .4934   -47.2198     9.3629   115.9518
 9663.5000      .5648      .4911   -47.1689     9.3536   116.8185
 9664.0000      .5613      .4887   -47.1058     9.3454   117.7719
 9664.5000      .5592      .4859   -47.0254     9.3395   117.9865
 9665.0000      .5584      .4830   -46.9407     9.3337   118.3363
 9665.5000      .5592      .4800   -46.8411     9.3279   118.5222
 9666.0000      .5604      .4780   -46.7393     9.3221   118.3492
 9666.5000      .5617      .4762   -46.6324     9.3188   117.9337
 9667.0000      .5628      .4770   -46.5372     9.3161   117.4340
 9667.5000      .5638      .4788   -46.5558     9.3080   116.8591
 9668.0000      .5627      .4792   -46.5743     9.2992   116.6002
 9668.5000      .5613      .4789   -46.6148     9.2873   116.1808
 9669.0000      .5595      .4830   -46.6570     9.2764   115.6908
 9669.5000      .5577      .4861   -46.6249     9.2687   115.1603
 9670.0000      .5561      .4875   -46.5894     9.2542   114.6519
 9670.5000      .5544      .4872   -46.5673     9.2360   115.5087
 9671.0000      .5564      .4876   -46.5496     9.2222   116.2269
 9671.5000      .5601      .4894   -46.9647     9.2235   115.9702
 9672.0000      .5671      .4989   -47.5415     9.2329   116.1561
 9672.5000      .5826      .5172   -48.3524     9.2428   116.6116
 9673.0000      .5994      .5386   -48.7799     9.2422   115.3436
 9673.5000      .6189      .5626   -48.6988     9.2487   114.0880
 9674.0000      .6385      .5865   -48.6733     9.2744   112.6600
 9674.5000      .6588      .6015   -48.8990     9.3357   108.9619
 9675.0000      .6795      .6153   -49.3229     9.4043   106.7732
 9675.5000      .6978      .6332   -49.7041     9.4411   106.0758
 9676.0000      .7109      .6402   -49.7736     9.4299   105.8262
 9676.5000      .7114      .6420   -49.8432     9.3900   105.8203
 9677.0000      .7077      .6400   -49.7919     9.3716   107.2729
 9677.5000      .6973      .6373   -49.5708     9.3664   107.8380
 9678.0000      .6869      .6331   -49.3358     9.3927   108.3993
 9678.5000      .6746      .6239   -48.9722     9.4077   109.0616
 9679.0000      .6617      .6180   -48.5815     9.4115   109.4973
 9679.5000      .6513      .6142   -48.1484     9.4089   109.6362
