~Version Information
#Created by IHS Markit
VERS.      2.0                       : CWLS Log Ascii Standard - Version 2.0
WRAP.      NO                        : One line per depth step
CRTR.      IHS Markit                : File Creator
~Well Information
#MNEM.UNIT         DATA              : DESCRIPTION
#----.----     -------------         : -------------------
STRT.F      3912.0000                           : START DEPTH
STOP.F      6144.0000                           : STOP DEPTH
STEP.F         0.5000                           : DEPTH INCREMENT
NULL.        -999.2500                           : Null Value
COMP.      GOM SHELF LLC                         : Company
WELL.      OCSG03011 A006                        : Well Name
FLD .      MU A 16                               : Field
LOC .      RIG MAYRONNE 162                      : Location
CTRY.      UNITED STATES                         : Country
STAT.      TEXAS                                 : State
CNTY.      MUSTANG ISLAND                        : County
API .      427024017500                        : API Well Number
UWI .      427024017500                        : Unique Well ID
LIC .      G03011                                : Licence Number
TWP .                                            : Township
RGE .                                            : Range
SEC .                                            : Section
LAT .                                            : Latitude
LONG.                                            : Longitude
~Parameter Information
#MNEM.UNIT         DATA                DESCRIPTION
#----.----         -------           : -------------------
RUN .      1                                     : Run Number
PASS.                                            : Pass Number
DATE.      1989-09-11                            : Log Date
SRVC.      SCHLUMBERGER                          : Service Company
LSRV.      DITE/CND                              : Log Mnemonic
PDAT.      WL                                    : Permanent Datum Reference
EPD .F         0.0000                           : ELEVATION OF PERM. DATUM
EGL .F         0.0000                           : ELEVATION GROUND LEVEL
EKB .F       110.0000                           : ELEVATION KELLY BUSHING
EDF .F       109.0000                           : ELEVATION DERRICK FLOOR
APD .F       110.0000                           : ABOVE PERMANENT DATUM
LMF .      KB                                    : Log Measured From
EREF.F    110                                   : ELEVATION OF DEPTH REFERENCE
DMF .      KB                                    : Drilling Measured From
TDL .F      6109.0000                           : TOTAL DEPTH, LOGGER
TDD .F      6109.0000                           : TOTAL DEPTH, DRILLER
BLI .F      6094.0000                           : BOTTOM OF LOGGED INTERVAL
TLI .F      4073.0000                           : TOP OF LOGGED INTERVAL
CSGS1.IN        13.3750                           : Casing Size 1
CSGW1.LB/FT                                       : Casing Weight 1
CSGL1.F      4073.0000                           : CASING BOTTOM LOGGER 1
CSGD1.F      4083.0000                           : CASING BOTTOM DRILLER 1
CSGS2.IN         9.6250                           : Casing Size 2
CSGW2.LB/FT                                       : Casing Weight 2
CSGL2.F                                          : CASING BOTTOM LOGGER 2
CSGD2.F                                          : CASING BOTTOM DRILLER 2
BS1 .IN        12.2500                           : Bit Size 1
DDB1.F      6109.0000                           : BIT SIZE DEPTH 1
MUD .      UNICAL                                : Mud Type
MUDD.LB/GAL    10.8000                           : Mud Density
MUDV.S         38.0000                           : Mud Viscosity
FL  .CM3        6.8000                           : Fluid Loss
FLT .DEGF                                        : Fluid Loss Temperature
PH  .           9.5000                           : Mud PH
MUDS.      FLOWLINE                              : Mud Sample Location
RM  .OHMM       0.4180                           : Mud Resistivity
RMT .DEGF      74.0000                           : Mud Temperature
RMC .OHMM       0.7780                           : Mud Cake Resistivity
RMCT.DEGF      74.0000                           : Mud Cake Temperature
RMCS.      MEASURED                              : Mud Cake Source
RMF .OHMM       0.2690                           : Mud Filtrate Resistivity
RMFT.DEGF      74.0000                           : Mud Filtrate Temperature
RMFS.      MEASURED                              : Mud Filtrate Source
TMAX.DEGF     144.0000                           : Max Temperature
TIMC.      1989-09-11 22:30                      : Date Time Circulation Stopped
TIML.      1989-09-11 21:12                      : Date TIme Logger On Bottom
TSC .                                            : Time Since Circulation Stopped
UNIT.      506                                   : Unit Number
BASE.      CCOS                                  : Logging Unit Home Base
ENG .      WITKOWSKY                             : Recording Engineer
WIT .      POULIN                                : Witnessed By
DIGS.      IHS MARKIT                            : Digitizing Company
~Curve Information
#MNEM.UNIT         API  CODE                      : CURVE DESCRIPTION
#----.----        ------------                    : -----------------
 DEPT.F          00 001 00 00                    : MEASURED DEPTH
 CALR.IN          00 000 00 00                    : Caliper (Resistivity)
 GRR .GAPI        00 000 00 00                    : Gamma Ray Resistivity Device
 SP  .MV          00 000 00 00                    : Spontaneous Potential
 TENR.LB          00 000 00 00                    : Tension Resistivity Device
 DPSS.V/V         00 000 00 00                    : Density Porosity Sandstone
 DRHO.G/CM3       00 000 00 00                    : Density Correction
 NPSS.V/V         00 000 00 00                    : Neutron Porosity Sandstone
 IDPH.OHMM        00 000 00 00                    : Induction Deep Phasor Resistivity
 IMPH.OHMM        00 000 00 00                    : Induction Medium Phasor Resistivity
 SFL .OHMM        00 000 00 00                    : Spherically Focussed Log
~A    DEPT        CALR         GRR          SP        TENR        DPSS        DRHO        NPSS        IDPH        IMPH         SFL
# ...
   5528.5000     14.1569     76.2000    -11.4000    666.6667      0.2173      0.0185      0.3143      1.4607      1.3195      1.1381
   5529.0000     13.9200     81.0000    -10.6000    647.0588      0.2173      0.0146      0.3272      1.4473      1.3074      1.0767
   5529.5000     14.2353     81.2000     -9.6000    607.8431      0.2221      0.0078      0.3542      1.4208      1.3195      1.0767
   5530.0000     14.6667     80.4000     -8.8000    588.2353      0.2256      0.0039      0.3876      1.4077      1.3441      1.0867
   5530.5000     15.2000     78.4000     -8.0000    568.6275      0.2280      0.0000      0.4164      1.4079      1.3568      1.1073
   5531.0000     15.0800     78.4000     -7.4000    568.6275      0.2244     -0.0039      0.4284      1.4082      1.3572      1.1180
   5531.5000     14.8431     80.4000     -7.0000    588.2353      0.2220     -0.0069      0.4200      1.4085      1.3701      1.1392
   5532.0000     14.4706     83.4000     -6.8000    607.8431      0.2208     -0.0069      0.4056      1.4089      1.3831      1.1397
   5532.5000     14.0980     84.8000     -6.6000    627.4510      0.2184     -0.0039      0.3876      1.4354      1.3963      1.1296
   5533.0000     13.7000     84.2000     -6.4000    607.8431      0.2172      0.0000      0.3852      1.4759      1.4357      1.1197
   5533.5000     13.8200     81.6000     -6.2000    588.2353      0.2148      0.0020      0.3900      1.5175      1.4762      1.1305
   5534.0000     14.0392     79.2000     -6.0000    588.2353      0.2052      0.0059      0.3984      1.5603      1.5318      1.1413
   5534.5000     14.2353     77.4000     -6.2000    588.2353      0.1896      0.0078      0.3900      1.6041      1.5749      1.1845
   5535.0000     14.3725     75.8000     -6.2000    588.2353      0.1680      0.0127      0.3494      1.6492      1.6044      1.2989
   5535.5000     14.4118     74.0000     -6.4000    568.6275      0.1416      0.0127      0.2964      1.7111      1.5900      1.5327
   5536.0000     14.2353     71.8000     -6.2000    549.0196      0.1512      0.0108      0.2820      1.6957      1.5902      1.5902
   5536.5000     14.1569     69.8039     -6.0000    549.0196      0.1620      0.0069      0.2928      1.6651      1.5760      1.6051
   5537.0000     14.2157     67.6471     -6.0000    549.0196      0.1740      0.0039      0.3094      1.6201      1.5476      1.5618
   5537.5000     14.3333     68.2353     -5.8000    549.0196      0.1812      0.0020      0.3235      1.5765      1.5198      1.4922
   5538.0000     14.3725     70.2000     -5.8000    529.4118      0.1848      0.0010      0.3329      1.5623      1.4925      1.4258
   5538.5000     14.3922     72.2000     -5.4000    529.4118      0.1884     -0.0010      0.3376      1.5484      1.4657      1.3377
   5539.0000     14.4118     72.6000     -5.4000    529.4118      0.1968      0.0000      0.3482      1.5206      1.4527      1.2667
   5539.5000     14.4314     72.4000     -5.2000    549.0196      0.2016     -0.0010      0.3600      1.5071      1.4267      1.2216
   5540.0000     14.4118     71.4000     -5.2000    568.6275      0.2016      0.0010      0.3600      1.4801      1.4270      1.1999
   5540.5000     14.3728     70.8058     -4.9965    607.6100      0.1980      0.0049      0.3600      1.4672      1.4146      1.2004
   5541.0000     14.3535     70.4158     -4.7919    626.8598      0.1907      0.0128      0.3612      1.4545      1.4152      1.2343
   5541.5000     14.3342     70.2257     -4.9866    626.4893      0.1834      0.0148      0.3600      1.4420      1.4030      1.2349
   5542.0000     14.2755     70.8355     -4.9817    626.1181      0.1810      0.0149      0.3506      1.4295      1.3909      1.2131
   5542.5000     14.2167     72.4452     -4.7777    606.0485      0.1917      0.0140      0.3364      1.4302      1.3789      1.1917
   5543.0000     14.1183     73.2570     -4.7729    605.6562      0.2049      0.0081      0.3304      1.4308      1.3670      1.1707
   5543.5000     14.1382     73.4669     -4.5696    625.0000      0.2144      0.0052      0.3339      1.4185      1.3552      1.1820
   5544.0000     14.0988     74.4767     -4.7635    624.6258      0.2191     -0.0006      0.3481      1.4062      1.3436      1.1825
   5544.5000     13.9800     76.4864     -4.9571    624.2509      0.2191     -0.0035      0.3659      1.4069      1.3442      1.1830
   5545.0000     13.9000     76.8963     -4.9522    623.8752      0.2154     -0.0035      0.3814      1.3947      1.3448      1.1728
   5545.5000     13.9000     76.1064     -4.9473    623.5741      0.2118     -0.0024      0.3778      1.3954      1.3211      1.1313
   5546.0000     13.9600     75.9163     -5.1402    603.3654      0.2105     -0.0014      0.3695      1.3833      1.3097      1.0913
   5546.5000     14.0000     76.5263     -5.3326    602.9677      0.2128     -0.0004      0.3588      1.3714      1.3103      1.0527
   5547.0000     13.9600     76.7362     -5.3274    602.5692      0.2188      0.0007      0.3493      1.3720      1.3109      1.0726
   5547.5000     13.9400     76.7462     -5.1250    622.0615      0.2247      0.0017      0.3433      1.3852      1.3115      1.0928
   5548.0000     13.9400     76.7561     -5.1200    621.6814      0.2283      0.0017      0.3361      1.3859      1.3241      1.1339
   5548.5000     13.9000     76.5661     -5.3117    621.3006      0.2282      0.0008      0.3313      1.3992      1.3247      1.1659
   5549.0000     13.8800     76.3761     -5.5031    640.8706      0.2257     -0.0001      0.3301      1.3998      1.3253      1.1988
   5549.5000     13.8200     75.5861     -5.6940    660.4801      0.2257     -0.0010      0.3516      1.4005      1.3380      1.2103
   5550.0000     13.7800     74.7960     -5.6885    660.1373      0.2292     -0.0010      0.3682      1.4011      1.3387      1.1999
   5550.5000     13.7606     73.8000     -5.6838    660.0000      0.2328     -0.0020      0.3859      1.4014      1.3389      1.1677
   5551.0000     13.7216     73.2000     -5.4832    680.0000      0.2364     -0.0020      0.3765      1.4142      1.3389      1.1466
   5551.5000     13.6426     73.4000     -5.6754    660.0000      0.2436      0.0010      0.3600      1.4142      1.3389      1.1362
   5552.0000     13.5835     74.6000     -5.8680    620.0000      0.2520      0.0029      0.3420      1.4272      1.3389      1.1362
   5552.5000     13.5445     74.6000     -6.0609    600.0000      0.2604      0.0059      0.3336      1.4272      1.3389      1.1571
   5553.0000     13.5655     74.2000     -6.4514    600.0000      0.2556      0.0117      0.3468      1.4402      1.3389      1.1571
   5553.5000     13.6067     74.0000     -6.8426    600.0000      0.2436      0.0175      0.3742      1.4402      1.3389      1.1466
   5554.0000     13.6277     73.6000     -6.8395    600.0000      0.2376      0.0214      0.3754      1.4402      1.3512      1.1677
   5554.5000     13.5887     72.4000     -6.8358    660.0000      0.2520      0.0185      0.3588      1.4534      1.3760      1.2111
   5555.0000     13.5097     71.0000     -7.0307    680.0000      0.2652      0.0146      0.3504      1.4668      1.3887      1.2334
   5555.5000     13.4706     71.2000     -7.2259    680.0000      0.2712      0.0116      0.3576      1.4802      1.4142      1.2334
   5556.0000     13.4916     72.8000     -7.6199    700.0000      0.2616      0.0126      0.3648      1.4938      1.4272      1.1892
   5556.5000     13.5726     77.0000     -7.6175    680.0000      0.2532      0.0136      0.3624      1.5074      1.4534      1.1892
   5557.0000     13.5936     77.6000     -7.4165    680.0000      0.2580      0.0116      0.3444      1.5074      1.4668      1.2111
   5557.5000     13.5546     75.2000     -7.8118    660.0000      0.2724      0.0048      0.3300      1.5074      1.4668      1.2334
   5558.0000     13.4956     70.0000     -8.6061    640.0000      0.3012      0.0000      0.3168      1.4802      1.4402      1.2334
   5558.5000     13.4166     64.4911     -9.6013    640.0000      0.3192     -0.0077      0.3108      1.4402      1.4014      1.2111
