~Version Information
#Created by IHS Markit
VERS.      2.0                       : CWLS Log Ascii Standard - Version 2.0
WRAP.      NO                        : One line per depth step
CRTR.      IHS Markit                : File Creator
~Well Information
#MNEM.UNIT         DATA              : DESCRIPTION
#----.----     -------------         : -------------------
STRT.F      3912.0000                           : START DEPTH
STOP.F      6144.0000                           : STOP DEPTH
STEP.F         0.5000                           : DEPTH INCREMENT
NULL.        -999.2500                           : Null Value
COMP.      GOM SHELF LLC                         : Company
WELL.      OCSG03011 A006                        : Well Name
FLD .      MU A 16                               : Field
LOC .      RIG MAYRONNE 162                      : Location
CTRY.      UNITED STATES                         : Country
STAT.      TEXAS                                 : State
CNTY.      MUSTANG ISLAND                        : County
API .      427024017500                        : API Well Number
UWI .      427024017500                        : Unique Well ID
LIC .      G03011                                : Licence Number
TWP .                                            : Township
RGE .                                            : Range
SEC .                                            : Section
LAT .                                            : Latitude
LONG.                                            : Longitude
~Parameter Information
#MNEM.UNIT         DATA                DESCRIPTION
#----.----         -------           : -------------------
RUN .      1                                     : Run Number
PASS.                                            : Pass Number
DATE.      1989-09-11                            : Log Date
SRVC.      SCHLUMBERGER                          : Service Company
LSRV.      DITE/CND                              : Log Mnemonic
PDAT.      WL                                    : Permanent Datum Reference
EPD .F         0.0000                           : ELEVATION OF PERM. DATUM
EGL .F         0.0000                           : ELEVATION GROUND LEVEL
EKB .F       110.0000                           : ELEVATION KELLY BUSHING
EDF .F       109.0000                           : ELEVATION DERRICK FLOOR
APD .F       110.0000                           : ABOVE PERMANENT DATUM
LMF .      KB                                    : Log Measured From
EREF.F    110                                   : ELEVATION OF DEPTH REFERENCE
DMF .      KB                                    : Drilling Measured From
TDL .F      6109.0000                           : TOTAL DEPTH, LOGGER
TDD .F      6109.0000                           : TOTAL DEPTH, DRILLER
BLI .F      6094.0000                           : BOTTOM OF LOGGED INTERVAL
TLI .F      4073.0000                           : TOP OF LOGGED INTERVAL
CSGS1.IN        13.3750                           : Casing Size 1
CSGW1.LB/FT                                       : Casing Weight 1
CSGL1.F      4073.0000                           : CASING BOTTOM LOGGER 1
CSGD1.F      4083.0000                           : CASING BOTTOM DRILLER 1
CSGS2.IN         9.6250                           : Casing Size 2
CSGW2.LB/FT                                       : Casing Weight 2
CSGL2.F                                          : CASING BOTTOM LOGGER 2
CSGD2.F                                          : CASING BOTTOM DRILLER 2
BS1 .IN        12.2500                           : Bit Size 1
DDB1.F      6109.0000                           : BIT SIZE DEPTH 1
MUD .      UNICAL                                : Mud Type
MUDD.LB/GAL    10.8000                           : Mud Density
MUDV.S         38.0000                           : Mud Viscosity
FL  .CM3        6.8000                           : Fluid Loss
FLT .DEGF                                        : Fluid Loss Temperature
PH  .           9.5000                           : Mud PH
MUDS.      FLOWLINE                              : Mud Sample Location
RM  .OHMM       0.4180                           : Mud Resistivity
RMT .DEGF      74.0000                           : Mud Temperature
RMC .OHMM       0.7780                           : Mud Cake Resistivity
RMCT.DEGF      74.0000                           : Mud Cake Temperature
RMCS.      MEASURED                              : Mud Cake Source
RMF .OHMM       0.2690                           : Mud Filtrate Resistivity
RMFT.DEGF      74.0000                           : Mud Filtrate Temperature
RMFS.      MEASURED                              : Mud Filtrate Source
TMAX.DEGF     144.0000                           : Max Temperature
TIMC.      1989-09-11 22:30                      : Date Time Circulation Stopped
TIML.      1989-09-11 21:12                      : Date TIme Logger On Bottom
TSC .                                            : Time Since Circulation Stopped
UNIT.      506                                   : Unit Number
BASE.      CCOS                                  : Logging Unit Home Base
ENG .      WITKOWSKY                             : Recording Engineer
WIT .      POULIN                                : Witnessed By
DIGS.      IHS MARKIT                            : Digitizing Company
~Curve Information
#MNEM.UNIT         API  CODE                      : CURVE DESCRIPTION
#----.----        ------------                    : -----------------
 DEPT.F          00 001 00 00                    : MEASURED DEPTH
 CALR.IN          00 000 00 00                    : Caliper (Resistivity)
 GRR .GAPI        00 000 00 00                    : Gamma Ray Resistivity Device
 SP  .MV          00 000 00 00                    : Spontaneous Potential
 TENR.LB          00 000 00 00                    : Tension Resistivity Device
 DPSS.V/V         00 000 00 00                    : Density Porosity Sandstone
 DRHO.G/CM3       00 000 00 00                    : Density Correction
 NPSS.V/V         00 000 00 00                    : Neutron Porosity Sandstone
 IDPH.OHMM        00 000 00 00                    : Induction Deep Phasor Resistivity
 IMPH.OHMM        00 000 00 00                    : Induction Medium Phasor Resistivity
 SFL .OHMM        00 000 00 00                    : Spherically Focussed Log
~A    DEPT        CALR         GRR          SP        TENR        DPSS        DRHO        NPSS        IDPH        IMPH         SFL
# ...
   5772.5000     13.3400     71.0000     -9.0000    680.0000      0.2353      0.0049      0.3516      1.0000      0.9740      0.9913
   5773.0000     13.4200     74.2000     -8.2000    680.0000      0.2294      0.0049      0.3768      1.0092      0.9826      0.9655
   5773.5000     13.4400     76.8000     -7.2000    640.0000      0.2353      0.0029      0.3708      1.0372      1.0092      0.9079
   5774.0000     13.4800     75.8000     -6.2000    620.0000      0.2436      0.0010      0.3612      1.0372      1.0092      0.9000
   5774.5000     13.5400     73.4000     -5.6000    620.0000      0.2520      0.0010      0.3612      1.0372      1.0092      0.9322
   5775.0000     13.6200     72.2000     -5.8000    620.0000      0.2532      0.0010      0.3780      1.0372      1.0092      0.9655
   5775.5000     13.7200     75.2000     -5.6000    600.0000      0.2472      0.0020      0.3948      1.0372      1.0092      0.9655
   5776.0000     13.8600     79.8000     -5.2000    620.0000      0.2353      0.0010      0.4164      1.0467      1.0184      0.9404
   5776.5000     13.9800     84.0000     -4.6000    620.0000      0.2306     -0.0010      0.4440      1.0467      1.0184      0.9079
   5777.0000     14.0588     82.8000     -4.0000    620.0000      0.2282     -0.0020      0.4464      1.0562      1.0277      0.8912
   5777.5000     14.1176     81.0000     -3.4000    620.0000      0.2318     -0.0010      0.4308      1.0659      1.0372      0.9079
   5778.0000     14.1569     80.8000     -2.8000    620.0000      0.2353      0.0020      0.4044      1.0659      1.0372      0.9322
   5778.5000     14.2157     81.0000     -2.8000    620.0000      0.2365      0.0059      0.3816      1.0757      1.0467      0.9570
   5779.0000     14.2549     80.8000     -3.0000    620.0000      0.2318      0.0098      0.3864      1.0855      1.0562      0.9487
   5779.5000     14.2745     79.6000     -3.0000    600.0000      0.2259      0.0098      0.3996      1.0855      1.0562      0.9404
   5780.0000     14.2941     78.6000     -2.8000    600.0000      0.2212      0.0078      0.4068      1.0855      1.0562      0.9240
   5780.5000     14.3333     77.0000     -2.4000    600.0000      0.2212      0.0010      0.4068      1.0855      1.0562      0.9487
   5781.0000     14.3529     73.8000     -2.0000    600.0000      0.2259     -0.0020      0.4032      1.0855      1.0562      0.9826
   5781.5000     14.3529     71.8000     -2.0000    580.0000      0.2306     -0.0049      0.3900      1.0855      1.0562      1.0000
   5782.0000     14.3529     72.0000     -2.2000    600.0000      0.2341     -0.0059      0.3888      1.0855      1.0562      1.0000
   5782.5000     14.3333     74.2000     -2.0000    600.0000      0.2318     -0.0039      0.3900      1.0855      1.0562      0.9740
   5783.0000     14.3333     77.2000     -2.2000    580.0000      0.2282     -0.0020      0.3936      1.0855      1.0562      0.9404
   5783.5000     14.3333     78.6000     -2.2000    580.0000      0.2247     -0.0010      0.3948      1.0855      1.0562      0.9322
   5784.0000     14.3725     79.6000     -2.4000    580.0000      0.2224     -0.0020      0.3948      1.0855      1.0562      0.9487
   5784.5000     14.4314     80.4000     -2.4000    580.0000      0.2224     -0.0020      0.3984      1.0757      1.0467      0.9740
   5785.0000     14.4314     81.4000     -2.4000    580.0000      0.2259     -0.0020      0.3996      1.0659      1.0372      0.9913
   5785.5000     14.4510     82.0000     -2.4000    580.0000      0.2329     -0.0020      0.3924      1.0562      1.0277      0.9655
   5786.0000     14.4706     79.4000     -2.6000    580.0000      0.2376     -0.0020      0.3792      1.0562      1.0277      0.9079
   5786.5000     14.4118     76.0000     -2.8000    600.0000      0.2424     -0.0010      0.3684      1.0467      1.0184      0.9079
   5787.0000     14.2745     72.6000     -3.4000    620.0000      0.2472     -0.0010      0.3576      1.0372      1.0092      0.9240
   5787.5000     14.0980     71.0000     -4.4000    620.0000      0.2520      0.0000      0.3576      1.0277      1.0000      0.9487
   5788.0000     14.0196     71.2000     -5.6000    640.0000      0.2532      0.0039      0.3708      1.0184      0.9913      0.9740
   5788.5000     13.9800     74.8000     -6.2000    620.0000      0.2400      0.0069      0.3912      1.0184      0.9913      0.9740
   5789.0000     14.1176     77.0000     -6.6000    620.0000      0.2259      0.0098      0.4164      1.0184      0.9913      0.9487
   5789.5000     14.2745     78.0000     -6.4000    600.0000      0.2294      0.0088      0.4356      1.0277      1.0000      0.9079
   5790.0000     14.4706     78.6000     -5.8000    620.0000      0.2388      0.0078      0.4200      1.0562      1.0277      0.8653
   5790.5000     14.5493     78.8059     -5.1969    660.0000      0.2484      0.0068      0.4008      1.0660      1.0372      0.8485
   5791.0000     14.7069     78.2158     -4.7924    680.0000      0.2483      0.0068      0.3852      1.0956      1.0660      0.8912
   5791.5000     14.7666     77.4257     -4.5882    680.0000      0.2316      0.0077      0.3912      1.0957      1.0660      0.9404
   5792.0000     14.8067     77.2356     -4.3844    660.0000      0.2222      0.0087      0.3936      1.1159      1.0858      1.0000
   5792.5000     14.8863     77.8455     -3.7828    640.0000      0.2198      0.0047      0.3936      1.1366      1.1059      1.0092
   5793.0000     14.9660     79.2554     -3.3813    660.0000      0.2174      0.0027      0.3912      1.1472      1.1161      0.9913
   5793.5000     15.0465     80.4653     -2.9805    660.0000      0.2151      0.0007      0.3864      1.1578      1.1265      0.9913
   5794.0000     15.1675     79.2752     -2.7791    640.0000      0.2127     -0.0024      0.3768      1.1580      1.1265      0.9913
   5794.5000     15.3285     77.6851     -2.3797    640.0000      0.2127     -0.0044      0.3696      1.1581      1.1266      0.9913
   5795.0000     15.5095     77.6950     -2.1793    640.0000      0.2161     -0.0044      0.3696      1.1689      1.1371      0.9913
   5795.5000     15.5907     77.9069     -2.1767    640.0000      0.2208     -0.0045      0.3768      1.1690      1.1372      0.9740
   5796.0000     15.5317     78.1168     -1.9769    640.0000      0.2242     -0.0045      0.3780      1.1691      1.1373      0.9655
   5796.5000     15.5327     77.3267     -1.9750    640.0000      0.2253     -0.0046      0.3720      1.1800      1.1479      0.9570
   5797.0000     15.5737     78.1366     -1.7757    640.0000      0.2230     -0.0046      0.3732      1.1802      1.1480      0.9570
   5797.5000     15.5947     79.9465     -1.5769    620.0000      0.2206     -0.0047      0.3792      1.1803      1.1481      0.9740
   5798.0000     15.5156     82.5559     -1.7723    660.0000      0.2182     -0.0048      0.3708      1.1914      1.1589      0.9826
   5798.5000     15.3366     85.1653     -1.7705    680.0000      0.2182     -0.0048      0.3660      1.2025      1.1697      1.0000
   5799.0000     15.1976     87.3768     -1.3758    660.0000      0.2193     -0.0049      0.3780      1.2027      1.1698      0.9913
   5799.5000     15.1186     88.5864     -0.9817    660.0000      0.2170     -0.0049      0.3960      1.2140      1.1808      0.9913
   5800.0000     15.1396     87.1966     -0.9808    660.0000      0.2112     -0.0050      0.3924      1.2254      1.1919      0.9913
   5800.5000     15.2400     85.8000     -0.9752    659.4118      0.2065     -0.0050      0.3780      1.2371      1.2033      1.0476
   5801.0000     15.2800     83.8000     -1.1630    678.4314      0.2007     -0.0050      0.3599      1.2489      1.2148      1.0975
   5801.5000     15.2000     80.6000     -1.3511    717.4510      0.2030     -0.0030      0.3443      1.2493      1.2152      1.1392
   5802.0000     15.0800     81.4000     -1.7363    696.4706      0.2099     -0.0020      0.3442      1.2613      1.2269      1.1608
   5802.5000     14.9801     83.2000     -1.7268    675.4902      0.2157      0.0000      0.3597      1.2733      1.2386      1.1192
