~Version Information
#Created by IHS Markit
VERS.      2.0                       : CWLS Log Ascii Standard - Version 2.0
WRAP.      NO                        : One line per depth step
CRTR.      IHS Markit                : File Creator
~Well Information
#MNEM.UNIT         DATA              : DESCRIPTION
#----.----     -------------         : -------------------
STRT.F      3912.0000                           : START DEPTH
STOP.F      6144.0000                           : STOP DEPTH
STEP.F         0.5000                           : DEPTH INCREMENT
NULL.        -999.2500                           : Null Value
COMP.      GOM SHELF LLC                         : Company
WELL.      OCSG03011 A006                        : Well Name
FLD .      MU A 16                               : Field
LOC .      RIG MAYRONNE 162                      : Location
CTRY.      UNITED STATES                         : Country
STAT.      TEXAS                                 : State
CNTY.      MUSTANG ISLAND                        : County
API .      427024017500                        : API Well Number
UWI .      427024017500                        : Unique Well ID
LIC .      G03011                                : Licence Number
TWP .                                            : Township
RGE .                                            : Range
SEC .                                            : Section
LAT .                                            : Latitude
LONG.                                            : Longitude
~Parameter Information
#MNEM.UNIT         DATA                DESCRIPTION
#----.----         -------           : -------------------
RUN .      1                                     : Run Number
PASS.                                            : Pass Number
DATE.      1989-09-11                            : Log Date
SRVC.      SCHLUMBERGER                          : Service Company
LSRV.      DITE/CND                              : Log Mnemonic
PDAT.      WL                                    : Permanent Datum Reference
EPD .F         0.0000                           : ELEVATION OF PERM. DATUM
EGL .F         0.0000                           : ELEVATION GROUND LEVEL
EKB .F       110.0000                           : ELEVATION KELLY BUSHING
EDF .F       109.0000                           : ELEVATION DERRICK FLOOR
APD .F       110.0000                           : ABOVE PERMANENT DATUM
LMF .      KB                                    : Log Measured From
EREF.F    110                                   : ELEVATION OF DEPTH REFERENCE
DMF .      KB                                    : Drilling Measured From
TDL .F      6109.0000                           : TOTAL DEPTH, LOGGER
TDD .F      6109.0000                           : TOTAL DEPTH, DRILLER
BLI .F      6094.0000                           : BOTTOM OF LOGGED INTERVAL
TLI .F      4073.0000                           : TOP OF LOGGED INTERVAL
CSGS1.IN        13.3750                           : Casing Size 1
CSGW1.LB/FT                                       : Casing Weight 1
CSGL1.F      4073.0000                           : CASING BOTTOM LOGGER 1
CSGD1.F      4083.0000                           : CASING BOTTOM DRILLER 1
CSGS2.IN         9.6250                           : Casing Size 2
CSGW2.LB/FT                                       : Casing Weight 2
CSGL2.F                                          : CASING BOTTOM LOGGER 2
CSGD2.F                                          : CASING BOTTOM DRILLER 2
BS1 .IN        12.2500                           : Bit Size 1
DDB1.F      6109.0000                           : BIT SIZE DEPTH 1
MUD .      UNICAL                                : Mud Type
MUDD.LB/GAL    10.8000                           : Mud Density
MUDV.S         38.0000                           : Mud Viscosity
FL  .CM3        6.8000                           : Fluid Loss
FLT .DEGF                                        : Fluid Loss Temperature
PH  .           9.5000                           : Mud PH
MUDS.      FLOWLINE                              : Mud Sample Location
RM  .OHMM       0.4180                           : Mud Resistivity
RMT .DEGF      74.0000                           : Mud Temperature
RMC .OHMM       0.7780                           : Mud Cake Resistivity
RMCT.DEGF      74.0000                           : Mud Cake Temperature
RMCS.      MEASURED                              : Mud Cake Source
RMF .OHMM       0.2690                           : Mud Filtrate Resistivity
RMFT.DEGF      74.0000                           : Mud Filtrate Temperature
RMFS.      MEASURED                              : Mud Filtrate Source
TMAX.DEGF     144.0000                           : Max Temperature
TIMC.      1989-09-11 22:30                      : Date Time Circulation Stopped
TIML.      1989-09-11 21:12                      : Date TIme Logger On Bottom
TSC .                                            : Time Since Circulation Stopped
UNIT.      506                                   : Unit Number
BASE.      CCOS                                  : Logging Unit Home Base
ENG .      WITKOWSKY                             : Recording Engineer
WIT .      POULIN                                : Witnessed By
DIGS.      IHS MARKIT                            : Digitizing Company
~Curve Information
#MNEM.UNIT         API  CODE                      : CURVE DESCRIPTION
#----.----        ------------                    : -----------------
 DEPT.F          00 001 00 00                    : MEASURED DEPTH
 CALR.IN          00 000 00 00                    : Caliper (Resistivity)
 GRR .GAPI        00 000 00 00                    : Gamma Ray Resistivity Device
 SP  .MV          00 000 00 00                    : Spontaneous Potential
 TENR.LB          00 000 00 00                    : Tension Resistivity Device
 DPSS.V/V         00 000 00 00                    : Density Porosity Sandstone
 DRHO.G/CM3       00 000 00 00                    : Density Correction
 NPSS.V/V         00 000 00 00                    : Neutron Porosity Sandstone
 IDPH.OHMM        00 000 00 00                    : Induction Deep Phasor Resistivity
 IMPH.OHMM        00 000 00 00                    : Induction Medium Phasor Resistivity
 SFL .OHMM        00 000 00 00                    : Spherically Focussed Log
~A    DEPT        CALR         GRR          SP        TENR        DPSS        DRHO        NPSS        IDPH        IMPH         SFL
# ...
   6047.0000     12.3400   -999.2500    -17.6647    620.0000      0.3000     -0.0153      0.3804      0.7976      0.7684      0.7829
   6047.5000     12.4000   -999.2500    -17.6549    640.0000      0.2532     -0.0083      0.3816      0.8054      0.7832      0.8835
   6048.0000     12.4800   -999.2500    -17.6431    680.0000      0.2484     -0.0072      0.3804      0.7984      0.7835      0.9345
   6048.5000     12.5800   -999.2500    -17.4333    680.0000      0.2784     -0.0132      0.3804      0.7692      0.7838      0.8061
   6049.0000     12.6000   -999.2500    -17.6235    680.0000      0.3072     -0.0191      0.3804      0.7479      0.7622      0.6937
   6049.5000     12.5600   -999.2500    -17.8137    680.0000      0.3372     -0.0241      0.3792      0.7271      0.7340      0.6222
   6050.0000     12.5200   -999.2500    -18.0039    660.0000      0.3312     -0.0240      0.3792      0.7067      0.7067      0.6000
   6050.5000     12.5204   -999.2500    -18.0000    640.0000      0.3192     -0.0210      0.3792      0.7002      0.6753      0.6056
   6051.0000     12.5609   -999.2500    -17.6000    620.0000      0.3072     -0.0150      0.3792      0.7005      0.6756      0.6226
   6051.5000     12.6216   -999.2500    -17.0000    620.0000      0.2964     -0.0100      0.3792      0.7075      0.6882      0.6577
   6052.0000     12.6223   -999.2500    -16.2000    640.0000      0.2832     -0.0050      0.3792      0.7281      0.7012      0.7012
   6052.5000     12.5626   -999.2500    -15.8000    680.0000      0.2724     -0.0030      0.3792      0.7491      0.7215      0.7491
   6053.0000     12.5632   -999.2500    -15.0000    700.0000      0.2796     -0.0080      0.3804      0.7706      0.7424      0.7779
   6053.5000     12.5436   -999.2500    -14.2000    720.0000      0.2976     -0.0150      0.3804      0.7636      0.7357      0.7495
   6054.0000     12.4837   -999.2500    -13.6000    660.0000      0.3156     -0.0200      0.3804      0.7637      0.7291      0.7025
   6054.5000     12.5245   -999.2500    -13.6000    640.0000      0.3324     -0.0210      0.3804      0.7568      0.7159      0.6716
   6055.0000     12.5250   -999.2500    -14.6000    620.0000      0.3312     -0.0150      0.3804      0.7500      0.7031      0.6780
   6055.5000     12.5053   -999.2500    -15.8000    600.0000      0.3192     -0.0100      0.3804      0.7433      0.6970      0.6845
   6056.0000     12.5261   -999.2500    -16.2000    600.0000      0.3036     -0.0070      0.3804      0.7300      0.6973      0.6848
   6056.5000     12.5873   -999.2500    -16.0000    600.0000      0.2892     -0.0070      0.3804      0.7302      0.7040      0.6728
   6057.0000     12.6692   -999.2500    -15.6000    600.0000      0.2964     -0.0090      0.3804      0.7438      0.7173      0.6731
   6057.5000     12.7307   -999.2500    -15.6000    620.0000      0.3156     -0.0100      0.3804      0.7576      0.7373      0.6795
   6058.0000     12.7924   -999.2500    -15.6000    620.0000      0.3276     -0.0120      0.3804      0.8000      0.7786      0.6923
   6058.5000     10.0771   -999.2500    -15.6000    620.0000      0.3312     -0.0140      0.3936      0.8397      0.8156      0.7246
   6059.0000      8.1776   -999.2500    -15.0000    620.0000      0.3204     -0.0070      0.4212      0.8903      0.8647      0.7929
   6059.5000      5.6200   -999.2500    -13.6000    620.0000      0.3072      0.0050      0.4572      0.9484      0.9236      0.8734
   6060.0000      3.4795   -999.2500    -11.8000    620.0000      0.2892      0.0180      0.4800      1.0000      0.9740      0.9486
   6060.5000      3.3400   -999.2500    -10.2000    620.0000      0.2664      0.0300   -999.2500      1.0562      1.0277      1.0467
   6061.0000      3.3400   -999.2500     -8.4000    660.0000      0.2508      0.0440   -999.2500      1.1157      1.0955      1.0757
   6061.5000      3.3400   -999.2500     -6.2000    680.0000      0.2424      0.0470   -999.2500      1.1466      1.1157      1.0757
   6062.0000      3.3400   -999.2500     -4.6000    680.0000      0.2412      0.0470   -999.2500      1.1784      1.1466      1.0372
   6062.5000      3.3400   -999.2500     -3.2000    680.0000      0.2436      0.0460   -999.2500      1.1892      1.1571      1.0092
   6063.0000      3.3400   -999.2500     -2.2000    680.0000      0.2436      0.0460   -999.2500      1.1892      1.1571      1.0000
   6063.5000      3.3400   -999.2500     -1.2000    680.0000      0.2400      0.0549   -999.2500      1.1892      1.1571      1.0000
   6064.0000      3.3400   -999.2500     -0.6000    680.0000      0.2364      0.0648   -999.2500      1.1892      1.1571      1.0000
   6064.5000      3.3400   -999.2500      0.0000    720.0000   -999.2500   -999.2500   -999.2500      1.2001      1.1677      1.0000
   6065.0000      3.3400   -999.2500      0.6000    780.0000   -999.2500   -999.2500   -999.2500      1.1892      1.1571      1.0000
   6065.5000      3.3400   -999.2500      1.2000    780.0000   -999.2500   -999.2500   -999.2500      1.1892      1.1571      1.0000
   6066.0000      3.3600   -999.2500      1.2000    780.0000   -999.2500   -999.2500   -999.2500      1.1892      1.1784      1.0000
   6066.5000      3.3600   -999.2500      1.2000    780.0000   -999.2500   -999.2500   -999.2500      1.2001      1.1677      1.0092
   6067.0000      3.3600   -999.2500      1.2000    780.0000   -999.2500   -999.2500   -999.2500      1.2001      1.1892      1.0092
   6067.5000      3.3600   -999.2500      1.2000    780.0000   -999.2500   -999.2500   -999.2500      1.2111      1.2001      0.9913
   6068.0000      3.3600   -999.2500      1.2000    800.0000   -999.2500   -999.2500   -999.2500      1.2222      1.2111      1.0000
   6068.5000      3.3600   -999.2500      1.2000    780.0000   -999.2500   -999.2500   -999.2500      1.2334      1.2334      1.0562
   6069.0000      3.3600   -999.2500      1.2000    780.0000   -999.2500   -999.2500   -999.2500      1.2447      1.2334      1.1362
   6069.5000      3.3600   -999.2500      1.2000    760.0000   -999.2500   -999.2500   -999.2500      1.2561      1.2334      1.1892
   6070.0000      3.3600   -999.2500      1.2000    740.0000   -999.2500   -999.2500   -999.2500      1.2676      1.2334      1.1784
   6070.5000      3.3600   -999.2500      1.2000    720.0000   -999.2500   -999.2500   -999.2500      1.2792      1.2334      1.1362
   6071.0000      3.3600   -999.2500      1.2000    700.0000   -999.2500   -999.2500   -999.2500      1.2792      1.2334      1.1157
   6071.5000      3.3800   -999.2500      1.2000    700.0000   -999.2500   -999.2500   -999.2500      1.2792      1.2334      1.0955
   6072.0000      3.3800   -999.2500      1.2000    660.0000   -999.2500   -999.2500   -999.2500      1.2909      1.2334      1.0855
   6072.5000      3.3800   -999.2500      1.2000    660.0000   -999.2500   -999.2500   -999.2500      1.2909      1.2447      1.0757
   6073.0000      3.4000   -999.2500      1.2000    640.0000   -999.2500   -999.2500   -999.2500      1.3028      1.2447      1.0955
   6073.5000      3.4000   -999.2500      1.2000    640.0000   -999.2500   -999.2500   -999.2500      1.3028      1.2561      1.1055
   6074.0000      3.4000   -999.2500      1.2000    660.0000   -999.2500   -999.2500   -999.2500      1.3147      1.2561      1.1157
   6074.5000      3.4000   -999.2500      1.2000    660.0000   -999.2500   -999.2500   -999.2500      1.3147      1.2676      1.1157
   6075.0000      3.4000   -999.2500      1.2000    640.0000   -999.2500   -999.2500   -999.2500      1.3147      1.2792      1.1259
   6075.5000      3.4000   -999.2500      1.2000    620.0000   -999.2500   -999.2500   -999.2500      1.3267      1.2792      1.1157
   6076.0000      3.4000   -999.2500      1.0000    640.0000   -999.2500   -999.2500   -999.2500      1.3267      1.2792      1.1157
   6076.5000      3.4000   -999.2500      1.0000    640.0000   -999.2500   -999.2500   -999.2500      1.3389      1.2792      1.1157
   6077.0000      3.4000   -999.2500      1.0000    620.0000   -999.2500   -999.2500   -999.2500      1.3389      1.3147      1.1259
