~Version Information
#Created by IHS Markit
VERS.      2.0                       : CWLS Log Ascii Standard - Version 2.0
WRAP.      NO                        : One line per depth step
CRTR.      IHS Markit                : File Creator
~Well Information
#MNEM.UNIT         DATA              : DESCRIPTION
#----.----     -------------         : -------------------
STRT.F      3912.0000                           : START DEPTH
STOP.F      6144.0000                           : STOP DEPTH
STEP.F         0.5000                           : DEPTH INCREMENT
NULL.        -999.2500                           : Null Value
COMP.      GOM SHELF LLC                         : Company
WELL.      OCSG03011 A006                        : Well Name
FLD .      MU A 16                               : Field
LOC .      RIG MAYRONNE 162                      : Location
CTRY.      UNITED STATES                         : Country
STAT.      TEXAS                                 : State
CNTY.      MUSTANG ISLAND                        : County
API .      427024017500                        : API Well Number
UWI .      427024017500                        : Unique Well ID
LIC .      G03011                                : Licence Number
TWP .                                            : Township
RGE .                                            : Range
SEC .                                            : Section
LAT .                                            : Latitude
LONG.                                            : Longitude
~Parameter Information
#MNEM.UNIT         DATA                DESCRIPTION
#----.----         -------           : -------------------
RUN .      1                                     : Run Number
PASS.                                            : Pass Number
DATE.      1989-09-11                            : Log Date
SRVC.      SCHLUMBERGER                          : Service Company
LSRV.      DITE/CND                              : Log Mnemonic
PDAT.      WL                                    : Permanent Datum Reference
EPD .F         0.0000                           : ELEVATION OF PERM. DATUM
EGL .F         0.0000                           : ELEVATION GROUND LEVEL
EKB .F       110.0000                           : ELEVATION KELLY BUSHING
EDF .F       109.0000                           : ELEVATION DERRICK FLOOR
APD .F       110.0000                           : ABOVE PERMANENT DATUM
LMF .      KB                                    : Log Measured From
EREF.F    110                                   : ELEVATION OF DEPTH REFERENCE
DMF .      KB                                    : Drilling Measured From
TDL .F      6109.0000                           : TOTAL DEPTH, LOGGER
TDD .F      6109.0000                           : TOTAL DEPTH, DRILLER
BLI .F      6094.0000                           : BOTTOM OF LOGGED INTERVAL
TLI .F      4073.0000                           : TOP OF LOGGED INTERVAL
CSGS1.IN        13.3750                           : Casing Size 1
CSGW1.LB/FT                                       : Casing Weight 1
CSGL1.F      4073.0000                           : CASING BOTTOM LOGGER 1
CSGD1.F      4083.0000                           : CASING BOTTOM DRILLER 1
CSGS2.IN         9.6250                           : Casing Size 2
CSGW2.LB/FT                                       : Casing Weight 2
CSGL2.F                                          : CASING BOTTOM LOGGER 2
CSGD2.F                                          : CASING BOTTOM DRILLER 2
BS1 .IN        12.2500                           : Bit Size 1
DDB1.F      6109.0000                           : BIT SIZE DEPTH 1
MUD .      UNICAL                                : Mud Type
MUDD.LB/GAL    10.8000                           : Mud Density
MUDV.S         38.0000                           : Mud Viscosity
FL  .CM3        6.8000                           : Fluid Loss
FLT .DEGF                                        : Fluid Loss Temperature
PH  .           9.5000                           : Mud PH
MUDS.      FLOWLINE                              : Mud Sample Location
RM  .OHMM       0.4180                           : Mud Resistivity
RMT .DEGF      74.0000                           : Mud Temperature
RMC .OHMM       0.7780                           : Mud Cake Resistivity
RMCT.DEGF      74.0000                           : Mud Cake Temperature
RMCS.      MEASURED                              : Mud Cake Source
RMF .OHMM       0.2690                           : Mud Filtrate Resistivity
RMFT.DEGF      74.0000                           : Mud Filtrate Temperature
RMFS.      MEASURED                              : Mud Filtrate Source
TMAX.DEGF     144.0000                           : Max Temperature
TIMC.      1989-09-11 22:30                      : Date Time Circulation Stopped
TIML.      1989-09-11 21:12                      : Date TIme Logger On Bottom
TSC .                                            : Time Since Circulation Stopped
UNIT.      506                                   : Unit Number
BASE.      CCOS                                  : Logging Unit Home Base
ENG .      WITKOWSKY                             : Recording Engineer
WIT .      POULIN                                : Witnessed By
DIGS.      IHS MARKIT                            : Digitizing Company
~Curve Information
#MNEM.UNIT         API  CODE                      : CURVE DESCRIPTION
#----.----        ------------                    : -----------------
 DEPT.F          00 001 00 00                    : MEASURED DEPTH
 CALR.IN          00 000 00 00                    : Caliper (Resistivity)
 GRR .GAPI        00 000 00 00                    : Gamma Ray Resistivity Device
 SP  .MV          00 000 00 00                    : Spontaneous Potential
 TENR.LB          00 000 00 00                    : Tension Resistivity Device
 DPSS.V/V         00 000 00 00                    : Density Porosity Sandstone
 DRHO.G/CM3       00 000 00 00                    : Density Correction
 NPSS.V/V         00 000 00 00                    : Neutron Porosity Sandstone
 IDPH.OHMM        00 000 00 00                    : Induction Deep Phasor Resistivity
 IMPH.OHMM        00 000 00 00                    : Induction Medium Phasor Resistivity
 SFL .OHMM        00 000 00 00                    : Spherically Focussed Log
~A    DEPT        CALR         GRR          SP        TENR        DPSS        DRHO        NPSS        IDPH        IMPH         SFL
# ...
   5132.0000     15.7400     80.8000    -11.4000    476.4706      0.2147      0.0102      0.3924      1.3760      1.3147      1.1055
   5132.5000     15.6800     77.8000    -11.6000    495.4902      0.2159      0.0122      0.3900      1.3760      1.3147      1.1055
   5133.0000     15.7000     77.8000    -11.8000    474.3137      0.2195      0.0133      0.3864      1.3760      1.3147      1.1055
   5133.5000     15.7600     79.0000    -11.8000    473.3333      0.2195      0.0133      0.3828      1.3760      1.3147      1.1157
   5134.0000     15.8400     80.4000    -12.0000    472.3529      0.2182      0.0104      0.3828      1.3636      1.3028      1.1259
   5134.5000     15.8800     82.2000    -12.2000    471.3725      0.2158      0.0084      0.3864      1.3636      1.3028      1.1259
   5135.0000     15.9200     83.6000    -12.4000    510.3922      0.2170      0.0065      0.3864      1.3512      1.2909      1.1157
   5135.5000     15.9400     85.2000    -12.2000    509.4118      0.2218      0.0025      0.3768      1.3389      1.2792      1.0855
   5136.0000     15.8000     85.2000    -11.4000    508.4314      0.2279     -0.0004      0.3672      1.3389      1.2792      1.0659
   5136.5000     15.6000     83.6000    -11.0000    507.4510      0.2303     -0.0014      0.3648      1.3267      1.2676      1.0372
   5137.0000     15.5400     82.2000    -10.8000    506.4706      0.2315     -0.0023      0.3708      1.3267      1.2676      1.0372
   5137.5000     15.6800     82.4000    -10.8000    505.4902      0.2303     -0.0013      0.3768      1.3267      1.2676      1.0467
   5138.0000     15.8400     83.8000    -10.8000    484.3137      0.2266     -0.0012      0.3744      1.3267      1.2676      1.0659
   5138.5000     15.8800     84.6000    -10.8000    463.3333      0.2290     -0.0012      0.3672      1.3267      1.2676      1.0372
   5139.0000     15.8400     84.6000    -10.6000    462.3529      0.2351     -0.0021      0.3660      1.3389      1.2792      1.0184
   5139.5000     15.7600     85.0000    -10.6000    461.3725      0.2388     -0.0021      0.3732      1.3389      1.2792      1.0000
   5140.0000     15.6400     85.8000    -10.8000    460.3922      0.2339     -0.0020      0.3720      1.3636      1.3028      1.0000
   5140.5000     15.5400     84.6000    -10.8000    460.0000      0.2252      0.0000      0.3541      1.3640      1.3151      1.0374
   5141.0000     15.5400     83.0000    -10.6000    460.0000      0.2190      0.0001      0.3387      1.3771      1.3278      1.0963
   5141.5000     15.8400     81.0000    -10.6000    480.0000      0.2153     -0.0009      0.3469      1.3777      1.3528      1.1376
   5142.0000     15.8200     79.6000    -10.8000    480.0000      0.2164     -0.0018      0.3682      1.3910      1.3658      1.1804
   5142.5000     15.7200     79.8000    -10.8000    480.0000      0.2175     -0.0018      0.3873      1.4044      1.3790      1.1809
   5143.0000     15.8000     79.8000    -10.8000    500.0000      0.2150     -0.0017      0.3837      1.4179      1.3796      1.1496
   5143.5000     15.8800     79.8000    -10.6000    480.0000      0.2112     -0.0007      0.3704      1.4185      1.3802      1.1396
   5144.0000     15.8400     79.0000    -10.6000    500.0000      0.2087      0.0024      0.3607      1.4192      1.3683      1.1402
   5144.5000     15.5800     78.2000    -10.6000    500.0000      0.2062      0.0034      0.3547      1.4198      1.3689      1.1407
   5145.0000     15.6200     78.6000    -10.6000    480.0000      0.2037      0.0015      0.3487      1.4205      1.3696      1.1516
   5145.5000     15.7800     78.8000    -10.4000    460.0000      0.2036      0.0015      0.3439      1.4211      1.3702      1.1734
   5146.0000     15.8600     79.2000    -10.4000    480.0000      0.2071     -0.0014      0.3415      1.4217      1.3708      1.1739
   5146.5000     15.8600     79.6000    -10.4000    460.0000      0.2119     -0.0044      0.3414      1.4224      1.3714      1.1852
   5147.0000     15.8400     79.6000    -10.4000    460.0000      0.2130     -0.0073      0.3401      1.4230      1.3721      1.1750
   5147.5000     15.8000     79.6000    -10.4000    460.0000      0.2141     -0.0093      0.3436      1.4108      1.3602      1.1648
   5148.0000     15.7600     79.6000    -10.4000    500.0000      0.2164     -0.0082      0.3507      1.3986      1.3608      1.1443
   5148.5000     15.7200     79.4000    -10.4000    520.0000      0.2151     -0.0062      0.3710      1.3992      1.3614      1.1344
   5149.0000     15.8400     79.2000    -10.4000    520.0000      0.2102     -0.0031      0.3757      1.3998      1.3621      1.1350
   5149.5000     15.8600     78.0000    -10.4000    520.0000      0.2053     -0.0021      0.3709      1.4005      1.3627      1.1252
   5150.0000     15.8800     76.2000    -10.4000    540.0000      0.2040     -0.0020      0.3672      1.4011      1.3633      1.1155
   5150.5000     15.9000     75.8000    -10.4000    540.0000      0.2040     -0.0010      0.3612      1.4014      1.3512      1.1055
   5151.0000     15.9400     76.4000    -10.4000    520.0000      0.2040     -0.0020      0.3600      1.4014      1.3512      1.1055
   5151.5000     15.9800     77.6000    -10.4000    520.0000      0.2016     -0.0010      0.3612      1.4014      1.3389      1.1055
   5152.0000     16.0400     79.2000    -10.4000    540.0000      0.2028      0.0040      0.3636      1.4014      1.3389      1.1055
   5152.5000     16.0800     79.6000    -10.4000    560.0000      0.2064      0.0070      0.3708      1.3887      1.3267      1.1055
   5153.0000     16.1000     79.6000    -10.4000    560.0000      0.2076      0.0070      0.3804      1.3887      1.3389      1.1055
   5153.5000     16.0200     79.8000    -10.4000    560.0000      0.2052      0.0060      0.3816      1.3887      1.3389      1.1157
   5154.0000     15.9400     80.2000    -10.4000    560.0000      0.2028      0.0050      0.3708      1.3887      1.3389      1.1157
   5154.5000     15.8800     82.4000    -10.4000    580.0000      0.2028      0.0030      0.3588      1.3887      1.3389      1.1259
   5155.0000     15.8800     85.2000    -10.4000    580.0000      0.2076      0.0000      0.3540      1.3887      1.3389      1.1259
   5155.5000     15.9200     86.8000    -10.2000    600.0000      0.2100     -0.0030      0.3516      1.3887      1.3389      1.1259
   5156.0000     15.9400     83.6000    -10.2000    620.0000      0.2112     -0.0030      0.3516      1.3760      1.3389      1.1259
   5156.5000     15.9800     79.8000    -10.0000    600.0000      0.2112     -0.0010      0.3660      1.3760      1.3389      1.1259
   5157.0000     16.0200     77.6000     -9.7972    560.0000      0.2100      0.0000      0.3720      1.3760      1.3389      1.1259
   5157.5000     16.0400     78.6000     -9.7970    520.0000      0.2100      0.0010      0.3732      1.3760      1.3389      1.1259
   5158.0000     16.0800     79.8000     -9.7968    520.0000      0.2100      0.0020      0.3720      1.3760      1.3389      1.1362
   5158.5000     16.0800     80.0000     -9.7966    520.0000      0.2088      0.0020      0.3648      1.3760      1.3267      1.1362
   5159.0000     16.0800     80.0000    -10.0000    520.0000      0.2088      0.0010      0.3696      1.3760      1.3267      1.1157
   5159.5000     16.0600     79.8000    -10.0000    540.0000      0.2076      0.0000      0.3840      1.3760      1.3147      1.1157
   5160.0000     16.0400     79.4000    -10.2000    560.0000      0.2064     -0.0020      0.3876      1.3636      1.3028      1.1259
   5160.5000     15.8606     79.2059    -10.1940    520.5882      0.2040     -0.0020      0.3864      1.3512      1.2909      1.1259
   5161.0000     15.7616     79.0158    -10.1841    501.5686      0.2053      0.0009      0.3781      1.3389      1.2676      1.1157
   5161.5000     15.8026     79.8257    -10.3742    502.5490      0.2114      0.0049      0.3674      1.3267      1.2561      1.1055
   5162.0000     15.8436     81.0354    -10.3643    523.5294      0.2198      0.0088      0.3650      1.3267      1.2447      1.0562
