~Version Information
#Created by IHS Markit
VERS.      2.0                       : CWLS Log Ascii Standard - Version 2.0
WRAP.      NO                        : One line per depth step
CRTR.      IHS Markit                : File Creator
~Well Information
#MNEM.UNIT         DATA              : DESCRIPTION
#----.----     -------------         : -------------------
STRT.F      3912.0000                           : START DEPTH
STOP.F      6144.0000                           : STOP DEPTH
STEP.F         0.5000                           : DEPTH INCREMENT
NULL.        -999.2500                           : Null Value
COMP.      GOM SHELF LLC                         : Company
WELL.      OCSG03011 A006                        : Well Name
FLD .      MU A 16                               : Field
LOC .      RIG MAYRONNE 162                      : Location
CTRY.      UNITED STATES                         : Country
STAT.      TEXAS                                 : State
CNTY.      MUSTANG ISLAND                        : County
API .      427024017500                        : API Well Number
UWI .      427024017500                        : Unique Well ID
LIC .      G03011                                : Licence Number
TWP .                                            : Township
RGE .                                            : Range
SEC .                                            : Section
LAT .                                            : Latitude
LONG.                                            : Longitude
~Parameter Information
#MNEM.UNIT         DATA                DESCRIPTION
#----.----         -------           : -------------------
RUN .      1                                     : Run Number
PASS.                                            : Pass Number
DATE.      1989-09-11                            : Log Date
SRVC.      SCHLUMBERGER                          : Service Company
LSRV.      DITE/CND                              : Log Mnemonic
PDAT.      WL                                    : Permanent Datum Reference
EPD .F         0.0000                           : ELEVATION OF PERM. DATUM
EGL .F         0.0000                           : ELEVATION GROUND LEVEL
EKB .F       110.0000                           : ELEVATION KELLY BUSHING
EDF .F       109.0000                           : ELEVATION DERRICK FLOOR
APD .F       110.0000                           : ABOVE PERMANENT DATUM
LMF .      KB                                    : Log Measured From
EREF.F    110                                   : ELEVATION OF DEPTH REFERENCE
DMF .      KB                                    : Drilling Measured From
TDL .F      6109.0000                           : TOTAL DEPTH, LOGGER
TDD .F      6109.0000                           : TOTAL DEPTH, DRILLER
BLI .F      6094.0000                           : BOTTOM OF LOGGED INTERVAL
TLI .F      4073.0000                           : TOP OF LOGGED INTERVAL
CSGS1.IN        13.3750                           : Casing Size 1
CSGW1.LB/FT                                       : Casing Weight 1
CSGL1.F      4073.0000                           : CASING BOTTOM LOGGER 1
CSGD1.F      4083.0000                           : CASING BOTTOM DRILLER 1
CSGS2.IN         9.6250                           : Casing Size 2
CSGW2.LB/FT                                       : Casing Weight 2
CSGL2.F                                          : CASING BOTTOM LOGGER 2
CSGD2.F                                          : CASING BOTTOM DRILLER 2
BS1 .IN        12.2500                           : Bit Size 1
DDB1.F      6109.0000                           : BIT SIZE DEPTH 1
MUD .      UNICAL                                : Mud Type
MUDD.LB/GAL    10.8000                           : Mud Density
MUDV.S         38.0000                           : Mud Viscosity
FL  .CM3        6.8000                           : Fluid Loss
FLT .DEGF                                        : Fluid Loss Temperature
PH  .           9.5000                           : Mud PH
MUDS.      FLOWLINE                              : Mud Sample Location
RM  .OHMM       0.4180                           : Mud Resistivity
RMT .DEGF      74.0000                           : Mud Temperature
RMC .OHMM       0.7780                           : Mud Cake Resistivity
RMCT.DEGF      74.0000                           : Mud Cake Temperature
RMCS.      MEASURED                              : Mud Cake Source
RMF .OHMM       0.2690                           : Mud Filtrate Resistivity
RMFT.DEGF      74.0000                           : Mud Filtrate Temperature
RMFS.      MEASURED                              : Mud Filtrate Source
TMAX.DEGF     144.0000                           : Max Temperature
TIMC.      1989-09-11 22:30                      : Date Time Circulation Stopped
TIML.      1989-09-11 21:12                      : Date TIme Logger On Bottom
TSC .                                            : Time Since Circulation Stopped
UNIT.      506                                   : Unit Number
BASE.      CCOS                                  : Logging Unit Home Base
ENG .      WITKOWSKY                             : Recording Engineer
WIT .      POULIN                                : Witnessed By
DIGS.      IHS MARKIT                            : Digitizing Company
~Curve Information
#MNEM.UNIT         API  CODE                      : CURVE DESCRIPTION
#----.----        ------------                    : -----------------
 DEPT.F          00 001 00 00                    : MEASURED DEPTH
 CALR.IN          00 000 00 00                    : Caliper (Resistivity)
 GRR .GAPI        00 000 00 00                    : Gamma Ray Resistivity Device
 SP  .MV          00 000 00 00                    : Spontaneous Potential
 TENR.LB          00 000 00 00                    : Tension Resistivity Device
 DPSS.V/V         00 000 00 00                    : Density Porosity Sandstone
 DRHO.G/CM3       00 000 00 00                    : Density Correction
 NPSS.V/V         00 000 00 00                    : Neutron Porosity Sandstone
 IDPH.OHMM        00 000 00 00                    : Induction Deep Phasor Resistivity
 IMPH.OHMM        00 000 00 00                    : Induction Medium Phasor Resistivity
 SFL .OHMM        00 000 00 00                    : Spherically Focussed Log
~A    DEPT        CALR         GRR          SP        TENR        DPSS        DRHO        NPSS        IDPH        IMPH         SFL
# ...
   5254.0000     12.9069     55.4753    -20.4000    600.0000      0.3143     -0.0100      0.3866      0.9116      0.8783      0.7842
   5254.5000     12.9884     58.0867    -20.2000    580.0000      0.3048     -0.0090      0.3783      0.9119      0.8868      0.7765
   5255.0000     13.0495     60.2934    -19.8021    560.0000      0.2927     -0.0090      0.3618      0.9123      0.8956      0.7689
   5255.5000     13.0707     60.6984    -19.6037    560.0000      0.2878     -0.0090      0.3428      0.9127      0.8962      0.7690
   5256.0000     13.0516     57.7156    -19.4050    560.0000      0.2890     -0.0130      0.3285      0.9214      0.9048      0.7844
   5256.5000     13.0126     55.7255    -19.6029    580.0000      0.2902     -0.0150      0.3237      0.9301      0.9052      0.8077
   5257.0000     12.9936     55.1352    -19.8013    580.0000      0.2902     -0.0160      0.3391      0.9388      0.9137      0.8233
   5257.5000     12.9946     54.7469    -20.0000    600.0000      0.2878     -0.0160      0.3461      0.9391      0.9223      0.8474
   5258.0000     13.0355     54.5566    -20.4000    600.0000      0.2829     -0.0150      0.3461      0.9477      0.9309      0.8641
   5258.5000     13.0967     54.5663    -20.4000    600.0000      0.2755     -0.0110      0.3449      0.9564      0.9312      0.8898
   5259.0000     13.1576     54.7759    -20.4000    620.0000      0.2669     -0.0060      0.3472      0.9652      0.9398      0.9152
   5259.5000     13.1386     56.9852    -20.4000    620.0000      0.2535     -0.0030      0.3565      0.9653      0.9484      0.9236
   5260.0000     13.0396     58.9963    -20.4000    620.0000      0.2400     -0.0020      0.3636      0.9654      0.9486      0.9239
   5260.5000     12.9388     57.2000    -20.4000    640.0000      0.2400     -0.0040      0.3612      0.9570      0.9487      0.9240
   5261.0000     12.9592     54.2000    -20.4000    640.0000      0.2608     -0.0080      0.3529      0.9487      0.9322      0.9079
   5261.5000     12.9796     51.8000    -21.0000    660.0000      0.2792     -0.0130      0.3482      0.9404      0.9159      0.8739
   5262.0000     12.9796     48.7755    -21.8000    660.0000      0.2976     -0.0150      0.3424      0.9322      0.9159      0.8402
   5262.5000     12.9796     47.1429    -22.8000    660.0000      0.3082     -0.0170      0.3341      0.9322      0.9159      0.8159
   5263.0000     12.9796     46.5306    -23.0000    640.0000      0.2988     -0.0170      0.3200      0.9404      0.9322      0.8402
   5263.5000     12.9388     46.5306    -23.2000    620.0000      0.2865     -0.0150      0.3141      0.9570      0.9404      0.8825
   5264.0000     12.9184     49.1837    -22.8000    600.0000      0.2767     -0.0150      0.3188      0.9740      0.9487      0.9000
   5264.5000     12.8571     55.4000    -21.4000    600.0000      0.2767     -0.0150      0.3259      0.9913      0.9655      0.9159
   5265.0000     12.8163     60.5882    -20.6000    600.0000      0.2706     -0.0140      0.3306      1.0000      0.9655      0.9159
   5265.5000     12.8163     66.0784    -19.8000    600.0000      0.2547     -0.0110      0.3459      0.9826      0.9487      0.9159
   5266.0000     12.8367     66.8627    -19.4000    600.0000      0.2412     -0.0080      0.3624      0.9570      0.9240      0.8825
   5266.5000     12.8980     62.1569    -19.0000    620.0000      0.2400     -0.0090      0.3718      0.9322      0.9000      0.8485
   5267.0000     12.9388     58.2000    -19.4000    620.0000      0.2596     -0.0110      0.3694      0.9079      0.8653      0.8239
   5267.5000     12.9184     56.4000    -20.6000    620.0000      0.2865     -0.0130      0.3671      0.8739      0.8402      0.8079
   5268.0000     12.8163     57.2000    -21.2000    620.0000      0.3071     -0.0140      0.3741      0.8485      0.8159      0.7849
   5268.5000     12.7143     57.4000    -22.2000    640.0000      0.3035     -0.0160      0.3812      0.8239      0.7924      0.7701
   5269.0000     12.6939     53.8000    -22.8000    620.0000      0.3012     -0.0160      0.3788      0.8000      0.7627      0.7555
   5269.5000     12.6735     50.4000    -23.4000    640.0000      0.3047     -0.0160      0.3647      0.7849      0.7555      0.7342
   5270.0000     12.6939     50.2000    -23.8000    660.0000      0.3129     -0.0160      0.3494      0.7701      0.7483      0.7272
   5270.5000     12.7551     51.0000    -24.2000    660.0000      0.3176     -0.0160      0.3341      0.7701      0.7412      0.7272
   5271.0000     12.8776     49.1837    -24.4000    620.0000      0.3165     -0.0150      0.3318      0.7701      0.7412      0.7342
   5271.5000     12.9184     46.7347    -24.4000    620.0000      0.3153     -0.0140      0.3306      0.7701      0.7412      0.7272
   5272.0000     12.9388     44.4898    -24.6000    620.0000      0.3141     -0.0130      0.3388      0.7701      0.7412      0.7342
   5272.5000     12.9796     44.0816    -24.8000    640.0000      0.3188     -0.0130      0.3506      0.7701      0.7412      0.7412
   5273.0000     12.9796     46.1224    -24.8000    640.0000      0.3247     -0.0140      0.3529      0.7701      0.7412      0.7412
   5273.5000     13.0400     47.9592    -24.6000    640.0000      0.3306     -0.0160      0.3553      0.7701      0.7555      0.7412
   5274.0000     13.0800     49.7959    -24.4000    640.0000      0.3329     -0.0150      0.3576      0.7849      0.7701      0.7412
   5274.5000     13.1400     52.0000    -23.8000    640.0000      0.3235     -0.0110      0.3600      0.8000      0.7849      0.7412
   5275.0000     13.1600     53.0000    -23.2000    640.0000      0.3141     -0.0080      0.3612      0.8159      0.8000      0.7412
   5275.5000     13.1200     53.8000    -23.0000    640.0000      0.3059     -0.0080      0.3729      0.8320      0.8159      0.7412
   5276.0000     13.0800     53.8000    -22.8000    660.0000      0.3094     -0.0100      0.3859      0.8485      0.8320      0.7412
   5276.5000     13.0600     55.0000    -22.4000    700.0000      0.3106     -0.0140      0.3976      0.8653      0.8485      0.7555
   5277.0000     13.0400     57.4000    -21.8000    700.0000      0.3012     -0.0160      0.3953      0.8825      0.8653      0.7774
   5277.5000     13.0400     59.2000    -21.4000    720.0000      0.2816     -0.0150      0.3753      0.8825      0.8739      0.7924
   5278.0000     13.0800     60.5882    -20.8000    720.0000      0.2669     -0.0130      0.3776      0.8912      0.8825      0.7924
   5278.5000     13.1800     61.5686    -20.6000    680.0000      0.2718     -0.0120      0.3835      0.8912      0.8825      0.7924
   5279.0000     13.1800     61.7647    -20.4000    660.0000      0.2914     -0.0120      0.3812      0.8912      0.8825      0.7924
   5279.5000     13.0400     59.8000    -20.4000    660.0000      0.3024     -0.0100      0.3694      0.8912      0.8825      0.7924
   5280.0000     12.9388     57.4000    -20.4000    640.0000      0.3024     -0.0050      0.3600      0.8912      0.8825      0.8000
   5280.5000     12.9184     54.6000    -20.4000    639.5744      0.2816     -0.0010      0.3541      0.8912      0.8739      0.8159
   5281.0000     12.9184     54.6000    -20.6000    658.9117      0.2608      0.0030      0.3576      0.9079      0.8825      0.8239
   5281.5000     12.9184     54.6000    -20.6000    658.2609      0.2669      0.0030      0.3576      0.9240      0.9000      0.8320
   5282.0000     12.9388     53.4000    -20.4000    637.6813      0.2767      0.0020      0.3424      0.9487      0.9240      0.8320
   5282.5000     13.0000     52.2000    -20.8000    617.1425      0.2914     -0.0010      0.3259      0.9655      0.9404      0.8159
   5283.0000     13.0600     51.8000    -20.8000    596.6442      0.2890      0.0050      0.3247      0.9913      0.9655      0.8485
   5283.5000     13.1600     54.0000    -20.8000    596.0573      0.2682      0.0150      0.3224      1.0182      0.9913      0.8912
   5284.0000     13.2600     57.4000    -20.2000    635.1746      0.2473      0.0250      0.3235      1.0460      1.0182      0.9404
