~Version Information
#Created by IHS Markit
VERS.      2.0                       : CWLS Log Ascii Standard - Version 2.0
WRAP.      NO                        : One line per depth step
CRTR.      IHS Markit                : File Creator
~Well Information
#MNEM.UNIT         DATA              : DESCRIPTION
#----.----     -------------         : -------------------
STRT.F      3912.0000                           : START DEPTH
STOP.F      6144.0000                           : STOP DEPTH
STEP.F         0.5000                           : DEPTH INCREMENT
NULL.        -999.2500                           : Null Value
COMP.      GOM SHELF LLC                         : Company
WELL.      OCSG03011 A006                        : Well Name
FLD .      MU A 16                               : Field
LOC .      RIG MAYRONNE 162                      : Location
CTRY.      UNITED STATES                         : Country
STAT.      TEXAS                                 : State
CNTY.      MUSTANG ISLAND                        : County
API .      427024017500                        : API Well Number
UWI .      427024017500                        : Unique Well ID
LIC .      G03011                                : Licence Number
TWP .                                            : Township
RGE .                                            : Range
SEC .                                            : Section
LAT .                                            : Latitude
LONG.                                            : Longitude
~Parameter Information
#MNEM.UNIT         DATA                DESCRIPTION
#----.----         -------           : -------------------
RUN .      1                                     : Run Number
PASS.                                            : Pass Number
DATE.      1989-09-11                            : Log Date
SRVC.      SCHLUMBERGER                          : Service Company
LSRV.      DITE/CND                              : Log Mnemonic
PDAT.      WL                                    : Permanent Datum Reference
EPD .F         0.0000                           : ELEVATION OF PERM. DATUM
EGL .F         0.0000                           : ELEVATION GROUND LEVEL
EKB .F       110.0000                           : ELEVATION KELLY BUSHING
EDF .F       109.0000                           : ELEVATION DERRICK FLOOR
APD .F       110.0000                           : ABOVE PERMANENT DATUM
LMF .      KB                                    : Log Measured From
EREF.F    110                                   : ELEVATION OF DEPTH REFERENCE
DMF .      KB                                    : Drilling Measured From
TDL .F      6109.0000                           : TOTAL DEPTH, LOGGER
TDD .F      6109.0000                           : TOTAL DEPTH, DRILLER
BLI .F      6094.0000                           : BOTTOM OF LOGGED INTERVAL
TLI .F      4073.0000                           : TOP OF LOGGED INTERVAL
CSGS1.IN        13.3750                           : Casing Size 1
CSGW1.LB/FT                                       : Casing Weight 1
CSGL1.F      4073.0000                           : CASING BOTTOM LOGGER 1
CSGD1.F      4083.0000                           : CASING BOTTOM DRILLER 1
CSGS2.IN         9.6250                           : Casing Size 2
CSGW2.LB/FT                                       : Casing Weight 2
CSGL2.F                                          : CASING BOTTOM LOGGER 2
CSGD2.F                                          : CASING BOTTOM DRILLER 2
BS1 .IN        12.2500                           : Bit Size 1
DDB1.F      6109.0000                           : BIT SIZE DEPTH 1
MUD .      UNICAL                                : Mud Type
MUDD.LB/GAL    10.8000                           : Mud Density
MUDV.S         38.0000                           : Mud Viscosity
FL  .CM3        6.8000                           : Fluid Loss
FLT .DEGF                                        : Fluid Loss Temperature
PH  .           9.5000                           : Mud PH
MUDS.      FLOWLINE                              : Mud Sample Location
RM  .OHMM       0.4180                           : Mud Resistivity
RMT .DEGF      74.0000                           : Mud Temperature
RMC .OHMM       0.7780                           : Mud Cake Resistivity
RMCT.DEGF      74.0000                           : Mud Cake Temperature
RMCS.      MEASURED                              : Mud Cake Source
RMF .OHMM       0.2690                           : Mud Filtrate Resistivity
RMFT.DEGF      74.0000                           : Mud Filtrate Temperature
RMFS.      MEASURED                              : Mud Filtrate Source
TMAX.DEGF     144.0000                           : Max Temperature
TIMC.      1989-09-11 22:30                      : Date Time Circulation Stopped
TIML.      1989-09-11 21:12                      : Date TIme Logger On Bottom
TSC .                                            : Time Since Circulation Stopped
UNIT.      506                                   : Unit Number
BASE.      CCOS                                  : Logging Unit Home Base
ENG .      WITKOWSKY                             : Recording Engineer
WIT .      POULIN                                : Witnessed By
DIGS.      IHS MARKIT                            : Digitizing Company
~Curve Information
#MNEM.UNIT         API  CODE                      : CURVE DESCRIPTION
#----.----        ------------                    : -----------------
 DEPT.F          00 001 00 00                    : MEASURED DEPTH
 CALR.IN          00 000 00 00                    : Caliper (Resistivity)
 GRR .GAPI        00 000 00 00                    : Gamma Ray Resistivity Device
 SP  .MV          00 000 00 00                    : Spontaneous Potential
 TENR.LB          00 000 00 00                    : Tension Resistivity Device
 DPSS.V/V         00 000 00 00                    : Density Porosity Sandstone
 DRHO.G/CM3       00 000 00 00                    : Density Correction
 NPSS.V/V         00 000 00 00                    : Neutron Porosity Sandstone
 IDPH.OHMM        00 000 00 00                    : Induction Deep Phasor Resistivity
 IMPH.OHMM        00 000 00 00                    : Induction Medium Phasor Resistivity
 SFL .OHMM        00 000 00 00                    : Spherically Focussed Log
~A    DEPT        CALR         GRR          SP        TENR        DPSS        DRHO        NPSS        IDPH        IMPH         SFL
# ...
   4735.5000     13.0600     60.9804    -26.8000    460.0000      0.3480     -0.0165      0.2664      2.9440      2.5557      2.1771
   4736.0000     13.2000     62.1569    -26.6000    460.0000      0.3324     -0.0164      0.2928      2.8084      2.4844      2.0769
   4736.5000     13.3200     63.3333    -26.2000    460.0000      0.3072     -0.0174      0.3096      2.7300      2.3924      1.9643
   4737.0000     13.4600     64.7059    -25.6000    460.0000      0.2820     -0.0163      0.3072      2.6790      2.3257      1.8444
   4737.5000     13.5600     65.6863    -25.2000    460.0000      0.2484     -0.0133      0.2988      2.6539      2.2608      1.8610
   4738.0000     13.6200     65.6863    -24.6000    460.0000      0.2568     -0.0142      0.2856      2.6043      2.2396      2.0189
   4738.5000     13.5600     63.5294    -24.6000    460.0000      0.2772     -0.0162      0.2748      2.6043      2.2396      2.1567
   4739.0000     13.5200     59.4000    -25.0000    460.0000      0.3012     -0.0181      0.2748      2.5557      2.2396      2.1567
   4739.5000     13.5000     55.8000    -25.2000    460.0000      0.3240     -0.0201      0.2772      2.5317      2.1978      2.0381
   4740.0000     13.5800     52.8000    -25.4000    460.0000      0.3468     -0.0210      0.2832      2.4844      2.1365      1.9293
   4740.5000     13.7002     55.2028    -25.3942    480.0000      0.3480     -0.0160      0.3024      2.4386      2.0386      1.8283
   4741.0000     13.8003     58.2028    -25.1845    460.0000      0.3263     -0.0069      0.3275      2.3717      1.9657      1.7329
   4741.5000     13.9003     60.1966    -24.9748    480.0000      0.3047      0.0071      0.3407      2.2213      1.8632      1.6724
   4742.0000     14.0000     61.9677    -24.3631    480.0000      0.2770      0.0212      0.3443      2.0803      1.7820      1.6433
   4742.5000     14.0985     63.9392    -23.7534    480.0000      0.2517      0.0342      0.3395      2.0232      1.7043      1.6002
   4743.0000     14.1971     64.9288    -23.1437    480.0000      0.2541      0.0373      0.3347      1.9169      1.6010      1.4765
   4743.5000     14.4539     65.3283    -22.7340    480.0000      0.2612      0.0303      0.3479      1.8169      1.5451      1.3869
   4744.0000     14.7111     65.5310    -21.9243    480.0000      0.2587      0.0204      0.3636      1.7377      1.4778      1.3028
   4744.5000     14.9491     65.9329    -21.3146    480.0000      0.2443      0.0144      0.3838      1.6770      1.4390      1.2348
   4745.0000     14.9896     66.3346    -20.7049    480.0000      0.2264      0.0105      0.3862      1.6330      1.4140      1.2243
   4745.5000     14.8520     66.9352    -20.0932    500.0000      0.2132      0.0045      0.3707      1.5902      1.4146      1.2359
   4746.0000     14.7140     67.9336    -19.4835    500.0000      0.2179     -0.0014      0.3539      1.5625      1.3900      1.2589
   4746.5000     14.4963     68.7355    -18.8739    500.0000      0.2285     -0.0074      0.3442      1.5353      1.3781      1.2940
   4747.0000     14.3776     70.7359    -18.6642    500.0000      0.2380     -0.0103      0.3442      1.5086      1.3664      1.3180
   4747.5000     14.3183     72.9456    -18.6544    500.0000      0.2403     -0.0103      0.3515      1.4957      1.3547      1.3068
   4748.0000     14.2389     74.7553    -18.4447    480.0000      0.2427     -0.0082      0.3600      1.4566      1.3433      1.2388
   4748.5000     14.3588     75.7650    -18.2331    480.0000      0.2450     -0.0072      0.3683      1.4442      1.3318      1.1848
   4749.0000     14.6585     76.7767    -18.0233    500.0000      0.2449     -0.0051      0.3694      1.4449      1.3087      1.1230
   4749.5000     14.9587     78.7864    -17.8136    520.0000      0.2449     -0.0031      0.3635      1.4326      1.3092      1.0837
   4750.0000     15.2796     80.9961    -17.6039    540.0000      0.2448     -0.0020      0.3682      1.4203      1.2981      1.0553
   4750.5000     15.5800     81.4000    -17.6000    560.0000      0.2436     -0.0040      0.3788      1.4079      1.2867      1.0367
   4751.0000     15.7600     80.0000    -17.4000    580.0000      0.2449     -0.0059      0.3930      1.3952      1.2751      1.0460
   4751.5000     15.8800     80.0000    -17.4000    580.0000      0.2473     -0.0068      0.4083      1.3952      1.2867      1.0460
   4752.0000     15.9800     82.2000    -17.2000    560.0000      0.2474     -0.0068      0.4214      1.3827      1.2867      1.0555
   4752.5000     16.0600     84.4000    -17.2000    560.0000      0.2474     -0.0067      0.4274      1.3827      1.2867      1.0650
   4753.0000     16.0200     85.4000    -17.0000    560.0000      0.2463     -0.0047      0.4287      1.3827      1.2867      1.0650
   4753.5000     15.8000     86.0000    -16.8000    560.0000      0.2452     -0.0026      0.4275      1.3827      1.2867      1.0460
   4754.0000     15.7000     83.4000    -16.8000    560.0000      0.2428     -0.0016      0.4193      1.3827      1.2751      1.0460
   4754.5000     15.8200     81.0000    -16.6000    540.0000      0.2405     -0.0015      0.3942      1.3827      1.2751      1.0555
   4755.0000     16.0000     78.0000    -16.4000    480.0000      0.2429     -0.0015      0.3690      1.3827      1.2751      1.0747
   4755.5000     16.2000     77.4000    -16.2000    480.0000      0.2442     -0.0014      0.3521      1.3704      1.2751      1.0942
   4756.0000     16.3800     78.2000    -16.0000    480.0000      0.2454     -0.0014      0.3545      1.3581      1.2637      1.0844
   4756.5000     16.3800     79.2000    -15.8000    480.0000      0.2502     -0.0004      0.3544      1.3459      1.2637      1.0650
   4757.0000     16.3000     80.4000    -15.6000    480.0000      0.2526     -0.0013      0.3519      1.3338      1.2637      1.0460
   4757.5000     16.0600     81.6000    -15.6000    480.0000      0.2515     -0.0012      0.3579      1.3338      1.2637      1.0182
   4758.0000     15.8400     82.8000    -15.6000    480.0000      0.2492     -0.0012      0.3688      1.3338      1.2524      1.0090
   4758.5000     15.8200     84.0000    -15.8000    480.0000      0.2492     -0.0031      0.3772      1.3338      1.2524      1.0090
   4759.0000     15.8600     85.2000    -16.0000    500.0000      0.2469     -0.0020      0.3821      1.3338      1.2524      1.0000
   4759.5000     15.9400     86.8000    -16.0000    540.0000      0.2446     -0.0030      0.3821      1.3338      1.2524      0.9912
   4760.0000     16.0000     85.2000    -16.0000    520.0000      0.2435     -0.0039      0.3869      1.3338      1.2524      1.0000
   4760.5000     16.0400     81.4000    -16.0000    520.0000      0.2435     -0.0020      0.3979      1.3340      1.2525      1.0090
   4761.0000     16.1000     78.4000    -16.0000    520.0000      0.2424     -0.0010      0.4065      1.3342      1.2527      1.0274
   4761.5000     16.1600     80.4000    -16.0000    520.0000      0.2400     -0.0001      0.4064      1.3225      1.2528      1.0274
   4762.0000     16.0600     84.6000    -15.8000    520.0000      0.2388     -0.0002      0.4051      1.3227      1.2418      1.0274
   4762.5000     15.9400     84.8000    -15.6000    540.0000      0.2388     -0.0002      0.4027      1.3230      1.2419      1.0275
   4763.0000     15.8200     83.8000    -15.4000    560.0000      0.2412     -0.0022      0.3965      1.3233      1.2422      1.0182
   4763.5000     15.8000     82.6000    -15.2000    560.0000      0.2424     -0.0042      0.3661      1.3235      1.2423      1.0091
   4764.0000     15.8400     82.0000    -15.2000    600.0000      0.2447     -0.0033      0.3516      1.3237      1.2425      1.0091
   4764.5000     15.9000     81.4000    -15.2000    660.0000      0.2459     -0.0043      0.3588      1.3240      1.2427      1.0183
   4765.0000     15.9400     80.6000    -15.4000    660.0000      0.2459     -0.0024      0.3709      1.3242      1.2316      1.0369
   4765.5000     15.9600     80.0000    -15.4000    640.0000      0.2447      0.0014      0.3830      1.3244      1.2318      1.0276
