~Version Information
#Created by IHS Markit
VERS.      2.0                       : CWLS Log Ascii Standard - Version 2.0
WRAP.      NO                        : One line per depth step
CRTR.      IHS Markit                : File Creator
~Well Information
#MNEM.UNIT         DATA              : DESCRIPTION
#----.----     -------------         : -------------------
STRT.F      3912.0000                           : START DEPTH
STOP.F      6144.0000                           : STOP DEPTH
STEP.F         0.5000                           : DEPTH INCREMENT
NULL.        -999.2500                           : Null Value
COMP.      GOM SHELF LLC                         : Company
WELL.      OCSG03011 A006                        : Well Name
FLD .      MU A 16                               : Field
LOC .      RIG MAYRONNE 162                      : Location
CTRY.      UNITED STATES                         : Country
STAT.      TEXAS                                 : State
CNTY.      MUSTANG ISLAND                        : County
API .      427024017500                        : API Well Number
UWI .      427024017500                        : Unique Well ID
LIC .      G03011                                : Licence Number
TWP .                                            : Township
RGE .                                            : Range
SEC .                                            : Section
LAT .                                            : Latitude
LONG.                                            : Longitude
~Parameter Information
#MNEM.UNIT         DATA                DESCRIPTION
#----.----         -------           : -------------------
RUN .      1                                     : Run Number
PASS.                                            : Pass Number
DATE.      1989-09-11                            : Log Date
SRVC.      SCHLUMBERGER                          : Service Company
LSRV.      DITE/CND                              : Log Mnemonic
PDAT.      WL                                    : Permanent Datum Reference
EPD .F         0.0000                           : ELEVATION OF PERM. DATUM
EGL .F         0.0000                           : ELEVATION GROUND LEVEL
EKB .F       110.0000                           : ELEVATION KELLY BUSHING
EDF .F       109.0000                           : ELEVATION DERRICK FLOOR
APD .F       110.0000                           : ABOVE PERMANENT DATUM
LMF .      KB                                    : Log Measured From
EREF.F    110                                   : ELEVATION OF DEPTH REFERENCE
DMF .      KB                                    : Drilling Measured From
TDL .F      6109.0000                           : TOTAL DEPTH, LOGGER
TDD .F      6109.0000                           : TOTAL DEPTH, DRILLER
BLI .F      6094.0000                           : BOTTOM OF LOGGED INTERVAL
TLI .F      4073.0000                           : TOP OF LOGGED INTERVAL
CSGS1.IN        13.3750                           : Casing Size 1
CSGW1.LB/FT                                       : Casing Weight 1
CSGL1.F      4073.0000                           : CASING BOTTOM LOGGER 1
CSGD1.F      4083.0000                           : CASING BOTTOM DRILLER 1
CSGS2.IN         9.6250                           : Casing Size 2
CSGW2.LB/FT                                       : Casing Weight 2
CSGL2.F                                          : CASING BOTTOM LOGGER 2
CSGD2.F                                          : CASING BOTTOM DRILLER 2
BS1 .IN        12.2500                           : Bit Size 1
DDB1.F      6109.0000                           : BIT SIZE DEPTH 1
MUD .      UNICAL                                : Mud Type
MUDD.LB/GAL    10.8000                           : Mud Density
MUDV.S         38.0000                           : Mud Viscosity
FL  .CM3        6.8000                           : Fluid Loss
FLT .DEGF                                        : Fluid Loss Temperature
PH  .           9.5000                           : Mud PH
MUDS.      FLOWLINE                              : Mud Sample Location
RM  .OHMM       0.4180                           : Mud Resistivity
RMT .DEGF      74.0000                           : Mud Temperature
RMC .OHMM       0.7780                           : Mud Cake Resistivity
RMCT.DEGF      74.0000                           : Mud Cake Temperature
RMCS.      MEASURED                              : Mud Cake Source
RMF .OHMM       0.2690                           : Mud Filtrate Resistivity
RMFT.DEGF      74.0000                           : Mud Filtrate Temperature
RMFS.      MEASURED                              : Mud Filtrate Source
TMAX.DEGF     144.0000                           : Max Temperature
TIMC.      1989-09-11 22:30                      : Date Time Circulation Stopped
TIML.      1989-09-11 21:12                      : Date TIme Logger On Bottom
TSC .                                            : Time Since Circulation Stopped
UNIT.      506                                   : Unit Number
BASE.      CCOS                                  : Logging Unit Home Base
ENG .      WITKOWSKY                             : Recording Engineer
WIT .      POULIN                                : Witnessed By
DIGS.      IHS MARKIT                            : Digitizing Company
~Curve Information
#MNEM.UNIT         API  CODE                      : CURVE DESCRIPTION
#----.----        ------------                    : -----------------
 DEPT.F          00 001 00 00                    : MEASURED DEPTH
 CALR.IN          00 000 00 00                    : Caliper (Resistivity)
 GRR .GAPI        00 000 00 00                    : Gamma Ray Resistivity Device
 SP  .MV          00 000 00 00                    : Spontaneous Potential
 TENR.LB          00 000 00 00                    : Tension Resistivity Device
 DPSS.V/V         00 000 00 00                    : Density Porosity Sandstone
 DRHO.G/CM3       00 000 00 00                    : Density Correction
 NPSS.V/V         00 000 00 00                    : Neutron Porosity Sandstone
 IDPH.OHMM        00 000 00 00                    : Induction Deep Phasor Resistivity
 IMPH.OHMM        00 000 00 00                    : Induction Medium Phasor Resistivity
 SFL .OHMM        00 000 00 00                    : Spherically Focussed Log
~A    DEPT        CALR         GRR          SP        TENR        DPSS        DRHO        NPSS        IDPH        IMPH         SFL
# ...
   4064.5000   -999.2500     49.4000   -999.2500    660.0000   -999.2500   -999.2500      0.5076   -999.2500   -999.2500   -999.2500
   4065.0000   -999.2500     48.0000   -999.2500    680.0000   -999.2500   -999.2500      0.5232   -999.2500   -999.2500   -999.2500
   4065.5000   -999.2500     46.6000   -999.2500    680.0000   -999.2500   -999.2500      0.5508   -999.2500   -999.2500   -999.2500
   4066.0000   -999.2500     45.2000   -999.2500    680.0000   -999.2500   -999.2500      0.5736   -999.2500   -999.2500   -999.2500
   4066.5000   -999.2500     43.8000   -999.2500    680.0000   -999.2500   -999.2500      0.5892   -999.2500   -999.2500   -999.2500
   4067.0000   -999.2500     44.0000   -999.2500    660.0000   -999.2500   -999.2500      0.5904   -999.2500   -999.2500   -999.2500
   4067.5000   -999.2500     44.6000   -999.2500    640.0000   -999.2500   -999.2500      0.5904   -999.2500   -999.2500   -999.2500
   4068.0000   -999.2500     45.6000   -999.2500    640.0000   -999.2500   -999.2500      0.5928   -999.2500   -999.2500   -999.2500
   4068.5000   -999.2500     46.2000   -999.2500    640.0000   -999.2500   -999.2500      0.5940   -999.2500   -999.2500   -999.2500
   4069.0000   -999.2500     47.0000   -999.2500    640.0000   -999.2500   -999.2500      0.5928   -999.2500   -999.2500   -999.2500
   4069.5000   -999.2500     46.0000   -999.2500    640.0000   -999.2500   -999.2500      0.5928   -999.2500   -999.2500   -999.2500
   4070.0000   -999.2500     44.4000   -999.2500    640.0000   -999.2500   -999.2500      0.5832   -999.2500   -999.2500   -999.2500
   4070.5000   -999.2500     44.8000   -999.2500    640.0000   -999.2500   -999.2500      0.5520   -999.2500   -999.2500   -999.2500
   4071.0000   -999.2500     45.0000   -999.2500    640.0000   -999.2500   -999.2500      0.5172   -999.2500   -999.2500   -999.2500
   4071.5000   -999.2500     44.0000   -999.2500    640.0000   -999.2500   -999.2500      0.5052   -999.2500   -999.2500   -999.2500
   4072.0000   -999.2500     43.0000   -999.2500    640.0000   -999.2500   -999.2500      0.5088   -999.2500   -999.2500   -999.2500
   4072.5000   -999.2500     43.2000   -999.2500    640.0000   -999.2500   -999.2500      0.5232   -999.2500   -999.2500   -999.2500
   4073.0000     13.0000     47.2000    -99.8000    640.0000      0.3636     -0.5010      0.5484    127.3787   1912.0115      0.1963
   4073.5000     13.1600     50.6000    -84.0000    640.0000      0.3792     -0.3600      0.5628      4.0374   1843.5156      0.1963
   4074.0000     13.4000     54.0000    -78.4000    640.0000      0.4044     -0.1950      0.5388      0.5733   1698.2379      0.3261
   4074.5000     13.7600     57.4000    -70.8000    640.0000      0.4068     -0.0510      0.5004      0.7450    482.3824      0.7652
   4075.0000     13.9600     60.5882    -61.8000    640.0000      0.4044      0.0240      0.4714      0.7859     72.3635      1.0187
   4075.5000     14.1373     62.9412    -58.2000    640.0000      0.4044      0.0280      0.4665      0.7584      5.0458      1.0187
   4076.0000     14.1176     65.6863    -54.6000    640.0000      0.4249      0.0210      0.4956      0.6110      1.6779      1.0000
   4076.5000     14.0392     68.2353    -50.8000    640.0000      0.4494      0.0170      0.5148      0.5378      0.7384      1.0000
   4077.0000     14.1373     69.8039    -48.2000    640.0000      0.4592      0.0160      0.5268      0.5629      0.6510      1.0570
   4077.5000     14.2157     70.0000    -46.0000    640.0000      0.4384      0.0200      0.5256      0.6510      0.7254      1.1487
   4078.0000     14.1176     65.6863    -45.0000    640.0000      0.4164      0.0230      0.5172      0.7584      0.8485      1.2483
   4078.5000     13.7800     62.1569    -44.0000    640.0000      0.3900      0.0270      0.5052      0.8912      0.9913      1.2599
   4079.0000     13.6400     64.1176    -43.0000    640.0000      0.3696      0.0300      0.4908      1.0668      1.1701      1.1701
   4079.5000     13.6600     67.2549    -41.6000    620.0000      0.3780      0.0240      0.4944      1.0867      1.2834      1.0668
   4080.0000     14.1373     70.6000    -40.2000    620.0000      0.3852      0.0140      0.5064      1.1173      1.2483      0.9913
   4080.5000     14.5882     74.0000    -38.6275    600.0000      0.3900      0.0090      0.5160      1.1594      1.1594      0.9322
   4081.0000     14.8235     75.6000    -37.4510    600.0000      0.3792      0.0030      0.5076      1.2030      1.0767      0.9159
   4081.5000     14.4902     76.2000    -37.2549    620.0000      0.3636     -0.0010      0.4872      1.2368      1.0473      0.9079
   4082.0000     14.2549     77.8000    -36.8627    640.0000      0.3447     -0.0070      0.4751      1.2255      1.0473      0.9079
   4082.5000     14.0392     79.4000    -36.6667    640.0000      0.3212     -0.0110      0.4629      1.2255      1.0767      0.9079
   4083.0000     14.0784     76.4000    -36.2745    640.0000      0.3047     -0.0130      0.4469      1.2368      1.1487      0.9079
   4083.5000     14.1961     71.2000    -35.8824    640.0000      0.2880     -0.0130      0.4249      1.2368      1.1920      0.9322
   4084.0000     14.1765     66.0784    -35.6863    640.0000      0.2760     -0.0100      0.3972      1.2483      1.2030      0.9826
   4084.5000     13.9400     64.9020    -35.2941    640.0000      0.2688     -0.0080      0.3912      1.2483      1.1701      1.0473
   4085.0000     13.7200     66.0784    -34.9020    640.0000      0.2832     -0.0050      0.4032      1.2599      1.1277      1.0767
   4085.5000     13.8800     66.8627    -34.5098    640.0000      0.3012     -0.0060      0.4176      1.2716      1.1070      1.0668
   4086.0000     14.2745     67.0588    -34.3137    640.0000      0.3247     -0.0120      0.4261      1.2716      1.1070      1.0093
   4086.5000     14.5882     67.6471    -33.9216    640.0000      0.3459     -0.0170      0.4347      1.2716      1.1173      0.9570
   4087.0000     14.7255     69.4118    -33.3333    640.0000      0.3459     -0.0160      0.4384      1.2483      1.1381      0.9322
   4087.5000     14.6471     72.4000    -32.9412    640.0000      0.3376     -0.0120      0.4359      1.2368      1.1594      0.9240
   4088.0000     14.4118     75.8000    -32.3529    660.0000      0.3329     -0.0070      0.4298      1.2142      1.1594      0.9240
   4088.5000     14.1569     78.6000    -31.9608    660.0000      0.3388     -0.0020      0.4200      1.1920      1.1594      0.9240
   4089.0000     13.7600     79.4000    -31.3725    660.0000      0.3400      0.0030      0.4116      1.1810      1.1594      0.9240
   4089.5000     13.7200     79.0000    -30.9804    660.0000      0.3247      0.0060      0.4020      1.1810      1.1487      0.9240
   4090.0000     13.7200     79.2000    -30.5882    660.0000      0.3106      0.0060      0.3960      1.1920      1.1487      0.9322
   4090.5000     13.7200     81.4056    -30.1905    660.0000      0.2964      0.0050      0.4020      1.1920      1.1381      0.9240
   4091.0000     13.7400     81.4154    -30.1810    660.0000      0.2843      0.0030      0.4128      1.2030      1.1277      0.9159
   4091.5000     13.8600     78.8255    -29.9745    660.0000      0.2806      0.0000      0.4286      1.1810      1.1173      0.9159
   4092.0000     14.0000     76.8353    -29.9647    680.0000      0.2794     -0.0020      0.4433      1.1701      1.1173      0.9159
   4092.5000     14.1379     79.2451    -29.5549    660.0000      0.2817     -0.0030      0.4494      1.1701      1.1173      0.9159
   4093.0000     14.3549     83.2564    -29.1431    660.0000      0.2841     -0.0050      0.4604      1.1701      1.1173      0.9159
   4093.5000     14.8092     86.0659    -28.7333    640.0000      0.2816     -0.0060      0.4714      1.1701      1.1173      0.9000
   4094.0000     15.4476     86.4757    -28.5235    640.0000      0.2755     -0.0070      0.4812      1.1701      1.1173      0.8739
   4094.5000     15.8486     84.2858    -28.1137    660.0000      0.2683     -0.0080      0.4702      1.1701      1.1173      0.8569
