~Version Information
#Created by IHS Markit
VERS.      2.0                       : CWLS Log Ascii Standard - Version 2.0
WRAP.      NO                        : One line per depth step
CRTR.      IHS Markit                : File Creator
~Well Information
#MNEM.UNIT         DATA              : DESCRIPTION
#----.----     -------------         : -------------------
STRT.F      3912.0000                           : START DEPTH
STOP.F      6144.0000                           : STOP DEPTH
STEP.F         0.5000                           : DEPTH INCREMENT
NULL.        -999.2500                           : Null Value
COMP.      GOM SHELF LLC                         : Company
WELL.      OCSG03011 A006                        : Well Name
FLD .      MU A 16                               : Field
LOC .      RIG MAYRONNE 162                      : Location
CTRY.      UNITED STATES                         : Country
STAT.      TEXAS                                 : State
CNTY.      MUSTANG ISLAND                        : County
API .      427024017500                        : API Well Number
UWI .      427024017500                        : Unique Well ID
LIC .      G03011                                : Licence Number
TWP .                                            : Township
RGE .                                            : Range
SEC .                                            : Section
LAT .                                            : Latitude
LONG.                                            : Longitude
~Parameter Information
#MNEM.UNIT         DATA                DESCRIPTION
#----.----         -------           : -------------------
RUN .      1                                     : Run Number
PASS.                                            : Pass Number
DATE.      1989-09-11                            : Log Date
SRVC.      SCHLUMBERGER                          : Service Company
LSRV.      DITE/CND                              : Log Mnemonic
PDAT.      WL                                    : Permanent Datum Reference
EPD .F         0.0000                           : ELEVATION OF PERM. DATUM
EGL .F         0.0000                           : ELEVATION GROUND LEVEL
EKB .F       110.0000                           : ELEVATION KELLY BUSHING
EDF .F       109.0000                           : ELEVATION DERRICK FLOOR
APD .F       110.0000                           : ABOVE PERMANENT DATUM
LMF .      KB                                    : Log Measured From
EREF.F    110                                   : ELEVATION OF DEPTH REFERENCE
DMF .      KB                                    : Drilling Measured From
TDL .F      6109.0000                           : TOTAL DEPTH, LOGGER
TDD .F      6109.0000                           : TOTAL DEPTH, DRILLER
BLI .F      6094.0000                           : BOTTOM OF LOGGED INTERVAL
TLI .F      4073.0000                           : TOP OF LOGGED INTERVAL
CSGS1.IN        13.3750                           : Casing Size 1
CSGW1.LB/FT                                       : Casing Weight 1
CSGL1.F      4073.0000                           : CASING BOTTOM LOGGER 1
CSGD1.F      4083.0000                           : CASING BOTTOM DRILLER 1
CSGS2.IN         9.6250                           : Casing Size 2
CSGW2.LB/FT                                       : Casing Weight 2
CSGL2.F                                          : CASING BOTTOM LOGGER 2
CSGD2.F                                          : CASING BOTTOM DRILLER 2
BS1 .IN        12.2500                           : Bit Size 1
DDB1.F      6109.0000                           : BIT SIZE DEPTH 1
MUD .      UNICAL                                : Mud Type
MUDD.LB/GAL    10.8000                           : Mud Density
MUDV.S         38.0000                           : Mud Viscosity
FL  .CM3        6.8000                           : Fluid Loss
FLT .DEGF                                        : Fluid Loss Temperature
PH  .           9.5000                           : Mud PH
MUDS.      FLOWLINE                              : Mud Sample Location
RM  .OHMM       0.4180                           : Mud Resistivity
RMT .DEGF      74.0000                           : Mud Temperature
RMC .OHMM       0.7780                           : Mud Cake Resistivity
RMCT.DEGF      74.0000                           : Mud Cake Temperature
RMCS.      MEASURED                              : Mud Cake Source
RMF .OHMM       0.2690                           : Mud Filtrate Resistivity
RMFT.DEGF      74.0000                           : Mud Filtrate Temperature
RMFS.      MEASURED                              : Mud Filtrate Source
TMAX.DEGF     144.0000                           : Max Temperature
TIMC.      1989-09-11 22:30                      : Date Time Circulation Stopped
TIML.      1989-09-11 21:12                      : Date TIme Logger On Bottom
TSC .                                            : Time Since Circulation Stopped
UNIT.      506                                   : Unit Number
BASE.      CCOS                                  : Logging Unit Home Base
ENG .      WITKOWSKY                             : Recording Engineer
WIT .      POULIN                                : Witnessed By
DIGS.      IHS MARKIT                            : Digitizing Company
~Curve Information
#MNEM.UNIT         API  CODE                      : CURVE DESCRIPTION
#----.----        ------------                    : -----------------
 DEPT.F          00 001 00 00                    : MEASURED DEPTH
 CALR.IN          00 000 00 00                    : Caliper (Resistivity)
 GRR .GAPI        00 000 00 00                    : Gamma Ray Resistivity Device
 SP  .MV          00 000 00 00                    : Spontaneous Potential
 TENR.LB          00 000 00 00                    : Tension Resistivity Device
 DPSS.V/V         00 000 00 00                    : Density Porosity Sandstone
 DRHO.G/CM3       00 000 00 00                    : Density Correction
 NPSS.V/V         00 000 00 00                    : Neutron Porosity Sandstone
 IDPH.OHMM        00 000 00 00                    : Induction Deep Phasor Resistivity
 IMPH.OHMM        00 000 00 00                    : Induction Medium Phasor Resistivity
 SFL .OHMM        00 000 00 00                    : Spherically Focussed Log
~A    DEPT        CALR         GRR          SP        TENR        DPSS        DRHO        NPSS        IDPH        IMPH         SFL
# ...
   5650.5000     14.6400     78.2000     -3.1329    619.4175      0.1896     -0.0038      0.3259      1.4881      1.4475      1.2836
   5651.0000     14.6200     77.2000     -2.9298    598.4466      0.1907     -0.0009      0.3141      1.4884      1.4478      1.2840
   5651.5000     14.6200     77.0000     -2.9230    597.4757      0.1955      0.0009      0.3176      1.4750      1.4348      1.2726
   5652.0000     14.6000     78.2000     -2.7193    576.3107      0.2051      0.0009      0.3341      1.4618      1.4219      1.2497
   5652.5000     14.5800     81.4000     -2.5153    595.3398      0.2111      0.0019      0.3400      1.4621      1.4222      1.2049
   5653.0000     14.6000     84.2000     -2.3109    594.3689      0.2122      0.0009      0.3388      1.4490      1.4095      1.1833
   5653.5000     14.5600     85.8000     -2.5007    613.3981      0.2086      0.0009      0.3329      1.4360      1.3969      1.1622
   5654.0000     14.5400     83.2000     -2.2959    612.4272      0.2049      0.0019      0.3329      1.4232      1.3845      1.1733
   5654.5000     14.5600     80.6000     -2.2884    611.4563      0.2037      0.0019      0.3376      1.4105      1.3722      1.1846
   5655.0000     14.6000     77.8000     -2.0829    590.4854      0.2037      0.0019      0.3482      1.3980      1.3600      1.1850
   5655.5000     14.6400     75.0000     -2.2733    569.3204      0.2073      0.0029      0.3683      1.3983      1.3603      1.1963
   5656.0000     14.6600     74.6000     -2.4640    568.3495      0.2096      0.0029      0.3944      1.3858      1.3482      1.1858
   5656.5000     14.6400     76.0000     -2.0581    587.3786      0.2120      0.0029      0.3979      1.3610      1.3241      1.1646
   5657.0000     14.6200     78.0000     -1.8515    606.4078      0.2132      0.0029      0.3860      1.3489      1.3004      1.1335
   5657.5000     14.6000     80.0000     -2.0425    605.4369      0.2144      0.0029      0.3706      1.3493      1.3008      1.1133
   5658.0000     14.6000     81.2000     -2.2338    604.4660      0.2107      0.0029      0.3565      1.3496      1.3011      1.0935
   5658.5000     14.5800     82.2000     -2.2261    603.4951      0.2083      0.0019      0.3518      1.3500      1.3015      1.0941
   5659.0000     14.5600     83.0000     -1.8194    582.3301      0.2082      0.0019      0.3659      1.3503      1.3019      1.0845
   5659.5000     14.5200     83.6000     -1.6116    581.3592      0.2094      0.0019      0.3847      1.3507      1.2905      1.1049
   5660.0000     14.5200     85.2000     -1.6033    620.3883      0.2118      0.0010      0.3977      1.3511      1.2908      1.1155
   5660.5000     14.5602     87.4000     -1.8000    660.0000      0.2131      0.0010      0.3988      1.3512      1.2909      1.1157
   5661.0000     14.6206     86.6000     -1.8000    700.0000      0.2131      0.0029      0.3882      1.3512      1.2909      1.1055
   5661.5000     14.6410     84.8000     -1.6000    700.0000      0.2106      0.0048      0.3812      1.3512      1.2909      1.0855
   5662.0000     14.6612     83.4000     -1.6000    700.0000      0.2094      0.0048      0.3718      1.3512      1.2909      1.0855
   5662.5000     14.6616     81.4000     -1.8000    700.0000      0.2069      0.0049      0.3682      1.3512      1.2909      1.0855
   5663.0000     14.6420     81.4000     -2.0000    660.0000      0.2082      0.0049      0.3682      1.3512      1.2909      1.0955
   5663.5000     14.6225     82.4000     -1.6000    640.0000      0.2118      0.0029      0.3671      1.3512      1.2909      1.1055
   5664.0000     14.6030     83.4000     -1.6000    620.0000      0.2155      0.0020      0.3624      1.3512      1.3028      1.1259
   5664.5000     14.6034     82.4000     -1.4000    620.0000      0.2180      0.0000      0.3553      1.3512      1.3028      1.1259
   5665.0000     14.5642     81.2000     -1.0000    600.0000      0.2180     -0.0020      0.3541      1.3512      1.3028      1.1362
   5665.5000     14.4855     79.8000     -0.8000    600.0000      0.2180     -0.0039      0.3659      1.3512      1.3028      1.1259
   5666.0000     14.4267     79.4000     -1.0000    600.0000      0.2192     -0.0049      0.3812      1.3512      1.3028      1.1055
   5666.5000     14.3680     80.8000     -1.6000    560.0000      0.2180     -0.0049      0.3776      1.3512      1.3028      1.0855
   5667.0000     14.3686     82.0000     -2.0000    540.0000      0.2106     -0.0039      0.3659      1.3512      1.3028      1.0659
   5667.5000     14.3495     83.2000     -2.0000    540.0000      0.2033     -0.0020      0.3635      1.3636      1.3028      1.0659
   5668.0000     14.3304     84.4000     -2.0000    580.0000      0.2008     -0.0010      0.3659      1.3760      1.3147      1.0955
   5668.5000     14.3311     85.4000     -2.0000    620.0000      0.2008      0.0000      0.3718      1.3760      1.3512      1.1259
   5669.0000     14.3317     82.8000     -2.0000    660.0000      0.2045      0.0010      0.3741      1.3887      1.3636      1.1571
   5669.5000     14.3325     80.2000     -1.8000    760.0000      0.2082      0.0010      0.3741      1.3760      1.3636      1.1784
   5670.0000     14.3331     77.6000     -2.0000    800.0000      0.2094      0.0010      0.3741      1.3760      1.3636      1.1892
   5670.5000     14.3532     78.2059     -1.9941    780.0000      0.2069      0.0020      0.3706      1.3760      1.3636      1.1892
   5671.0000     14.4124     79.8158     -1.9842    700.0000      0.2045      0.0019      0.3658      1.3760      1.3760      1.2001
   5671.5000     14.4325     81.6254     -1.9743    640.0000      0.2081      0.0029      0.3657      1.3760      1.3760      1.2001
   5672.0000     14.4132     81.0354     -2.1644    620.0000      0.2142      0.0008      0.3681      1.3760      1.3760      1.2001
   5672.5000     14.3939     79.4455     -2.3545    660.0000      0.2227     -0.0012      0.3704      1.3760      1.3636      1.1784
   5673.0000     14.4338     78.8554     -2.3446    680.0000      0.2251     -0.0023      0.3715      1.3760      1.3636      1.1677
   5673.5000     14.4145     80.8652     -2.5347    660.0000      0.2201     -0.0043      0.3691      1.3760      1.3636      1.1571
   5674.0000     14.3753     85.4761     -2.5248    640.0000      0.2128     -0.0054      0.3655      1.3760      1.3636      1.1466
   5674.5000     14.3362     88.0855     -2.7149    620.0000      0.2043     -0.0044      0.3642      1.3760      1.3636      1.1677
   5675.0000     14.3563     87.2956     -2.5050    620.0000      0.1982     -0.0045      0.3630      1.3760      1.3389      1.1892
   5675.5000     14.3764     83.5062     -2.4931    640.0000      0.2054     -0.0035      0.3582      1.3512      1.3028      1.2001
   5676.0000     14.3570     82.3164     -2.4832    640.0000      0.2139     -0.0036      0.3546      1.3147      1.2792      1.1466
   5676.5000     14.3375     82.3263     -2.4733    620.0000      0.2235     -0.0026      0.3628      1.2792      1.2447      1.0955
   5677.0000     14.3179     82.5361     -2.2634    640.0000      0.2283     -0.0007      0.3878      1.2561      1.2222      1.0467
   5677.5000     14.3381     82.5460     -2.0535    680.0000      0.2307      0.0003      0.4128      1.2447      1.2001      1.0092
   5678.0000     14.3385     82.7559     -2.0436    740.0000      0.2330      0.0012      0.4200      1.2447      1.1784      1.0000
   5678.5000     14.3189     84.9654     -1.8337    760.0000      0.2330      0.0042      0.4140      1.2334      1.1784      1.0184
   5679.0000     14.2993     88.1766     -1.6238    780.0000      0.2329      0.0061      0.4008      1.2222      1.1784      1.0277
   5679.5000     14.3196     90.7861     -1.4139    800.0000      0.2317      0.0091      0.3936      1.2111      1.1677      1.0372
   5680.0000     14.3599     91.3960     -1.4040    840.0000      0.2316      0.0110      0.3900      1.2111      1.1571      1.0184
   5680.5000     14.3604     89.2000     -1.2000    840.0000      0.2316      0.0130      0.3936      1.2001      1.1466      1.0092
