~Version Information
#Created by IHS Markit
VERS.      2.0                       : CWLS Log Ascii Standard - Version 2.0
WRAP.      NO                        : One line per depth step
CRTR.      IHS Markit                : File Creator
~Well Information
#MNEM.UNIT         DATA              : DESCRIPTION
#----.----     -------------         : -------------------
STRT.F      3912.0000                           : START DEPTH
STOP.F      6144.0000                           : STOP DEPTH
STEP.F         0.5000                           : DEPTH INCREMENT
NULL.        -999.2500                           : Null Value
COMP.      GOM SHELF LLC                         : Company
WELL.      OCSG03011 A006                        : Well Name
FLD .      MU A 16                               : Field
LOC .      RIG MAYRONNE 162                      : Location
CTRY.      UNITED STATES                         : Country
STAT.      TEXAS                                 : State
CNTY.      MUSTANG ISLAND                        : County
API .      427024017500                        : API Well Number
UWI .      427024017500                        : Unique Well ID
LIC .      G03011                                : Licence Number
TWP .                                            : Township
RGE .                                            : Range
SEC .                                            : Section
LAT .                                            : Latitude
LONG.                                            : Longitude
~Parameter Information
#MNEM.UNIT         DATA                DESCRIPTION
#----.----         -------           : -------------------
RUN .      1                                     : Run Number
PASS.                                            : Pass Number
DATE.      1989-09-11                            : Log Date
SRVC.      SCHLUMBERGER                          : Service Company
LSRV.      DITE/CND                              : Log Mnemonic
PDAT.      WL                                    : Permanent Datum Reference
EPD .F         0.0000                           : ELEVATION OF PERM. DATUM
EGL .F         0.0000                           : ELEVATION GROUND LEVEL
EKB .F       110.0000                           : ELEVATION KELLY BUSHING
EDF .F       109.0000                           : ELEVATION DERRICK FLOOR
APD .F       110.0000                           : ABOVE PERMANENT DATUM
LMF .      KB                                    : Log Measured From
EREF.F    110                                   : ELEVATION OF DEPTH REFERENCE
DMF .      KB                                    : Drilling Measured From
TDL .F      6109.0000                           : TOTAL DEPTH, LOGGER
TDD .F      6109.0000                           : TOTAL DEPTH, DRILLER
BLI .F      6094.0000                           : BOTTOM OF LOGGED INTERVAL
TLI .F      4073.0000                           : TOP OF LOGGED INTERVAL
CSGS1.IN        13.3750                           : Casing Size 1
CSGW1.LB/FT                                       : Casing Weight 1
CSGL1.F      4073.0000                           : CASING BOTTOM LOGGER 1
CSGD1.F      4083.0000                           : CASING BOTTOM DRILLER 1
CSGS2.IN         9.6250                           : Casing Size 2
CSGW2.LB/FT                                       : Casing Weight 2
CSGL2.F                                          : CASING BOTTOM LOGGER 2
CSGD2.F                                          : CASING BOTTOM DRILLER 2
BS1 .IN        12.2500                           : Bit Size 1
DDB1.F      6109.0000                           : BIT SIZE DEPTH 1
MUD .      UNICAL                                : Mud Type
MUDD.LB/GAL    10.8000                           : Mud Density
MUDV.S         38.0000                           : Mud Viscosity
FL  .CM3        6.8000                           : Fluid Loss
FLT .DEGF                                        : Fluid Loss Temperature
PH  .           9.5000                           : Mud PH
MUDS.      FLOWLINE                              : Mud Sample Location
RM  .OHMM       0.4180                           : Mud Resistivity
RMT .DEGF      74.0000                           : Mud Temperature
RMC .OHMM       0.7780                           : Mud Cake Resistivity
RMCT.DEGF      74.0000                           : Mud Cake Temperature
RMCS.      MEASURED                              : Mud Cake Source
RMF .OHMM       0.2690                           : Mud Filtrate Resistivity
RMFT.DEGF      74.0000                           : Mud Filtrate Temperature
RMFS.      MEASURED                              : Mud Filtrate Source
TMAX.DEGF     144.0000                           : Max Temperature
TIMC.      1989-09-11 22:30                      : Date Time Circulation Stopped
TIML.      1989-09-11 21:12                      : Date TIme Logger On Bottom
TSC .                                            : Time Since Circulation Stopped
UNIT.      506                                   : Unit Number
BASE.      CCOS                                  : Logging Unit Home Base
ENG .      WITKOWSKY                             : Recording Engineer
WIT .      POULIN                                : Witnessed By
DIGS.      IHS MARKIT                            : Digitizing Company
~Curve Information
#MNEM.UNIT         API  CODE                      : CURVE DESCRIPTION
#----.----        ------------                    : -----------------
 DEPT.F          00 001 00 00                    : MEASURED DEPTH
 CALR.IN          00 000 00 00                    : Caliper (Resistivity)
 GRR .GAPI        00 000 00 00                    : Gamma Ray Resistivity Device
 SP  .MV          00 000 00 00                    : Spontaneous Potential
 TENR.LB          00 000 00 00                    : Tension Resistivity Device
 DPSS.V/V         00 000 00 00                    : Density Porosity Sandstone
 DRHO.G/CM3       00 000 00 00                    : Density Correction
 NPSS.V/V         00 000 00 00                    : Neutron Porosity Sandstone
 IDPH.OHMM        00 000 00 00                    : Induction Deep Phasor Resistivity
 IMPH.OHMM        00 000 00 00                    : Induction Medium Phasor Resistivity
 SFL .OHMM        00 000 00 00                    : Spherically Focussed Log
~A    DEPT        CALR         GRR          SP        TENR        DPSS        DRHO        NPSS        IDPH        IMPH         SFL
# ...
   4461.0000     17.0588     70.0000    -20.6000    520.0000      0.2235     -0.0050      0.3492      1.4142      1.3389      1.0467
   4461.5000     16.9200     71.2000    -20.6000    540.0000      0.2271     -0.0050      0.3624      1.4014      1.3267      1.0855
   4462.0000     16.9000     71.2000    -20.4000    540.0000      0.2306     -0.0040      0.3624      1.4014      1.3147      1.1362
   4462.5000     16.9200     68.2353    -20.4000    540.0000      0.2353     -0.0050      0.3588      1.4014      1.3147      1.1259
   4463.0000     16.9400     65.4902    -20.4000    560.0000      0.2376     -0.0040      0.3528      1.3887      1.3028      1.0659
   4463.5000     16.9600     64.3137    -20.2000    560.0000      0.2341     -0.0040      0.3504      1.3887      1.2909      1.0372
   4464.0000     16.9600     63.7255    -20.2000    560.0000      0.2306     -0.0040      0.3516      1.3760      1.2909      1.0467
   4464.5000     16.8800     63.9216    -20.4000    560.0000      0.2365     -0.0040      0.3516      1.3760      1.2909      1.0659
   4465.0000     16.7800     64.5098    -20.6000    560.0000      0.2484     -0.0050      0.3444      1.3760      1.2909      1.0757
   4465.5000     16.6400     64.3137    -21.0000    560.0000      0.2628     -0.0060      0.3252      1.3760      1.3147      1.0562
   4466.0000     16.5400     64.5098    -21.6000    560.0000      0.2724     -0.0020      0.3120      1.3760      1.3147      1.0372
   4466.5000     16.4800     67.6471    -22.4000    560.0000      0.2748      0.0090      0.3024      1.3887      1.3147      1.0562
   4467.0000     16.4400     73.4000    -23.2000    560.0000      0.2688      0.0220      0.3180      1.3887      1.3147      1.0955
   4467.5000     16.4800     75.4000    -23.6000    580.0000      0.2568      0.0360      0.3384      1.4014      1.3147      1.1259
   4468.0000     16.6200     71.8000    -23.6000    600.0000      0.2271      0.0470      0.3348      1.4142      1.3147      1.1466
   4468.5000     16.8200     67.0588    -23.4000    600.0000      0.2071      0.0430      0.3240      1.4142      1.3147      1.1466
   4469.0000     17.0392     65.8824    -23.2000    580.0000      0.2106      0.0300      0.3156      1.4272      1.3267      1.1466
   4469.5000     17.1961     68.0392    -23.0000    560.0000      0.2176      0.0180      0.3156      1.4272      1.3389      1.1571
   4470.0000     17.3137     70.0000    -22.6000    540.0000      0.2247      0.0090      0.3192      1.4272      1.3636      1.1677
   4470.5000     17.4118     69.8039    -22.4000    540.0000      0.2259      0.0100      0.3204      1.4402      1.3760      1.1784
   4471.0000     17.5098     68.4314    -22.2000    540.0000      0.2200      0.0160      0.3192      1.4534      1.3887      1.1784
   4471.5000     17.5686     66.8627    -22.2000    600.0000      0.2153      0.0220      0.3168      1.4668      1.4014      1.1784
   4472.0000     17.6275     65.2941    -22.2000    600.0000      0.2094      0.0240      0.3180      1.4938      1.4272      1.1677
   4472.5000     17.7059     66.2745    -22.2000    620.0000      0.2024      0.0210      0.3228      1.5074      1.4402      1.1784
   4473.0000     17.7059     67.2549    -22.0000    620.0000      0.1929      0.0170      0.3204      1.5213      1.4534      1.2111
   4473.5000     17.4902     67.0588    -22.2000    600.0000      0.1824      0.0100      0.3072      1.5213      1.4534      1.2561
   4474.0000     17.2745     65.6863    -22.6000    580.0000      0.1800      0.0060      0.2928      1.4938      1.4272      1.2909
   4474.5000     17.2745     67.0588    -22.6000    560.0000      0.1894      0.0010      0.2772      1.4802      1.4142      1.2909
   4475.0000     17.3137     69.4118    -22.4000    540.0000      0.2012     -0.0010      0.2856      1.4668      1.4014      1.2676
   4475.5000     17.3529     72.0000    -22.2000    520.0000      0.2129     -0.0010      0.3024      1.4402      1.3760      1.2334
   4476.0000     17.3725     72.8000    -22.2000    520.0000      0.2235     -0.0010      0.3204      1.4272      1.3636      1.2111
   4476.5000     17.1373     72.2000    -22.2000    540.0000      0.2388     -0.0020      0.3396      1.4014      1.3389      1.1784
   4477.0000     16.9600     69.0196    -22.4000    540.0000      0.2532     -0.0040      0.3468      1.4014      1.3389      1.1259
   4477.5000     16.7000     65.6863    -22.6000    580.0000      0.2652     -0.0060      0.3432      1.4014      1.3389      1.0757
   4478.0000     16.4800     64.5098    -23.0000    580.0000      0.2628     -0.0060      0.3324      1.4142      1.3512      1.0562
   4478.5000     16.3600     66.6667    -23.4000    580.0000      0.2508     -0.0020      0.3144      1.4142      1.3512      1.0955
   4479.0000     16.4200     70.6000    -23.8000    560.0000      0.2400      0.0000      0.3108      1.4272      1.3636      1.1677
   4479.5000     16.4800     73.2000    -23.8000    560.0000      0.2329      0.0030      0.3132      1.4272      1.3760      1.2111
   4480.0000     16.2000     73.8000    -23.8000    560.0000      0.2388      0.0120      0.3144      1.4272      1.3636      1.2222
   4480.5000     15.8600     73.2000    -23.8000    560.0000      0.2544      0.0240      0.3144      1.4142      1.3389      1.2222
   4481.0000     15.9000     72.0000    -23.8000    560.0000      0.2568      0.0350      0.3120      1.4142      1.3267      1.2222
   4481.5000     16.4200     70.8000    -23.8000    560.0000      0.2496      0.0450      0.3108      1.4014      1.3028      1.2222
   4482.0000     16.9400     71.4000    -23.8000    540.0000      0.2294      0.0460      0.3168      1.4014      1.3028      1.2001
   4482.5000     17.3529     74.8000    -23.6000    540.0000      0.2212      0.0320      0.3240      1.3887      1.3028      1.1677
   4483.0000     17.0588     76.8000    -23.2000    540.0000      0.2212      0.0180      0.3300      1.3760      1.3028      1.1259
   4483.5000     16.9600     78.4000    -23.0000    540.0000      0.2212      0.0050      0.3348      1.3760      1.3028      1.1259
   4484.0000     16.9000     79.0000    -22.8000    560.0000      0.2212     -0.0050      0.3312      1.3636      1.3147      1.1259
   4484.5000     16.9400     77.2000    -22.6000    560.0000      0.2212     -0.0100      0.3276      1.3760      1.3147      1.1259
   4485.0000     16.9800     74.2000    -22.6000    540.0000      0.2271     -0.0120      0.3240      1.3760      1.3147      1.1157
   4485.5000     16.9800     71.2000    -22.6000    540.0000      0.2365     -0.0130      0.3240      1.3760      1.3147      1.1259
   4486.0000     16.9000     71.2000    -22.6000    540.0000      0.2400     -0.0130      0.3276      1.3760      1.3147      1.1466
   4486.5000     16.8200     72.2000    -22.4000    540.0000      0.2376     -0.0110      0.3348      1.3760      1.3147      1.1466
   4487.0000     16.7400     73.8000    -22.2000    540.0000      0.2306     -0.0070      0.3456      1.3760      1.3147      1.1362
   4487.5000     16.7600     75.2000    -22.0000    560.0000      0.2235     -0.0040      0.3492      1.3760      1.3147      1.1259
   4488.0000     16.9200     75.4000    -21.8000    560.0000      0.2212     -0.0020      0.3456      1.3760      1.3147      1.1055
   4488.5000     17.0784     74.8000    -21.8000    560.0000      0.2318      0.0000      0.3372      1.3760      1.3147      1.0955
   4489.0000     16.9000     74.6000    -22.2000    560.0000      0.2400      0.0000      0.3300      1.3760      1.3147      1.1055
   4489.5000     16.6400     75.8000    -22.2000    560.0000      0.2436     -0.0010      0.3204      1.3760      1.3147      1.1157
   4490.0000     16.3200     77.4000    -22.2000    580.0000      0.2424     -0.0020      0.3228      1.3760      1.3147      1.1055
   4490.5000     16.2204     77.4059    -22.1941    580.0000      0.2388     -0.0040      0.3348      1.3762      1.3148      1.0856
   4491.0000     16.2611     76.4157    -22.1843    560.0000      0.2376     -0.0060      0.3324      1.3765      1.3151      1.0758
