~Version Information
#Created by IHS Markit
VERS.      2.0                       : CWLS Log Ascii Standard - Version 2.0
WRAP.      NO                        : One line per depth step
CRTR.      IHS Markit                : File Creator
~Well Information
#MNEM.UNIT         DATA              : DESCRIPTION
#----.----     -------------         : -------------------
STRT.F      3912.0000                           : START DEPTH
STOP.F      6144.0000                           : STOP DEPTH
STEP.F         0.5000                           : DEPTH INCREMENT
NULL.        -999.2500                           : Null Value
COMP.      GOM SHELF LLC                         : Company
WELL.      OCSG03011 A006                        : Well Name
FLD .      MU A 16                               : Field
LOC .      RIG MAYRONNE 162                      : Location
CTRY.      UNITED STATES                         : Country
STAT.      TEXAS                                 : State
CNTY.      MUSTANG ISLAND                        : County
API .      427024017500                        : API Well Number
UWI .      427024017500                        : Unique Well ID
LIC .      G03011                                : Licence Number
TWP .                                            : Township
RGE .                                            : Range
SEC .                                            : Section
LAT .                                            : Latitude
LONG.                                            : Longitude
~Parameter Information
#MNEM.UNIT         DATA                DESCRIPTION
#----.----         -------           : -------------------
RUN .      1                                     : Run Number
PASS.                                            : Pass Number
DATE.      1989-09-11                            : Log Date
SRVC.      SCHLUMBERGER                          : Service Company
LSRV.      DITE/CND                              : Log Mnemonic
PDAT.      WL                                    : Permanent Datum Reference
EPD .F         0.0000                           : ELEVATION OF PERM. DATUM
EGL .F         0.0000                           : ELEVATION GROUND LEVEL
EKB .F       110.0000                           : ELEVATION KELLY BUSHING
EDF .F       109.0000                           : ELEVATION DERRICK FLOOR
APD .F       110.0000                           : ABOVE PERMANENT DATUM
LMF .      KB                                    : Log Measured From
EREF.F    110                                   : ELEVATION OF DEPTH REFERENCE
DMF .      KB                                    : Drilling Measured From
TDL .F      6109.0000                           : TOTAL DEPTH, LOGGER
TDD .F      6109.0000                           : TOTAL DEPTH, DRILLER
BLI .F      6094.0000                           : BOTTOM OF LOGGED INTERVAL
TLI .F      4073.0000                           : TOP OF LOGGED INTERVAL
CSGS1.IN        13.3750                           : Casing Size 1
CSGW1.LB/FT                                       : Casing Weight 1
CSGL1.F      4073.0000                           : CASING BOTTOM LOGGER 1
CSGD1.F      4083.0000                           : CASING BOTTOM DRILLER 1
CSGS2.IN         9.6250                           : Casing Size 2
CSGW2.LB/FT                                       : Casing Weight 2
CSGL2.F                                          : CASING BOTTOM LOGGER 2
CSGD2.F                                          : CASING BOTTOM DRILLER 2
BS1 .IN        12.2500                           : Bit Size 1
DDB1.F      6109.0000                           : BIT SIZE DEPTH 1
MUD .      UNICAL                                : Mud Type
MUDD.LB/GAL    10.8000                           : Mud Density
MUDV.S         38.0000                           : Mud Viscosity
FL  .CM3        6.8000                           : Fluid Loss
FLT .DEGF                                        : Fluid Loss Temperature
PH  .           9.5000                           : Mud PH
MUDS.      FLOWLINE                              : Mud Sample Location
RM  .OHMM       0.4180                           : Mud Resistivity
RMT .DEGF      74.0000                           : Mud Temperature
RMC .OHMM       0.7780                           : Mud Cake Resistivity
RMCT.DEGF      74.0000                           : Mud Cake Temperature
RMCS.      MEASURED                              : Mud Cake Source
RMF .OHMM       0.2690                           : Mud Filtrate Resistivity
RMFT.DEGF      74.0000                           : Mud Filtrate Temperature
RMFS.      MEASURED                              : Mud Filtrate Source
TMAX.DEGF     144.0000                           : Max Temperature
TIMC.      1989-09-11 22:30                      : Date Time Circulation Stopped
TIML.      1989-09-11 21:12                      : Date TIme Logger On Bottom
TSC .                                            : Time Since Circulation Stopped
UNIT.      506                                   : Unit Number
BASE.      CCOS                                  : Logging Unit Home Base
ENG .      WITKOWSKY                             : Recording Engineer
WIT .      POULIN                                : Witnessed By
DIGS.      IHS MARKIT                            : Digitizing Company
~Curve Information
#MNEM.UNIT         API  CODE                      : CURVE DESCRIPTION
#----.----        ------------                    : -----------------
 DEPT.F          00 001 00 00                    : MEASURED DEPTH
 CALR.IN          00 000 00 00                    : Caliper (Resistivity)
 GRR .GAPI        00 000 00 00                    : Gamma Ray Resistivity Device
 SP  .MV          00 000 00 00                    : Spontaneous Potential
 TENR.LB          00 000 00 00                    : Tension Resistivity Device
 DPSS.V/V         00 000 00 00                    : Density Porosity Sandstone
 DRHO.G/CM3       00 000 00 00                    : Density Correction
 NPSS.V/V         00 000 00 00                    : Neutron Porosity Sandstone
 IDPH.OHMM        00 000 00 00                    : Induction Deep Phasor Resistivity
 IMPH.OHMM        00 000 00 00                    : Induction Medium Phasor Resistivity
 SFL .OHMM        00 000 00 00                    : Spherically Focussed Log
~A    DEPT        CALR         GRR          SP        TENR        DPSS        DRHO        NPSS        IDPH        IMPH         SFL
# ...
   4186.5000     14.5686     77.2000    -21.0000    640.0000      0.2294     -0.0020      0.3960      1.2909      1.2334      1.0372
   4187.0000     14.5098     76.2000    -21.0000    640.0000      0.2306      0.0020      0.3900      1.2909      1.2334      1.0467
   4187.5000     14.3725     75.0000    -21.0000    640.0000      0.2341      0.0070      0.3780      1.2792      1.2222      1.0659
   4188.0000     14.2745     73.2000    -21.0000    640.0000      0.2353      0.0110      0.3636      1.2792      1.2111      1.0757
   4188.5000     14.0588     71.6000    -21.0000    660.0000      0.2341      0.0160      0.3576      1.2792      1.2111      1.0855
   4189.0000     13.8800     70.2000    -21.0000    620.0000      0.2329      0.0170      0.3600      1.2792      1.2001      1.0659
   4189.5000     13.7600     68.8235    -20.8000    600.0000      0.2329      0.0160      0.3672      1.2792      1.2001      1.0467
   4190.0000     13.6800     68.6275    -20.6000    580.0000      0.2318      0.0110      0.3732      1.2792      1.2001      1.0277
   4190.5000     13.9406     69.0252    -20.5939    560.0000      0.2306      0.0080      0.3804      1.2793      1.2002      1.0092
   4191.0000     14.0996     69.0348    -20.3841    520.0000      0.2318      0.0050      0.3936      1.2796      1.2003      1.0092
   4191.5000     13.8826     68.4561    -20.7741    500.0000      0.2353      0.0020      0.4092      1.2798      1.2005      1.0184
   4192.0000     13.7036     67.6832    -21.1642    500.0000      0.2376      0.0000      0.4212      1.2800      1.2006      1.0278
   4192.5000     13.6046     69.4559    -21.5542    500.0000      0.2376     -0.0020      0.3972      1.2802      1.2008      1.0468
   4193.0000     13.5656     72.4565    -21.9443    480.0000      0.2400     -0.0030      0.3612      1.2804      1.2231      1.0565
   4193.5000     13.5466     74.2661    -22.3343    480.0000      0.2459     -0.0040      0.3465      1.2806      1.2233      1.0662
   4194.0000     13.5876     74.6759    -22.5244    480.0000      0.2518     -0.0040      0.3539      1.2691      1.2123      1.0565
   4194.5000     13.6286     74.0858    -22.5146    480.0000      0.2541     -0.0040      0.3696      1.2693      1.2124      1.0279
   4195.0000     13.6495     73.6957    -22.5047    500.0000      0.2541     -0.0050      0.3792      1.2695      1.2126      1.0092
   4195.5000     13.6505     74.9054    -22.0949    500.0000      0.2506     -0.0060      0.3852      1.2581      1.2016      0.9909
   4196.0000     13.5715     76.7151    -21.8850    480.0000      0.2506     -0.0080      0.3888      1.2583      1.2018      0.9909
   4196.5000     13.4725     77.7269    -22.0731    480.0000      0.2541     -0.0100      0.3948      1.2585      1.2019      1.0092
   4197.0000     13.3735     74.1370    -22.4632    500.0000      0.2565     -0.0120      0.3948      1.2472      1.1911      1.0375
   4197.5000     13.2547     71.3450    -22.8533    520.0000      0.2576     -0.0120      0.3888      1.2473      1.1912      1.0666
   4198.0000     13.2157     67.0164    -23.4434    520.0000      0.2576     -0.0120      0.3708      1.2475      1.1913      1.0865
   4198.5000     13.2167     63.3004    -24.0335    520.0000      0.2588     -0.0110      0.3551      1.2363      1.1805      1.0865
   4199.0000     13.2176     65.4670    -24.4237    500.0000      0.2612     -0.0080      0.3684      1.2364      1.1807      1.0667
   4199.5000     13.2386     70.3863    -25.0138    500.0000      0.2600     -0.0060      0.3816      1.2252      1.1700      1.0472
   4200.0000     13.2596     74.1961    -25.0039    500.0000      0.2553     -0.0060      0.3876      1.2254      1.1701      1.0281
   4200.5000     13.2994     73.4000    -25.0000    499.4231      0.2506     -0.0050      0.3514      1.2255      1.1701      1.0000
   4201.0000     13.3384     71.6000    -25.2000    498.4615      0.2529     -0.0040      0.3367      1.2142      1.1594      0.9826
   4201.5000     13.3775     71.2000    -25.2000    497.5000      0.2588     -0.0030      0.3427      1.2142      1.1594      0.9570
   4202.0000     13.4763     73.0000    -25.2000    496.3462      0.2647      0.0020      0.3573      1.2255      1.1701      0.9570
   4202.5000     13.5353     73.8000    -25.2000    495.3846      0.2647      0.0060      0.3645      1.2255      1.1701      0.9913
   4203.0000     13.6144     74.2000    -25.2000    494.4231      0.2647      0.0100      0.3645      1.2255      1.1701      1.0187
   4203.5000     13.7534     76.0000    -24.6000    493.4615      0.2600      0.0130      0.3644      1.2368      1.1810      1.0473
   4204.0000     13.9524     79.0000    -24.2000    492.5000      0.2541      0.0140      0.3765      1.2368      1.1810      1.0767
   4204.5000     14.0904     81.2000    -23.6000    491.3462      0.2459      0.0130      0.3873      1.2483      1.1920      1.0281
   4205.0000     14.2281     80.2000    -23.2000    490.3846      0.2424      0.0050      0.3909      1.2599      1.2030      1.0187
   4205.5000     14.4254     77.0000    -22.6000    489.4231      0.2424      0.0020      0.3982      1.2716      1.2142      1.0187
   4206.0000     14.5835     74.0000    -22.0000    508.4615      0.2424      0.0000      0.4127      1.2716      1.2142      1.0281
   4206.5000     14.7816     73.0000    -22.0000    567.5000      0.2424      0.0000      0.4283      1.2834      1.2255      1.0377
   4207.0000     15.0000     73.0000    -21.8000    566.3462      0.2424      0.0010      0.4437      1.2834      1.2255      1.0570
   4207.5000     15.0600     72.4000    -21.6000    545.3846      0.2412      0.0030      0.4649      1.2834      1.2255      1.0668
   4208.0000     14.9602     71.2000    -21.6000    504.4231      0.2424      0.0040      0.4744      1.2834      1.2255      1.0867
   4208.5000     14.7808     72.6000    -21.8000    483.4615      0.2447      0.0040      0.4755      1.2716      1.2142      1.0867
   4209.0000     14.6408     78.0000    -22.0000    462.5000      0.2494      0.0040      0.4530      1.2716      1.2142      1.0668
   4209.5000     14.6605     83.4000    -22.2000    461.3462      0.2565      0.0010      0.4365      1.2599      1.2030      1.0093
   4210.0000     14.7001     84.2000    -22.4000    440.3846      0.2612     -0.0020      0.4282      1.2483      1.1920      0.9826
   4210.5000     14.6800     82.4000    -22.6000    440.0000      0.2647     -0.0020      0.4259      1.2368      1.1810      0.9487
   4211.0000     14.6000     78.8000    -22.8000    440.0000      0.2659      0.0011      0.4223      1.2142      1.1594      0.9159
   4211.5000     14.5400     76.4000    -23.0000    480.0000      0.2588      0.0041      0.4162      1.1920      1.1381      0.9000
   4212.0000     14.4200     74.2000    -23.6000    480.0000      0.2447      0.0102      0.4064      1.1810      1.1277      0.9159
   4212.5000     14.2400     70.2000    -23.6000    480.0000      0.2388      0.0132      0.3929      1.1487      1.0968      0.9404
   4213.0000     14.0000     66.0000    -24.2000    480.0000      0.2459      0.0133      0.3722      1.1277      1.0767      0.9570
   4213.5000     13.7800     63.6000    -25.8000    480.0000      0.2682      0.0083      0.3576      1.0968      1.0473      0.9570
   4214.0000     13.6200     61.4000    -27.2000    500.0000      0.2894      0.0024      0.3612      1.0867      1.0281      0.9487
   4214.5000     13.6800     59.0000    -28.6000    500.0000      0.3108     -0.0006      0.3673      1.0668      1.0000      0.9487
   4215.0000     13.7800     56.0000    -29.6000    480.0000      0.3216     -0.0025      0.3673      1.0473      0.9826      0.9159
   4215.5000     13.7600     52.6000    -30.6000    460.0000      0.3300     -0.0035      0.3528      1.0473      0.9655      0.8825
   4216.0000     13.7200     51.4000    -31.4000    460.0000      0.3300     -0.0014      0.3288      1.0473      0.9655      0.8569
   4216.5000     13.7200     54.0000    -31.8000    460.0000      0.3144      0.0056      0.3096      1.0473      0.9655      0.8653
