~Version Information
#Created by IHS Markit
VERS.      2.0                       : CWLS Log Ascii Standard - Version 2.0
WRAP.      NO                        : One line per depth step
CRTR.      IHS Markit                : File Creator
~Well Information
#MNEM.UNIT         DATA              : DESCRIPTION
#----.----     -------------         : -------------------
STRT.F      3912.0000                           : START DEPTH
STOP.F      6144.0000                           : STOP DEPTH
STEP.F         0.5000                           : DEPTH INCREMENT
NULL.        -999.2500                           : Null Value
COMP.      GOM SHELF LLC                         : Company
WELL.      OCSG03011 A006                        : Well Name
FLD .      MU A 16                               : Field
LOC .      RIG MAYRONNE 162                      : Location
CTRY.      UNITED STATES                         : Country
STAT.      TEXAS                                 : State
CNTY.      MUSTANG ISLAND                        : County
API .      427024017500                        : API Well Number
UWI .      427024017500                        : Unique Well ID
LIC .      G03011                                : Licence Number
TWP .                                            : Township
RGE .                                            : Range
SEC .                                            : Section
LAT .                                            : Latitude
LONG.                                            : Longitude
~Parameter Information
#MNEM.UNIT         DATA                DESCRIPTION
#----.----         -------           : -------------------
RUN .      1                                     : Run Number
PASS.                                            : Pass Number
DATE.      1989-09-11                            : Log Date
SRVC.      SCHLUMBERGER                          : Service Company
LSRV.      DITE/CND                              : Log Mnemonic
PDAT.      WL                                    : Permanent Datum Reference
EPD .F         0.0000                           : ELEVATION OF PERM. DATUM
EGL .F         0.0000                           : ELEVATION GROUND LEVEL
EKB .F       110.0000                           : ELEVATION KELLY BUSHING
EDF .F       109.0000                           : ELEVATION DERRICK FLOOR
APD .F       110.0000                           : ABOVE PERMANENT DATUM
LMF .      KB                                    : Log Measured From
EREF.F    110                                   : ELEVATION OF DEPTH REFERENCE
DMF .      KB                                    : Drilling Measured From
TDL .F      6109.0000                           : TOTAL DEPTH, LOGGER
TDD .F      6109.0000                           : TOTAL DEPTH, DRILLER
BLI .F      6094.0000                           : BOTTOM OF LOGGED INTERVAL
TLI .F      4073.0000                           : TOP OF LOGGED INTERVAL
CSGS1.IN        13.3750                           : Casing Size 1
CSGW1.LB/FT                                       : Casing Weight 1
CSGL1.F      4073.0000                           : CASING BOTTOM LOGGER 1
CSGD1.F      4083.0000                           : CASING BOTTOM DRILLER 1
CSGS2.IN         9.6250                           : Casing Size 2
CSGW2.LB/FT                                       : Casing Weight 2
CSGL2.F                                          : CASING BOTTOM LOGGER 2
CSGD2.F                                          : CASING BOTTOM DRILLER 2
BS1 .IN        12.2500                           : Bit Size 1
DDB1.F      6109.0000                           : BIT SIZE DEPTH 1
MUD .      UNICAL                                : Mud Type
MUDD.LB/GAL    10.8000                           : Mud Density
MUDV.S         38.0000                           : Mud Viscosity
FL  .CM3        6.8000                           : Fluid Loss
FLT .DEGF                                        : Fluid Loss Temperature
PH  .           9.5000                           : Mud PH
MUDS.      FLOWLINE                              : Mud Sample Location
RM  .OHMM       0.4180                           : Mud Resistivity
RMT .DEGF      74.0000                           : Mud Temperature
RMC .OHMM       0.7780                           : Mud Cake Resistivity
RMCT.DEGF      74.0000                           : Mud Cake Temperature
RMCS.      MEASURED                              : Mud Cake Source
RMF .OHMM       0.2690                           : Mud Filtrate Resistivity
RMFT.DEGF      74.0000                           : Mud Filtrate Temperature
RMFS.      MEASURED                              : Mud Filtrate Source
TMAX.DEGF     144.0000                           : Max Temperature
TIMC.      1989-09-11 22:30                      : Date Time Circulation Stopped
TIML.      1989-09-11 21:12                      : Date TIme Logger On Bottom
TSC .                                            : Time Since Circulation Stopped
UNIT.      506                                   : Unit Number
BASE.      CCOS                                  : Logging Unit Home Base
ENG .      WITKOWSKY                             : Recording Engineer
WIT .      POULIN                                : Witnessed By
DIGS.      IHS MARKIT                            : Digitizing Company
~Curve Information
#MNEM.UNIT         API  CODE                      : CURVE DESCRIPTION
#----.----        ------------                    : -----------------
 DEPT.F          00 001 00 00                    : MEASURED DEPTH
 CALR.IN          00 000 00 00                    : Caliper (Resistivity)
 GRR .GAPI        00 000 00 00                    : Gamma Ray Resistivity Device
 SP  .MV          00 000 00 00                    : Spontaneous Potential
 TENR.LB          00 000 00 00                    : Tension Resistivity Device
 DPSS.V/V         00 000 00 00                    : Density Porosity Sandstone
 DRHO.G/CM3       00 000 00 00                    : Density Correction
 NPSS.V/V         00 000 00 00                    : Neutron Porosity Sandstone
 IDPH.OHMM        00 000 00 00                    : Induction Deep Phasor Resistivity
 IMPH.OHMM        00 000 00 00                    : Induction Medium Phasor Resistivity
 SFL .OHMM        00 000 00 00                    : Spherically Focussed Log
~A    DEPT        CALR         GRR          SP        TENR        DPSS        DRHO        NPSS        IDPH        IMPH         SFL
# ...
   4979.5000     16.0400     98.2000    -11.6000    680.0000      0.2640     -0.0010      0.3948      1.1362      1.0855      0.9079
   4980.0000     15.9400     96.6000    -11.8000    720.0000      0.2628      0.0010      0.3852      1.1362      1.0855      0.9000
   4980.5000     15.4400     95.6000    -11.8000    740.0000      0.2592      0.0030      0.3720      1.1362      1.0855      0.9000
   4981.0000     15.0000     94.6000    -11.6000    740.0000      0.2544      0.0050      0.3648      1.1362      1.0855      0.9159
   4981.5000     14.9804     94.0000    -11.6000    740.0000      0.2532      0.0050      0.3648      1.1362      1.0855      0.9322
   4982.0000     15.0600     94.0000    -12.0000    720.0000      0.2544      0.0050      0.3660      1.1259      1.0757      0.9404
   4982.5000     15.1800     94.4000    -12.4000    660.0000      0.2580      0.0050      0.3672      1.1259      1.0659      0.9404
   4983.0000     15.3000     95.2000    -12.0000    620.0000      0.2604      0.0050      0.3720      1.1157      1.0467      0.9159
   4983.5000     15.2400     97.4000    -12.0000    580.0000      0.2652      0.0050      0.3768      1.1055      1.0184      0.9079
   4984.0000     15.0600    103.6000    -12.0000    540.0000      0.2760      0.0040      0.3864      1.0855      1.0000      0.8912
   4984.5000     15.2000    120.0000    -12.0000    520.0000      0.2928      0.0040      0.4020      1.0855      0.9913      0.8653
   4985.0000     15.6200    129.2000    -11.8000    500.0000      0.3059      0.0040      0.4200      1.0855      0.9913      0.8320
   4985.5000     15.8600    143.6000    -11.0000    500.0000      0.3094      0.0040      0.4384      1.0855      0.9913      0.8079
   4986.0000     15.7800    128.0000    -10.8000    500.0000      0.2988      0.0040      0.4310      1.0757      1.0000      0.8000
   4986.5000     15.6200    118.0000    -10.8000    500.0000      0.2832      0.0030      0.4140      1.0855      1.0092      0.8079
   4987.0000     15.5200    107.4000    -10.8000    500.0000      0.2700      0.0020      0.3984      1.1055      1.0277      0.8320
   4987.5000     15.5000     97.6000    -10.8000    500.0000      0.2580      0.0020      0.3912      1.1362      1.0659      0.8653
   4988.0000     15.5800     90.6000    -10.8000    500.0000      0.2472      0.0000      0.3816      1.1571      1.1055      0.9159
   4988.5000     15.7600     88.6000    -10.8000    500.0000      0.2412     -0.0040      0.3696      1.1784      1.1259      0.9487
   4989.0000     15.9600     86.6000    -11.0000    500.0000      0.2340     -0.0060      0.3636      1.2001      1.1466      0.9740
   4989.5000     16.1600     85.4000    -11.2000    500.0000      0.2340     -0.0090      0.3600      1.2334      1.1677      1.0000
   4990.0000     16.3600     83.6000    -11.4000    500.0000      0.2376     -0.0120      0.3565      1.2447      1.1892      1.0277
   4990.5000     16.5606     81.8059    -11.5941    500.0000      0.2436     -0.0120      0.3506      1.2448      1.1893      1.0184
   4991.0000     16.5816     80.2157    -11.7843    500.0000      0.2459     -0.0089      0.3482      1.2450      1.1894      1.0092
   4991.5000     16.5625     80.0255    -11.9745    500.0000      0.2506     -0.0069      0.3482      1.2452      1.1896      0.9913
   4992.0000     16.5035     80.0353    -12.1647    500.0000      0.2506     -0.0008      0.3447      1.2453      1.1897      1.0000
   4992.5000     16.5045     80.8451    -12.3549    500.0000      0.2385      0.0062      0.3482      1.2455      1.1898      1.0185
   4993.0000     16.5657     82.4569    -12.3431    500.0000      0.2277      0.0093      0.3553      1.2572      1.2009      1.0373
   4993.5000     16.6667     83.6667    -11.9333    500.0000      0.2217      0.0093      0.3576      1.2689      1.2011      1.0662
   4994.0000     16.6876     84.4765    -11.7235    500.0000      0.2217      0.0084      0.3588      1.2691      1.2012      1.0565
   4994.5000     16.5686     82.8863    -11.7137    500.0000      0.2252      0.0064      0.3600      1.2693      1.2014      1.0469
   4995.0000     16.5296     81.0961    -11.9039    500.0000      0.2287      0.0045      0.3672      1.2695      1.2015      1.0374
   4995.5000     16.5306     81.7059    -12.0941    500.0000      0.2311      0.0035      0.3828      1.2697      1.2016      1.0185
   4996.0000     16.5716     84.5157    -12.0843    500.0000      0.2334      0.0026      0.3936      1.2699      1.2129      1.0092
   4996.5000     16.6125     87.5255    -11.8745    500.0000      0.2369      0.0016      0.4020      1.2701      1.2130      1.0092
   4997.0000     16.5735     90.5281    -11.6647    500.0000      0.2380      0.0017      0.4032      1.2703      1.2132      1.0186
   4997.5000     16.5345     91.1302    -11.6549    500.0000      0.2391     -0.0003      0.3900      1.2705      1.2134      1.0186
   4998.0000     16.4557     89.1569    -11.6431    520.0000      0.2403     -0.0022      0.3708      1.2707      1.2135      1.0280
   4998.5000     16.3967     86.7667    -11.6333    520.0000      0.2426     -0.0012      0.3516      1.2593      1.2025      1.0376
   4999.0000     16.3976     84.5765    -11.8235    520.0000      0.2425     -0.0011      0.3528      1.2595      1.2027      1.0281
   4999.5000     16.3986     83.3863    -11.8137    520.0000      0.2425     -0.0001      0.3828      1.2481      1.1918      1.0093
   5000.0000     16.4196     82.3961    -11.8039    520.0000      0.2424      0.0010      0.4032      1.2483      1.1919      1.0000
   5000.5000     16.4200     84.2000    -12.0000    519.6973      0.2424      0.0020      0.3900      1.2371      1.1812      0.9828
   5001.0000     16.4400     86.8000    -12.0000    519.1935      0.2436      0.0010      0.3708      1.2375      1.1816      0.9919
   5001.5000     16.4400     89.8000    -12.0000    518.6907      0.2484      0.0000      0.3600      1.2378      1.1820      1.0012
   5002.0000     16.4000     91.5743    -12.2000    518.0886      0.2532     -0.0010      0.3743      1.2383      1.1825      0.9928
   5002.5000     16.3600     89.6000    -12.2000    517.5879      0.2508      0.0000      0.3923      1.2387      1.1829      0.9843
   5003.0000     16.3000     86.0000    -12.0000    517.0882      0.2436      0.0030      0.4101      1.2391      1.1833      0.9847
   5003.5000     16.1400     82.6000    -11.8000    496.7207      0.2376      0.0060      0.4281      1.2509      1.1947      0.9940
   5004.0000     15.7600     79.6000    -12.2000    496.2421      0.2317      0.0080      0.4280      1.2628      1.2061      1.0221
   5004.5000     15.2600     79.6000    -12.4000    495.7643      0.2317      0.0080      0.4040      1.2749      1.2176      1.0511
   5005.0000     15.0400     80.2000    -12.6000    475.4761      0.2341      0.0040      0.3802      1.2753      1.2180      1.0516
   5005.5000     15.0400     82.8000    -12.6000    474.9280      0.2341      0.0020      0.3600      1.2875      1.2297      1.0521
   5006.0000     15.3400     84.6000    -12.2000    474.4722      0.2317      0.0000      0.3671      1.2997      1.2414      1.0429
   5006.5000     15.6600     83.8000    -12.2000    493.7680      0.2317      0.0000      0.3861      1.3000      1.2418      1.0338
   5007.0000     16.0200     81.8000    -12.2000    493.2950      0.2352     -0.0020      0.3849      1.3004      1.2422      1.0248
   5007.5000     16.1400     79.8000    -12.2000    492.8230      0.2388     -0.0040      0.3754      1.3008      1.2426      1.0253
   5008.0000     16.2400     80.2000    -12.4000    492.3518      0.2436     -0.0040      0.3730      1.3011      1.2430      1.0257
   5008.5000     16.3400     82.2000    -12.6000    491.8816      0.2472     -0.0060      0.3718      1.3015      1.2433      1.0262
   5009.0000     16.3800     84.2000    -12.8000    491.3185      0.2472     -0.0040      0.3624      1.3019      1.2438      1.0361
   5009.5000     16.3800     85.6000    -13.0000    490.8502      0.2352     -0.0020      0.3600      1.3023      1.2442      1.0365
