~Version Information
#Created by IHS Markit
VERS.      2.0                       : CWLS Log Ascii Standard - Version 2.0
WRAP.      NO                        : One line per depth step
CRTR.      IHS Markit                : File Creator
~Well Information
#MNEM.UNIT         DATA              : DESCRIPTION
#----.----     -------------         : -------------------
STRT.F      3912.0000                           : START DEPTH
STOP.F      6144.0000                           : STOP DEPTH
STEP.F         0.5000                           : DEPTH INCREMENT
NULL.        -999.2500                           : Null Value
COMP.      GOM SHELF LLC                         : Company
WELL.      OCSG03011 A006                        : Well Name
FLD .      MU A 16                               : Field
LOC .      RIG MAYRONNE 162                      : Location
CTRY.      UNITED STATES                         : Country
STAT.      TEXAS                                 : State
CNTY.      MUSTANG ISLAND                        : County
API .      427024017500                        : API Well Number
UWI .      427024017500                        : Unique Well ID
LIC .      G03011                                : Licence Number
TWP .                                            : Township
RGE .                                            : Range
SEC .                                            : Section
LAT .                                            : Latitude
LONG.                                            : Longitude
~Parameter Information
#MNEM.UNIT         DATA                DESCRIPTION
#----.----         -------           : -------------------
RUN .      1                                     : Run Number
PASS.                                            : Pass Number
DATE.      1989-09-11                            : Log Date
SRVC.      SCHLUMBERGER                          : Service Company
LSRV.      DITE/CND                              : Log Mnemonic
PDAT.      WL                                    : Permanent Datum Reference
EPD .F         0.0000                           : ELEVATION OF PERM. DATUM
EGL .F         0.0000                           : ELEVATION GROUND LEVEL
EKB .F       110.0000                           : ELEVATION KELLY BUSHING
EDF .F       109.0000                           : ELEVATION DERRICK FLOOR
APD .F       110.0000                           : ABOVE PERMANENT DATUM
LMF .      KB                                    : Log Measured From
EREF.F    110                                   : ELEVATION OF DEPTH REFERENCE
DMF .      KB                                    : Drilling Measured From
TDL .F      6109.0000                           : TOTAL DEPTH, LOGGER
TDD .F      6109.0000                           : TOTAL DEPTH, DRILLER
BLI .F      6094.0000                           : BOTTOM OF LOGGED INTERVAL
TLI .F      4073.0000                           : TOP OF LOGGED INTERVAL
CSGS1.IN        13.3750                           : Casing Size 1
CSGW1.LB/FT                                       : Casing Weight 1
CSGL1.F      4073.0000                           : CASING BOTTOM LOGGER 1
CSGD1.F      4083.0000                           : CASING BOTTOM DRILLER 1
CSGS2.IN         9.6250                           : Casing Size 2
CSGW2.LB/FT                                       : Casing Weight 2
CSGL2.F                                          : CASING BOTTOM LOGGER 2
CSGD2.F                                          : CASING BOTTOM DRILLER 2
BS1 .IN        12.2500                           : Bit Size 1
DDB1.F      6109.0000                           : BIT SIZE DEPTH 1
MUD .      UNICAL                                : Mud Type
MUDD.LB/GAL    10.8000                           : Mud Density
MUDV.S         38.0000                           : Mud Viscosity
FL  .CM3        6.8000                           : Fluid Loss
FLT .DEGF                                        : Fluid Loss Temperature
PH  .           9.5000                           : Mud PH
MUDS.      FLOWLINE                              : Mud Sample Location
RM  .OHMM       0.4180                           : Mud Resistivity
RMT .DEGF      74.0000                           : Mud Temperature
RMC .OHMM       0.7780                           : Mud Cake Resistivity
RMCT.DEGF      74.0000                           : Mud Cake Temperature
RMCS.      MEASURED                              : Mud Cake Source
RMF .OHMM       0.2690                           : Mud Filtrate Resistivity
RMFT.DEGF      74.0000                           : Mud Filtrate Temperature
RMFS.      MEASURED                              : Mud Filtrate Source
TMAX.DEGF     144.0000                           : Max Temperature
TIMC.      1989-09-11 22:30                      : Date Time Circulation Stopped
TIML.      1989-09-11 21:12                      : Date TIme Logger On Bottom
TSC .                                            : Time Since Circulation Stopped
UNIT.      506                                   : Unit Number
BASE.      CCOS                                  : Logging Unit Home Base
ENG .      WITKOWSKY                             : Recording Engineer
WIT .      POULIN                                : Witnessed By
DIGS.      IHS MARKIT                            : Digitizing Company
~Curve Information
#MNEM.UNIT         API  CODE                      : CURVE DESCRIPTION
#----.----        ------------                    : -----------------
 DEPT.F          00 001 00 00                    : MEASURED DEPTH
 CALR.IN          00 000 00 00                    : Caliper (Resistivity)
 GRR .GAPI        00 000 00 00                    : Gamma Ray Resistivity Device
 SP  .MV          00 000 00 00                    : Spontaneous Potential
 TENR.LB          00 000 00 00                    : Tension Resistivity Device
 DPSS.V/V         00 000 00 00                    : Density Porosity Sandstone
 DRHO.G/CM3       00 000 00 00                    : Density Correction
 NPSS.V/V         00 000 00 00                    : Neutron Porosity Sandstone
 IDPH.OHMM        00 000 00 00                    : Induction Deep Phasor Resistivity
 IMPH.OHMM        00 000 00 00                    : Induction Medium Phasor Resistivity
 SFL .OHMM        00 000 00 00                    : Spherically Focussed Log
~A    DEPT        CALR         GRR          SP        TENR        DPSS        DRHO        NPSS        IDPH        IMPH         SFL
# ...
   4583.0000     16.7800     66.6000    -27.8000    500.0000      0.2892     -0.0010      0.3612      0.9826      0.9404      0.8000
   4583.5000     16.8600     65.4000    -28.0000    500.0000      0.2856     -0.0040      0.3432      0.9826      0.9322      0.8079
   4584.0000     17.0200     64.0000    -28.6000    520.0000      0.2880     -0.0060      0.3132      0.9826      0.9240      0.8320
   4584.5000     16.9400     63.2000    -29.0000    520.0000      0.2952     -0.0090      0.2988      0.9826      0.9240      0.8739
   4585.0000     16.7200     63.2000    -29.0000    520.0000      0.3012     -0.0090      0.3144      0.9740      0.9159      0.8825
   4585.5000     16.8200     63.8000    -28.6000    500.0000      0.3060     -0.0070      0.3252      0.9740      0.9159      0.8485
   4586.0000     16.8600     64.0000    -28.2000    500.0000      0.3060     -0.0050      0.3396      0.9740      0.9159      0.8239
   4586.5000     16.6600     62.4000    -27.6000    500.0000      0.3060     -0.0030      0.3480      0.9740      0.9322      0.8000
   4587.0000     16.7200     61.0000    -27.2000    540.0000      0.3072      0.0000      0.3420      1.0000      0.9655      0.7789
   4587.5000     16.9800     59.8039    -27.2000    540.0000      0.3132      0.0090      0.3300      1.0372      0.9913      0.7929
   4588.0000     17.1800     60.8000    -27.0000    520.0000      0.3108      0.0230      0.3240      1.0659      1.0184      0.8402
   4588.5000     17.1400     63.6000    -26.6000    500.0000      0.2976      0.0360      0.3420      1.0955      1.0562      0.8912
   4589.0000     17.2200     66.8000    -26.0000    520.0000      0.2760      0.0410      0.3612      1.1259      1.0757      0.9159
   4589.5000     17.4200     69.6000    -25.2000    520.0000      0.2592      0.0310      0.3708      1.1362      1.0855      0.9159
   4590.0000     17.5600     70.0000    -24.6000    520.0000      0.2556      0.0190      0.3816      1.1571      1.1055      0.9322
   4590.5000     17.0400     70.4000    -23.8000    520.0000      0.2628      0.0060      0.3924      1.1785      1.1259      0.9487
   4591.0000     16.5200     71.6000    -23.0000    520.0000      0.2640     -0.0059      0.3996      1.2003      1.1468      0.9740
   4591.5000     17.0000     72.8000    -22.4000    520.0000      0.2604     -0.0089      0.3972      1.2115      1.1574      0.9740
   4592.0000     18.0000     72.4000    -21.8000    500.0000      0.2556     -0.0088      0.3816      1.2340      1.1789      0.9826
   4592.5000     18.2000     72.0000    -21.2000    500.0000      0.2472     -0.0078      0.3624      1.2570      1.2008      1.0092
   4593.0000     18.0000     71.4000    -21.0000    480.0000      0.2424     -0.0057      0.3468      1.2687      1.2120      1.0278
   4593.5000     17.4800     70.8000    -21.0000    480.0000      0.2424     -0.0047      0.3492      1.2806      1.2233      1.0565
   4594.0000     16.7000     70.8000    -20.8000    480.0000      0.2460     -0.0036      0.3612      1.2808      1.2234      1.0663
   4594.5000     15.9200     73.6000    -20.6000    500.0000      0.2508     -0.0036      0.3840      1.2810      1.2236      1.0374
   4595.0000     15.7600     77.2000    -20.6000    520.0000      0.2484     -0.0055      0.3960      1.2812      1.2238      1.0374
   4595.5000     15.9000     77.2000    -20.4000    520.0000      0.2436     -0.0045      0.3972      1.2933      1.2239      1.0374
   4596.0000     16.2600     77.8000    -20.2000    520.0000      0.2376     -0.0024      0.3924      1.2935      1.2241      1.0470
   4596.5000     16.5400     78.0000    -20.0000    520.0000      0.2318     -0.0004      0.3912      1.3057      1.2242      1.0567
   4597.0000     16.5400     75.8000    -20.0000    540.0000      0.2318      0.0017      0.3924      1.3180      1.2244      1.0568
   4597.5000     16.1400     76.4000    -19.8000    560.0000      0.2365      0.0027      0.3936      1.3182      1.2246      1.0666
   4598.0000     15.7600     79.2000    -19.8000    580.0000      0.2424      0.0018      0.4044      1.3184      1.2247      1.0375
   4598.5000     15.3600     83.0000    -19.6000    600.0000      0.2496      0.0008      0.4152      1.3066      1.2249      1.0186
   4599.0000     15.1800     88.8000    -19.4000    600.0000      0.2520     -0.0001      0.4176      1.3068      1.2251      1.0000
   4599.5000     15.2000     91.8000    -19.2000    640.0000      0.2556     -0.0011      0.4128      1.2950      1.2252      0.9913
   4600.0000     15.5800     89.8000    -19.0000    640.0000      0.2568     -0.0020      0.4032      1.2953      1.2254      0.9913
   4600.5000     16.2400     86.6000    -18.8000    619.4096      0.2568     -0.0020      0.4080      1.2956      1.2257      0.9828
   4601.0000     16.8600     83.4000    -18.6000    598.4252      0.2568      0.0000      0.4151      1.2722      1.2148      0.9745
   4601.5000     17.2206     82.4000    -18.4000    597.4409      0.2532      0.0030      0.4138      1.2726      1.2152      0.9662
   4602.0000     17.6022     82.4000    -18.6000    576.4559      0.2520      0.0050      0.4030      1.2730      1.2157      0.9580
   4602.5000     17.8037     84.2000    -19.0000    555.4705      0.2484      0.0080      0.3849      1.2734      1.2161      0.9497
   4603.0000     18.0256     84.8000    -19.2000    574.4868      0.2436      0.0080      0.3657      1.2856      1.2165      0.9759
   4603.5000     18.2665     83.8000    -19.2000    613.3080      0.2400      0.0060      0.3572      1.2978      1.2395      0.9940
   4604.0000     18.4876     82.4000    -19.2000    672.3283      0.2353      0.0030      0.3595      1.2982      1.2398      1.0128
   4604.5000     18.6286     80.6000    -19.2000    711.3481      0.2341      0.0000      0.3667      1.3105      1.2402      1.0226
   4605.0000     18.7095     78.6000    -19.0000    710.3648      0.2341     -0.0030      0.3571      1.3230      1.2406      1.0324
   4605.5000     18.7305     75.4000    -19.0000    649.3752      0.2352     -0.0030      0.3463      1.3234      1.2411      1.0521
   4606.0000     18.6917     72.2000    -18.8000    568.3822      0.2364     -0.0030      0.3463      1.3237      1.2414      1.0622
   4606.5000     18.7526     69.6050    -18.8000    547.3950      0.2364     -0.0030      0.3700      1.3241      1.2418      1.0724
   4607.0000     18.8936     72.0000    -18.8000    526.4075      0.2388     -0.0030      0.3832      1.3244      1.2422      1.0729
   4607.5000     18.9546     78.2000    -18.6000    525.4224      0.2412     -0.0040      0.3855      1.3248      1.2426      1.0538
   4608.0000     19.0155     81.2000    -18.6000    524.4372      0.2436     -0.0050      0.3879      1.3251      1.2430      1.0352
   4608.5000     19.0567     80.4000    -18.4000    523.4521      0.2460     -0.0050      0.3854      1.3255      1.2433      1.0168
   4609.0000     19.0977     76.6000    -18.4000    502.4635      0.2496     -0.0050      0.3709      1.3259      1.2438      1.0081
   4609.5000     19.1586     75.2000    -18.2000    501.4781      0.2520     -0.0050      0.3613      1.3263      1.2442      1.0178
   4610.0000     19.1796     75.6000    -18.2000    520.4965      0.2508     -0.0050      0.3672      1.3266      1.2332      1.0090
   4610.5000     19.1600     77.4000    -18.0000    519.3175      0.2472     -0.0060      0.3768      1.3267      1.2334      1.0092
   4611.0000     19.1400     76.4000    -18.0000    518.3369      0.2436     -0.0050      0.3720      1.3267      1.2334      1.0092
   4611.5000     19.2400     75.8000    -18.2000    517.3563      0.2424     -0.0050      0.3636      1.3267      1.2334      1.0092
   4612.0000     19.5400     78.2000    -18.0000    516.3758      0.2424     -0.0020      0.3636      1.3389      1.2334      1.0092
   4612.5000     19.6000     81.2000    -18.0000    535.3991      0.2436      0.0000      0.3696      1.3389      1.2334      1.0000
   4613.0000     19.5200     85.4000    -18.0000    534.4185      0.2460      0.0030      0.3720      1.3389      1.2447      1.0000
