~Version Information
#Created by IHS Markit
VERS.      2.0                       : CWLS Log Ascii Standard - Version 2.0
WRAP.      NO                        : One line per depth step
CRTR.      IHS Markit                : File Creator
~Well Information
#MNEM.UNIT         DATA              : DESCRIPTION
#----.----     -------------         : -------------------
STRT.F      3912.0000                           : START DEPTH
STOP.F      6144.0000                           : STOP DEPTH
STEP.F         0.5000                           : DEPTH INCREMENT
NULL.        -999.2500                           : Null Value
COMP.      GOM SHELF LLC                         : Company
WELL.      OCSG03011 A006                        : Well Name
FLD .      MU A 16                               : Field
LOC .      RIG MAYRONNE 162                      : Location
CTRY.      UNITED STATES                         : Country
STAT.      TEXAS                                 : State
CNTY.      MUSTANG ISLAND                        : County
API .      427024017500                        : API Well Number
UWI .      427024017500                        : Unique Well ID
LIC .      G03011                                : Licence Number
TWP .                                            : Township
RGE .                                            : Range
SEC .                                            : Section
LAT .                                            : Latitude
LONG.                                            : Longitude
~Parameter Information
#MNEM.UNIT         DATA                DESCRIPTION
#----.----         -------           : -------------------
RUN .      1                                     : Run Number
PASS.                                            : Pass Number
DATE.      1989-09-11                            : Log Date
SRVC.      SCHLUMBERGER                          : Service Company
LSRV.      DITE/CND                              : Log Mnemonic
PDAT.      WL                                    : Permanent Datum Reference
EPD .F         0.0000                           : ELEVATION OF PERM. DATUM
EGL .F         0.0000                           : ELEVATION GROUND LEVEL
EKB .F       110.0000                           : ELEVATION KELLY BUSHING
EDF .F       109.0000                           : ELEVATION DERRICK FLOOR
APD .F       110.0000                           : ABOVE PERMANENT DATUM
LMF .      KB                                    : Log Measured From
EREF.F    110                                   : ELEVATION OF DEPTH REFERENCE
DMF .      KB                                    : Drilling Measured From
TDL .F      6109.0000                           : TOTAL DEPTH, LOGGER
TDD .F      6109.0000                           : TOTAL DEPTH, DRILLER
BLI .F      6094.0000                           : BOTTOM OF LOGGED INTERVAL
TLI .F      4073.0000                           : TOP OF LOGGED INTERVAL
CSGS1.IN        13.3750                           : Casing Size 1
CSGW1.LB/FT                                       : Casing Weight 1
CSGL1.F      4073.0000                           : CASING BOTTOM LOGGER 1
CSGD1.F      4083.0000                           : CASING BOTTOM DRILLER 1
CSGS2.IN         9.6250                           : Casing Size 2
CSGW2.LB/FT                                       : Casing Weight 2
CSGL2.F                                          : CASING BOTTOM LOGGER 2
CSGD2.F                                          : CASING BOTTOM DRILLER 2
BS1 .IN        12.2500                           : Bit Size 1
DDB1.F      6109.0000                           : BIT SIZE DEPTH 1
MUD .      UNICAL                                : Mud Type
MUDD.LB/GAL    10.8000                           : Mud Density
MUDV.S         38.0000                           : Mud Viscosity
FL  .CM3        6.8000                           : Fluid Loss
FLT .DEGF                                        : Fluid Loss Temperature
PH  .           9.5000                           : Mud PH
MUDS.      FLOWLINE                              : Mud Sample Location
RM  .OHMM       0.4180                           : Mud Resistivity
RMT .DEGF      74.0000                           : Mud Temperature
RMC .OHMM       0.7780                           : Mud Cake Resistivity
RMCT.DEGF      74.0000                           : Mud Cake Temperature
RMCS.      MEASURED                              : Mud Cake Source
RMF .OHMM       0.2690                           : Mud Filtrate Resistivity
RMFT.DEGF      74.0000                           : Mud Filtrate Temperature
RMFS.      MEASURED                              : Mud Filtrate Source
TMAX.DEGF     144.0000                           : Max Temperature
TIMC.      1989-09-11 22:30                      : Date Time Circulation Stopped
TIML.      1989-09-11 21:12                      : Date TIme Logger On Bottom
TSC .                                            : Time Since Circulation Stopped
UNIT.      506                                   : Unit Number
BASE.      CCOS                                  : Logging Unit Home Base
ENG .      WITKOWSKY                             : Recording Engineer
WIT .      POULIN                                : Witnessed By
DIGS.      IHS MARKIT                            : Digitizing Company
~Curve Information
#MNEM.UNIT         API  CODE                      : CURVE DESCRIPTION
#----.----        ------------                    : -----------------
 DEPT.F          00 001 00 00                    : MEASURED DEPTH
 CALR.IN          00 000 00 00                    : Caliper (Resistivity)
 GRR .GAPI        00 000 00 00                    : Gamma Ray Resistivity Device
 SP  .MV          00 000 00 00                    : Spontaneous Potential
 TENR.LB          00 000 00 00                    : Tension Resistivity Device
 DPSS.V/V         00 000 00 00                    : Density Porosity Sandstone
 DRHO.G/CM3       00 000 00 00                    : Density Correction
 NPSS.V/V         00 000 00 00                    : Neutron Porosity Sandstone
 IDPH.OHMM        00 000 00 00                    : Induction Deep Phasor Resistivity
 IMPH.OHMM        00 000 00 00                    : Induction Medium Phasor Resistivity
 SFL .OHMM        00 000 00 00                    : Spherically Focussed Log
~A    DEPT        CALR         GRR          SP        TENR        DPSS        DRHO        NPSS        IDPH        IMPH         SFL
# ...
   5376.0000     15.5400     87.2000     -9.0000    627.4510      0.2388     -0.0112      0.3869      1.2860      1.2513      0.9779
   5376.5000     15.5600     85.4000     -9.0000    627.4510      0.2340     -0.0112      0.3845      1.3102      1.2749      0.9874
   5377.0000     15.5000     81.4000     -9.2000    627.4510      0.2316     -0.0112      0.3612      1.3350      1.2989      1.0341
   5377.5000     15.4400     76.2000     -9.4000    627.4510      0.2328     -0.0092      0.3329      1.3726      1.3356      1.0828
   5378.0000     15.5000     71.0000     -9.8000    647.0588      0.2280     -0.0061      0.3024      1.3859      1.3485      1.1977
   5378.5000     15.7000     70.4000    -10.2000    607.8431      0.2208     -0.0041      0.2844      1.3992      1.3615      1.2890
   5379.0000     15.7800     70.8000    -10.4000    607.8431      0.2112     -0.0020      0.2940      1.3999      1.3621      1.3621
   5379.5000     15.9000     71.6000    -10.4000    588.2353      0.1992     -0.0010      0.3247      1.4005      1.3627      1.4005
   5380.0000     15.9400     74.0000    -10.4000    588.2353      0.1980      0.0010      0.3388      1.4011      1.3509      1.3633
   5380.5000     15.9800     78.2000    -10.4000    588.2353      0.2016      0.0031      0.3388      1.3887      1.3512      1.3028
   5381.0000     16.0000     82.0000    -10.2000    588.2353      0.2040      0.0051      0.3412      1.3760      1.3267      1.2447
   5381.5000     16.0200     84.8000     -9.8000    607.8431      0.2064      0.0051      0.3494      1.3636      1.3147      1.1892
   5382.0000     16.0200     86.8000     -9.4000    647.0588      0.2112      0.0051      0.3624      1.3512      1.3147      1.1259
   5382.5000     15.9600     88.8000     -9.0000    686.2745      0.2172      0.0041      0.3747      1.3389      1.3147      1.0855
   5383.0000     15.9200     90.0000     -9.0000    725.4902      0.2208      0.0000      0.3906      1.3512      1.3147      1.0372
   5383.5000     15.9000     90.6000     -9.0000    705.8824      0.2196     -0.0020      0.4053      1.3636      1.3267      1.0372
   5384.0000     15.9000     89.0000     -9.0000    666.6667      0.2148     -0.0010      0.4053      1.3760      1.3389      1.0372
   5384.5000     15.9000     87.0000     -9.0000    627.4510      0.2064      0.0000      0.3955      1.3760      1.3389      1.0659
   5385.0000     15.8000     85.0000     -8.8000    627.4510      0.2004      0.0010      0.3833      1.3887      1.3512      1.0955
   5385.5000     15.6400     84.4000     -8.2000    647.0588      0.1968      0.0031      0.3784      1.4014      1.3636      1.1362
   5386.0000     15.4600     84.6000     -7.6000    666.6667      0.1944      0.0031      0.3710      1.4142      1.3760      1.1784
   5386.5000     15.2800     84.4000     -7.6000    627.4510      0.1956      0.0010      0.3612      1.4668      1.4272      1.2111
   5387.0000     15.1400     84.6000     -7.4000    627.4510      0.1980     -0.0010      0.3471      1.4668      1.4272      1.2222
   5387.5000     15.0800     84.8000     -7.4000    627.4510      0.1992     -0.0031      0.3459      1.4668      1.4272      1.2222
   5388.0000     15.1600     84.6000     -7.4000    627.4510      0.1980     -0.0061      0.3506      1.4534      1.4142      1.2334
   5388.5000     15.2800     83.8000     -7.4000    647.0588      0.1980     -0.0082      0.3649      1.4534      1.4142      1.2334
   5389.0000     15.4600     83.0000     -7.2000    627.4510      0.1980     -0.0102      0.3833      1.4402      1.4014      1.2111
   5389.5000     15.6400     82.0000     -7.2000    627.4510      0.1992     -0.0082      0.3931      1.4402      1.4014      1.2001
   5390.0000     15.8400     81.4000     -7.2000    627.4510      0.1992     -0.0041      0.3894      1.4272      1.3887      1.1784
   5390.5000     16.0006     81.2058     -7.1957    627.4510      0.1980     -0.0010      0.3771      1.4273      1.3762      1.1785
   5391.0000     16.1616     80.6159     -7.3881    607.8431      0.1979      0.0011      0.3661      1.4147      1.3640      1.1786
   5391.5000     16.3225     79.6261     -7.3807    588.2353      0.2002      0.0012      0.3624      1.4022      1.3396      1.1896
   5392.0000     16.3435     78.4363     -7.5725    568.6275      0.2050      0.0022      0.3685      1.3897      1.3276      1.1789
   5392.5000     16.1846     79.8460     -7.5649    568.6275      0.2109      0.0013      0.3807      1.3774      1.3158      1.1576
   5393.0000     16.0256     84.2554     -7.5574    549.0196      0.2169      0.0013      0.3844      1.3777      1.3040      1.1264
   5393.5000     16.0066     88.6668     -7.7485    568.6275      0.2228      0.0014      0.3819      1.3654      1.2924      1.0959
   5394.0000     16.0276     87.8770     -7.7407    588.2353      0.2251      0.0014      0.3685      1.3532      1.2926      1.0761
   5394.5000     16.0886     85.8853     -7.5347    647.0588      0.2251      0.0025      0.3446      1.3411      1.2810      1.0861
   5395.0000     16.1496     82.6957     -7.7253    725.4902      0.2262      0.0025      0.3422      1.3291      1.2812      1.1164
   5395.5000     16.2106     82.5058     -7.5197    784.3137      0.2262      0.0036      0.3564      1.3294      1.2697      1.1268
   5396.0000     16.2316     82.5158     -7.5122    784.3137      0.2249      0.0057      0.3721      1.3296      1.2583      1.0963
   5396.5000     16.1926     82.5258     -7.5047    764.7059      0.2224      0.0088      0.3878      1.3177      1.2585      1.0665
   5397.0000     16.1936     82.1359     -7.3000    745.0980      0.2188      0.0109      0.3793      1.3180      1.2587      1.0280
   5397.5000     16.3146     82.1459     -7.2942    705.8824      0.2163      0.0120      0.3684      1.3182      1.2589      1.0093
   5398.0000     16.4356     84.5558     -7.2870    705.8824      0.2151      0.0110      0.3648      1.3185      1.2591      1.0093
   5398.5000     16.5566     86.7658     -7.2797    686.2745      0.2150      0.0100      0.3708      1.3066      1.2593      1.0280
   5399.0000     16.6176     86.3758     -7.0760    666.6667      0.2137      0.0080      0.3768      1.3068      1.2594      1.0569
   5399.5000     16.6586     83.5859     -7.0690    647.0588      0.2197      0.0050      0.3804      1.3070      1.2596      1.0866
   5400.0000     16.6596     80.5960     -7.2582    627.4510      0.2256      0.0041      0.3816      1.2952      1.2598      1.1070
   5400.5000     16.6200     80.0000     -7.4496    587.6642      0.2304      0.0061      0.3828      1.2955      1.2601      1.0870
   5401.0000     16.5800     80.0000     -7.4472    567.1045      0.2280      0.0082      0.3851      1.2960      1.2606      1.0774
   5401.5000     16.5400     79.6000     -7.4443    585.7605      0.2244      0.0092      0.3875      1.2963      1.2609      1.0779
   5402.0000     16.6000     78.6000     -7.6386    623.8340      0.2208      0.0092      0.3875      1.2967      1.2613      1.0684
   5402.5000     16.7200     76.8000     -7.6364    642.4900      0.2196      0.0071      0.3754      1.2970      1.2617      1.0689
   5403.0000     16.8200     76.4000     -7.8313    641.5382      0.2184      0.0041      0.3645      1.2856      1.2505      1.0693
   5403.5000     16.8400     77.4000     -7.8292    640.5863      0.2160      0.0041      0.3608      1.2742      1.2395      1.0600
   5404.0000     16.8200     79.4000     -7.8271    620.0267      0.2172      0.0041      0.3704      1.2745      1.2398      1.0507
   5404.5000     16.8400     80.0000     -7.6268    619.0748      0.2232      0.0031      0.3873      1.2632      1.2289      1.0415
   5405.0000     16.8600     80.0000     -7.6246    618.1230      0.2292      0.0031      0.3776      1.2521      1.2181      1.0324
   5405.5000     16.9200     79.6000     -7.6223    616.9808      0.2328      0.0031      0.3522      1.2525      1.2185      1.0330
   5406.0000     16.9600     79.8000     -7.6200    616.0289      0.2304      0.0031      0.3344      1.2529      1.2077      1.0334
