~Version Information
#Created by IHS Markit
VERS.      2.0                       : CWLS Log Ascii Standard - Version 2.0
WRAP.      NO                        : One line per depth step
CRTR.      IHS Markit                : File Creator
~Well Information
#MNEM.UNIT         DATA              : DESCRIPTION
#----.----     -------------         : -------------------
STRT.F      3912.0000                           : START DEPTH
STOP.F      6144.0000                           : STOP DEPTH
STEP.F         0.5000                           : DEPTH INCREMENT
NULL.        -999.2500                           : Null Value
COMP.      GOM SHELF LLC                         : Company
WELL.      OCSG03011 A006                        : Well Name
FLD .      MU A 16                               : Field
LOC .      RIG MAYRONNE 162                      : Location
CTRY.      UNITED STATES                         : Country
STAT.      TEXAS                                 : State
CNTY.      MUSTANG ISLAND                        : County
API .      427024017500                        : API Well Number
UWI .      427024017500                        : Unique Well ID
LIC .      G03011                                : Licence Number
TWP .                                            : Township
RGE .                                            : Range
SEC .                                            : Section
LAT .                                            : Latitude
LONG.                                            : Longitude
~Parameter Information
#MNEM.UNIT         DATA                DESCRIPTION
#----.----         -------           : -------------------
RUN .      1                                     : Run Number
PASS.                                            : Pass Number
DATE.      1989-09-11                            : Log Date
SRVC.      SCHLUMBERGER                          : Service Company
LSRV.      DITE/CND                              : Log Mnemonic
PDAT.      WL                                    : Permanent Datum Reference
EPD .F         0.0000                           : ELEVATION OF PERM. DATUM
EGL .F         0.0000                           : ELEVATION GROUND LEVEL
EKB .F       110.0000                           : ELEVATION KELLY BUSHING
EDF .F       109.0000                           : ELEVATION DERRICK FLOOR
APD .F       110.0000                           : ABOVE PERMANENT DATUM
LMF .      KB                                    : Log Measured From
EREF.F    110                                   : ELEVATION OF DEPTH REFERENCE
DMF .      KB                                    : Drilling Measured From
TDL .F      6109.0000                           : TOTAL DEPTH, LOGGER
TDD .F      6109.0000                           : TOTAL DEPTH, DRILLER
BLI .F      6094.0000                           : BOTTOM OF LOGGED INTERVAL
TLI .F      4073.0000                           : TOP OF LOGGED INTERVAL
CSGS1.IN        13.3750                           : Casing Size 1
CSGW1.LB/FT                                       : Casing Weight 1
CSGL1.F      4073.0000                           : CASING BOTTOM LOGGER 1
CSGD1.F      4083.0000                           : CASING BOTTOM DRILLER 1
CSGS2.IN         9.6250                           : Casing Size 2
CSGW2.LB/FT                                       : Casing Weight 2
CSGL2.F                                          : CASING BOTTOM LOGGER 2
CSGD2.F                                          : CASING BOTTOM DRILLER 2
BS1 .IN        12.2500                           : Bit Size 1
DDB1.F      6109.0000                           : BIT SIZE DEPTH 1
MUD .      UNICAL                                : Mud Type
MUDD.LB/GAL    10.8000                           : Mud Density
MUDV.S         38.0000                           : Mud Viscosity
FL  .CM3        6.8000                           : Fluid Loss
FLT .DEGF                                        : Fluid Loss Temperature
PH  .           9.5000                           : Mud PH
MUDS.      FLOWLINE                              : Mud Sample Location
RM  .OHMM       0.4180                           : Mud Resistivity
RMT .DEGF      74.0000                           : Mud Temperature
RMC .OHMM       0.7780                           : Mud Cake Resistivity
RMCT.DEGF      74.0000                           : Mud Cake Temperature
RMCS.      MEASURED                              : Mud Cake Source
RMF .OHMM       0.2690                           : Mud Filtrate Resistivity
RMFT.DEGF      74.0000                           : Mud Filtrate Temperature
RMFS.      MEASURED                              : Mud Filtrate Source
TMAX.DEGF     144.0000                           : Max Temperature
TIMC.      1989-09-11 22:30                      : Date Time Circulation Stopped
TIML.      1989-09-11 21:12                      : Date TIme Logger On Bottom
TSC .                                            : Time Since Circulation Stopped
UNIT.      506                                   : Unit Number
BASE.      CCOS                                  : Logging Unit Home Base
ENG .      WITKOWSKY                             : Recording Engineer
WIT .      POULIN                                : Witnessed By
DIGS.      IHS MARKIT                            : Digitizing Company
~Curve Information
#MNEM.UNIT         API  CODE                      : CURVE DESCRIPTION
#----.----        ------------                    : -----------------
 DEPT.F          00 001 00 00                    : MEASURED DEPTH
 CALR.IN          00 000 00 00                    : Caliper (Resistivity)
 GRR .GAPI        00 000 00 00                    : Gamma Ray Resistivity Device
 SP  .MV          00 000 00 00                    : Spontaneous Potential
 TENR.LB          00 000 00 00                    : Tension Resistivity Device
 DPSS.V/V         00 000 00 00                    : Density Porosity Sandstone
 DRHO.G/CM3       00 000 00 00                    : Density Correction
 NPSS.V/V         00 000 00 00                    : Neutron Porosity Sandstone
 IDPH.OHMM        00 000 00 00                    : Induction Deep Phasor Resistivity
 IMPH.OHMM        00 000 00 00                    : Induction Medium Phasor Resistivity
 SFL .OHMM        00 000 00 00                    : Spherically Focussed Log
~A    DEPT        CALR         GRR          SP        TENR        DPSS        DRHO        NPSS        IDPH        IMPH         SFL
# ...
   4857.5000     14.6863     60.0000    -21.2245    508.1903      0.3035     -0.0140      0.2904      1.5074      1.4402      1.2447
   4858.0000     14.5294     60.3922    -22.4490    506.4428      0.3035     -0.0150      0.2964      1.4802      1.4142      1.2222
   4858.5000     14.1961     59.4000    -23.0612    544.8505      0.3071     -0.0160      0.3035      1.4534      1.3887      1.1784
   4859.0000     13.9800     57.2000    -23.2653    563.3803      0.3153     -0.0180      0.3000      1.4272      1.3636      1.1259
   4859.5000     14.1961     55.6000    -23.4694    561.9738      0.3177     -0.0180      0.2880      1.4142      1.3512      1.0955
   4860.0000     14.3137     55.8000    -23.6735    580.5566      0.3047     -0.0150      0.2856      1.3887      1.3267      1.0955
   4860.5000     14.4510     58.2000    -23.8776    600.0000      0.2784     -0.0100      0.2940      1.3636      1.3028      1.1055
   4861.0000     14.5882     60.7843    -23.8776    600.0000      0.2532     -0.0050      0.3141      1.3389      1.2792      1.1259
   4861.5000     14.7059     60.9804    -24.0816    600.0000      0.2258     -0.0020      0.3388      1.3028      1.2447      1.1571
   4862.0000     14.7451     59.0000    -24.0816    620.0000      0.2460     -0.0030      0.3553      1.2447      1.1892      1.1466
   4862.5000     14.7059     57.6000    -24.2857    620.0000      0.2796     -0.0070      0.3541      1.2001      1.1466      1.1157
   4863.0000     14.6078     56.4000    -24.4898    620.0000      0.3118     -0.0110      0.3400      1.1677      1.1157      1.0757
   4863.5000     14.5490     54.4000    -25.1020    600.0000      0.3459     -0.0160      0.3165      1.1259      1.0757      1.0372
   4864.0000     14.4706     52.4000    -25.9184    600.0000      0.3553     -0.0160      0.2952      1.1055      1.0372      0.9913
   4864.5000     14.4118     53.2000    -26.7347    580.0000      0.3518     -0.0150      0.2916      1.0757      1.0000      0.9487
   4865.0000     14.3333     54.6000    -27.1429    580.0000      0.3459     -0.0150      0.2940      1.0467      0.9740      0.9079
   4865.5000     14.1765     56.2000    -27.5510    580.0000      0.3424     -0.0160      0.3035      1.0092      0.9322      0.8569
   4866.0000     14.0392     56.4000    -27.9592    580.0000      0.3424     -0.0160      0.3153      1.0092      0.9159      0.8159
   4866.5000     13.9000     55.2000    -28.1633    560.0000      0.3459     -0.0160      0.3282      1.0277      0.9159      0.8000
   4867.0000     13.8200     55.6000    -28.5714    560.0000      0.3494     -0.0090      0.3329      1.0277      0.9322      0.7929
   4867.5000     14.0588     58.6000    -28.1633    580.0000      0.3282      0.0000      0.3165      1.0562      0.9655      0.8000
   4868.0000     14.3529     61.9608    -27.1429    580.0000      0.3000      0.0120      0.3129      1.0855      1.0000      0.8485
   4868.5000     14.6667     65.2941    -26.1224    580.0000      0.2628      0.0260      0.3271      1.1157      1.0467      0.9079
   4869.0000     14.9608     68.8235    -24.6939    560.0000      0.2196      0.0330      0.3518      1.1466      1.0855      0.9740
   4869.5000     15.1633     70.0000    -23.4694    560.0000      0.2220      0.0240      0.3828      1.1677      1.1259      1.0000
   4870.0000     15.3469     69.2157    -22.2449    580.0000      0.2364      0.0100      0.3852      1.2001      1.1677      1.0184
   4870.5000     15.4082     67.8431    -21.2245    620.0000      0.2520      0.0030      0.3720      1.2334      1.1784      1.0277
   4871.0000     15.4286     65.4902    -20.8163    660.0000      0.2603      0.0000      0.3576      1.2447      1.1892      1.0184
   4871.5000     15.4898     63.1373    -20.8163    660.0000      0.2554      0.0010      0.3446      1.2561      1.2001      1.0372
   4872.0000     15.5714     62.3529    -21.0204    660.0000      0.2458      0.0000      0.3374      1.2792      1.2222      1.0659
   4872.5000     15.6939     61.9608    -20.6122    640.0000      0.2397      0.0010      0.3362      1.2909      1.2334      1.1055
   4873.0000     15.8163     64.7059    -20.2041    600.0000      0.2409      0.0000      0.3385      1.3147      1.2561      1.1259
   4873.5000     15.8571     68.0392    -19.8000    580.0000      0.2420     -0.0020      0.3478      1.3147      1.2561      1.1362
   4874.0000     15.9592     70.0000    -19.6000    580.0000      0.2431     -0.0030      0.3537      1.3389      1.2792      1.1571
   4874.5000     16.0600     70.8163    -19.2000    600.0000      0.2359     -0.0020      0.3583      1.3512      1.2909      1.1784
   4875.0000     16.1600     70.6122    -19.0000    600.0000      0.2262      0.0000      0.3594      1.3636      1.3028      1.1677
   4875.5000     16.1800     68.6275    -18.6000    600.0000      0.2142      0.0030      0.3630      1.3760      1.3147      1.1571
   4876.0000     16.2400     66.8627    -18.4000    620.0000      0.2045      0.0060      0.3690      1.3887      1.3267      1.1571
   4876.5000     16.4000     68.2353    -18.0000    640.0000      0.2044      0.0090      0.3860      1.3887      1.3267      1.1466
   4877.0000     16.5200     71.6327    -17.4000    640.0000      0.2152      0.0090      0.4042      1.4014      1.3267      1.1362
   4877.5000     16.5600     79.1837    -17.0000    640.0000      0.2259      0.0070      0.4078      1.4014      1.3389      1.1259
   4878.0000     16.5600     83.4000    -16.6000    640.0000      0.2307      0.0040      0.3810      1.4142      1.3512      1.1259
   4878.5000     16.6000     82.0000    -16.2000    640.0000      0.2330      0.0020      0.3531      1.4142      1.3512      1.1259
   4879.0000     16.5800     79.7959    -16.2000    620.0000      0.2329      0.0000      0.3484      1.4272      1.3636      1.1157
   4879.5000     16.5400     77.9592    -16.0000    620.0000      0.2341     -0.0010      0.3554      1.4272      1.3636      1.1157
   4880.0000     16.5400     77.1429    -15.8000    680.0000      0.2352     -0.0020      0.3577      1.4402      1.3760      1.1055
   4880.5000     16.5600     76.3265    -15.6000    640.0000      0.2376     -0.0030      0.3482      1.4402      1.3760      1.1157
   4881.0000     16.6600     75.9184    -15.4000    640.0000      0.2400     -0.0040      0.3400      1.4534      1.3887      1.1259
   4881.5000     16.7200     75.7143    -15.4000    680.0000      0.2412     -0.0090      0.3388      1.4534      1.3887      1.1259
   4882.0000     16.7200     75.9184    -15.8000    680.0000      0.2412     -0.0110      0.3424      1.4668      1.4014      1.1362
   4882.5000     16.7200     76.5306    -16.0000    700.0000      0.2400     -0.0100      0.3435      1.4668      1.4014      1.1466
   4883.0000     16.7800     77.5510    -16.0000    680.0000      0.2352     -0.0060      0.3447      1.4802      1.4142      1.1571
   4883.5000     16.8800     78.7755    -15.8000    660.0000      0.2292     -0.0040      0.3471      1.4802      1.4142      1.1571
   4884.0000     16.9800     79.1837    -16.0000    620.0000      0.2220     -0.0020      0.3624      1.4938      1.4272      1.1784
   4884.5000     17.0600     77.3469    -16.0000    600.0000      0.2184     -0.0010      0.3612      1.4938      1.4272      1.1784
   4885.0000     17.0800     75.9184    -15.8000    560.0000      0.2160     -0.0010      0.3553      1.4938      1.4272      1.1784
   4885.5000     17.0600     76.7347    -15.8000    520.0000      0.2148     -0.0010      0.3494      1.5074      1.4402      1.1571
   4886.0000     17.0600     80.2000    -15.6000    540.0000      0.2112      0.0010      0.3482      1.5213      1.4534      1.1571
   4886.5000     17.0400     83.4000    -15.4000    600.0000      0.2052      0.0030      0.3565      1.5213      1.4534      1.1892
   4887.0000     17.0400     83.6000    -15.2000    640.0000      0.1956      0.0050      0.3600      1.5352      1.4668      1.2111
   4887.5000     17.0200     79.1837    -15.2000    680.0000      0.1884      0.0070      0.3435      1.5352      1.4668      1.2447
