~Version Information
#Created by IHS Markit
VERS.      2.0                       : CWLS Log Ascii Standard - Version 2.0
WRAP.      NO                        : One line per depth step
CRTR.      IHS Markit                : File Creator
~Well Information
#MNEM.UNIT         DATA              : DESCRIPTION
#----.----     -------------         : -------------------
STRT.F      3912.0000                           : START DEPTH
STOP.F      6144.0000                           : STOP DEPTH
STEP.F         0.5000                           : DEPTH INCREMENT
NULL.        -999.2500                           : Null Value
COMP.      GOM SHELF LLC                         : Company
WELL.      OCSG03011 A006                        : Well Name
FLD .      MU A 16                               : Field
LOC .      RIG MAYRONNE 162                      : Location
CTRY.      UNITED STATES                         : Country
STAT.      TEXAS                                 : State
CNTY.      MUSTANG ISLAND                        : County
API .      427024017500                        : API Well Number
UWI .      427024017500                        : Unique Well ID
LIC .      G03011                                : Licence Number
TWP .                                            : Township
RGE .                                            : Range
SEC .                                            : Section
LAT .                                            : Latitude
LONG.                                            : Longitude
~Parameter Information
#MNEM.UNIT         DATA                DESCRIPTION
#----.----         -------           : -------------------
RUN .      1                                     : Run Number
PASS.                                            : Pass Number
DATE.      1989-09-11                            : Log Date
SRVC.      SCHLUMBERGER                          : Service Company
LSRV.      DITE/CND                              : Log Mnemonic
PDAT.      WL                                    : Permanent Datum Reference
EPD .F         0.0000                           : ELEVATION OF PERM. DATUM
EGL .F         0.0000                           : ELEVATION GROUND LEVEL
EKB .F       110.0000                           : ELEVATION KELLY BUSHING
EDF .F       109.0000                           : ELEVATION DERRICK FLOOR
APD .F       110.0000                           : ABOVE PERMANENT DATUM
LMF .      KB                                    : Log Measured From
EREF.F    110                                   : ELEVATION OF DEPTH REFERENCE
DMF .      KB                                    : Drilling Measured From
TDL .F      6109.0000                           : TOTAL DEPTH, LOGGER
TDD .F      6109.0000                           : TOTAL DEPTH, DRILLER
BLI .F      6094.0000                           : BOTTOM OF LOGGED INTERVAL
TLI .F      4073.0000                           : TOP OF LOGGED INTERVAL
CSGS1.IN        13.3750                           : Casing Size 1
CSGW1.LB/FT                                       : Casing Weight 1
CSGL1.F      4073.0000                           : CASING BOTTOM LOGGER 1
CSGD1.F      4083.0000                           : CASING BOTTOM DRILLER 1
CSGS2.IN         9.6250                           : Casing Size 2
CSGW2.LB/FT                                       : Casing Weight 2
CSGL2.F                                          : CASING BOTTOM LOGGER 2
CSGD2.F                                          : CASING BOTTOM DRILLER 2
BS1 .IN        12.2500                           : Bit Size 1
DDB1.F      6109.0000                           : BIT SIZE DEPTH 1
MUD .      UNICAL                                : Mud Type
MUDD.LB/GAL    10.8000                           : Mud Density
MUDV.S         38.0000                           : Mud Viscosity
FL  .CM3        6.8000                           : Fluid Loss
FLT .DEGF                                        : Fluid Loss Temperature
PH  .           9.5000                           : Mud PH
MUDS.      FLOWLINE                              : Mud Sample Location
RM  .OHMM       0.4180                           : Mud Resistivity
RMT .DEGF      74.0000                           : Mud Temperature
RMC .OHMM       0.7780                           : Mud Cake Resistivity
RMCT.DEGF      74.0000                           : Mud Cake Temperature
RMCS.      MEASURED                              : Mud Cake Source
RMF .OHMM       0.2690                           : Mud Filtrate Resistivity
RMFT.DEGF      74.0000                           : Mud Filtrate Temperature
RMFS.      MEASURED                              : Mud Filtrate Source
TMAX.DEGF     144.0000                           : Max Temperature
TIMC.      1989-09-11 22:30                      : Date Time Circulation Stopped
TIML.      1989-09-11 21:12                      : Date TIme Logger On Bottom
TSC .                                            : Time Since Circulation Stopped
UNIT.      506                                   : Unit Number
BASE.      CCOS                                  : Logging Unit Home Base
ENG .      WITKOWSKY                             : Recording Engineer
WIT .      POULIN                                : Witnessed By
DIGS.      IHS MARKIT                            : Digitizing Company
~Curve Information
#MNEM.UNIT         API  CODE                      : CURVE DESCRIPTION
#----.----        ------------                    : -----------------
 DEPT.F          00 001 00 00                    : MEASURED DEPTH
 CALR.IN          00 000 00 00                    : Caliper (Resistivity)
 GRR .GAPI        00 000 00 00                    : Gamma Ray Resistivity Device
 SP  .MV          00 000 00 00                    : Spontaneous Potential
 TENR.LB          00 000 00 00                    : Tension Resistivity Device
 DPSS.V/V         00 000 00 00                    : Density Porosity Sandstone
 DRHO.G/CM3       00 000 00 00                    : Density Correction
 NPSS.V/V         00 000 00 00                    : Neutron Porosity Sandstone
 IDPH.OHMM        00 000 00 00                    : Induction Deep Phasor Resistivity
 IMPH.OHMM        00 000 00 00                    : Induction Medium Phasor Resistivity
 SFL .OHMM        00 000 00 00                    : Spherically Focussed Log
~A    DEPT        CALR         GRR          SP        TENR        DPSS        DRHO        NPSS        IDPH        IMPH         SFL
# ...
   4339.0000     13.7600     63.3333    -32.3529    502.3301      0.3306     -0.0040      0.3318      1.0277      1.0000      0.8239
   4339.5000     13.7600     68.8235    -32.1569    501.3592      0.3106     -0.0030      0.3224      1.0467      1.0184      0.8402
   4340.0000     13.8200     72.6000    -31.3725    500.3883      0.2904     -0.0030      0.3165      1.0562      1.0277      0.8825
   4340.5000     13.9400     70.0059    -30.5829    500.0000      0.2700     -0.0030      0.3341      1.0662      1.0374      0.9160
   4341.0000     13.8800     66.6766    -29.9842    500.0000      0.2627     -0.0039      0.3506      1.0667      1.0474      0.9324
   4341.5000     13.7800     65.1115    -29.3744    500.0000      0.2650     -0.0039      0.3600      1.0770      1.0672      0.9492
   4342.0000     13.7600     65.1165    -28.5646    500.0000      0.2710     -0.0068      0.3696      1.0873      1.0677      0.9665
   4342.5000     13.7400     65.7125    -27.9548    500.0000      0.2745     -0.0088      0.3744      1.0978      1.0779      0.9668
   4343.0000     13.7200     66.1125    -27.7449    500.0000      0.2697     -0.0057      0.3672      1.0983      1.0784      0.9585
   4343.5000     13.6800     65.1316    -27.7350    500.0000      0.2612     -0.0047      0.3529      1.0888      1.0789      0.9674
   4344.0000     13.7600     62.9634    -28.1230    500.0000      0.2503     -0.0046      0.3564      1.0893      1.0794      0.9677
   4344.5000     13.9200     58.0000    -28.7130    480.0000      0.2527     -0.0046      0.3576      1.0799      1.0701      0.9858
   4345.0000     13.9800     54.8000    -29.1031    480.0000      0.2562     -0.0055      0.3505      1.0804      1.0706      0.9953
   4345.5000     13.8600     52.0000    -29.6931    480.0000      0.2658     -0.0075      0.3386      1.0711      1.0517      1.0141
   4346.0000     13.7000     51.6000    -30.2809    480.0000      0.2777     -0.0064      0.3398      1.0716      1.0427      1.0238
   4346.5000     13.5400     54.8000    -30.8670    480.0000      0.2848     -0.0034      0.3481      1.0623      1.0243      1.0243
   4347.0000     13.4000     57.8000    -31.2555    480.0000      0.2788     -0.0013      0.3588      1.0726      1.0154      1.0247
   4347.5000     13.2800     60.0000    -31.2469    480.0000      0.2667      0.0027      0.3660      1.0829      1.0067      1.0252
   4348.0000     13.2200     62.5886    -31.2382    480.0000      0.2547      0.0068      0.3708      1.0735      0.9886      1.0164
   4348.5000     13.3400     64.5845    -30.8309    480.0000      0.2438      0.0118      0.3744      1.0643      0.9797      1.0168
   4349.0000     13.4000     66.5843    -30.4228    480.0000      0.2473      0.0129      0.3948      1.0551      0.9617      0.9801
   4349.5000     13.4600     65.1928    -29.8139    480.0000      0.2665      0.0089      0.4296      1.0460      0.9529      0.9173
   4350.0000     13.5000     61.9992    -29.8040    480.0000      0.2892      0.0040      0.4380      1.0276      0.9531      0.8601
   4350.5000     13.4394     59.1942    -30.0000    480.0000      0.3120      0.0000      0.4164      1.0184      0.9534      0.8073
   4351.0000     13.3384     56.5845    -30.4006    480.0000      0.3361     -0.0040      0.3949      1.0184      0.9536      0.7850
   4351.5000     13.2375     55.7748    -30.8020    480.0000      0.3445     -0.0080      0.3734      1.0184      0.9538      0.7925
   4352.0000     13.1763     56.3631    -31.2044    480.0000      0.3446     -0.0100      0.3770      1.0372      0.9813      0.8074
   4352.5000     13.1753     57.3534    -31.4066    500.0000      0.3362     -0.0110      0.3831      1.0659      1.0184      0.8301
   4353.0000     13.1744     57.7437    -31.4079    500.0000      0.3169     -0.0130      0.3651      1.1055      1.0562      0.8940
   4353.5000     13.1934     56.3340    -31.0066    520.0000      0.2880     -0.0140      0.3411      1.1362      1.0955      0.9725
   4354.0000     13.2724     55.5243    -30.6046    520.0000      0.2328     -0.0120      0.3242      1.1784      1.1466      1.0562
   4354.5000     13.4115     56.9146    -30.2017    540.0000      0.2316     -0.0110      0.3327      1.2222      1.2001      1.0000
   4355.0000     13.5505     59.7049    -29.6000    540.0000      0.2568     -0.0140      0.3509      1.2561      1.2111      0.8789
   4355.5000     13.5893     63.1266    -28.4000    560.0000      0.2868     -0.0180      0.3425      1.2561      1.2334      0.8792
   4356.0000     13.5683     65.1434    -28.0000    560.0000      0.2904     -0.0190      0.3304      1.2561      1.2334      0.9383
   4356.5000     13.5874     63.5182    -27.8000    560.0000      0.2844     -0.0200      0.3255      1.2447      1.2111      1.0092
   4357.0000     13.6264     62.9035    -27.6000    560.0000      0.2808     -0.0190      0.3316      1.2334      1.2111      1.0757
   4357.5000     13.6854     62.2877    -27.8000    560.0000      0.2856     -0.0180      0.3426      1.2334      1.2111      1.0855
   4358.0000     13.7445     61.6706    -28.0000    580.0000      0.2988     -0.0140      0.3488      1.2334      1.2222      1.0955
   4358.5000     13.8235     61.2557    -28.6000    640.0000      0.3073     -0.0050      0.3415      1.2334      1.2222      1.1259
   4359.0000     13.8223     63.0777    -29.0000    720.0000      0.2964      0.0130      0.3379      1.2447      1.2334      1.1571
   4359.5000     13.8414     64.9050    -29.0000    700.0000      0.2736      0.0300      0.3379      1.2561      1.2447      1.1892
   4360.0000     14.0004     65.5120    -28.2000    660.0000      0.2424      0.0500      0.3477      1.2792      1.2561      1.1466
   4360.5000     14.2245     65.3061    -27.4000    600.0000      0.2112      0.0600      0.3612      1.2909      1.2561      1.1157
   4361.0000     14.4490     65.5102    -26.4000    560.0000      0.1980      0.0540      0.3696      1.3028      1.2676      1.1055
   4361.5000     14.6327     66.7347    -25.6000    520.0000      0.2052      0.0380      0.3792      1.3267      1.2792      1.0955
   4362.0000     14.6531     69.7959    -25.0000    460.0000      0.2172      0.0160      0.3840      1.3389      1.3028      1.0955
   4362.5000     14.7143     72.4000    -24.4000    460.0000      0.2232      0.0090      0.3840      1.3389      1.3028      1.0855
   4363.0000     14.8571     74.8000    -23.8000    480.0000      0.2208      0.0050      0.3804      1.3389      1.3028      1.0757
   4363.5000     14.9592     75.4000    -23.2000    500.0000      0.2196      0.0030      0.3696      1.3389      1.3028      1.0955
   4364.0000     15.0400     74.6000    -22.8000    520.0000      0.2208      0.0000      0.3612      1.3512      1.3028      1.1157
   4364.5000     14.9592     73.0000    -22.2000    520.0000      0.2256     -0.0030      0.3527      1.3636      1.3028      1.1466
   4365.0000     14.8163     72.2000    -22.4000    540.0000      0.2292     -0.0040      0.3404      1.3760      1.3028      1.1571
   4365.5000     14.6327     73.2000    -22.2000    540.0000      0.2304     -0.0050      0.3465      1.3760      1.3028      1.1571
   4366.0000     14.6327     74.8000    -21.8000    520.0000      0.2304     -0.0040      0.3576      1.3760      1.3028      1.1466
   4366.5000     14.8163     76.0000    -21.8000    520.0000      0.2304     -0.0030      0.3720      1.3760      1.3028      1.1259
   4367.0000     15.0800     76.0000    -22.0000    520.0000      0.2304     -0.0030      0.3660      1.3760      1.3028      1.1157
   4367.5000     15.3000     75.8000    -22.0000    520.0000      0.2328     -0.0030      0.3612      1.3760      1.3028      1.1055
   4368.0000     14.9592     77.0000    -21.8000    540.0000      0.2352     -0.0050      0.3539      1.3760      1.3028      1.1055
   4368.5000     14.7143     79.6000    -21.4000    540.0000      0.2400     -0.0060      0.3588      1.3887      1.3028      1.1157
   4369.0000     14.7959     83.8000    -21.0000    560.0000      0.2460     -0.0090      0.3732      1.3887      1.3028      1.1259
