~Version Information
#Created by IHS Markit
VERS.      2.0                       : CWLS Log Ascii Standard - Version 2.0
WRAP.      NO                        : One line per depth step
CRTR.      IHS Markit                : File Creator
~Well Information
#MNEM.UNIT         DATA              : DESCRIPTION
#----.----     -------------         : -------------------
STRT.F      3912.0000                           : START DEPTH
STOP.F      6144.0000                           : STOP DEPTH
STEP.F         0.5000                           : DEPTH INCREMENT
NULL.        -999.2500                           : Null Value
COMP.      GOM SHELF LLC                         : Company
WELL.      OCSG03011 A006                        : Well Name
FLD .      MU A 16                               : Field
LOC .      RIG MAYRONNE 162                      : Location
CTRY.      UNITED STATES                         : Country
STAT.      TEXAS                                 : State
CNTY.      MUSTANG ISLAND                        : County
API .      427024017500                        : API Well Number
UWI .      427024017500                        : Unique Well ID
LIC .      G03011                                : Licence Number
TWP .                                            : Township
RGE .                                            : Range
SEC .                                            : Section
LAT .                                            : Latitude
LONG.                                            : Longitude
~Parameter Information
#MNEM.UNIT         DATA                DESCRIPTION
#----.----         -------           : -------------------
RUN .      1                                     : Run Number
PASS.                                            : Pass Number
DATE.      1989-09-11                            : Log Date
SRVC.      SCHLUMBERGER                          : Service Company
LSRV.      DITE/CND                              : Log Mnemonic
PDAT.      WL                                    : Permanent Datum Reference
EPD .F         0.0000                           : ELEVATION OF PERM. DATUM
EGL .F         0.0000                           : ELEVATION GROUND LEVEL
EKB .F       110.0000                           : ELEVATION KELLY BUSHING
EDF .F       109.0000                           : ELEVATION DERRICK FLOOR
APD .F       110.0000                           : ABOVE PERMANENT DATUM
LMF .      KB                                    : Log Measured From
EREF.F    110                                   : ELEVATION OF DEPTH REFERENCE
DMF .      KB                                    : Drilling Measured From
TDL .F      6109.0000                           : TOTAL DEPTH, LOGGER
TDD .F      6109.0000                           : TOTAL DEPTH, DRILLER
BLI .F      6094.0000                           : BOTTOM OF LOGGED INTERVAL
TLI .F      4073.0000                           : TOP OF LOGGED INTERVAL
CSGS1.IN        13.3750                           : Casing Size 1
CSGW1.LB/FT                                       : Casing Weight 1
CSGL1.F      4073.0000                           : CASING BOTTOM LOGGER 1
CSGD1.F      4083.0000                           : CASING BOTTOM DRILLER 1
CSGS2.IN         9.6250                           : Casing Size 2
CSGW2.LB/FT                                       : Casing Weight 2
CSGL2.F                                          : CASING BOTTOM LOGGER 2
CSGD2.F                                          : CASING BOTTOM DRILLER 2
BS1 .IN        12.2500                           : Bit Size 1
DDB1.F      6109.0000                           : BIT SIZE DEPTH 1
MUD .      UNICAL                                : Mud Type
MUDD.LB/GAL    10.8000                           : Mud Density
MUDV.S         38.0000                           : Mud Viscosity
FL  .CM3        6.8000                           : Fluid Loss
FLT .DEGF                                        : Fluid Loss Temperature
PH  .           9.5000                           : Mud PH
MUDS.      FLOWLINE                              : Mud Sample Location
RM  .OHMM       0.4180                           : Mud Resistivity
RMT .DEGF      74.0000                           : Mud Temperature
RMC .OHMM       0.7780                           : Mud Cake Resistivity
RMCT.DEGF      74.0000                           : Mud Cake Temperature
RMCS.      MEASURED                              : Mud Cake Source
RMF .OHMM       0.2690                           : Mud Filtrate Resistivity
RMFT.DEGF      74.0000                           : Mud Filtrate Temperature
RMFS.      MEASURED                              : Mud Filtrate Source
TMAX.DEGF     144.0000                           : Max Temperature
TIMC.      1989-09-11 22:30                      : Date Time Circulation Stopped
TIML.      1989-09-11 21:12                      : Date TIme Logger On Bottom
TSC .                                            : Time Since Circulation Stopped
UNIT.      506                                   : Unit Number
BASE.      CCOS                                  : Logging Unit Home Base
ENG .      WITKOWSKY                             : Recording Engineer
WIT .      POULIN                                : Witnessed By
DIGS.      IHS MARKIT                            : Digitizing Company
~Curve Information
#MNEM.UNIT         API  CODE                      : CURVE DESCRIPTION
#----.----        ------------                    : -----------------
 DEPT.F          00 001 00 00                    : MEASURED DEPTH
 CALR.IN          00 000 00 00                    : Caliper (Resistivity)
 GRR .GAPI        00 000 00 00                    : Gamma Ray Resistivity Device
 SP  .MV          00 000 00 00                    : Spontaneous Potential
 TENR.LB          00 000 00 00                    : Tension Resistivity Device
 DPSS.V/V         00 000 00 00                    : Density Porosity Sandstone
 DRHO.G/CM3       00 000 00 00                    : Density Correction
 NPSS.V/V         00 000 00 00                    : Neutron Porosity Sandstone
 IDPH.OHMM        00 000 00 00                    : Induction Deep Phasor Resistivity
 IMPH.OHMM        00 000 00 00                    : Induction Medium Phasor Resistivity
 SFL .OHMM        00 000 00 00                    : Spherically Focussed Log
~A    DEPT        CALR         GRR          SP        TENR        DPSS        DRHO        NPSS        IDPH        IMPH         SFL
# ...
   5925.0000     13.6295     66.7612     -0.3962    440.0000      0.1956      0.0020      0.3600      1.7443      1.6665      1.4938
   5925.5000     13.6505     67.3592     -0.3958    480.0000      0.2040      0.0010      0.3264      1.8091      1.6818      1.3760
   5926.0000     13.6515     67.9573     -0.3954    500.0000      0.2124     -0.0010      0.3036      1.8763      1.7443      1.3512
   5926.5000     13.5925     68.7515     -0.5926    500.0000      0.2256     -0.0020      0.2760      1.9284      1.8091      1.4402
   5927.0000     13.4535     68.3689     -0.9866    500.0000      0.2424     -0.0040      0.2592      2.0181      1.8935      1.5635
   5927.5000     13.1347     65.6330     -1.7742    500.0000      0.2580     -0.0050      0.2604      2.1111      1.9818      1.8091
   5928.0000     12.9142     62.8971     -2.3633    500.0000      0.2700     -0.0070      0.2736      2.0548      1.9818      1.9284
   5928.5000     12.7118     61.5359     -2.5578    500.0000      0.2532     -0.0070      0.2868      1.9638      1.9108      1.9284
   5929.0000     12.8348     64.2893     -2.9478    500.0000      0.2364     -0.0070      0.3048      1.9284      1.8257      1.8257
   5929.5000     12.9171     69.0058     -2.9450    500.0000      0.2208     -0.0070      0.3216      1.9284      1.7443      1.6818
   5930.0000     12.9792     74.5952     -2.7460    500.0000      0.2208     -0.0070      0.3360      1.9284      1.6665      1.4802
   5930.5000     13.0400     76.2000     -2.3544    500.0000      0.2328     -0.0060      0.3252      1.9284      1.6514      1.4402
   5931.0000     13.0600     73.2000     -1.9639    520.0000      0.2448     -0.0070      0.3048      1.8935      1.7443      1.5074
   5931.5000     13.0200     69.6078     -1.7692    520.0000      0.2580     -0.0090      0.2784      1.8763      1.8424      1.6215
   5932.0000     12.9187     65.0980     -1.5742    500.0000      0.2712     -0.0070      0.2676      1.8424      1.9460      1.7284
   5932.5000     12.8172     63.7255     -1.9696    500.0000      0.2628     -0.0050      0.2856      1.7764      1.9284      1.7284
   5933.0000     12.7159     66.6667     -2.1687    520.0000      0.2472     -0.0010      0.3132      1.7284      1.8257      1.6514
   5933.5000     12.5946     70.2000     -1.9735    520.0000      0.2304      0.0010      0.3480      1.6665      1.6972      1.5635
   5934.0000     12.5747     74.0000     -1.3828    540.0000      0.2148      0.0030      0.3696      1.6215      1.5635      1.4802
   5934.5000     12.6763     76.6000     -0.9887    540.0000      0.2100      0.0050      0.3816      1.5922      1.4534      1.4014
   5935.0000     12.8787     76.4000     -0.7917    580.0000      0.2160      0.0050      0.3852      1.5493      1.3760      1.3389
   5935.5000     13.0400     76.0000     -0.9906    580.0000      0.2280      0.0050      0.3744      1.5074      1.3760      1.2792
   5936.0000     13.0600     75.6000     -0.9918    600.0000      0.2364      0.0050      0.3624      1.4802      1.3760      1.2676
   5936.5000     13.0800     75.8000     -0.7942    600.0000      0.2364      0.0020      0.3528      1.4668      1.3760      1.2792
   5937.0000     13.0800     78.0000     -0.9937    600.0000      0.2328      0.0010      0.3480      1.4534      1.3760      1.3147
   5937.5000     13.0600     79.0000     -1.3926    580.0000      0.2304      0.0040      0.3396      1.4402      1.3636      1.3389
   5938.0000     13.0400     79.6000     -1.3939    560.0000      0.2340      0.0080      0.3288      1.4272      1.3267      1.3760
   5938.5000     13.0400     77.2000     -1.3953    560.0000      0.2388      0.0120      0.3276      1.4142      1.3028      1.3389
   5939.0000     13.0800     74.4000     -1.3967    580.0000      0.2328      0.0160      0.3480      1.3887      1.2676      1.2676
   5939.5000     13.2200     72.4000     -1.1983    580.0000      0.2184      0.0190      0.3660      1.3636      1.2447      1.2001
   5940.0000     13.3200     71.2000     -0.7997    580.0000      0.2040      0.0210      0.3804      1.3389      1.2222      1.1362
   5940.5000     13.4003     73.6059     -0.5996    560.0000      0.2088      0.0140      0.3936      1.3149      1.2002      1.0757
   5941.0000     13.4609     77.2157     -0.7987    520.0000      0.2148      0.0080      0.4104      1.2913      1.2003      1.0278
   5941.5000     13.4614     79.6255     -0.7979    520.0000      0.2148      0.0030      0.4212      1.2566      1.2005      0.9812
   5942.0000     13.4819     80.0353     -0.3986    500.0000      0.2004      0.0020      0.4212      1.2453      1.2006      0.9362
   5942.5000     13.4824     77.0451     -0.1991    500.0000      0.1836      0.0020      0.4068      1.2570      1.2118      0.9364
   5943.0000     13.4630     73.4569      0.2000    540.0000      0.1740      0.0020      0.3840      1.2572      1.2120      0.9815
   5943.5000     13.4834     71.0667      0.2000    560.0000      0.1848      0.0020      0.3780      1.2574      1.2233      1.0469
   5944.0000     13.4244     70.0765      0.2000    560.0000      0.2016     -0.0020      0.3924      1.2575      1.2234      1.1163
   5944.5000     13.3654     70.6863      0.0000    540.0000      0.2280     -0.0040      0.4068      1.2463      1.2124      1.2014
   5945.0000     13.2868     71.4961     -0.1981    500.0000      0.2508     -0.0030      0.4068      1.2350      1.2015      1.2015
   5945.5000     13.2084     71.7059     -0.7915    500.0000      0.2460      0.0000      0.3984      1.2352      1.2016      1.1798
   5946.0000     13.1894     71.9157     -1.3838    480.0000      0.2352      0.0050      0.3900      1.2241      1.1908      1.1478
   5946.5000     13.1902     71.9255     -1.9750    480.0000      0.2244      0.0090      0.3888      1.2130      1.1800      1.1065
   5947.0000     13.2501     71.3353     -2.3676    500.0000      0.2100      0.0090      0.3960      1.2132      1.1693      1.0764
   5947.5000     13.3890     70.7451     -1.9711    500.0000      0.2004      0.0090      0.4068      1.2134      1.1695      1.0765
   5948.0000     13.5274     71.9569     -1.3784    500.0000      0.1968      0.0050      0.4176      1.2247      1.1696      1.0865
   5948.5000     13.6656     72.9667     -0.9836    500.0000      0.1956      0.0030      0.4247      1.2249      1.1697      1.0865
   5949.0000     13.7249     73.5765     -0.3931    480.0000      0.1980      0.0020      0.4259      1.2364      1.1698      1.0766
   5949.5000     13.7055     74.3863      0.2000    480.0000      0.2004      0.0020      0.4235      1.2252      1.1918      1.0767
   5950.0000     13.7058     75.5961      0.4000    500.0000      0.2028      0.0020      0.4188      1.2254      1.1919      1.0767
   5950.5000     13.7063     77.0000      0.4058    500.0000      0.2076      0.0000      0.4152      1.2142      1.1810      1.0668
   5951.0000     13.6873     78.4000      0.4155    500.0000      0.2112     -0.0010      0.4115      1.2142      1.1810      1.0570
   5951.5000     13.7076     79.4000      0.8252    500.0000      0.2172     -0.0040      0.4066      1.2030      1.1701      1.0473
   5952.0000     13.6886     79.6000      0.8369    500.0000      0.2232     -0.0070      0.4054      1.2030      1.1701      1.0187
   5952.5000     13.6697     81.4000      0.8466    480.0000      0.2292     -0.0090      0.4221      1.1920      1.1594      0.9913
   5953.0000     13.6704     82.2000      0.6563    500.0000      0.2328     -0.0060      0.4291      1.1920      1.1594      0.9655
   5953.5000     13.7697     81.2000      0.4660    500.0000      0.2292      0.0010      0.4315      1.1920      1.1594      0.9655
   5954.0000     13.9087     79.4000      0.4757    500.0000      0.2232      0.0090      0.4255      1.1810      1.1487      0.9826
   5954.5000     14.0085     78.0000      0.4854    500.0000      0.2172      0.0110      0.4063      1.1920      1.1594      1.0377
   5955.0000     14.0491     76.6000      0.4951    500.0000      0.2136      0.0110      0.3942      1.2030      1.1701      1.1070
