~VERSION INFORMATION
VERS.                             2.0:   CWLS Log ASCII Standard-VERSION 2.0
WRAP.                              NO:   One line per depth step
~Well Information Block
STRT.F                      1302.0000:   Top Depth
STOP.F                     14644.0000:   Bottom Depth
STEP.F                         .50000:   Depth Increment
NULL.                        -999.250:   Null Value
FLD .                    MU BLK A 152:   Field Name
WELL.       OCSG04991   001 ST00 BP00:   NAME
API .                    427124006100:   WELL API
EDF .F                        94.0000:   ELEV DRILL FLOOR
COMP.            TRANSCO EXPL PROD CO:   OPERATOR
BN  .                           A 152:   BLOCK
CTRY.                             USA:   COUNTRY NAME
CNTY.                        M I E AD:   COUNTY NAME
EKB .F                        95.0000:   ELEV KELLY BUSHING
TDD .F                      14647.000:   FINAL TD DRILLER
STAT.                           TEXAS:   STATE NAME
UWI .                    427124006100:   WELL API
DICO.               IHS : Digitizing Company
~PARAMETER INFORMATION (zones)
#MNEM.UNIT                       Value     Description
#=========                       =====     ===========
#ZONATION                          DIL:   ZONATION NAME
#ZONE                            RUN_1:   ZONE NAME
TOP .                       1302.0000:   TOP DEPTH
BOT .                      14644.5000:   BOTTOM DEPTH
RUN .                               1:   RUN NUMBER
LCCD.                             440:   LOGGING CONTRACTOR
SRVC.                    Schlumberger:   LOGGING CONT NAME
DICO.          QC Data Collectors Ltd:   DIG COMPANY NAME
LDAT.                      11/20/1982:   DATE LOGGED
ELD .F                        95.0000:   LOG DATUM ELEVATION
TDD .F                      4095.0000:   TOTAL DEPTH DRILLER
TDL .F                      4095.0000:   TOTAL DEPTH LOGGER
BOTL.F                      4092.0000:   BOTTOM DEPTH LOGGED
TOPL.F                      1334.0000:   TOP DEPTH LOGGED
CS1 .IN                       20.0000:   CASING SIZE 1
BS1 .IN                       12.2500:   BIT SIZE 1
DDB1.F                      4095.0000:   DEPTH DRILLED BIT 1
BHF .                              99:   FLUID CODE
DPT .                   Miscellaneous:   DRILLING FLUID TYPE
MUDD.                          9.4000:   FLUID DENSITY
MUDV.                         43.0000:   FLUID VISCOSITY
DFPH.                         11.2000:   FLUID PH
RM  .OHMM                       .2800:   RM
RMT .DEGF                     70.0000:   RM TEMP
RMF .OHMM                       .2300:   RMF
RMFT.DEGF                     70.0000:   RMF TEMP
FSC .                               M:   RMF CODE
RMC .OHMM                       .4000:   RMC
RMCT.DEGF                     70.0000:   RMC TEMP
CMC .                               M:   RMC CODE
TMAX.DEGF                    178.0000:   MAX REC TEMP
TIMC.                          8.0000:   TIME SINCE CIRCLN
~PARAMETER INFORMATION (zones)
#MNEM.UNIT                       Value     Description
#=========                       =====     ===========
#ZONATION                          FDC:   ZONATION NAME
#ZONE                            RUN_3:   ZONE NAME
TOP .                       8480.0000:   TOP DEPTH
BOT .                      13304.0000:   BOTTOM DEPTH
RUN .                               3:   RUN NUMBER
LCCD.                             440:   LOGGING CONTRACTOR
SRVC.                    Schlumberger:   LOGGING CONT NAME
DICO.          QC Data Collectors Ltd:   DIG COMPANY NAME
LDAT.                      01/30/1983:   DATE LOGGED
ELD .F                        95.0000:   LOG DATUM ELEVATION
TDD .F                     13308.0000:   TOTAL DEPTH DRILLER
TDL .F                     13305.0000:   TOTAL DEPTH LOGGER
BOTL.F                     13304.0000:   BOTTOM DEPTH LOGGED
TOPL.F                      8480.0000:   TOP DEPTH LOGGED
CS1 .IN                       11.7500:   CASING SIZE 1
BS1 .IN                        9.8750:   BIT SIZE 1
DDB1.F                     13308.0000:   DEPTH DRILLED BIT 1
BHF .                              99:   FLUID CODE
DPT .                   Miscellaneous:   DRILLING FLUID TYPE
MUDD.                         15.6000:   FLUID DENSITY
MUDV.                         55.0000:   FLUID VISCOSITY
DFPH.                         10.7000:   FLUID PH
FL  .                          3.6000:   FLUID LOSS
RM  .OHMM                       .8600:   RM
RMT .DEGF                     70.0000:   RM TEMP
RMF .OHMM                       .4200:   RMF
RMFT.DEGF                     70.0000:   RMF TEMP
FSC .                               M:   RMF CODE
RMC .OHMM                      1.6700:   RMC
RMCT.DEGF                     70.0000:   RMC TEMP
CMC .                               M:   RMC CODE
TMAX.DEGF                    260.0000:   MAX REC TEMP
TIMC.                          8.5000:   TIME SINCE CIRCLN
~PARAMETER INFORMATION (zones)
#MNEM.UNIT                       Value     Description
#=========                       =====     ===========
#ZONATION                          FDC:   ZONATION NAME
#ZONE                            RUN_4:   ZONE NAME
TOP .                      12060.0000:   TOP DEPTH
BOT .                      14644.0000:   BOTTOM DEPTH
RUN .                               4:   RUN NUMBER
LCCD.                             440:   LOGGING CONTRACTOR
SRVC.                    Schlumberger:   LOGGING CONT NAME
DICO.          QC Data Collectors Ltd:   DIG COMPANY NAME
LDAT.                      02/16/1983:   DATE LOGGED
ELD .F                        95.0000:   LOG DATUM ELEVATION
TDD .F                     14641.0000:   TOTAL DEPTH DRILLER
TDL .F                     14647.0000:   TOTAL DEPTH LOGGER
BOTL.F                     14644.0000:   BOTTOM DEPTH LOGGED
TOPL.F                     12060.0000:   TOP DEPTH LOGGED
CS1 .IN                       11.7500:   CASING SIZE 1
BS1 .IN                        9.8750:   BIT SIZE 1
DDB1.F                     14641.0000:   DEPTH DRILLED BIT 1
BHF .                              99:   FLUID CODE
DPT .                   Miscellaneous:   DRILLING FLUID TYPE
MUDD.                         15.6000:   FLUID DENSITY
MUDV.                         55.0000:   FLUID VISCOSITY
DFPH.                         11.5000:   FLUID PH
FL  .                          3.2000:   FLUID LOSS
RM  .OHMM                       .6900:   RM
RMT .DEGF                     75.0000:   RM TEMP
RMF .OHMM                       .4400:   RMF
RMFT.DEGF                     75.0000:   RMF TEMP
FSC .                               M:   RMF CODE
RMC .OHMM                       .9400:   RMC
RMCT.DEGF                     75.0000:   RMC TEMP
CMC .                               M:   RMC CODE
TMAX.DEGF                    284.0000:   MAX REC TEMP
TIMC.                         13.0000:   TIME SINCE CIRCLN
~PARAMETER INFORMATION (zones)
#MNEM.UNIT                       Value     Description
#=========                       =====     ===========
#ZONATION                          FDC:   ZONATION NAME
#ZONE                            RUN_2:   ZONE NAME
TOP .                       3894.0000:   TOP DEPTH
BOT .                      14644.5000:   BOTTOM DEPTH
RUN .                               2:   RUN NUMBER
LCCD.                             440:   LOGGING CONTRACTOR
SRVC.                    Schlumberger:   LOGGING CONT NAME
DICO.          QC Data Collectors Ltd:   DIG COMPANY NAME
LDAT.                      12/10/1982:   DATE LOGGED
ELD .F                        95.0000:   LOG DATUM ELEVATION
TDD .F                      8594.0000:   TOTAL DEPTH DRILLER
TDL .F                      8592.0000:   TOTAL DEPTH LOGGER
BOTL.F                      8594.0000:   BOTTOM DEPTH LOGGED
TOPL.F                      4037.0000:   TOP DEPTH LOGGED
CS1 .IN                       16.0000:   CASING SIZE 1
BS1 .IN                       14.7500:   BIT SIZE 1
DDB1.F                      8594.0000:   DEPTH DRILLED BIT 1
BHF .                              99:   FLUID CODE
DPT .                   Miscellaneous:   DRILLING FLUID TYPE
MUDD.                         13.1000:   FLUID DENSITY
MUDV.                         45.0000:   FLUID VISCOSITY
DFPH.                         11.5000:   FLUID PH
FL  .                          3.0000:   FLUID LOSS
RM  .OHMM                       .7500:   RM
RMT .DEGF                     75.0000:   RM TEMP
RMF .OHMM                       .5500:   RMF
RMFT.DEGF                     75.0000:   RMF TEMP
FSC .                               M:   RMF CODE
RMC .OHMM                       .8000:   RMC
RMCT.DEGF                     75.0000:   RMC TEMP
CMC .                               M:   RMC CODE
TMAX.DEGF                    195.0000:   MAX REC TEMP
TIMC.                          7.0000:   TIME SINCE CIRCLN
~Curve Information Block
#MNEM.UNIT                    API CODE    No Description
#=========                    ========    == ===========
DEPT.F                   00 001 00 00:     1  DEPTH
CILD.MMHO                            :     2  Deep Induction Conductivity
DT.US/F                              :     3  Sonic Transit Time
GR.GAPI                              :     4  Gamma Ray
ILD.OHMM                             :     5  Deep Induction Resistivity
ILM.OHMM                             :     6  Medium Induction Resistivity
SFL.OHMM                             :     7  Medium Resistivity
SP.MV                                :     8  Spontaneous Potential
CALI.IN                              :     9  Caliper
GR.GAPI                              :    10  Gamma Ray
RHOB.G/C3                            :    11  Bulk Density
~ASCII
# ...
 9308.5000  2142.6836   131.8220  -999.2500      .4687      .4848      .5607     4.0420    23.0783    68.4087     2.3367
 9309.0000  2149.6914   132.3848  -999.2500      .4635      .4813      .5487     5.6624    23.0796    72.0114     2.3256
 9309.5000  2155.2383   132.3118  -999.2500      .4579      .4767      .5476     4.6522    23.0719    74.8807     2.3128
 9310.0000  2222.1875   131.9214  -999.2500      .4519      .4716      .5622     3.2448    23.0594    76.9973     2.3038
 9310.5000  2279.1875   131.5562  -999.2500      .4448      .4677      .6011     3.1869    23.0584    78.0435     2.2974
 9311.0000  2307.7031   132.4033  -999.2500      .4379      .4656      .5960     4.0854    23.0632    78.6631     2.2938
 9311.5000  2312.8320   133.0630  -999.2500      .4317      .4641      .5801     4.9356    23.0647    77.7942     2.2924
 9312.0000  2317.9609   133.7224  -999.2500      .4277      .4654      .5619     5.7231    23.0625    76.6283     2.2956
 9312.5000  2333.2656   133.6992  -999.2500      .4268      .4669      .5816     6.0306    23.0602    75.8082     2.3000
 9313.0000  2357.6953   133.5698  -999.2500      .4251      .4671      .5949     5.3902    23.0592    75.0592     2.3005
 9313.5000  2379.5625   133.4897  -999.2500      .4228      .4654      .5945     4.7125    23.0659    75.6506     2.2999
 9314.0000  2395.6055   133.4089  -999.2500      .4206      .4610      .5921     4.0347    23.0726    76.5269     2.2994
 9314.5000  2404.7578   133.3103  -999.2500      .4187      .4526      .5922     3.9324    23.0787    77.4569     2.2972
 9315.0000  2402.0703   133.2117  -999.2500      .4178      .4504      .5994     4.4942    23.0829    76.8165     2.2928
 9315.5000  2391.3398   132.6765  -999.2500      .4171      .4525      .6129     5.1708    23.0844    74.5190     2.2874
 9316.0000  2372.3711   132.1133  -999.2500      .4191      .4555      .6245     5.2503    23.0856    73.3141     2.2857
 9316.5000  2347.3555   131.2661  -999.2500      .4214      .4623      .6344     4.8005    23.0869    72.9083     2.2904
 9317.0000  2316.1484   130.4553  -999.2500      .4265      .4687      .6421     4.9115    23.0882    74.3967     2.2991
 9317.5000  2291.4297   130.0117  -999.2500      .4320      .4697      .6481     5.2090    23.0894    75.9097     2.3100
 9318.0000  2273.5742   129.9202  -999.2500      .4356      .4715      .6437     4.8946    23.0787    77.2319     2.3189
 9318.5000  2271.4531   129.9185  -999.2500      .4386      .4726      .6186     4.2922    23.0758    73.9568     2.3255
 9319.0000  2279.4219   130.0435  -999.2500      .4425      .4706      .6147     3.7778    23.0687    70.9506     2.3303
 9319.5000  2292.5977   130.3208  -999.2500      .4418      .4672      .6136     3.6926    23.0617    68.8314     2.3254
 9320.0000  2319.3203   131.0601  -999.2500      .4395      .4648      .5899     4.5629    23.0547    68.1117     2.3178
 9320.5000  2322.7930   131.8938  -999.2500      .4337      .4631      .5621     5.5024    23.0576    69.1920     2.3096
 9321.0000  2320.8477   132.4041  -999.2500      .4280      .4613      .5421     5.1279    23.0632    70.2723     2.3012
 9321.5000  2318.8945   132.4312  -999.2500      .4265      .4590      .5569     5.0138    23.0688    71.2732     2.2964
 9322.0000  2333.4102   132.5857  -999.2500      .4254      .4566      .5766     5.1177    23.0771    72.1958     2.2960
 9322.5000  2354.9375   133.0178  -999.2500      .4247      .4560      .5949     5.4264    23.0858    74.5239     2.3002
 9323.0000  2365.4961   133.4597  -999.2500      .4240      .4556      .5954     4.1553    23.0906    76.4083     2.3025
 9323.5000  2375.8672   133.9016  -999.2500      .4232      .4552      .5892     3.1327    23.0936    76.2030     2.3010
 9324.0000  2381.0859   134.1299  -999.2500      .4223      .4551      .5817     2.8001    23.0966    74.3308     2.3002
 9324.5000  2386.2617   134.2549  -999.2500      .4214      .4549      .5777     3.0188    23.0966    73.3568     2.3013
 9325.0000  2388.2422   134.1655  -999.2500      .4205      .4535      .5829     2.9746    23.0966    73.9948     2.3061
 9325.5000  2390.2187   133.9199  -999.2500      .4197      .4512      .5895     3.0244    23.0959    75.2865     2.3028
 9326.0000  2390.6875   133.7485  -999.2500      .4198      .4501      .5901     3.6452    23.0944    76.5256     2.2917
 9326.5000  2390.9570   133.6182  -999.2500      .4210      .4493      .5898     4.4880    23.0929    75.8975     2.2838
 9327.0000  2389.5508   133.5066  -999.2500      .4226      .4494      .5937     3.9937    23.0961    75.6604     2.2834
 9327.5000  2384.6523   133.3992  -999.2500      .4239      .4496      .5982     3.3919    23.0995    76.5037     2.2938
 9328.0000  2374.5898   133.3271  -999.2500      .4251      .4526      .6065     3.0452    23.0936    77.2130     2.3059
 9328.5000  2360.2305   133.3228  -999.2500      .4263      .4554      .6135     3.2183    23.0863    76.1859     2.3125
 9329.0000  2340.2852   133.5146  -999.2500      .4274      .4578      .6075     3.6108    23.0810    74.4628     2.3008
 9329.5000  2320.3672   133.5320  -999.2500      .4285      .4597      .5993     3.9084    23.0826    72.8839     2.2948
 9330.0000  2308.6172   133.4431  -999.2500      .4292      .4602      .5948     3.5891    23.0841    72.0638     2.2920
 9330.5000  2308.7148   133.3354  -999.2500      .4300      .4607      .5943     3.0458    23.0876    71.6814     2.2971
 9331.0000  2326.5859   133.3591  -999.2500      .4304      .4610      .5948     3.0708    23.0916    72.3889     2.3025
 9331.5000  2344.4297   133.5227  -999.2500      .4299      .4603      .5941     3.2056    23.0955    73.1368     2.2920
 9332.0000  2353.0742   133.7144  -999.2500      .4294      .4595      .5881     3.1634    23.0961    74.1255     2.2812
 9332.5000  2361.5352   133.9116  -999.2500      .4281      .4588      .5772     2.8740    23.0936    72.7910     2.2727
 9333.0000  2369.9922   134.1082  -999.2500      .4268      .4570      .5674     2.6271    23.0959    71.5359     2.2753
 9333.5000  2375.3867   134.1223  -999.2500      .4247      .4551      .5696     2.5478    23.0931    72.1384     2.2791
 9334.0000  2380.1523   134.1365  -999.2500      .4224      .4531      .5846     4.1963    23.0851    76.1321     2.2766
 9334.5000  2384.3359   133.7991  -999.2500      .4202      .4519      .5988     5.7472    23.0771    79.2753     2.2734
 9335.0000  2387.5430   133.4421  -999.2500      .4187      .4510      .6079     5.2142    23.0708    77.8040     2.2704
 9335.5000  2382.3438   133.2048  -999.2500      .4221      .4511      .6085     3.9093    23.0677    75.5602     2.2708
 9336.0000  2368.4453   133.1714  -999.2500      .4249      .4524      .6074     3.5012    23.0645    73.5217     2.2737
 9336.5000  2352.1367   133.4031  -999.2500      .4266      .4536      .6058     4.9850    23.0614    72.0944     2.2791
 9337.0000  2333.9727   133.6023  -999.2500      .4281      .4541      .6044     5.1756    23.0583    70.7965     2.2826
 9337.5000  2321.9531   133.7134  -999.2500      .4292      .4546      .6038     4.5949    23.0551    69.5989     2.2837
 9338.0000  2317.3086   133.8245  -999.2500      .4303      .4553      .6034     4.5183    23.0517    69.6429     2.2822
 9338.5000  2317.7773   133.9358  -999.2500      .4308      .4561      .6045     4.6908    23.0483    71.4540     2.2794
 9339.0000  2318.2773   133.9687  -999.2500      .4312      .4569      .6055     2.5996    23.0449    71.8406     2.2769
 9339.5000  2318.9922   133.9255  -999.2500      .4307      .4574      .6060     1.2899    23.0415    71.2659     2.2770
 9340.0000  2320.8477   133.9199  -999.2500      .4294      .4581      .5938     3.4100    23.0411    70.5864     2.2885
 9340.5000  2325.4063   133.9292  -999.2500      .4281      .4599      .5771     4.8379    23.0427    71.0435     2.3031
 9341.0000  2333.3359   133.7622  -999.2500      .4268      .4607      .5776     4.3368    23.0443    72.7935     2.3196
 9341.5000  2352.7930   133.9275  -999.2500      .4254      .4579      .5850     4.1176    23.0458    76.2642     2.3288
