~VERSION INFORMATION
VERS.                             2.0:   CWLS Log ASCII Standard-VERSION 2.0
WRAP.                              NO:   One line per depth step
~Well Information Block
STRT.F                      1319.0000:   Top Depth
STOP.F                      7911.0000:   Bottom Depth
STEP.F                         .50000:   Depth Increment
NULL.                        -999.250:   Null Value
FLD .                    MU BLK A 167:   Field Name
WELL.       OCSG08096   001 ST00 BP00:   NAME
API .                    427124009800:   WELL API
EDF .F                        84.0000:   ELEV DRILL FLOOR
COMP.         UNION PACIFIC RESOURCES:   OPERATOR
BN  .                           A 167:   BLOCK
CTRY.                             USA:   COUNTRY NAME
CNTY.                        M I E AD:   COUNTY NAME
EKB .F                        85.0000:   ELEV KELLY BUSHING
TDD .F                       7913.000:   FINAL TD DRILLER
STAT.                           TEXAS:   STATE NAME
UWI .                    427124009800:   WELL API
DICO.               IHS : Digitizing Company
~PARAMETER INFORMATION (zones)
#MNEM.UNIT                       Value     Description
#=========                       =====     ===========
#ZONATION                          DIL:   ZONATION NAME
#ZONE                            RUN_2:   ZONE NAME
TOP .                       4520.0000:   TOP DEPTH
BOT .                       7911.0000:   BOTTOM DEPTH
RUN .                               2:   RUN NUMBER
LCCD.                             440:   LOGGING CONTRACTOR
SRVC.                    Schlumberger:   LOGGING CONT NAME
DICO.          QC Data Collectors Ltd:   DIG COMPANY NAME
LDAT.                      05/30/1988:   DATE LOGGED
ELD .F                        85.0000:   LOG DATUM ELEVATION
TDD .F                      7904.0000:   TOTAL DEPTH DRILLER
TDL .F                      7913.0000:   TOTAL DEPTH LOGGER
BOTL.F                      7911.0000:   BOTTOM DEPTH LOGGED
TOPL.F                      4520.0000:   TOP DEPTH LOGGED
CS1 .IN                       13.3750:   CASING SIZE 1
BS1 .IN                       12.2500:   BIT SIZE 1
DDB1.F                      7904.0000:   DEPTH DRILLED BIT 1
BHF .                              80:   FLUID CODE
DPT .                      Salt Water:   DRILLING FLUID TYPE
MUDD.                         13.3000:   FLUID DENSITY
MUDV.                         44.0000:   FLUID VISCOSITY
DFPH.                          9.6000:   FLUID PH
FL  .                         11.9000:   FLUID LOSS
RM  .OHMM                       .2330:   RM
RMT .DEGF                     75.0000:   RM TEMP
RMF .OHMM                       .1510:   RMF
RMFT.DEGF                     75.0000:   RMF TEMP
FSC .                               M:   RMF CODE
RMC .OHMM                       .4890:   RMC
RMCT.DEGF                     75.0000:   RMC TEMP
CMC .                               M:   RMC CODE
TMAX.DEGF                    182.0000:   MAX REC TEMP
TIMC.                         10.7500:   TIME SINCE CIRCLN
~PARAMETER INFORMATION (zones)
#MNEM.UNIT                       Value     Description
#=========                       =====     ===========
#ZONATION                          DIL:   ZONATION NAME
#ZONE                            RUN_1:   ZONE NAME
TOP .                       1319.0000:   TOP DEPTH
BOT .                       7911.5000:   BOTTOM DEPTH
RUN .                               1:   RUN NUMBER
LCCD.                             440:   LOGGING CONTRACTOR
SRVC.                    Schlumberger:   LOGGING CONT NAME
DICO.          QC Data Collectors Ltd:   DIG COMPANY NAME
LDAT.                      05/21/1988:   DATE LOGGED
ELD .F                        85.0000:   LOG DATUM ELEVATION
TDD .F                      4550.0000:   TOTAL DEPTH DRILLER
TDL .F                      4551.0000:   TOTAL DEPTH LOGGER
BOTL.F                      4549.0000:   BOTTOM DEPTH LOGGED
TOPL.F                      1394.0000:   TOP DEPTH LOGGED
CS1 .IN                       20.0000:   CASING SIZE 1
BS1 .IN                       17.5000:   BIT SIZE 1
DDB1.F                      4550.0000:   DEPTH DRILLED BIT 1
BHF .                              80:   FLUID CODE
DPT .                      Salt Water:   DRILLING FLUID TYPE
MUDD.                         10.0000:   FLUID DENSITY
MUDV.                         38.0000:   FLUID VISCOSITY
DFPH.                          8.4000:   FLUID PH
FL  .                            NULL:   FLUID LOSS
RM  .OHMM                       .3040:   RM
RMT .DEGF                     82.0000:   RM TEMP
RMF .OHMM                       .2310:   RMF
RMFT.DEGF                     82.0000:   RMF TEMP
FSC .                               M:   RMF CODE
RMC .OHMM                       .4210:   RMC
RMCT.DEGF                     82.0000:   RMC TEMP
CMC .                               M:   RMC CODE
TMAX.DEGF                    130.0000:   MAX REC TEMP
TIMC.                          5.0000:   TIME SINCE CIRCLN
~Curve Information Block
#MNEM.UNIT                    API CODE    No Description
#=========                    ========    == ===========
DEPT.F                   00 001 00 00:     1  DEPTH
DCAL.IN                              :     2  Differential Caliper
DT.US/F                              :     3  Sonic Transit Time
GR.GAPI                              :     4  Gamma Ray
ILD.OHMM                             :     5  Deep Induction Resistivity
ILM.OHMM                             :     6  Medium Induction Resistivity
SFL.OHMM                             :     7  Medium Resistivity
SP.MV                                :     8  Spontaneous Potential
~ASCII
# ...
 2274.5000  -999.2500   161.1252    73.1940      .8190      .7300      .7954   -61.5188
 2275.0000  -999.2500   160.8638    75.1703      .8170      .7303      .7976   -61.6574
 2275.5000  -999.2500   160.7329    75.8854      .8165      .7281      .7946   -61.8073
 2276.0000  -999.2500   161.0168    74.1232      .8108      .7237      .7911   -61.9083
 2276.5000  -999.2500   162.0051    71.0220      .8040      .7198      .7881   -61.9055
 2277.0000  -999.2500   162.8696    68.4243      .7975      .7159      .7851   -61.7311
 2277.5000  -999.2500   163.1309    66.7712      .7899      .7116      .7792   -61.5394
 2278.0000  -999.2500   163.3279    66.8788      .7826      .7056      .7719   -61.4581
 2278.5000  -999.2500   163.6526    68.7354      .7806      .6979      .7613   -61.7215
 2279.0000  -999.2500   163.7454    69.7799      .7769      .6913      .7517   -61.7354
 2279.5000  -999.2500   163.5774    67.4883      .7709      .6870      .7454   -61.6746
 2280.0000  -999.2500   163.2996    65.6691      .7652      .6855      .7405   -61.5869
 2280.5000  -999.2500   162.9583    65.1200      .7597      .6851      .7384   -61.4743
 2281.0000  -999.2500   162.7607    66.0835      .7608      .6864      .7430   -61.4031
 2281.5000  -999.2500   162.5928    65.8727      .7589      .6874      .7490   -61.3124
 2282.0000  -999.2500   162.4644    65.6718      .7549      .6840      .7501   -61.2625
 2282.5000  -999.2500   162.3992    67.4584      .7516      .6796      .7409   -61.2864
 2283.0000  -999.2500   162.4075    68.0317      .7482      .6767      .7339   -61.2269
 2283.5000  -999.2500   162.5645    64.8632      .7440      .6772      .7304   -61.2413
 2284.0000  -999.2500   162.9177    63.6699      .7408      .6782      .7311   -61.2090
 2284.5000  -999.2500   163.3037    63.7695      .7398      .6802      .7339   -61.2000
 2285.0000  -999.2500   163.6997    62.6950      .7406      .6802      .7412   -61.2079
 2285.5000  -999.2500   164.1567    62.1178      .7444      .6801      .7489   -61.2316
 2286.0000  -999.2500   164.5386    63.4073      .7462      .6813      .7518   -61.2963
 2286.5000  -999.2500   164.7378    65.3091      .7446      .6799      .7508   -61.3762
 2287.0000  -999.2500   164.6558    64.2063      .7432      .6784      .7486   -61.3664
 2287.5000  -999.2500   164.3254    60.1728      .7422      .6782      .7455   -61.2717
 2288.0000  -999.2500   164.0205    59.3763      .7407      .6761      .7404   -61.1154
 2288.5000  -999.2500   163.6863    62.0587      .7368      .6747      .7378   -61.0129
 2289.0000  -999.2500   163.1897    65.6123      .7329      .6727      .7381   -60.9215
 2289.5000  -999.2500   162.2065    67.1698      .7314      .6697      .7372   -60.8385
 2290.0000  -999.2500   161.1604    64.2450      .7301      .6698      .7382   -60.7556
 2290.5000  -999.2500   160.3586    61.2473      .7326      .6708      .7424   -60.6585
 2291.0000  -999.2500   159.6321    59.5455      .7376      .6734      .7488   -60.5468
 2291.5000  -999.2500   159.3630    60.9307      .7448      .6765      .7561   -60.4011
 2292.0000  -999.2500   159.5652    63.0203      .7578      .6824      .7651   -60.2879
 2292.5000  -999.2500   159.5796    63.9984      .7728      .6951      .7763   -60.2124
 2293.0000  -999.2500   159.1938    63.2977      .7905      .7165      .7917   -60.2282
 2293.5000  -999.2500   158.4387    61.6841      .8101      .7410      .8129   -60.3080
 2294.0000  -999.2500   157.3994    60.2345      .8334      .7632      .8362   -60.4288
 2294.5000  -999.2500   156.7078    60.0319      .8506      .7703      .8536   -60.4938
 2295.0000  -999.2500   156.3972    62.3802      .8495      .7734      .8557   -60.5325
 2295.5000  -999.2500   156.3169    64.3315      .8483      .7758      .8442   -60.5451
 2296.0000  -999.2500   156.7627    64.9471      .8372      .7749      .8359   -60.5835
 2296.5000  -999.2500   158.1362    64.0250      .8252      .7667      .8330   -60.6161
 2297.0000  -999.2500   159.8252    62.8290      .8103      .7528      .8232   -60.5810
 2297.5000  -999.2500   160.6775    63.1213      .7995      .7368      .8113   -60.5921
 2298.0000  -999.2500   161.1272    64.7610      .7916      .7242      .8004   -60.6029
 2298.5000  -999.2500   161.3223    65.4294      .7833      .7150      .7908   -60.6082
 2299.0000  -999.2500   161.5149    63.3201      .7751      .7098      .7845   -60.6211
 2299.5000  -999.2500   161.7317    62.0255      .7699      .7070      .7819   -60.5131
 2300.0000  -999.2500   161.7993    62.9075      .7649      .7022      .7798   -60.4123
 2300.5000  -999.2500   161.6658    64.9252      .7642      .7007      .7770   -60.3598
 2301.0000  -999.2500   161.5085    65.1196      .7639      .7013      .7761   -60.3516
 2301.5000  -999.2500   161.3523    63.2653      .7658      .7036      .7756   -60.3934
 2302.0000  -999.2500   160.9231    60.6016      .7681      .7048      .7757   -60.4501
 2302.5000  -999.2500   160.3892    59.8334      .7678      .7061      .7771   -60.5154
 2303.0000  -999.2500   160.0269    60.7418      .7658      .7053      .7775   -60.6277
 2303.5000  -999.2500   159.8047    62.5698      .7643      .7043      .7828   -60.7346
 2304.0000  -999.2500   159.7241    64.1796      .7641      .7034      .7878   -60.8212
 2304.5000  -999.2500   159.6453    64.7523      .7639      .7029      .7907   -60.9249
 2305.0000  -999.2500   159.6492    63.1550      .7643      .7040      .7908   -61.0428
 2305.5000  -999.2500   159.8901    62.3155      .7648      .7042      .7921   -61.1248
 2306.0000  -999.2500   160.8811    61.6589      .7631      .7061      .7946   -61.1213
 2306.5000  -999.2500   161.9983    60.2239      .7615      .7091      .7926   -61.1387
 2307.0000  -999.2500   162.3870    58.6680      .7679      .7171      .7889   -61.1509
 2307.5000  -999.2500   161.8491    59.4922      .7749      .7364      .8043   -61.1780
 2308.0000  -999.2500   160.3906    63.9758      .7869      .7579      .8206   -61.2555
 2308.5000  -999.2500   158.4524    66.8090      .8030      .7780      .8360   -61.2742
 2309.0000  -999.2500   156.3350    68.7787      .8215      .7921      .8461   -61.2732
 2309.5000  -999.2500   154.3723    69.0908      .8355      .7980      .8511   -61.3117
 2310.0000  -999.2500   152.2932    67.6565      .8765      .7991      .8539   -61.3192
 2310.5000  -999.2500   150.6687    64.3945      .8836      .7992      .8526   -61.1112
 2311.0000  -999.2500   151.0278    59.9272      .8881      .7993      .8427   -60.6062
 2311.5000  -999.2500   152.5293    60.8197      .8850      .7976      .8168   -60.3862
 2312.0000  -999.2500   154.2546    61.5859      .8790      .7922      .7948   -60.3810
 2312.5000  -999.2500   156.1885    60.8746      .8677      .7816      .7847   -60.4363
 2313.0000  -999.2500   158.0879    58.8870      .8503      .7686      .7837   -60.6008
 2313.5000  -999.2500   159.8796    58.4519      .8326      .7548      .7911   -60.9224
 2314.0000  -999.2500   161.7483    57.8939      .8174      .7393      .7982   -61.3906
 2314.5000  -999.2500   163.0823    56.3243      .8052      .7278      .8021   -61.5164
 2315.0000  -999.2500   163.8638    55.2589      .7956      .7205      .8022   -61.6002
 2315.5000  -999.2500   164.4836    54.5667      .7866      .7158      .7999   -61.6212
 2316.0000  -999.2500   164.8965    54.5134      .7783      .7146      .7926   -61.6010
 2316.5000  -999.2500   165.0010    57.1813      .7701      .7136      .7832   -61.5415
 2317.0000  -999.2500   164.8140    60.0793      .7624      .7128      .7740   -61.4572
 2317.5000  -999.2500   164.1877    62.5298      .7548      .7129      .7695   -61.3514
 2318.0000  -999.2500   162.8970    64.8632      .7532      .7175      .7694   -61.2535
 2318.5000  -999.2500   161.3169    64.2682      .7525      .7219      .7712   -61.1682
 2319.0000  -999.2500   159.8948    62.4775      .7546      .7260      .7754   -61.0535
 2319.5000  -999.2500   158.5688    61.7924      .7594      .7310      .7805   -60.7365
