~VERSION INFORMATION
VERS.                             2.0:   CWLS Log ASCII Standard-VERSION 2.0
WRAP.                              NO:   One line per depth step
~Well Information Block
STRT.F                      1302.0000:   Top Depth
STOP.F                     14644.0000:   Bottom Depth
STEP.F                         .50000:   Depth Increment
NULL.                        -999.250:   Null Value
FLD .                    MU BLK A 152:   Field Name
WELL.       OCSG04991   001 ST00 BP00:   NAME
API .                    427124006100:   WELL API
EDF .F                        94.0000:   ELEV DRILL FLOOR
COMP.            TRANSCO EXPL PROD CO:   OPERATOR
BN  .                           A 152:   BLOCK
CTRY.                             USA:   COUNTRY NAME
CNTY.                        M I E AD:   COUNTY NAME
EKB .F                        95.0000:   ELEV KELLY BUSHING
TDD .F                      14647.000:   FINAL TD DRILLER
STAT.                           TEXAS:   STATE NAME
UWI .                    427124006100:   WELL API
DICO.               IHS : Digitizing Company
~PARAMETER INFORMATION (zones)
#MNEM.UNIT                       Value     Description
#=========                       =====     ===========
#ZONATION                          DIL:   ZONATION NAME
#ZONE                            RUN_1:   ZONE NAME
TOP .                       1302.0000:   TOP DEPTH
BOT .                      14644.5000:   BOTTOM DEPTH
RUN .                               1:   RUN NUMBER
LCCD.                             440:   LOGGING CONTRACTOR
SRVC.                    Schlumberger:   LOGGING CONT NAME
DICO.          QC Data Collectors Ltd:   DIG COMPANY NAME
LDAT.                      11/20/1982:   DATE LOGGED
ELD .F                        95.0000:   LOG DATUM ELEVATION
TDD .F                      4095.0000:   TOTAL DEPTH DRILLER
TDL .F                      4095.0000:   TOTAL DEPTH LOGGER
BOTL.F                      4092.0000:   BOTTOM DEPTH LOGGED
TOPL.F                      1334.0000:   TOP DEPTH LOGGED
CS1 .IN                       20.0000:   CASING SIZE 1
BS1 .IN                       12.2500:   BIT SIZE 1
DDB1.F                      4095.0000:   DEPTH DRILLED BIT 1
BHF .                              99:   FLUID CODE
DPT .                   Miscellaneous:   DRILLING FLUID TYPE
MUDD.                          9.4000:   FLUID DENSITY
MUDV.                         43.0000:   FLUID VISCOSITY
DFPH.                         11.2000:   FLUID PH
RM  .OHMM                       .2800:   RM
RMT .DEGF                     70.0000:   RM TEMP
RMF .OHMM                       .2300:   RMF
RMFT.DEGF                     70.0000:   RMF TEMP
FSC .                               M:   RMF CODE
RMC .OHMM                       .4000:   RMC
RMCT.DEGF                     70.0000:   RMC TEMP
CMC .                               M:   RMC CODE
TMAX.DEGF                    178.0000:   MAX REC TEMP
TIMC.                          8.0000:   TIME SINCE CIRCLN
~PARAMETER INFORMATION (zones)
#MNEM.UNIT                       Value     Description
#=========                       =====     ===========
#ZONATION                          FDC:   ZONATION NAME
#ZONE                            RUN_3:   ZONE NAME
TOP .                       8480.0000:   TOP DEPTH
BOT .                      13304.0000:   BOTTOM DEPTH
RUN .                               3:   RUN NUMBER
LCCD.                             440:   LOGGING CONTRACTOR
SRVC.                    Schlumberger:   LOGGING CONT NAME
DICO.          QC Data Collectors Ltd:   DIG COMPANY NAME
LDAT.                      01/30/1983:   DATE LOGGED
ELD .F                        95.0000:   LOG DATUM ELEVATION
TDD .F                     13308.0000:   TOTAL DEPTH DRILLER
TDL .F                     13305.0000:   TOTAL DEPTH LOGGER
BOTL.F                     13304.0000:   BOTTOM DEPTH LOGGED
TOPL.F                      8480.0000:   TOP DEPTH LOGGED
CS1 .IN                       11.7500:   CASING SIZE 1
BS1 .IN                        9.8750:   BIT SIZE 1
DDB1.F                     13308.0000:   DEPTH DRILLED BIT 1
BHF .                              99:   FLUID CODE
DPT .                   Miscellaneous:   DRILLING FLUID TYPE
MUDD.                         15.6000:   FLUID DENSITY
MUDV.                         55.0000:   FLUID VISCOSITY
DFPH.                         10.7000:   FLUID PH
FL  .                          3.6000:   FLUID LOSS
RM  .OHMM                       .8600:   RM
RMT .DEGF                     70.0000:   RM TEMP
RMF .OHMM                       .4200:   RMF
RMFT.DEGF                     70.0000:   RMF TEMP
FSC .                               M:   RMF CODE
RMC .OHMM                      1.6700:   RMC
RMCT.DEGF                     70.0000:   RMC TEMP
CMC .                               M:   RMC CODE
TMAX.DEGF                    260.0000:   MAX REC TEMP
TIMC.                          8.5000:   TIME SINCE CIRCLN
~PARAMETER INFORMATION (zones)
#MNEM.UNIT                       Value     Description
#=========                       =====     ===========
#ZONATION                          FDC:   ZONATION NAME
#ZONE                            RUN_4:   ZONE NAME
TOP .                      12060.0000:   TOP DEPTH
BOT .                      14644.0000:   BOTTOM DEPTH
RUN .                               4:   RUN NUMBER
LCCD.                             440:   LOGGING CONTRACTOR
SRVC.                    Schlumberger:   LOGGING CONT NAME
DICO.          QC Data Collectors Ltd:   DIG COMPANY NAME
LDAT.                      02/16/1983:   DATE LOGGED
ELD .F                        95.0000:   LOG DATUM ELEVATION
TDD .F                     14641.0000:   TOTAL DEPTH DRILLER
TDL .F                     14647.0000:   TOTAL DEPTH LOGGER
BOTL.F                     14644.0000:   BOTTOM DEPTH LOGGED
TOPL.F                     12060.0000:   TOP DEPTH LOGGED
CS1 .IN                       11.7500:   CASING SIZE 1
BS1 .IN                        9.8750:   BIT SIZE 1
DDB1.F                     14641.0000:   DEPTH DRILLED BIT 1
BHF .                              99:   FLUID CODE
DPT .                   Miscellaneous:   DRILLING FLUID TYPE
MUDD.                         15.6000:   FLUID DENSITY
MUDV.                         55.0000:   FLUID VISCOSITY
DFPH.                         11.5000:   FLUID PH
FL  .                          3.2000:   FLUID LOSS
RM  .OHMM                       .6900:   RM
RMT .DEGF                     75.0000:   RM TEMP
RMF .OHMM                       .4400:   RMF
RMFT.DEGF                     75.0000:   RMF TEMP
FSC .                               M:   RMF CODE
RMC .OHMM                       .9400:   RMC
RMCT.DEGF                     75.0000:   RMC TEMP
CMC .                               M:   RMC CODE
TMAX.DEGF                    284.0000:   MAX REC TEMP
TIMC.                         13.0000:   TIME SINCE CIRCLN
~PARAMETER INFORMATION (zones)
#MNEM.UNIT                       Value     Description
#=========                       =====     ===========
#ZONATION                          FDC:   ZONATION NAME
#ZONE                            RUN_2:   ZONE NAME
TOP .                       3894.0000:   TOP DEPTH
BOT .                      14644.5000:   BOTTOM DEPTH
RUN .                               2:   RUN NUMBER
LCCD.                             440:   LOGGING CONTRACTOR
SRVC.                    Schlumberger:   LOGGING CONT NAME
DICO.          QC Data Collectors Ltd:   DIG COMPANY NAME
LDAT.                      12/10/1982:   DATE LOGGED
ELD .F                        95.0000:   LOG DATUM ELEVATION
TDD .F                      8594.0000:   TOTAL DEPTH DRILLER
TDL .F                      8592.0000:   TOTAL DEPTH LOGGER
BOTL.F                      8594.0000:   BOTTOM DEPTH LOGGED
TOPL.F                      4037.0000:   TOP DEPTH LOGGED
CS1 .IN                       16.0000:   CASING SIZE 1
BS1 .IN                       14.7500:   BIT SIZE 1
DDB1.F                      8594.0000:   DEPTH DRILLED BIT 1
BHF .                              99:   FLUID CODE
DPT .                   Miscellaneous:   DRILLING FLUID TYPE
MUDD.                         13.1000:   FLUID DENSITY
MUDV.                         45.0000:   FLUID VISCOSITY
DFPH.                         11.5000:   FLUID PH
FL  .                          3.0000:   FLUID LOSS
RM  .OHMM                       .7500:   RM
RMT .DEGF                     75.0000:   RM TEMP
RMF .OHMM                       .5500:   RMF
RMFT.DEGF                     75.0000:   RMF TEMP
FSC .                               M:   RMF CODE
RMC .OHMM                       .8000:   RMC
RMCT.DEGF                     75.0000:   RMC TEMP
CMC .                               M:   RMC CODE
TMAX.DEGF                    195.0000:   MAX REC TEMP
TIMC.                          7.0000:   TIME SINCE CIRCLN
~Curve Information Block
#MNEM.UNIT                    API CODE    No Description
#=========                    ========    == ===========
DEPT.F                   00 001 00 00:     1  DEPTH
CILD.MMHO                            :     2  Deep Induction Conductivity
DT.US/F                              :     3  Sonic Transit Time
GR.GAPI                              :     4  Gamma Ray
ILD.OHMM                             :     5  Deep Induction Resistivity
ILM.OHMM                             :     6  Medium Induction Resistivity
SFL.OHMM                             :     7  Medium Resistivity
SP.MV                                :     8  Spontaneous Potential
CALI.IN                              :     9  Caliper
GR.GAPI                              :    10  Gamma Ray
RHOB.G/C3                            :    11  Bulk Density
~ASCII
# ...
 3982.0000   904.1172   116.9995  -999.2500     1.0783     1.1407     1.0668     3.2719  -999.2500    37.7227  -999.2500
 3982.5000   888.5781   117.7092  -999.2500     1.0933     1.1377     1.0818     3.3462  -999.2500    38.6639  -999.2500
 3983.0000   877.4395   118.4803  -999.2500     1.1085     1.1351     1.0840     3.1502  -999.2500    39.4523  -999.2500
 3983.5000   866.2949   119.1262  -999.2500     1.1236     1.1400     1.0862     2.8052  -999.2500    39.1275  -999.2500
 3984.0000   860.2021   119.2629  -999.2500     1.1384     1.1449     1.0926     2.4648  -999.2500    38.0206  -999.2500
 3984.5000   858.4199   118.3757  -999.2500     1.1534     1.1499     1.1026     2.1340  -999.2500    38.3079  -999.2500
 3985.0000   856.6396   116.5120  -999.2500     1.1658     1.1558     1.1127     2.0884  -999.2500    38.1193  -999.2500
 3985.5000   854.5479   115.5502  -999.2500     1.1742     1.1625     1.1229     2.3099  -999.2500    37.2375  -999.2500
 3986.0000   852.3760   115.3701  -999.2500     1.1827     1.1692     1.1335     2.5312  -999.2500    36.6730  -999.2500
 3986.5000   848.8232   116.3854  -999.2500     1.1952     1.1759     1.1443     2.5770  -999.2500    38.8303  -999.2500
 3987.0000   844.2002   117.1300  -999.2500     1.1927     1.1818     1.1551     2.5938  -999.2500    40.2413  -999.2500
 3987.5000   839.5771   117.2344  -999.2500     1.1872     1.1865     1.1639     2.6106  -999.2500    38.5908  -999.2500
 3988.0000   840.9600   117.0344  -999.2500     1.1898     1.1911     1.1541     2.6383  -999.2500    36.7242  -999.2500
 3988.5000   843.6582   116.4836  -999.2500     1.1924     1.1958     1.1465     2.6730  -999.2500    35.7369  -999.2500
 3989.0000   846.3545   115.9327  -999.2500     1.1950     1.1951     1.1390     2.7113  -999.2500    35.1938  -999.2500
 3989.5000   848.7314   116.0432  -999.2500     1.1941     1.1906     1.1329     2.9065  -999.2500    35.4250  -999.2500
 3990.0000   850.7187   117.6818  -999.2500     1.1918     1.1862     1.1285     3.1019  -999.2500    36.4946  -999.2500
 3990.5000   852.7061   119.3021  -999.2500     1.1895     1.1794     1.1240     3.2973  -999.2500    38.3121  -999.2500
 3991.0000   854.6934   120.9028  -999.2500     1.1872     1.1689     1.1196     3.3789  -999.2500    39.0894  -999.2500
 3991.5000   858.6377   121.9604  -999.2500     1.1842     1.1585     1.1152     3.3839  -999.2500    39.6998  -999.2500
 3992.0000   863.5068   121.8771  -999.2500     1.1800     1.1500     1.1113     3.3889  -999.2500    40.3137  -999.2500
 3992.5000   868.3730   121.5326  -999.2500     1.1758     1.1415     1.1075     3.4213  -999.2500    40.9885  -999.2500
 3993.0000   873.4805   121.1877  -999.2500     1.1716     1.1343     1.1022     3.4713  -999.2500    41.3989  -999.2500
 3993.5000   878.7910   121.0197  -999.2500     1.1711     1.1334     1.0891     3.5018  -999.2500    40.0178  -999.2500
 3994.0000   884.1045   120.9246  -999.2500     1.1738     1.1326     1.0801     3.1957  -999.2500    38.1893  -999.2500
 3994.5000   884.9805   120.8293  -999.2500     1.1764     1.1317     1.0847     2.9078  -999.2500    37.2922  -999.2500
 3995.0000   885.5098   120.2838  -999.2500     1.1786     1.1312     1.0875     2.8237  -999.2500    38.0112  -999.2500
 3995.5000   884.9551   119.6132  -999.2500     1.1759     1.1318     1.0884     2.7395  -999.2500    39.2557  -999.2500
 3996.0000   882.5117   119.0720  -999.2500     1.1733     1.1325     1.0892     2.8972  -999.2500    38.8923  -999.2500
 3996.5000   880.0674   119.2064  -999.2500     1.1707     1.1331     1.0863     3.0728  -999.2500    38.3351  -999.2500
 3997.0000   878.0547   119.3408  -999.2500     1.1669     1.1338     1.0799     3.1677  -999.2500    38.2400  -999.2500
 3997.5000   881.6055   119.2339  -999.2500     1.1608     1.1360     1.0736     2.9975  -999.2500    37.7770  -999.2500
 3998.0000   885.1602   119.2546  -999.2500     1.1547     1.1386     1.0673     2.8274  -999.2500    36.8913  -999.2500
 3998.5000   888.6348   118.5553  -999.2500     1.1486     1.1413     1.0624     2.8234  -999.2500    35.8266  -999.2500
 3999.0000   891.0254   117.7963  -999.2500     1.1497     1.1439     1.0577     2.9277  -999.2500    35.8735  -999.2500
 3999.5000   893.4141   117.1285  -999.2500     1.1540     1.1476     1.0539     3.1975  -999.2500    36.7390  -999.2500
 4000.0000   891.7734   116.9579  -999.2500     1.1582     1.1520     1.0533     3.5478  -999.2500    38.2568  -999.2500
 4000.5000   886.7188   117.2275  -999.2500     1.1617     1.1564     1.0526     3.8838  -999.2500    39.0194  -999.2500
 4001.0000   881.6641   117.2126  -999.2500     1.1645     1.1608     1.0473     3.8024  -999.2500    37.1418  -999.2500
 4001.5000   874.1895   116.9326  -999.2500     1.1654     1.1649     1.0529     3.7210  -999.2500    35.5453  -999.2500
 4002.0000   865.8203   116.9296  -999.2500     1.1664     1.1674     1.0865     3.2862  -999.2500    34.3076  -999.2500
 4002.5000   857.4570   116.9624  -999.2500     1.1641     1.1700     1.1131     2.6227  -999.2500    34.6735  -999.2500
 4003.0000   851.0293   116.8750  -999.2500     1.1594     1.1725     1.1353     2.5707  -999.2500    36.1471  -999.2500
 4003.5000   845.3203   116.4900  -999.2500     1.1546     1.1750     1.1448     2.6891  -999.2500    37.5753  -999.2500
 4004.0000   857.3477   116.2653  -999.2500     1.1499     1.1759     1.1309     2.9693  -999.2500    38.9464  -999.2500
 4004.5000   873.8545   116.2131  -999.2500     1.1470     1.1761     1.1172     3.0773  -999.2500    39.9515  -999.2500
 4005.0000   887.2334  -999.2500  -999.2500     1.1447     1.1715     1.1022     2.6818  -999.2500    40.4518  -999.2500
 4005.5000   899.9424  -999.2500  -999.2500     1.1423     1.1534     1.0690     2.2865  -999.2500    39.7992  -999.2500
 4006.0000   907.1230  -999.2500  -999.2500     1.1400     1.1478     1.0377     1.9844  -999.2500    38.9660  -999.2500
 4006.5000   905.4082  -999.2500  -999.2500     1.1378     1.1423     1.0457     1.7189  -999.2500    38.0855  -999.2500
 4007.0000   903.6934  -999.2500  -999.2500     1.1358     1.1367     1.0537     2.1124  -999.2500    36.9963  -999.2500
 4007.5000   898.9014  -999.2500  -999.2500     1.1337     1.1322     1.0627     2.5271  -999.2500    36.7348  -999.2500
 4008.0000   891.6641  -999.2500  -999.2500     1.1313     1.1291     1.0734     2.4945  -999.2500    36.6353  -999.2500
 4008.5000   884.4209  -999.2500  -999.2500     1.1242     1.1260     1.0842     2.3216  -999.2500    35.6982  -999.2500
 4009.0000   883.6602  -999.2500  -999.2500     1.1172     1.1229     1.0951     2.2117  -999.2500    34.8730  -999.2500
 4009.5000   888.9590  -999.2500  -999.2500     1.1102     1.1191     1.0956     2.1616  -999.2500    34.8331  -999.2500
 4010.0000   894.2568  -999.2500  -999.2500     1.1033     1.1109     1.0950     2.5820  -999.2500    35.1785  -999.2500
 4010.5000   901.8408  -999.2500  -999.2500     1.0954     1.1028     1.0880     3.0498  -999.2500    35.3716  -999.2500
 4011.0000   909.6807  -999.2500  -999.2500     1.0875     1.0947     1.0632     3.1147  -999.2500    34.3873  -999.2500
 4011.5000   917.7939  -999.2500  -999.2500     1.0796     1.0764     1.0389     3.1585  -999.2500    33.7842  -999.2500
 4012.0000   927.5820  -999.2500  -999.2500     1.0717     1.0585     1.0197     3.1080  -999.2500    33.7684  -999.2500
 4012.5000   937.3633  -999.2500  -999.2500     1.0641     1.0388     1.0028     2.9446  -999.2500    35.2617  -999.2500
 4013.0000   945.7080  -999.2500  -999.2500     1.0570     1.0235      .9861     2.7810  -999.2500    37.0840  -999.2500
 4013.5000   952.2881  -999.2500  -999.2500     1.0499     1.0201      .9836     2.8944  -999.2500    37.6471  -999.2500
 4014.0000   958.8613  -999.2500  -999.2500     1.0429     1.0243      .9817     3.1930  -999.2500    36.9892  -999.2500
 4014.5000   959.0664  -999.2500  -999.2500     1.0359     1.0274      .9799     3.4171  -999.2500    36.4037  -999.2500
 4015.0000   958.3018  -999.2500  -999.2500     1.0302     1.0300      .9801     3.0758  -999.2500    36.1349  -999.2500
