~VERSION INFORMATION
VERS.                             2.0:   CWLS Log ASCII Standard-VERSION 2.0
WRAP.                              NO:   One line per depth step
~Well Information Block
STRT.F                      1319.0000:   Top Depth
STOP.F                      7911.0000:   Bottom Depth
STEP.F                         .50000:   Depth Increment
NULL.                        -999.250:   Null Value
FLD .                    MU BLK A 167:   Field Name
WELL.       OCSG08096   001 ST00 BP00:   NAME
API .                    427124009800:   WELL API
EDF .F                        84.0000:   ELEV DRILL FLOOR
COMP.         UNION PACIFIC RESOURCES:   OPERATOR
BN  .                           A 167:   BLOCK
CTRY.                             USA:   COUNTRY NAME
CNTY.                        M I E AD:   COUNTY NAME
EKB .F                        85.0000:   ELEV KELLY BUSHING
TDD .F                       7913.000:   FINAL TD DRILLER
STAT.                           TEXAS:   STATE NAME
UWI .                    427124009800:   WELL API
DICO.               IHS : Digitizing Company
~PARAMETER INFORMATION (zones)
#MNEM.UNIT                       Value     Description
#=========                       =====     ===========
#ZONATION                          DIL:   ZONATION NAME
#ZONE                            RUN_2:   ZONE NAME
TOP .                       4520.0000:   TOP DEPTH
BOT .                       7911.0000:   BOTTOM DEPTH
RUN .                               2:   RUN NUMBER
LCCD.                             440:   LOGGING CONTRACTOR
SRVC.                    Schlumberger:   LOGGING CONT NAME
DICO.          QC Data Collectors Ltd:   DIG COMPANY NAME
LDAT.                      05/30/1988:   DATE LOGGED
ELD .F                        85.0000:   LOG DATUM ELEVATION
TDD .F                      7904.0000:   TOTAL DEPTH DRILLER
TDL .F                      7913.0000:   TOTAL DEPTH LOGGER
BOTL.F                      7911.0000:   BOTTOM DEPTH LOGGED
TOPL.F                      4520.0000:   TOP DEPTH LOGGED
CS1 .IN                       13.3750:   CASING SIZE 1
BS1 .IN                       12.2500:   BIT SIZE 1
DDB1.F                      7904.0000:   DEPTH DRILLED BIT 1
BHF .                              80:   FLUID CODE
DPT .                      Salt Water:   DRILLING FLUID TYPE
MUDD.                         13.3000:   FLUID DENSITY
MUDV.                         44.0000:   FLUID VISCOSITY
DFPH.                          9.6000:   FLUID PH
FL  .                         11.9000:   FLUID LOSS
RM  .OHMM                       .2330:   RM
RMT .DEGF                     75.0000:   RM TEMP
RMF .OHMM                       .1510:   RMF
RMFT.DEGF                     75.0000:   RMF TEMP
FSC .                               M:   RMF CODE
RMC .OHMM                       .4890:   RMC
RMCT.DEGF                     75.0000:   RMC TEMP
CMC .                               M:   RMC CODE
TMAX.DEGF                    182.0000:   MAX REC TEMP
TIMC.                         10.7500:   TIME SINCE CIRCLN
~PARAMETER INFORMATION (zones)
#MNEM.UNIT                       Value     Description
#=========                       =====     ===========
#ZONATION                          DIL:   ZONATION NAME
#ZONE                            RUN_1:   ZONE NAME
TOP .                       1319.0000:   TOP DEPTH
BOT .                       7911.5000:   BOTTOM DEPTH
RUN .                               1:   RUN NUMBER
LCCD.                             440:   LOGGING CONTRACTOR
SRVC.                    Schlumberger:   LOGGING CONT NAME
DICO.          QC Data Collectors Ltd:   DIG COMPANY NAME
LDAT.                      05/21/1988:   DATE LOGGED
ELD .F                        85.0000:   LOG DATUM ELEVATION
TDD .F                      4550.0000:   TOTAL DEPTH DRILLER
TDL .F                      4551.0000:   TOTAL DEPTH LOGGER
BOTL.F                      4549.0000:   BOTTOM DEPTH LOGGED
TOPL.F                      1394.0000:   TOP DEPTH LOGGED
CS1 .IN                       20.0000:   CASING SIZE 1
BS1 .IN                       17.5000:   BIT SIZE 1
DDB1.F                      4550.0000:   DEPTH DRILLED BIT 1
BHF .                              80:   FLUID CODE
DPT .                      Salt Water:   DRILLING FLUID TYPE
MUDD.                         10.0000:   FLUID DENSITY
MUDV.                         38.0000:   FLUID VISCOSITY
DFPH.                          8.4000:   FLUID PH
FL  .                            NULL:   FLUID LOSS
RM  .OHMM                       .3040:   RM
RMT .DEGF                     82.0000:   RM TEMP
RMF .OHMM                       .2310:   RMF
RMFT.DEGF                     82.0000:   RMF TEMP
FSC .                               M:   RMF CODE
RMC .OHMM                       .4210:   RMC
RMCT.DEGF                     82.0000:   RMC TEMP
CMC .                               M:   RMC CODE
TMAX.DEGF                    130.0000:   MAX REC TEMP
TIMC.                          5.0000:   TIME SINCE CIRCLN
~Curve Information Block
#MNEM.UNIT                    API CODE    No Description
#=========                    ========    == ===========
DEPT.F                   00 001 00 00:     1  DEPTH
DCAL.IN                              :     2  Differential Caliper
DT.US/F                              :     3  Sonic Transit Time
GR.GAPI                              :     4  Gamma Ray
ILD.OHMM                             :     5  Deep Induction Resistivity
ILM.OHMM                             :     6  Medium Induction Resistivity
SFL.OHMM                             :     7  Medium Resistivity
SP.MV                                :     8  Spontaneous Potential
~ASCII
# ...
 3548.5000  -999.2500   138.7908    62.6169      .7646      .7420      .8100   -60.8002
 3549.0000  -999.2500   137.3625    62.1058      .7883      .7637      .8381   -60.7888
 3549.5000  -999.2500   136.1108    63.6801      .8091      .7752      .8545   -60.8788
 3550.0000  -999.2500   135.6309    65.8638      .8291      .7773      .8597   -60.9702
 3550.5000  -999.2500   136.5337    65.3719      .8462      .7760      .8444   -61.0569
 3551.0000  -999.2500   137.2329    63.3203      .8550      .7718      .8203   -61.2457
 3551.5000  -999.2500   137.0063    62.2960      .8650      .7658      .8084   -61.5536
 3552.0000  -999.2500   136.2139    63.9542      .8628      .7590      .8040   -62.7565
 3552.5000  -999.2500   136.1587    67.1606      .8460      .7509      .8030   -62.9686
 3553.0000  -999.2500   137.4624    69.0107      .8183      .7392      .7974   -60.1230
 3553.5000  -999.2500   140.4841    67.4149      .7928      .7123      .7821   -58.5715
 3554.0000  -999.2500   145.8201    62.7187      .7645      .6861      .7555   -58.7158
 3554.5000  -999.2500   150.2043    58.8163      .7392      .6692      .7314   -59.9779
 3555.0000  -999.2500   152.6194    57.0164      .7160      .6534      .7139   -60.4387
 3555.5000  -999.2500   154.3008    60.6993      .6996      .6397      .6980   -60.7462
 3556.0000  -999.2500   155.2351    62.5340      .6907      .6296      .6865   -60.9728
 3556.5000  -999.2500   154.6733    62.7336      .6850      .6261      .6841   -61.4838
 3557.0000  -999.2500   152.7856    64.0906      .6863      .6269      .6888   -63.5305
 3557.5000  -999.2500   150.2649    67.0577      .6923      .6341      .7008   -64.8662
 3558.0000  -999.2500   146.3711    68.6027      .7060      .6510      .7183   -63.2068
 3558.5000  -999.2500   143.7988    68.3536      .7205      .6698      .7376   -59.5723
 3559.0000  -999.2500   142.5581    67.7753      .7363      .6825      .7542   -57.9232
 3559.5000  -999.2500   142.5952    66.9628      .7512      .6884      .7613   -58.6271
 3560.0000  -999.2500   143.5120    65.9791      .7567      .6914      .7573   -61.7356
 3560.5000  -999.2500   144.3799    64.7871      .7533      .6908      .7479   -62.8207
 3561.0000  -999.2500   144.7673    63.6974      .7481      .6846      .7400   -62.9420
 3561.5000  -999.2500   144.6467    62.4470      .7425      .6781      .7346   -61.7704
 3562.0000  -999.2500   145.3303    61.2847      .7413      .6808      .7333   -60.4769
 3562.5000  -999.2500   146.8860    62.6628      .7491      .6925      .7400   -61.1223
 3563.0000  -999.2500   148.6377    64.1960      .7620      .7024      .7597   -61.6711
 3563.5000  -999.2500   149.8936    63.1249      .7751      .7096      .7807   -61.7476
 3564.0000  -999.2500   148.0298    62.0954      .7872      .7191      .7952   -61.6672
 3564.5000  -999.2500   143.2954    62.9891      .7947      .7270      .8048   -61.6034
 3565.0000  -999.2500   140.2197    65.6014      .7960      .7298      .8087   -61.3418
 3565.5000  -999.2500   140.5369    68.4557      .7932      .7279      .8075   -60.9115
 3566.0000  -999.2500   143.8567    66.9957      .7827      .7244      .8034   -60.7672
 3566.5000  -999.2500   144.9353    63.6937      .7668      .7186      .7948   -60.8350
 3567.0000  -999.2500   143.4573    61.6606      .7527      .7115      .7859   -60.9946
 3567.5000  -999.2500   142.3770    60.3401      .7405      .7024      .7768   -61.0754
 3568.0000  -999.2500   142.9387    58.7977      .7299      .6928      .7661   -61.1237
 3568.5000  -999.2500   144.7842    57.1591      .7205      .6842      .7517   -61.1473
 3569.0000  -999.2500   146.2354    55.3145      .7129      .6779      .7365   -61.4913
 3569.5000  -999.2500   147.1335    54.4294      .7127      .6741      .7212   -61.5501
 3570.0000  -999.2500   146.8113    56.4619      .7155      .6685      .7112   -61.4935
 3570.5000  -999.2500   147.6863    61.7859      .7150      .6641      .7127   -61.6057
 3571.0000  -999.2500   150.2900    64.3394      .7143      .6610      .7191   -62.2938
 3571.5000  -999.2500   152.7542    64.9534      .7136      .6592      .7248   -62.0693
 3572.0000  -999.2500   153.5862    64.6525      .7149      .6584      .7234   -60.4047
 3572.5000  -999.2500   152.5000    63.7600      .7157      .6579      .7180   -59.4849
 3573.0000  -999.2500   148.6816    63.4332      .7155      .6591      .7137   -60.4598
 3573.5000  -999.2500   144.8181    63.7650      .7176      .6625      .7143   -61.4119
 3574.0000  -999.2500   143.6348    64.4097      .7226      .6664      .7179   -62.0256
 3574.5000  -999.2500   147.0508    64.8062      .7285      .6706      .7235   -61.6835
 3575.0000  -999.2500   147.8210    64.9486      .7340      .6770      .7307   -60.6508
 3575.5000  -999.2500   146.4089    64.7257      .7388      .6835      .7394   -60.8635
 3576.0000  -999.2500   144.4609    64.3599      .7428      .6949      .7491   -61.1520
 3576.5000  -999.2500   143.5413    64.6696      .7461      .7052      .7596   -61.3404
 3577.0000  -999.2500   144.3437    65.9990      .7504      .7239      .7712   -61.3947
 3577.5000  -999.2500   145.7859    66.8168      .7545      .7387      .7782   -61.5536
 3578.0000  -999.2500   147.2502    67.6531      .7573      .7396      .7835   -62.5308
 3578.5000  -999.2500   148.3066    70.0410      .7526      .7310      .7850   -62.9916
 3579.0000  -999.2500   149.1187    72.3636      .7471      .7098      .7788   -59.5276
 3579.5000  -999.2500   149.2803    73.2832      .7397      .6849      .7709   -58.2059
 3580.0000  -999.2500   148.6409    73.1498      .7307      .6655      .7608   -59.3875
 3580.5000  -999.2500   147.0947    72.1621      .7229      .6448      .7495   -60.9913
 3581.0000  -999.2500   145.0146    70.6364      .7152      .6256      .7367   -61.6692
 3581.5000  -999.2500   144.5168    67.6556      .7075      .6099      .7261   -61.7575
 3582.0000  -999.2500   146.2102    63.0536      .6998      .6025      .7164   -61.9963
 3582.5000  -999.2500   148.4463    60.4270      .6909      .6025      .7082   -61.5518
 3583.0000  -999.2500   150.0176    60.1499      .6832      .6045      .7023   -61.1024
 3583.5000  -999.2500   150.8989    60.0734      .6775      .6049      .6982   -61.4106
 3584.0000  -999.2500   151.2126    59.0879      .6732      .6064      .6979   -62.2123
 3584.5000  -999.2500   150.7634    57.4555      .6722      .6076      .6996   -62.8663
 3585.0000  -999.2500   150.2153    56.3112      .6744      .6063      .7040   -61.7791
 3585.5000  -999.2500   149.8918    58.2432      .6789      .6046      .7089   -60.0065
 3586.0000  -999.2500   149.3442    62.4384      .6800      .5990      .7138   -59.4067
 3586.5000  -999.2500   148.1897    65.2256      .6746      .5892      .7107   -60.4214
 3587.0000  -999.2500   148.2336    65.9531      .6660      .5798      .7050   -60.7692
 3587.5000  -999.2500   151.5806    64.3845      .6576      .5735      .6912   -60.5483
 3588.0000  -999.2500   154.5637    61.6333      .6497      .5705      .6765   -60.9641
 3588.5000  -999.2500   155.4263    59.7134      .6421      .5709      .6641   -61.7734
 3589.0000  -999.2500   153.7471    59.5714      .6353      .5754      .6542   -61.7623
 3589.5000  -999.2500   151.1948    60.3110      .6321      .5833      .6492   -61.0267
 3590.0000  -999.2500   148.5356    60.8698      .6367      .5990      .6518   -60.4531
 3590.5000  -999.2500   145.9382    60.5293      .6595      .6181      .6626   -60.4699
 3591.0000  -999.2500   143.3193    59.9041      .6878      .6391      .6810   -60.6294
 3591.5000  -999.2500   141.0667    58.6513      .7163      .6601      .7054   -60.7729
 3592.0000  -999.2500   138.9248    56.3031      .7445      .6798      .7367   -60.8922
 3592.5000  -999.2500   137.0737    53.8347      .7737      .6995      .7664   -61.0064
 3593.0000  -999.2500   135.9370    53.3757      .7991      .7236      .7817   -61.1935
 3593.5000  -999.2500   135.8977    57.7842      .8135      .7423      .7924   -61.7344
