~VERSION INFORMATION
VERS.                             2.0:   CWLS Log ASCII Standard-VERSION 2.0
WRAP.                              NO:   One line per depth step
~Well Information Block
STRT.F                      1302.0000:   Top Depth
STOP.F                     14644.0000:   Bottom Depth
STEP.F                         .50000:   Depth Increment
NULL.                        -999.250:   Null Value
FLD .                    MU BLK A 152:   Field Name
WELL.       OCSG04991   001 ST00 BP00:   NAME
API .                    427124006100:   WELL API
EDF .F                        94.0000:   ELEV DRILL FLOOR
COMP.            TRANSCO EXPL PROD CO:   OPERATOR
BN  .                           A 152:   BLOCK
CTRY.                             USA:   COUNTRY NAME
CNTY.                        M I E AD:   COUNTY NAME
EKB .F                        95.0000:   ELEV KELLY BUSHING
TDD .F                      14647.000:   FINAL TD DRILLER
STAT.                           TEXAS:   STATE NAME
UWI .                    427124006100:   WELL API
DICO.               IHS : Digitizing Company
~PARAMETER INFORMATION (zones)
#MNEM.UNIT                       Value     Description
#=========                       =====     ===========
#ZONATION                          DIL:   ZONATION NAME
#ZONE                            RUN_1:   ZONE NAME
TOP .                       1302.0000:   TOP DEPTH
BOT .                      14644.5000:   BOTTOM DEPTH
RUN .                               1:   RUN NUMBER
LCCD.                             440:   LOGGING CONTRACTOR
SRVC.                    Schlumberger:   LOGGING CONT NAME
DICO.          QC Data Collectors Ltd:   DIG COMPANY NAME
LDAT.                      11/20/1982:   DATE LOGGED
ELD .F                        95.0000:   LOG DATUM ELEVATION
TDD .F                      4095.0000:   TOTAL DEPTH DRILLER
TDL .F                      4095.0000:   TOTAL DEPTH LOGGER
BOTL.F                      4092.0000:   BOTTOM DEPTH LOGGED
TOPL.F                      1334.0000:   TOP DEPTH LOGGED
CS1 .IN                       20.0000:   CASING SIZE 1
BS1 .IN                       12.2500:   BIT SIZE 1
DDB1.F                      4095.0000:   DEPTH DRILLED BIT 1
BHF .                              99:   FLUID CODE
DPT .                   Miscellaneous:   DRILLING FLUID TYPE
MUDD.                          9.4000:   FLUID DENSITY
MUDV.                         43.0000:   FLUID VISCOSITY
DFPH.                         11.2000:   FLUID PH
RM  .OHMM                       .2800:   RM
RMT .DEGF                     70.0000:   RM TEMP
RMF .OHMM                       .2300:   RMF
RMFT.DEGF                     70.0000:   RMF TEMP
FSC .                               M:   RMF CODE
RMC .OHMM                       .4000:   RMC
RMCT.DEGF                     70.0000:   RMC TEMP
CMC .                               M:   RMC CODE
TMAX.DEGF                    178.0000:   MAX REC TEMP
TIMC.                          8.0000:   TIME SINCE CIRCLN
~PARAMETER INFORMATION (zones)
#MNEM.UNIT                       Value     Description
#=========                       =====     ===========
#ZONATION                          FDC:   ZONATION NAME
#ZONE                            RUN_3:   ZONE NAME
TOP .                       8480.0000:   TOP DEPTH
BOT .                      13304.0000:   BOTTOM DEPTH
RUN .                               3:   RUN NUMBER
LCCD.                             440:   LOGGING CONTRACTOR
SRVC.                    Schlumberger:   LOGGING CONT NAME
DICO.          QC Data Collectors Ltd:   DIG COMPANY NAME
LDAT.                      01/30/1983:   DATE LOGGED
ELD .F                        95.0000:   LOG DATUM ELEVATION
TDD .F                     13308.0000:   TOTAL DEPTH DRILLER
TDL .F                     13305.0000:   TOTAL DEPTH LOGGER
BOTL.F                     13304.0000:   BOTTOM DEPTH LOGGED
TOPL.F                      8480.0000:   TOP DEPTH LOGGED
CS1 .IN                       11.7500:   CASING SIZE 1
BS1 .IN                        9.8750:   BIT SIZE 1
DDB1.F                     13308.0000:   DEPTH DRILLED BIT 1
BHF .                              99:   FLUID CODE
DPT .                   Miscellaneous:   DRILLING FLUID TYPE
MUDD.                         15.6000:   FLUID DENSITY
MUDV.                         55.0000:   FLUID VISCOSITY
DFPH.                         10.7000:   FLUID PH
FL  .                          3.6000:   FLUID LOSS
RM  .OHMM                       .8600:   RM
RMT .DEGF                     70.0000:   RM TEMP
RMF .OHMM                       .4200:   RMF
RMFT.DEGF                     70.0000:   RMF TEMP
FSC .                               M:   RMF CODE
RMC .OHMM                      1.6700:   RMC
RMCT.DEGF                     70.0000:   RMC TEMP
CMC .                               M:   RMC CODE
TMAX.DEGF                    260.0000:   MAX REC TEMP
TIMC.                          8.5000:   TIME SINCE CIRCLN
~PARAMETER INFORMATION (zones)
#MNEM.UNIT                       Value     Description
#=========                       =====     ===========
#ZONATION                          FDC:   ZONATION NAME
#ZONE                            RUN_4:   ZONE NAME
TOP .                      12060.0000:   TOP DEPTH
BOT .                      14644.0000:   BOTTOM DEPTH
RUN .                               4:   RUN NUMBER
LCCD.                             440:   LOGGING CONTRACTOR
SRVC.                    Schlumberger:   LOGGING CONT NAME
DICO.          QC Data Collectors Ltd:   DIG COMPANY NAME
LDAT.                      02/16/1983:   DATE LOGGED
ELD .F                        95.0000:   LOG DATUM ELEVATION
TDD .F                     14641.0000:   TOTAL DEPTH DRILLER
TDL .F                     14647.0000:   TOTAL DEPTH LOGGER
BOTL.F                     14644.0000:   BOTTOM DEPTH LOGGED
TOPL.F                     12060.0000:   TOP DEPTH LOGGED
CS1 .IN                       11.7500:   CASING SIZE 1
BS1 .IN                        9.8750:   BIT SIZE 1
DDB1.F                     14641.0000:   DEPTH DRILLED BIT 1
BHF .                              99:   FLUID CODE
DPT .                   Miscellaneous:   DRILLING FLUID TYPE
MUDD.                         15.6000:   FLUID DENSITY
MUDV.                         55.0000:   FLUID VISCOSITY
DFPH.                         11.5000:   FLUID PH
FL  .                          3.2000:   FLUID LOSS
RM  .OHMM                       .6900:   RM
RMT .DEGF                     75.0000:   RM TEMP
RMF .OHMM                       .4400:   RMF
RMFT.DEGF                     75.0000:   RMF TEMP
FSC .                               M:   RMF CODE
RMC .OHMM                       .9400:   RMC
RMCT.DEGF                     75.0000:   RMC TEMP
CMC .                               M:   RMC CODE
TMAX.DEGF                    284.0000:   MAX REC TEMP
TIMC.                         13.0000:   TIME SINCE CIRCLN
~PARAMETER INFORMATION (zones)
#MNEM.UNIT                       Value     Description
#=========                       =====     ===========
#ZONATION                          FDC:   ZONATION NAME
#ZONE                            RUN_2:   ZONE NAME
TOP .                       3894.0000:   TOP DEPTH
BOT .                      14644.5000:   BOTTOM DEPTH
RUN .                               2:   RUN NUMBER
LCCD.                             440:   LOGGING CONTRACTOR
SRVC.                    Schlumberger:   LOGGING CONT NAME
DICO.          QC Data Collectors Ltd:   DIG COMPANY NAME
LDAT.                      12/10/1982:   DATE LOGGED
ELD .F                        95.0000:   LOG DATUM ELEVATION
TDD .F                      8594.0000:   TOTAL DEPTH DRILLER
TDL .F                      8592.0000:   TOTAL DEPTH LOGGER
BOTL.F                      8594.0000:   BOTTOM DEPTH LOGGED
TOPL.F                      4037.0000:   TOP DEPTH LOGGED
CS1 .IN                       16.0000:   CASING SIZE 1
BS1 .IN                       14.7500:   BIT SIZE 1
DDB1.F                      8594.0000:   DEPTH DRILLED BIT 1
BHF .                              99:   FLUID CODE
DPT .                   Miscellaneous:   DRILLING FLUID TYPE
MUDD.                         13.1000:   FLUID DENSITY
MUDV.                         45.0000:   FLUID VISCOSITY
DFPH.                         11.5000:   FLUID PH
FL  .                          3.0000:   FLUID LOSS
RM  .OHMM                       .7500:   RM
RMT .DEGF                     75.0000:   RM TEMP
RMF .OHMM                       .5500:   RMF
RMFT.DEGF                     75.0000:   RMF TEMP
FSC .                               M:   RMF CODE
RMC .OHMM                       .8000:   RMC
RMCT.DEGF                     75.0000:   RMC TEMP
CMC .                               M:   RMC CODE
TMAX.DEGF                    195.0000:   MAX REC TEMP
TIMC.                          7.0000:   TIME SINCE CIRCLN
~Curve Information Block
#MNEM.UNIT                    API CODE    No Description
#=========                    ========    == ===========
DEPT.F                   00 001 00 00:     1  DEPTH
CILD.MMHO                            :     2  Deep Induction Conductivity
DT.US/F                              :     3  Sonic Transit Time
GR.GAPI                              :     4  Gamma Ray
ILD.OHMM                             :     5  Deep Induction Resistivity
ILM.OHMM                             :     6  Medium Induction Resistivity
SFL.OHMM                             :     7  Medium Resistivity
SP.MV                                :     8  Spontaneous Potential
CALI.IN                              :     9  Caliper
GR.GAPI                              :    10  Gamma Ray
RHOB.G/C3                            :    11  Bulk Density
~ASCII
# ...
 8404.0000  1632.9121   132.9548  -999.2500      .5962      .5983      .6415    -1.9695  -999.2500    40.0439  -999.2500
 8404.5000  1660.9375   133.7673  -999.2500      .5893      .5902      .6080    -2.6519  -999.2500    43.2462  -999.2500
 8405.0000  1689.8770   134.3174  -999.2500      .5840      .5821      .5958    -2.9638  -999.2500    46.7825  -999.2500
 8405.5000  1716.3125   134.5784  -999.2500      .5788      .5758      .5879    -2.5076  -999.2500    49.2997  -999.2500
 8406.0000  1740.3887   134.7803  -999.2500      .5755      .5717      .5873    -2.5717  -999.2500    47.9515  -999.2500
 8406.5000  1748.0332   134.5383  -999.2500      .5727      .5676      .5875    -3.2014  -999.2500    43.8013  -999.2500
 8407.0000  1744.5234   134.2964  -999.2500      .5732      .5721      .6071    -3.8323  -999.2500    38.6147  -999.2500
 8407.5000  1741.0156   134.0544  -999.2500      .5742      .5772      .6273    -4.3986  -999.2500    36.8821  -999.2500
 8408.0000  1716.6504   133.8279  -999.2500      .5831      .5848      .6411    -4.9059  -999.2500    36.4647  -999.2500
 8408.5000  1691.0801   133.7024  -999.2500      .5940      .5943      .6536    -5.2127  -999.2500    36.6592  -999.2500
 8409.0000  1663.1035   133.5771  -999.2500      .6051      .6014      .6664    -6.6636  -999.2500    37.3524  -999.2500
 8409.5000  1633.4902   133.4519  -999.2500      .6133      .6056      .6690    -7.6034  -999.2500    38.6343  -999.2500
 8410.0000  1603.8281   133.4102  -999.2500      .6215      .6099      .6702    -4.4824  -999.2500    39.5098  -999.2500
 8410.5000  1590.4766   133.4788  -999.2500      .6268      .6142      .6714    -2.0761  -999.2500    38.4329  -999.2500
 8411.0000  1583.2793   133.5474  -999.2500      .6276      .6185      .6751     -.2240  -999.2500    36.8441  -999.2500
 8411.5000  1586.1914   133.4038  -999.2500      .6284      .6229      .6789      .6643  -999.2500    35.2552  -999.2500
 8412.0000  1592.1758   133.1409  -999.2500      .6233      .6208      .6829     -.2923  -999.2500    34.0838  -999.2500
 8412.5000  1598.1523   132.8779  -999.2500      .6163      .6185      .6827    -2.1072  -999.2500    33.2353  -999.2500
 8413.0000  1616.7559   132.9250  -999.2500      .6094      .6162      .6683    -3.6108  -999.2500    32.7798  -999.2500
 8413.5000  1637.1738   133.1016  -999.2500      .6034      .6113      .6614    -1.4464  -999.2500    33.5484  -999.2500
 8414.0000  1657.6152   133.2688  -999.2500      .5978      .6044      .6546      .8786  -999.2500    35.4811  -999.2500
 8414.5000  1677.6934   133.3430  -999.2500      .5923      .5976      .6479     -.9004  -999.2500    38.3801  -999.2500
 8415.0000  1697.7734   133.4170  -999.2500      .5924      .5918      .6518    -7.8823  -999.2500    39.4742  -999.2500
 8415.5000  1713.4531   133.4912  -999.2500      .5935      .5887      .6584    -8.9718  -999.2500    40.2834  -999.2500
 8416.0000  1715.8789   133.5654  -999.2500      .5945      .5856      .6651    -7.4705  -999.2500    40.7726  -999.2500
 8416.5000  1718.3086   133.9155  -999.2500      .5921      .5865      .6635    -3.3522  -999.2500    41.2773  -999.2500
 8417.0000  1720.3301   133.8269  -999.2500      .5894      .5880      .6574    -2.8506  -999.2500    41.8176  -999.2500
 8417.5000  1718.4531   133.2329  -999.2500      .5866      .5895      .6514    -1.7828  -999.2500    42.3572  -999.2500
 8418.0000  1716.5703   133.1296  -999.2500      .5852      .5904      .6483    -1.2057  -999.2500    42.7674  -999.2500
 8418.5000  1714.6895   133.0723  -999.2500      .5841      .5914      .6455    -1.5469  -999.2500    42.8349  -999.2500
 8419.0000  1712.8125   134.0767  -999.2500      .5829      .5923      .6430    -2.3346  -999.2500    41.8587  -999.2500
 8419.5000  1709.3184   135.1946  -999.2500      .5851      .5937      .6461    -3.9915  -999.2500    40.5228  -999.2500
 8420.0000  1705.7617   135.5291  -999.2500      .5874      .5951      .6493    -4.5829  -999.2500    38.9781  -999.2500
 8420.5000  1702.2031   135.8638  -999.2500      .5897      .5966      .6506    -3.9568  -999.2500    37.4310  -999.2500
 8421.0000  1702.4746   135.7598  -999.2500      .5898      .5968      .6440    -3.9585  -999.2500    36.5156  -999.2500
 8421.5000  1706.8809   135.6384  -999.2500      .5860      .5949      .6366    -4.3267  -999.2500    36.3560  -999.2500
 8422.0000  1711.2930   135.5173  -999.2500      .5822      .5930      .6282    -6.0076  -999.2500    37.8902  -999.2500
 8422.5000  1715.6992   135.7922  -999.2500      .5776      .5884      .6245    -7.8369  -999.2500    40.0759  -999.2500
 8423.0000  1723.7520   136.1829  -999.2500      .5713      .5814      .6245   -10.1905  -999.2500    41.9570  -999.2500
 8423.5000  1731.8047   136.5469  -999.2500      .5671      .5770      .6217   -12.2017  -999.2500    43.1677  -999.2500
 8424.0000  1739.8711   136.6865  -999.2500      .5647      .5729      .6165    -9.1226  -999.2500    42.3364  -999.2500
 8424.5000  1747.9492   136.3008  -999.2500      .5644      .5693      .6077    -5.0522  -999.2500    41.1601  -999.2500
 8425.0000  1756.0625   135.9373  -999.2500      .5673      .5692      .5993    -1.8630  -999.2500    40.2453  -999.2500
 8425.5000  1764.1875   135.6670  -999.2500      .5701      .5692      .5978    -4.7793  -999.2500    39.7542  -999.2500
 8426.0000  1772.3027   135.3967  -999.2500      .5730      .5692      .6031    -8.7228  -999.2500    39.3270  -999.2500
 8426.5000  1772.0273   134.7581  -999.2500      .5724      .5692      .6125    -6.9150  -999.2500    39.3030  -999.2500
 8427.0000  1771.4141   134.0803  -999.2500      .5716      .5691      .6173    -3.4145  -999.2500    39.4337  -999.2500
 8427.5000  1771.3535   133.8699  -999.2500      .5707      .5691      .6221    -2.7854  -999.2500    39.7566  -999.2500
 8428.0000  1772.1719   133.7036  -999.2500      .5702      .5691      .6240    -3.5773  -999.2500    38.5262  -999.2500
 8428.5000  1768.7988   134.1538  -999.2500      .5704      .5680      .6202    -6.7235  -999.2500    37.6170  -999.2500
 8429.0000  1761.8281   135.0254  -999.2500      .5707      .5666      .6175    -9.4961  -999.2500    37.8804  -999.2500
 8429.5000  1756.9902   135.2153  -999.2500      .5709      .5652      .6174   -11.2703  -999.2500    38.1438  -999.2500
 8430.0000  1754.2090   134.6533  -999.2500      .5699      .5662      .6191   -12.3969  -999.2500    38.1998  -999.2500
 8430.5000  1763.8984   133.8672  -999.2500      .5686      .5676      .6226   -11.5792  -999.2500    38.0828  -999.2500
 8431.0000  1773.5898   133.4199  -999.2500      .5672      .5695      .6325    -7.1521  -999.2500    36.6844  -999.2500
 8431.5000  1794.7539   133.2424  -999.2500      .5643      .5691      .6422    -4.7984  -999.2500    35.0710  -999.2500
 8432.0000  1828.1719   133.1365  -999.2500      .5471      .5553      .6265    -2.8111  -999.2500    33.8235  -999.2500
 8432.5000  1864.3340   133.7542  -999.2500      .5266      .5368      .6038    -1.5062  -999.2500    32.5980  -999.2500
 8433.0000  1929.7246   134.7400  -999.2500      .5068      .5188      .5811    -1.2560  -999.2500    32.6281  -999.2500
 8433.5000  2005.7578   135.8655  -999.2500      .4910      .5015      .5521    -2.1910  -999.2500    32.9529  -999.2500
 8434.0000  2052.8516   137.2380  -999.2500      .4782      .4904      .5298    -4.0801  -999.2500    34.3048  -999.2500
 8434.5000  2061.6133   138.1614  -999.2500      .4733      .4808      .5131    -1.1303  -999.2500    33.6909  -999.2500
 8435.0000  2021.4082   138.9473  -999.2500      .4717      .4723      .5080      .4595  -999.2500    32.9099  -999.2500
 8435.5000  1946.0000   138.8584  -999.2500      .4849      .4765      .5176    -7.8249  -999.2500    32.6017  -999.2500
 8436.0000  1858.7480   133.3882  -999.2500      .5074      .4928      .5431   -12.1646  -999.2500    33.2292  -999.2500
 8436.5000  1764.1758   132.2422  -999.2500      .5514      .5292      .5926   -12.3717  -999.2500    33.8578  -999.2500
 8437.0000  1645.5273   129.2952  -999.2500      .5996      .5722      .6538    -9.2519  -999.2500    34.4963  -999.2500
