~VERSION INFORMATION
VERS.                             2.0:   CWLS Log ASCII Standard-VERSION 2.0
WRAP.                              NO:   One line per depth step
~Well Information Block
STRT.F                      1302.0000:   Top Depth
STOP.F                     14644.0000:   Bottom Depth
STEP.F                         .50000:   Depth Increment
NULL.                        -999.250:   Null Value
FLD .                    MU BLK A 152:   Field Name
WELL.       OCSG04991   001 ST00 BP00:   NAME
API .                    427124006100:   WELL API
EDF .F                        94.0000:   ELEV DRILL FLOOR
COMP.            TRANSCO EXPL PROD CO:   OPERATOR
BN  .                           A 152:   BLOCK
CTRY.                             USA:   COUNTRY NAME
CNTY.                        M I E AD:   COUNTY NAME
EKB .F                        95.0000:   ELEV KELLY BUSHING
TDD .F                      14647.000:   FINAL TD DRILLER
STAT.                           TEXAS:   STATE NAME
UWI .                    427124006100:   WELL API
DICO.               IHS : Digitizing Company
~PARAMETER INFORMATION (zones)
#MNEM.UNIT                       Value     Description
#=========                       =====     ===========
#ZONATION                          DIL:   ZONATION NAME
#ZONE                            RUN_1:   ZONE NAME
TOP .                       1302.0000:   TOP DEPTH
BOT .                      14644.5000:   BOTTOM DEPTH
RUN .                               1:   RUN NUMBER
LCCD.                             440:   LOGGING CONTRACTOR
SRVC.                    Schlumberger:   LOGGING CONT NAME
DICO.          QC Data Collectors Ltd:   DIG COMPANY NAME
LDAT.                      11/20/1982:   DATE LOGGED
ELD .F                        95.0000:   LOG DATUM ELEVATION
TDD .F                      4095.0000:   TOTAL DEPTH DRILLER
TDL .F                      4095.0000:   TOTAL DEPTH LOGGER
BOTL.F                      4092.0000:   BOTTOM DEPTH LOGGED
TOPL.F                      1334.0000:   TOP DEPTH LOGGED
CS1 .IN                       20.0000:   CASING SIZE 1
BS1 .IN                       12.2500:   BIT SIZE 1
DDB1.F                      4095.0000:   DEPTH DRILLED BIT 1
BHF .                              99:   FLUID CODE
DPT .                   Miscellaneous:   DRILLING FLUID TYPE
MUDD.                          9.4000:   FLUID DENSITY
MUDV.                         43.0000:   FLUID VISCOSITY
DFPH.                         11.2000:   FLUID PH
RM  .OHMM                       .2800:   RM
RMT .DEGF                     70.0000:   RM TEMP
RMF .OHMM                       .2300:   RMF
RMFT.DEGF                     70.0000:   RMF TEMP
FSC .                               M:   RMF CODE
RMC .OHMM                       .4000:   RMC
RMCT.DEGF                     70.0000:   RMC TEMP
CMC .                               M:   RMC CODE
TMAX.DEGF                    178.0000:   MAX REC TEMP
TIMC.                          8.0000:   TIME SINCE CIRCLN
~PARAMETER INFORMATION (zones)
#MNEM.UNIT                       Value     Description
#=========                       =====     ===========
#ZONATION                          FDC:   ZONATION NAME
#ZONE                            RUN_3:   ZONE NAME
TOP .                       8480.0000:   TOP DEPTH
BOT .                      13304.0000:   BOTTOM DEPTH
RUN .                               3:   RUN NUMBER
LCCD.                             440:   LOGGING CONTRACTOR
SRVC.                    Schlumberger:   LOGGING CONT NAME
DICO.          QC Data Collectors Ltd:   DIG COMPANY NAME
LDAT.                      01/30/1983:   DATE LOGGED
ELD .F                        95.0000:   LOG DATUM ELEVATION
TDD .F                     13308.0000:   TOTAL DEPTH DRILLER
TDL .F                     13305.0000:   TOTAL DEPTH LOGGER
BOTL.F                     13304.0000:   BOTTOM DEPTH LOGGED
TOPL.F                      8480.0000:   TOP DEPTH LOGGED
CS1 .IN                       11.7500:   CASING SIZE 1
BS1 .IN                        9.8750:   BIT SIZE 1
DDB1.F                     13308.0000:   DEPTH DRILLED BIT 1
BHF .                              99:   FLUID CODE
DPT .                   Miscellaneous:   DRILLING FLUID TYPE
MUDD.                         15.6000:   FLUID DENSITY
MUDV.                         55.0000:   FLUID VISCOSITY
DFPH.                         10.7000:   FLUID PH
FL  .                          3.6000:   FLUID LOSS
RM  .OHMM                       .8600:   RM
RMT .DEGF                     70.0000:   RM TEMP
RMF .OHMM                       .4200:   RMF
RMFT.DEGF                     70.0000:   RMF TEMP
FSC .                               M:   RMF CODE
RMC .OHMM                      1.6700:   RMC
RMCT.DEGF                     70.0000:   RMC TEMP
CMC .                               M:   RMC CODE
TMAX.DEGF                    260.0000:   MAX REC TEMP
TIMC.                          8.5000:   TIME SINCE CIRCLN
~PARAMETER INFORMATION (zones)
#MNEM.UNIT                       Value     Description
#=========                       =====     ===========
#ZONATION                          FDC:   ZONATION NAME
#ZONE                            RUN_4:   ZONE NAME
TOP .                      12060.0000:   TOP DEPTH
BOT .                      14644.0000:   BOTTOM DEPTH
RUN .                               4:   RUN NUMBER
LCCD.                             440:   LOGGING CONTRACTOR
SRVC.                    Schlumberger:   LOGGING CONT NAME
DICO.          QC Data Collectors Ltd:   DIG COMPANY NAME
LDAT.                      02/16/1983:   DATE LOGGED
ELD .F                        95.0000:   LOG DATUM ELEVATION
TDD .F                     14641.0000:   TOTAL DEPTH DRILLER
TDL .F                     14647.0000:   TOTAL DEPTH LOGGER
BOTL.F                     14644.0000:   BOTTOM DEPTH LOGGED
TOPL.F                     12060.0000:   TOP DEPTH LOGGED
CS1 .IN                       11.7500:   CASING SIZE 1
BS1 .IN                        9.8750:   BIT SIZE 1
DDB1.F                     14641.0000:   DEPTH DRILLED BIT 1
BHF .                              99:   FLUID CODE
DPT .                   Miscellaneous:   DRILLING FLUID TYPE
MUDD.                         15.6000:   FLUID DENSITY
MUDV.                         55.0000:   FLUID VISCOSITY
DFPH.                         11.5000:   FLUID PH
FL  .                          3.2000:   FLUID LOSS
RM  .OHMM                       .6900:   RM
RMT .DEGF                     75.0000:   RM TEMP
RMF .OHMM                       .4400:   RMF
RMFT.DEGF                     75.0000:   RMF TEMP
FSC .                               M:   RMF CODE
RMC .OHMM                       .9400:   RMC
RMCT.DEGF                     75.0000:   RMC TEMP
CMC .                               M:   RMC CODE
TMAX.DEGF                    284.0000:   MAX REC TEMP
TIMC.                         13.0000:   TIME SINCE CIRCLN
~PARAMETER INFORMATION (zones)
#MNEM.UNIT                       Value     Description
#=========                       =====     ===========
#ZONATION                          FDC:   ZONATION NAME
#ZONE                            RUN_2:   ZONE NAME
TOP .                       3894.0000:   TOP DEPTH
BOT .                      14644.5000:   BOTTOM DEPTH
RUN .                               2:   RUN NUMBER
LCCD.                             440:   LOGGING CONTRACTOR
SRVC.                    Schlumberger:   LOGGING CONT NAME
DICO.          QC Data Collectors Ltd:   DIG COMPANY NAME
LDAT.                      12/10/1982:   DATE LOGGED
ELD .F                        95.0000:   LOG DATUM ELEVATION
TDD .F                      8594.0000:   TOTAL DEPTH DRILLER
TDL .F                      8592.0000:   TOTAL DEPTH LOGGER
BOTL.F                      8594.0000:   BOTTOM DEPTH LOGGED
TOPL.F                      4037.0000:   TOP DEPTH LOGGED
CS1 .IN                       16.0000:   CASING SIZE 1
BS1 .IN                       14.7500:   BIT SIZE 1
DDB1.F                      8594.0000:   DEPTH DRILLED BIT 1
BHF .                              99:   FLUID CODE
DPT .                   Miscellaneous:   DRILLING FLUID TYPE
MUDD.                         13.1000:   FLUID DENSITY
MUDV.                         45.0000:   FLUID VISCOSITY
DFPH.                         11.5000:   FLUID PH
FL  .                          3.0000:   FLUID LOSS
RM  .OHMM                       .7500:   RM
RMT .DEGF                     75.0000:   RM TEMP
RMF .OHMM                       .5500:   RMF
RMFT.DEGF                     75.0000:   RMF TEMP
FSC .                               M:   RMF CODE
RMC .OHMM                       .8000:   RMC
RMCT.DEGF                     75.0000:   RMC TEMP
CMC .                               M:   RMC CODE
TMAX.DEGF                    195.0000:   MAX REC TEMP
TIMC.                          7.0000:   TIME SINCE CIRCLN
~Curve Information Block
#MNEM.UNIT                    API CODE    No Description
#=========                    ========    == ===========
DEPT.F                   00 001 00 00:     1  DEPTH
CILD.MMHO                            :     2  Deep Induction Conductivity
DT.US/F                              :     3  Sonic Transit Time
GR.GAPI                              :     4  Gamma Ray
ILD.OHMM                             :     5  Deep Induction Resistivity
ILM.OHMM                             :     6  Medium Induction Resistivity
SFL.OHMM                             :     7  Medium Resistivity
SP.MV                                :     8  Spontaneous Potential
CALI.IN                              :     9  Caliper
GR.GAPI                              :    10  Gamma Ray
RHOB.G/C3                            :    11  Bulk Density
~ASCII
# ...
 3111.0000  1035.0625   135.4651    77.7795      .9659      .9536      .8679    -1.3291  -999.2500  -999.2500  -999.2500
 3111.5000  1034.0645   135.9780    77.8136      .9660      .9478      .8727    -1.4207  -999.2500  -999.2500  -999.2500
 3112.0000  1028.6914   136.0811    77.7701      .9661      .9418      .8826    -1.5123  -999.2500  -999.2500  -999.2500
 3112.5000  1021.9531   135.5964    77.7266      .9678      .9358      .8926    -1.7250  -999.2500  -999.2500  -999.2500
 3113.0000  1015.2187   134.5823    77.5288      .9703      .9403      .9027    -2.0056  -999.2500  -999.2500  -999.2500
 3113.5000  1009.1846   133.5674    76.9364      .9727      .9471      .9088    -2.2728  -999.2500  -999.2500  -999.2500
 3114.0000  1007.5166   132.5017    75.9139      .9752      .9514      .9082    -2.1532  -999.2500  -999.2500  -999.2500
 3114.5000  1005.8486   131.3003    74.9945      .9684      .9502      .9075    -2.0337  -999.2500  -999.2500  -999.2500
 3115.0000  1004.1797   129.2625    74.0750      .9598      .9490      .9069    -1.8933  -999.2500  -999.2500  -999.2500
 3115.5000  1014.2031   131.1926    73.4802      .9530      .9463      .9035    -1.7316  -999.2500  -999.2500  -999.2500
 3116.0000  1029.1523   135.9910    73.1459      .9488      .9374      .8956    -1.5699  -999.2500  -999.2500  -999.2500
 3116.5000  1045.6816   138.4944    73.0313      .9357      .9286      .8878    -1.4346  -999.2500  -999.2500  -999.2500
 3117.0000  1065.9434   140.1775    73.3538      .9198      .9202      .8798    -1.3745  -999.2500  -999.2500  -999.2500
 3117.5000  1086.1914   139.3484    73.6516      .9035      .9147      .8635    -1.3145  -999.2500  -999.2500  -999.2500
 3118.0000  1106.3789   136.5662    73.6821      .8875      .9093      .8476    -1.2544  -999.2500  -999.2500  -999.2500
 3118.5000  1122.3105   135.2620    73.7126      .8764      .9042      .8320    -1.2726  -999.2500  -999.2500  -999.2500
 3119.0000  1130.5137   134.2720    72.8203      .8742      .9051      .8176    -1.3184  -999.2500  -999.2500  -999.2500
 3119.5000  1125.4180   133.0259    71.3763      .8775      .9061      .8040    -1.3666  -999.2500  -999.2500  -999.2500
 3120.0000  1107.0645   129.8909    70.1115      .8911      .9070      .7906    -1.4268  -999.2500  -999.2500  -999.2500
 3120.5000  1081.0527   124.3802    67.2974      .9050      .9242      .8043    -1.4869  -999.2500  -999.2500  -999.2500
 3121.0000  1055.0547   118.8550    63.9235      .9323      .9417      .8232    -1.5915  -999.2500  -999.2500  -999.2500
 3121.5000  1028.5664   115.8881    61.4308      .9639      .9570      .8685    -2.0054  -999.2500  -999.2500  -999.2500
 3122.0000  1002.0781   114.7349    59.6889      .9967      .9713      .9084    -2.5685  -999.2500  -999.2500  -999.2500
 3122.5000   975.6143   113.6686    57.9720     1.0137      .9863      .9408    -3.0473  -999.2500  -999.2500  -999.2500
 3123.0000   949.1865   112.6232    56.2384     1.0267     1.0019      .9745    -3.1704  -999.2500  -999.2500  -999.2500
 3123.5000   922.7598   111.5991    54.2958     1.0398     1.0156      .9896    -3.2936  -999.2500  -999.2500  -999.2500
 3124.0000   927.6475   110.8093    53.9059     1.0302     1.0210      .9924    -3.3751  -999.2500  -999.2500  -999.2500
 3124.5000   938.6338   113.8203    54.9244     1.0164     1.0198      .9953    -3.3716  -999.2500  -999.2500  -999.2500
 3125.0000   962.4736   116.4423    55.8385     1.0028     1.0040      .9711    -3.3681  -999.2500  -999.2500  -999.2500
 3125.5000   991.2383   118.6470    55.6320      .9866      .9885      .9322    -3.3647  -999.2500  -999.2500  -999.2500
 3126.0000  1018.4854   119.5090    54.9316      .9674      .9731      .8727    -3.2894  -999.2500  -999.2500  -999.2500
 3126.5000  1040.3242   119.5000    53.7391      .9507      .9527      .8285    -3.1115  -999.2500  -999.2500  -999.2500
 3127.0000  1062.1758   119.7679    53.6817      .9434      .9327      .8096    -2.9337  -999.2500  -999.2500  -999.2500
 3127.5000  1072.7129   120.2877    53.9547      .9361      .9159      .8112    -2.7516  -999.2500  -999.2500  -999.2500
 3128.0000  1072.2695   118.4146    55.2686      .9290      .9058      .8297    -2.5568  -999.2500  -999.2500  -999.2500
 3128.5000  1066.4609    88.2581    57.5171      .9231      .8959      .8476    -2.3619  -999.2500  -999.2500  -999.2500
 3129.0000  1061.7617    33.5760    59.4734      .9172      .8855      .8645    -2.0994  -999.2500  -999.2500  -999.2500
 3129.5000  1059.1387    48.4438    60.7712      .9113      .8754      .8804    -1.8089  -999.2500  -999.2500  -999.2500
 3130.0000  1076.4297    69.7129    61.0838      .8956      .8653      .8725    -1.7246  -999.2500  -999.2500  -999.2500
 3130.5000  1125.0742    96.5875    60.7939      .8634      .8492      .8648    -1.7252  -999.2500  -999.2500  -999.2500
 3131.0000  1173.7441   126.1023    59.4159      .8374      .8314      .8416    -1.8178  -999.2500  -999.2500  -999.2500
 3131.5000  1211.3301   126.5952    57.0370      .8123      .8140      .8001    -2.1995  -999.2500  -999.2500  -999.2500
 3132.0000  1246.3965   126.8588    54.4952      .7879      .7995      .7712    -2.5813  -999.2500  -999.2500  -999.2500
 3132.5000  1277.7773   126.8466    52.5945      .7749      .7888      .7474    -2.9517  -999.2500  -999.2500  -999.2500
 3133.0000  1305.3672   123.4895    52.3460      .7654      .7782      .7246    -3.2781  -999.2500  -999.2500  -999.2500
 3133.5000  1323.4629   115.8745    52.6173      .7578      .7670      .6998    -3.5606  -999.2500  -999.2500  -999.2500
 3134.0000  1337.7773   109.7032    53.2073      .7506      .7525      .6719    -3.4647  -999.2500  -999.2500  -999.2500
 3134.5000  1363.8496   103.9480    51.8745      .7367      .7383      .7739    -3.3689  -999.2500  -999.2500  -999.2500
 3135.0000  1421.8926   101.4252    48.5544      .7155      .7161      .9446    -3.1355  -999.2500  -999.2500  -999.2500
 3135.5000  1444.2695   106.6152    47.1088      .7090      .7054     1.0171    -2.8456  -999.2500  -999.2500  -999.2500
 3136.0000  1422.9570   115.7816    48.1498      .7163      .7049      .9134    -2.5557  -999.2500  -999.2500  -999.2500
 3136.5000  1401.6445   130.5024    50.1947      .7236      .7115      .7429    -2.3987  -999.2500  -999.2500  -999.2500
 3137.0000  1364.4141   135.0098    53.0142      .7374      .7340      .6169    -2.5143  -999.2500  -999.2500  -999.2500
 3137.5000  1319.7559   133.5159    56.6371      .7578      .7572      .6473    -2.6299  -999.2500  -999.2500  -999.2500
 3138.0000  1269.7891   131.5718    59.6069      .7787      .7832      .7050    -2.6943  -999.2500  -999.2500  -999.2500
 3138.5000  1214.5605   129.7820    60.0036      .8286      .8114      .7674    -2.6021  -999.2500  -999.2500  -999.2500
 3139.0000  1150.8418   128.3779    59.7844      .8861      .8439      .8323    -2.2063  -999.2500  -999.2500  -999.2500
 3139.5000  1079.8789   127.2261    59.9161      .9399      .8889      .8978    -1.7486  -999.2500  -999.2500  -999.2500
 3140.0000  1022.0332   126.6406    60.5695      .9897      .9335      .9511    -1.4293  -999.2500  -999.2500  -999.2500
 3140.5000   970.3525   126.5585    61.7493     1.0272      .9741      .9959    -1.1853  -999.2500  -999.2500  -999.2500
 3141.0000   933.6240   126.8179    62.6293     1.0561     1.0124     1.0285     -.9412  -999.2500  -999.2500  -999.2500
 3141.5000   902.9629   126.5676    63.1393     1.0704     1.0461     1.0126    -1.3574  -999.2500  -999.2500  -999.2500
 3142.0000   878.8604   126.0344    63.0630     1.0849     1.0584     1.0022    -2.2673  -999.2500  -999.2500  -999.2500
 3142.5000   864.0264   127.2480    62.3546     1.0897     1.0685      .9950    -3.7615  -999.2500  -999.2500  -999.2500
 3143.0000   862.6904   133.4927    62.9681     1.0910     1.0721      .9879    -3.6615  -999.2500  -999.2500  -999.2500
 3143.5000   861.3535   140.2512    64.1403     1.0923     1.0739      .9933    -3.2293  -999.2500  -999.2500  -999.2500
 3144.0000   861.5850   143.1277    65.7925     1.0936     1.0757     1.0008    -2.7639  -999.2500  -999.2500  -999.2500
