~VERSION INFORMATION
VERS.                             2.0:   CWLS Log ASCII Standard-VERSION 2.0
WRAP.                              NO:   One line per depth step
~Well Information Block
STRT.F                      1319.0000:   Top Depth
STOP.F                      7911.0000:   Bottom Depth
STEP.F                         .50000:   Depth Increment
NULL.                        -999.250:   Null Value
FLD .                    MU BLK A 167:   Field Name
WELL.       OCSG08096   001 ST00 BP00:   NAME
API .                    427124009800:   WELL API
EDF .F                        84.0000:   ELEV DRILL FLOOR
COMP.         UNION PACIFIC RESOURCES:   OPERATOR
BN  .                           A 167:   BLOCK
CTRY.                             USA:   COUNTRY NAME
CNTY.                        M I E AD:   COUNTY NAME
EKB .F                        85.0000:   ELEV KELLY BUSHING
TDD .F                       7913.000:   FINAL TD DRILLER
STAT.                           TEXAS:   STATE NAME
UWI .                    427124009800:   WELL API
DICO.               IHS : Digitizing Company
~PARAMETER INFORMATION (zones)
#MNEM.UNIT                       Value     Description
#=========                       =====     ===========
#ZONATION                          DIL:   ZONATION NAME
#ZONE                            RUN_2:   ZONE NAME
TOP .                       4520.0000:   TOP DEPTH
BOT .                       7911.0000:   BOTTOM DEPTH
RUN .                               2:   RUN NUMBER
LCCD.                             440:   LOGGING CONTRACTOR
SRVC.                    Schlumberger:   LOGGING CONT NAME
DICO.          QC Data Collectors Ltd:   DIG COMPANY NAME
LDAT.                      05/30/1988:   DATE LOGGED
ELD .F                        85.0000:   LOG DATUM ELEVATION
TDD .F                      7904.0000:   TOTAL DEPTH DRILLER
TDL .F                      7913.0000:   TOTAL DEPTH LOGGER
BOTL.F                      7911.0000:   BOTTOM DEPTH LOGGED
TOPL.F                      4520.0000:   TOP DEPTH LOGGED
CS1 .IN                       13.3750:   CASING SIZE 1
BS1 .IN                       12.2500:   BIT SIZE 1
DDB1.F                      7904.0000:   DEPTH DRILLED BIT 1
BHF .                              80:   FLUID CODE
DPT .                      Salt Water:   DRILLING FLUID TYPE
MUDD.                         13.3000:   FLUID DENSITY
MUDV.                         44.0000:   FLUID VISCOSITY
DFPH.                          9.6000:   FLUID PH
FL  .                         11.9000:   FLUID LOSS
RM  .OHMM                       .2330:   RM
RMT .DEGF                     75.0000:   RM TEMP
RMF .OHMM                       .1510:   RMF
RMFT.DEGF                     75.0000:   RMF TEMP
FSC .                               M:   RMF CODE
RMC .OHMM                       .4890:   RMC
RMCT.DEGF                     75.0000:   RMC TEMP
CMC .                               M:   RMC CODE
TMAX.DEGF                    182.0000:   MAX REC TEMP
TIMC.                         10.7500:   TIME SINCE CIRCLN
~PARAMETER INFORMATION (zones)
#MNEM.UNIT                       Value     Description
#=========                       =====     ===========
#ZONATION                          DIL:   ZONATION NAME
#ZONE                            RUN_1:   ZONE NAME
TOP .                       1319.0000:   TOP DEPTH
BOT .                       7911.5000:   BOTTOM DEPTH
RUN .                               1:   RUN NUMBER
LCCD.                             440:   LOGGING CONTRACTOR
SRVC.                    Schlumberger:   LOGGING CONT NAME
DICO.          QC Data Collectors Ltd:   DIG COMPANY NAME
LDAT.                      05/21/1988:   DATE LOGGED
ELD .F                        85.0000:   LOG DATUM ELEVATION
TDD .F                      4550.0000:   TOTAL DEPTH DRILLER
TDL .F                      4551.0000:   TOTAL DEPTH LOGGER
BOTL.F                      4549.0000:   BOTTOM DEPTH LOGGED
TOPL.F                      1394.0000:   TOP DEPTH LOGGED
CS1 .IN                       20.0000:   CASING SIZE 1
BS1 .IN                       17.5000:   BIT SIZE 1
DDB1.F                      4550.0000:   DEPTH DRILLED BIT 1
BHF .                              80:   FLUID CODE
DPT .                      Salt Water:   DRILLING FLUID TYPE
MUDD.                         10.0000:   FLUID DENSITY
MUDV.                         38.0000:   FLUID VISCOSITY
DFPH.                          8.4000:   FLUID PH
FL  .                            NULL:   FLUID LOSS
RM  .OHMM                       .3040:   RM
RMT .DEGF                     82.0000:   RM TEMP
RMF .OHMM                       .2310:   RMF
RMFT.DEGF                     82.0000:   RMF TEMP
FSC .                               M:   RMF CODE
RMC .OHMM                       .4210:   RMC
RMCT.DEGF                     82.0000:   RMC TEMP
CMC .                               M:   RMC CODE
TMAX.DEGF                    130.0000:   MAX REC TEMP
TIMC.                          5.0000:   TIME SINCE CIRCLN
~Curve Information Block
#MNEM.UNIT                    API CODE    No Description
#=========                    ========    == ===========
DEPT.F                   00 001 00 00:     1  DEPTH
DCAL.IN                              :     2  Differential Caliper
DT.US/F                              :     3  Sonic Transit Time
GR.GAPI                              :     4  Gamma Ray
ILD.OHMM                             :     5  Deep Induction Resistivity
ILM.OHMM                             :     6  Medium Induction Resistivity
SFL.OHMM                             :     7  Medium Resistivity
SP.MV                                :     8  Spontaneous Potential
~ASCII
# ...
 4003.5000  -999.2500   156.2979    57.4728      .7605      .6748      .7427   -60.7163
 4004.0000  -999.2500   146.5549    56.4827      .7925      .6990      .7864   -61.1089
 4004.5000  -999.2500   137.3279    56.2115      .8259      .7255      .8293   -60.9814
 4005.0000  -999.2500   133.2656    56.4284      .8561      .7469      .8574   -60.5978
 4005.5000  -999.2500   131.6672    56.7974      .8718      .7635      .8753   -60.4849
 4006.0000  -999.2500   132.4902    57.0667      .8698      .7766      .8763   -60.4103
 4006.5000  -999.2500   135.6780    56.8802      .8615      .7785      .8711   -60.3438
 4007.0000  -999.2500   136.6638    57.2558      .8521      .7763      .8664   -60.2771
 4007.5000  -999.2500   136.6562    58.5905      .8432      .7683      .8582   -60.2076
 4008.0000  -999.2500   136.6631    60.0828      .8324      .7559      .8478   -60.1624
 4008.5000  -999.2500   136.8264    60.6099      .8173      .7478      .8341   -60.1346
 4009.0000  -999.2500   137.1318    55.2637      .8045      .7410      .8238   -60.1207
 4009.5000  -999.2500   137.4839    51.4728      .7938      .7282      .8151   -60.1299
 4010.0000  -999.2500   137.8240    48.6013      .7834      .7200      .8063   -60.1898
 4010.5000  -999.2500   138.1443    47.3286      .7734      .7140      .7981   -60.3288
 4011.0000  -999.2500   138.1550    49.4360      .7637      .7120      .7911   -60.4761
 4011.5000  -999.2500   138.3481    53.1053      .7538      .7114      .7859   -60.6038
 4012.0000  -999.2500   138.7839    55.5812      .7443      .7109      .7820   -60.5183
 4012.5000  -999.2500   139.5679    55.6939      .7394      .7095      .7747   -60.3490
 4013.0000  -999.2500   139.9150    55.3669      .7332      .7053      .7653   -60.5626
 4013.5000  -999.2500   140.4829    55.3099      .7264      .6980      .7539   -60.9117
 4014.0000  -999.2500   141.4404    57.4096      .7206      .6884      .7422   -61.2030
 4014.5000  -999.2500   142.0576    59.9103      .7155      .6782      .7328   -60.8226
 4015.0000  -999.2500   141.2769    62.1580      .7108      .6692      .7269   -60.2080
 4015.5000  -999.2500   139.9341    63.6676      .7064      .6609      .7252   -59.9929
 4016.0000  -999.2500   139.5513    64.8795      .7062      .6534      .7232   -60.0469
 4016.5000  -999.2500   139.8328    66.2483      .7068      .6499      .7208   -60.2308
 4017.0000  -999.2500   140.5718    64.8051      .7099      .6496      .7204   -60.4111
 4017.5000  -999.2500   140.8452    61.4907      .7135      .6509      .7217   -60.2774
 4018.0000  -999.2500   141.1360    57.2682      .7190      .6546      .7267   -60.2438
 4018.5000  -999.2500   142.5354    53.6672      .7260      .6601      .7369   -60.2521
 4019.0000  -999.2500   144.4080    52.7806      .7318      .6620      .7504   -60.2609
 4019.5000  -999.2500   145.6311    53.1320      .7347      .6657      .7582   -60.2718
 4020.0000  -999.2500   145.7998    54.1075      .7330      .6722      .7528   -60.2913
 4020.5000  -999.2500   143.3105    55.5961      .7294      .6797      .7425   -60.3805
 4021.0000  -999.2500   140.1746    57.0995      .7260      .6853      .7416   -60.4119
 4021.5000  -999.2500   137.9419    58.4894      .7274      .6897      .7509   -60.4085
 4022.0000  -999.2500   137.9583    59.7515      .7311      .6926      .7648   -60.4177
 4022.5000  -999.2500   139.1450    61.0751      .7356      .6909      .7777   -60.4207
 4023.0000  -999.2500   140.4114    62.1078      .7422      .6976      .7911   -60.4112
 4023.5000  -999.2500   140.2749    62.6663      .7630      .7123      .8051   -60.4016
 4024.0000  -999.2500   139.3062    62.9526      .7848      .7321      .8197   -60.3920
 4024.5000  -999.2500   138.0950    63.1122      .8061      .7493      .8339   -60.3824
 4025.0000  -999.2500   137.4651    63.3301      .8224      .7625      .8437   -60.3729
 4025.5000  -999.2500   136.8923    64.4330      .8342      .7720      .8498   -60.3633
 4026.0000  -999.2500   135.6768    66.3928      .8426      .7768      .8504   -60.3538
 4026.5000  -999.2500   134.4641    67.6718      .8432      .7752      .8501   -60.3442
 4027.0000  -999.2500   134.2185    68.3248      .8394      .7722      .8495   -60.3347
 4027.5000  -999.2500   135.1960    67.2649      .8347      .7690      .8484   -60.3251
 4028.0000  -999.2500   135.9856    64.9564      .8278      .7664      .8443   -60.3155
 4028.5000  -999.2500   135.6365    62.2300      .8188      .7592      .8367   -60.3059
 4029.0000  -999.2500   135.9441    60.5573      .8071      .7477      .8254   -60.2964
 4029.5000  -999.2500   137.5518    62.1084      .7910      .7363      .8100   -60.2868
 4030.0000  -999.2500   139.4067    63.6986      .7793      .7325      .7981   -60.2772
 4030.5000  -999.2500   139.1282    63.8710      .7781      .7431      .7964   -60.2676
 4031.0000  -999.2500   138.1011    63.7357      .7843      .7521      .8036   -60.2581
 4031.5000  -999.2500   136.7886    65.1710      .7965      .7570      .8145   -60.2485
 4032.0000  -999.2500   135.5188    66.9207      .8084      .7578      .8243   -60.2390
 4032.5000  -999.2500   134.5378    66.3792      .8202      .7519      .8332   -60.2294
 4033.0000  -999.2500   135.6516    63.9963      .8257      .7429      .8338   -60.2198
 4033.5000  -999.2500   137.7734    61.5167      .8289      .7336      .8312   -60.2103
 4034.0000  -999.2500   139.3704    59.5481      .8247      .7247      .8254   -60.2007
 4034.5000  -999.2500   139.9609    59.7175      .8168      .7186      .8149   -60.1911
 4035.0000  -999.2500   139.3943    61.9496      .8068      .7148      .8044   -60.1815
 4035.5000  -999.2500   138.3096    64.5558      .7974      .7129      .7937   -60.1720
 4036.0000  -999.2500   137.7456    68.4744      .7877      .7149      .7832   -60.1624
 4036.5000  -999.2500   138.0254    69.7780      .7798      .7162      .7792   -60.1528
 4037.0000  -999.2500   138.5488    65.1698      .7731      .7167      .7763   -60.1432
 4037.5000  -999.2500   139.0623    60.0741      .7679      .7152      .7736   -60.1337
 4038.0000  -999.2500   139.5994    57.7985      .7649      .7136      .7742   -60.1241
 4038.5000  -999.2500   140.4922    58.4379      .7614      .7132      .7748   -60.1146
 4039.0000  -999.2500   140.9302    59.9327      .7556      .7134      .7769   -60.1050
 4039.5000  -999.2500   140.7085    61.6110      .7477      .7143      .7790   -60.0955
 4040.0000  -999.2500   140.3877    63.1491      .7358      .7157      .7812   -60.0859
 4040.5000  -999.2500   140.3081    64.3889      .7334      .7109      .7834   -60.0763
 4041.0000  -999.2500   141.5134    64.2550      .7309      .7030      .7854   -60.1446
 4041.5000  -999.2500   144.0493    60.8035      .7260      .6954      .7844   -60.1343
 4042.0000  -999.2500   146.4102    57.2384      .7213      .6883      .7809   -60.1627
 4042.5000  -999.2500   147.2766    58.0050      .7192      .6833      .7746   -60.2114
 4043.0000  -999.2500   146.4827    59.3007      .7146      .6778      .7673   -60.2081
 4043.5000  -999.2500   144.8108    59.5151      .7092      .6715      .7615   -60.1724
 4044.0000  -999.2500   143.2300    58.5285      .7040      .6643      .7558   -60.1044
 4044.5000  -999.2500   143.0227    57.8487      .6993      .6565      .7490   -59.9779
 4045.0000  -999.2500   143.8938    57.2781      .6989      .6497      .7421   -59.8959
 4045.5000  -999.2500   144.8452    56.8880      .6972      .6433      .7366   -59.9729
 4046.0000  -999.2500   145.4077    56.7729      .6945      .6392      .7324   -59.9446
 4046.5000  -999.2500   145.7144    57.3538      .6924      .6370      .7283   -59.8054
 4047.0000  -999.2500   145.6516    58.8113      .6907      .6376      .7300   -59.6902
 4047.5000  -999.2500   145.1523    60.7365      .6894      .6423      .7326   -59.6399
 4048.0000  -999.2500   144.2600    63.8723      .6899      .6495      .7374   -59.5911
 4048.5000  -999.2500   143.3625    65.9326      .6939      .6564      .7465   -59.5571
