~VERSION INFORMATION
VERS.                             2.0:   CWLS Log ASCII Standard-VERSION 2.0
WRAP.                              NO:   One line per depth step
~Well Information Block
STRT.F                      1302.0000:   Top Depth
STOP.F                     14644.0000:   Bottom Depth
STEP.F                         .50000:   Depth Increment
NULL.                        -999.250:   Null Value
FLD .                    MU BLK A 152:   Field Name
WELL.       OCSG04991   001 ST00 BP00:   NAME
API .                    427124006100:   WELL API
EDF .F                        94.0000:   ELEV DRILL FLOOR
COMP.            TRANSCO EXPL PROD CO:   OPERATOR
BN  .                           A 152:   BLOCK
CTRY.                             USA:   COUNTRY NAME
CNTY.                        M I E AD:   COUNTY NAME
EKB .F                        95.0000:   ELEV KELLY BUSHING
TDD .F                      14647.000:   FINAL TD DRILLER
STAT.                           TEXAS:   STATE NAME
UWI .                    427124006100:   WELL API
DICO.               IHS : Digitizing Company
~PARAMETER INFORMATION (zones)
#MNEM.UNIT                       Value     Description
#=========                       =====     ===========
#ZONATION                          DIL:   ZONATION NAME
#ZONE                            RUN_1:   ZONE NAME
TOP .                       1302.0000:   TOP DEPTH
BOT .                      14644.5000:   BOTTOM DEPTH
RUN .                               1:   RUN NUMBER
LCCD.                             440:   LOGGING CONTRACTOR
SRVC.                    Schlumberger:   LOGGING CONT NAME
DICO.          QC Data Collectors Ltd:   DIG COMPANY NAME
LDAT.                      11/20/1982:   DATE LOGGED
ELD .F                        95.0000:   LOG DATUM ELEVATION
TDD .F                      4095.0000:   TOTAL DEPTH DRILLER
TDL .F                      4095.0000:   TOTAL DEPTH LOGGER
BOTL.F                      4092.0000:   BOTTOM DEPTH LOGGED
TOPL.F                      1334.0000:   TOP DEPTH LOGGED
CS1 .IN                       20.0000:   CASING SIZE 1
BS1 .IN                       12.2500:   BIT SIZE 1
DDB1.F                      4095.0000:   DEPTH DRILLED BIT 1
BHF .                              99:   FLUID CODE
DPT .                   Miscellaneous:   DRILLING FLUID TYPE
MUDD.                          9.4000:   FLUID DENSITY
MUDV.                         43.0000:   FLUID VISCOSITY
DFPH.                         11.2000:   FLUID PH
RM  .OHMM                       .2800:   RM
RMT .DEGF                     70.0000:   RM TEMP
RMF .OHMM                       .2300:   RMF
RMFT.DEGF                     70.0000:   RMF TEMP
FSC .                               M:   RMF CODE
RMC .OHMM                       .4000:   RMC
RMCT.DEGF                     70.0000:   RMC TEMP
CMC .                               M:   RMC CODE
TMAX.DEGF                    178.0000:   MAX REC TEMP
TIMC.                          8.0000:   TIME SINCE CIRCLN
~PARAMETER INFORMATION (zones)
#MNEM.UNIT                       Value     Description
#=========                       =====     ===========
#ZONATION                          FDC:   ZONATION NAME
#ZONE                            RUN_3:   ZONE NAME
TOP .                       8480.0000:   TOP DEPTH
BOT .                      13304.0000:   BOTTOM DEPTH
RUN .                               3:   RUN NUMBER
LCCD.                             440:   LOGGING CONTRACTOR
SRVC.                    Schlumberger:   LOGGING CONT NAME
DICO.          QC Data Collectors Ltd:   DIG COMPANY NAME
LDAT.                      01/30/1983:   DATE LOGGED
ELD .F                        95.0000:   LOG DATUM ELEVATION
TDD .F                     13308.0000:   TOTAL DEPTH DRILLER
TDL .F                     13305.0000:   TOTAL DEPTH LOGGER
BOTL.F                     13304.0000:   BOTTOM DEPTH LOGGED
TOPL.F                      8480.0000:   TOP DEPTH LOGGED
CS1 .IN                       11.7500:   CASING SIZE 1
BS1 .IN                        9.8750:   BIT SIZE 1
DDB1.F                     13308.0000:   DEPTH DRILLED BIT 1
BHF .                              99:   FLUID CODE
DPT .                   Miscellaneous:   DRILLING FLUID TYPE
MUDD.                         15.6000:   FLUID DENSITY
MUDV.                         55.0000:   FLUID VISCOSITY
DFPH.                         10.7000:   FLUID PH
FL  .                          3.6000:   FLUID LOSS
RM  .OHMM                       .8600:   RM
RMT .DEGF                     70.0000:   RM TEMP
RMF .OHMM                       .4200:   RMF
RMFT.DEGF                     70.0000:   RMF TEMP
FSC .                               M:   RMF CODE
RMC .OHMM                      1.6700:   RMC
RMCT.DEGF                     70.0000:   RMC TEMP
CMC .                               M:   RMC CODE
TMAX.DEGF                    260.0000:   MAX REC TEMP
TIMC.                          8.5000:   TIME SINCE CIRCLN
~PARAMETER INFORMATION (zones)
#MNEM.UNIT                       Value     Description
#=========                       =====     ===========
#ZONATION                          FDC:   ZONATION NAME
#ZONE                            RUN_4:   ZONE NAME
TOP .                      12060.0000:   TOP DEPTH
BOT .                      14644.0000:   BOTTOM DEPTH
RUN .                               4:   RUN NUMBER
LCCD.                             440:   LOGGING CONTRACTOR
SRVC.                    Schlumberger:   LOGGING CONT NAME
DICO.          QC Data Collectors Ltd:   DIG COMPANY NAME
LDAT.                      02/16/1983:   DATE LOGGED
ELD .F                        95.0000:   LOG DATUM ELEVATION
TDD .F                     14641.0000:   TOTAL DEPTH DRILLER
TDL .F                     14647.0000:   TOTAL DEPTH LOGGER
BOTL.F                     14644.0000:   BOTTOM DEPTH LOGGED
TOPL.F                     12060.0000:   TOP DEPTH LOGGED
CS1 .IN                       11.7500:   CASING SIZE 1
BS1 .IN                        9.8750:   BIT SIZE 1
DDB1.F                     14641.0000:   DEPTH DRILLED BIT 1
BHF .                              99:   FLUID CODE
DPT .                   Miscellaneous:   DRILLING FLUID TYPE
MUDD.                         15.6000:   FLUID DENSITY
MUDV.                         55.0000:   FLUID VISCOSITY
DFPH.                         11.5000:   FLUID PH
FL  .                          3.2000:   FLUID LOSS
RM  .OHMM                       .6900:   RM
RMT .DEGF                     75.0000:   RM TEMP
RMF .OHMM                       .4400:   RMF
RMFT.DEGF                     75.0000:   RMF TEMP
FSC .                               M:   RMF CODE
RMC .OHMM                       .9400:   RMC
RMCT.DEGF                     75.0000:   RMC TEMP
CMC .                               M:   RMC CODE
TMAX.DEGF                    284.0000:   MAX REC TEMP
TIMC.                         13.0000:   TIME SINCE CIRCLN
~PARAMETER INFORMATION (zones)
#MNEM.UNIT                       Value     Description
#=========                       =====     ===========
#ZONATION                          FDC:   ZONATION NAME
#ZONE                            RUN_2:   ZONE NAME
TOP .                       3894.0000:   TOP DEPTH
BOT .                      14644.5000:   BOTTOM DEPTH
RUN .                               2:   RUN NUMBER
LCCD.                             440:   LOGGING CONTRACTOR
SRVC.                    Schlumberger:   LOGGING CONT NAME
DICO.          QC Data Collectors Ltd:   DIG COMPANY NAME
LDAT.                      12/10/1982:   DATE LOGGED
ELD .F                        95.0000:   LOG DATUM ELEVATION
TDD .F                      8594.0000:   TOTAL DEPTH DRILLER
TDL .F                      8592.0000:   TOTAL DEPTH LOGGER
BOTL.F                      8594.0000:   BOTTOM DEPTH LOGGED
TOPL.F                      4037.0000:   TOP DEPTH LOGGED
CS1 .IN                       16.0000:   CASING SIZE 1
BS1 .IN                       14.7500:   BIT SIZE 1
DDB1.F                      8594.0000:   DEPTH DRILLED BIT 1
BHF .                              99:   FLUID CODE
DPT .                   Miscellaneous:   DRILLING FLUID TYPE
MUDD.                         13.1000:   FLUID DENSITY
MUDV.                         45.0000:   FLUID VISCOSITY
DFPH.                         11.5000:   FLUID PH
FL  .                          3.0000:   FLUID LOSS
RM  .OHMM                       .7500:   RM
RMT .DEGF                     75.0000:   RM TEMP
RMF .OHMM                       .5500:   RMF
RMFT.DEGF                     75.0000:   RMF TEMP
FSC .                               M:   RMF CODE
RMC .OHMM                       .8000:   RMC
RMCT.DEGF                     75.0000:   RMC TEMP
CMC .                               M:   RMC CODE
TMAX.DEGF                    195.0000:   MAX REC TEMP
TIMC.                          7.0000:   TIME SINCE CIRCLN
~Curve Information Block
#MNEM.UNIT                    API CODE    No Description
#=========                    ========    == ===========
DEPT.F                   00 001 00 00:     1  DEPTH
CILD.MMHO                            :     2  Deep Induction Conductivity
DT.US/F                              :     3  Sonic Transit Time
GR.GAPI                              :     4  Gamma Ray
ILD.OHMM                             :     5  Deep Induction Resistivity
ILM.OHMM                             :     6  Medium Induction Resistivity
SFL.OHMM                             :     7  Medium Resistivity
SP.MV                                :     8  Spontaneous Potential
CALI.IN                              :     9  Caliper
GR.GAPI                              :    10  Gamma Ray
RHOB.G/C3                            :    11  Bulk Density
~ASCII
# ...
14601.5000  1605.5215    81.5085  -999.2500      .6135      .7762     1.3667   -35.9025     9.8386    43.0253     2.3527
14602.0000  1542.4238    81.3381  -999.2500      .6377      .7912     1.2217   -32.5283     9.8414    45.8147     2.3465
14602.5000  1478.7480    80.9089  -999.2500      .6630      .8081     1.1157   -30.1547     9.8479    48.8925     2.3890
14603.0000  1418.9199    80.3774  -999.2500      .6902      .8475     1.1762   -30.1595     9.8551    50.1738     2.4383
14603.5000  1361.9766    79.6272  -999.2500      .7199      .8885     1.3287   -31.7644     9.8732    50.9951     2.4577
14604.0000  1310.1328    79.0500  -999.2500      .7507      .9226     1.5531   -33.3646     9.8705    50.7899     2.4424
14604.5000  1265.7910    78.7107  -999.2500      .7803      .9543     1.7439   -33.8933     9.8667    50.0260     2.4197
14605.0000  1222.2168    78.8770  -999.2500      .8086      .9782     1.8471   -34.0314     9.8476    49.5147     2.4067
14605.5000  1180.2793    79.0946  -999.2500      .8379     1.0026     1.9553   -31.0103     9.8285    49.9254     2.4059
14606.0000  1139.1113    79.6309  -999.2500      .8657     1.0209     2.0685   -27.4427     9.8164    49.9795     2.4040
14606.5000  1098.9063    80.1533  -999.2500      .8926     1.0390     2.1390   -23.5850     9.8118    49.7494     2.3995
14607.0000  1058.6035    80.1639  -999.2500      .9204     1.0565     1.9292   -18.7605     9.8142    49.7623     2.4064
14607.5000  1027.5352    79.9277  -999.2500      .9457     1.0653     1.5534   -15.6763     9.8686    51.3838     2.4390
14608.0000   998.2949    78.4609  -999.2500      .9714     1.0788     1.2321   -13.4042     9.9228    57.5935     2.4889
14608.5000   978.3838    76.8834  -999.2500      .9930     1.0978     1.1066   -12.8966     9.9867    63.2513     2.5413
14609.0000   960.8301    77.0374  -999.2500     1.0021     1.1217     1.1483   -15.6956    10.0581    65.2719     2.5534
14609.5000   951.5723    77.6517  -999.2500     1.0114     1.1514     1.2966   -19.1086    10.0283    62.0586     2.5314
14610.0000   948.8965    78.1531  -999.2500     1.0207     1.1820     1.6046   -22.0381     9.9729    58.2440     2.5054
14610.5000   946.2217  -999.2500  -999.2500     1.0302     1.1910     1.9370   -25.0352     9.8255    53.7100     2.4850
14611.0000   937.1436  -999.2500  -999.2500     1.0408     1.1929     2.1149   -28.1001     9.6747    50.0925     2.4711
14611.5000   926.8760  -999.2500  -999.2500     1.0516     1.2110     2.2427   -28.8809     9.5327    47.0049     2.4669
14612.0000   911.9189  -999.2500  -999.2500     1.0671     1.2326     2.3092   -29.2833     9.3952    45.7112     2.4704
14612.5000   887.9199  -999.2500  -999.2500     1.0903     1.2550     2.4530   -28.6875     9.3722    45.2110     2.4753
14613.0000   864.5469  -999.2500  -999.2500     1.1139     1.2789     2.6607   -28.0929     9.3722    45.6583     2.4971
14613.5000   842.1836  -999.2500  -999.2500     1.1376     1.3032     2.8974   -26.4952     9.3428    46.9335     2.5348
14614.0000   821.4551  -999.2500  -999.2500     1.1614     1.3225     2.9935   -24.5760     9.3122    48.4366     2.5393
14614.5000   806.6904  -999.2500  -999.2500     1.1857     1.3407     2.6524   -23.0387     9.2045    49.8782     2.5169
14615.0000   795.6768  -999.2500  -999.2500     1.2030     1.3226     2.3011   -21.9003     9.0720    50.8934     2.4967
14615.5000   790.4707  -999.2500  -999.2500     1.2190     1.2924     2.0159   -20.8658     9.0330    50.0654     2.4778
14616.0000   789.0654  -999.2500  -999.2500     1.2270     1.2608     1.8344   -19.9352     9.0911    49.2375     2.4916
14616.5000   788.6611  -999.2500  -999.2500     1.2236     1.2284     1.7487   -18.1755     9.3001    50.6593     2.5185
14617.0000   793.3447  -999.2500  -999.2500     1.2198     1.1988     1.6735   -16.0050     9.5164    51.9012     2.5465
14617.5000   799.6807  -999.2500  -999.2500     1.2148     1.2088     1.5876   -14.1100     9.7343    53.0791     2.5669
14618.0000   804.6348  -999.2500  -999.2500     1.2098     1.2290     1.4952   -12.2537     9.8538    54.5970     2.5584
14618.5000   808.0615  -999.2500  -999.2500     1.2150     1.2638     1.4165   -11.0620     9.9294    56.2086     2.5516
14619.0000   793.6572  -999.2500  -999.2500     1.2253     1.2958     1.3515   -10.4409     9.9536    57.3199     2.5528
14619.5000   771.2939  -999.2500  -999.2500     1.2439     1.3208     1.3173   -11.5189     9.9612    56.5438     2.5533
14620.0000   745.0830  -999.2500  -999.2500     1.2682     1.3392     1.3620   -12.7178     9.9687    55.6418     2.5391
14620.5000   720.0264  -999.2500  -999.2500     1.3009     1.3553     1.4463   -13.6568     9.9618    54.7277     2.5199
14621.0000   699.4424  -999.2500  -999.2500     1.3416     1.3822     1.5781   -13.9958     9.9523    53.8135     2.5061
14621.5000   679.3633  -999.2500  -999.2500     1.3801     1.4106     1.7308   -14.0669     9.9427    53.1592     2.4974
14622.0000   668.4463  -999.2500  -999.2500     1.4082     1.4391     1.8601   -13.9831     9.9332    52.7545     2.4997
14622.5000   658.7549  -999.2500  -999.2500     1.4337     1.4586     1.9329   -13.9568     9.9252    52.5925     2.5064
14623.0000   649.9062  -999.2500  -999.2500     1.4565     1.4631     1.8665   -13.9729     9.9192    52.2487     2.5137
14623.5000   652.2148  -999.2500  -999.2500     1.4636     1.4540     1.7901   -13.9890     9.9132    51.8298     2.5211
14624.0000   656.2061  -999.2500  -999.2500     1.4615     1.4200     1.8076   -14.0222     9.9078    51.4097     2.5253
14624.5000   677.6562  -999.2500  -999.2500     1.3983     1.3685     1.8471   -14.0759     9.9136    51.5544     2.5106
14625.0000   699.0576  -999.2500  -999.2500     1.3334     1.3071     1.6973   -14.1295     9.9194    51.7405     2.4972
14625.5000   724.5469  -999.2500  -999.2500     1.2909     1.2619     1.4398   -13.0610     9.9252    54.2422     2.4856
14626.0000   750.9023  -999.2500  -999.2500     1.2527     1.2216     1.2550   -11.4995     9.9511    57.4457     2.4651
14626.5000   772.5918  -999.2500  -999.2500     1.2203     1.1891     1.1657    -9.0679     9.9814    60.6885     2.4441
14627.0000   791.4932  -999.2500  -999.2500     1.2075     1.1708     1.1277    -5.8629    10.0047    60.1021     2.4626
14627.5000   810.4414  -999.2500  -999.2500     1.2009     1.1667     1.1111    -2.8077    10.0146    58.7369     2.4904
14628.0000   826.2168  -999.2500  -999.2500     1.2097     1.1900     1.1592     -.8208    10.0019    56.9725     2.5106
14628.5000   818.6182  -999.2500  -999.2500     1.2318     1.2149     1.2392      .2959     9.9923    55.9376     2.5135
14629.0000   801.3525  -999.2500  -999.2500     1.2605     1.2353     1.3432    -1.3042    10.0479    57.5541     2.5041
14629.5000   778.2187  -999.2500  -999.2500     1.2881     1.2770     1.4005    -2.9237    10.1035    59.1336     2.4946
14630.0000   759.5586  -999.2500  -999.2500     1.3151     1.3155     1.4198    -4.6737    10.1550    60.0823     2.4886
14630.5000   743.9287  -999.2500  -999.2500     1.3297     1.3371     1.4230    -6.3028    10.2062    57.8744     2.4905
14631.0000   732.1221  -999.2500  -999.2500     1.3433     1.3583     1.4217    -7.3252    10.2299    55.6418     2.4938
14631.5000   721.4687  -999.2500  -999.2500     1.3526     1.3754     1.4165    -7.0714    10.2392    53.3945     2.4981
14632.0000   714.2910  -999.2500  -999.2500     1.3620     1.3884     1.3269    -5.8290    10.2327    52.0596     2.5038
14632.5000   708.8564  -999.2500  -999.2500     1.3683     1.3857     1.2465    -4.0887    10.2078    52.2709     2.5149
14633.0000   705.0693  -999.2500  -999.2500     1.3729     1.3848     1.2673    -3.0300    10.1829    53.1309     2.5270
14633.5000   702.7422  -999.2500  -999.2500     1.3764     1.3915     1.3893    -2.5747    10.1580    53.9884     2.5344
14634.0000   705.1289  -999.2500  -999.2500     1.3697     1.3923     1.4865    -2.7545    10.1384    55.2106     2.5178
14634.5000   707.9189  -999.2500  -999.2500     1.3606     1.3872     1.5165    -4.0476    10.1277    55.8563     2.4953
