~VERSION INFORMATION
VERS.                             2.0:   CWLS Log ASCII Standard-VERSION 2.0
WRAP.                              NO:   One line per depth step
~Well Information Block
STRT.F                      1302.0000:   Top Depth
STOP.F                     14644.0000:   Bottom Depth
STEP.F                         .50000:   Depth Increment
NULL.                        -999.250:   Null Value
FLD .                    MU BLK A 152:   Field Name
WELL.       OCSG04991   001 ST00 BP00:   NAME
API .                    427124006100:   WELL API
EDF .F                        94.0000:   ELEV DRILL FLOOR
COMP.            TRANSCO EXPL PROD CO:   OPERATOR
BN  .                           A 152:   BLOCK
CTRY.                             USA:   COUNTRY NAME
CNTY.                        M I E AD:   COUNTY NAME
EKB .F                        95.0000:   ELEV KELLY BUSHING
TDD .F                      14647.000:   FINAL TD DRILLER
STAT.                           TEXAS:   STATE NAME
UWI .                    427124006100:   WELL API
DICO.               IHS : Digitizing Company
~PARAMETER INFORMATION (zones)
#MNEM.UNIT                       Value     Description
#=========                       =====     ===========
#ZONATION                          DIL:   ZONATION NAME
#ZONE                            RUN_1:   ZONE NAME
TOP .                       1302.0000:   TOP DEPTH
BOT .                      14644.5000:   BOTTOM DEPTH
RUN .                               1:   RUN NUMBER
LCCD.                             440:   LOGGING CONTRACTOR
SRVC.                    Schlumberger:   LOGGING CONT NAME
DICO.          QC Data Collectors Ltd:   DIG COMPANY NAME
LDAT.                      11/20/1982:   DATE LOGGED
ELD .F                        95.0000:   LOG DATUM ELEVATION
TDD .F                      4095.0000:   TOTAL DEPTH DRILLER
TDL .F                      4095.0000:   TOTAL DEPTH LOGGER
BOTL.F                      4092.0000:   BOTTOM DEPTH LOGGED
TOPL.F                      1334.0000:   TOP DEPTH LOGGED
CS1 .IN                       20.0000:   CASING SIZE 1
BS1 .IN                       12.2500:   BIT SIZE 1
DDB1.F                      4095.0000:   DEPTH DRILLED BIT 1
BHF .                              99:   FLUID CODE
DPT .                   Miscellaneous:   DRILLING FLUID TYPE
MUDD.                          9.4000:   FLUID DENSITY
MUDV.                         43.0000:   FLUID VISCOSITY
DFPH.                         11.2000:   FLUID PH
RM  .OHMM                       .2800:   RM
RMT .DEGF                     70.0000:   RM TEMP
RMF .OHMM                       .2300:   RMF
RMFT.DEGF                     70.0000:   RMF TEMP
FSC .                               M:   RMF CODE
RMC .OHMM                       .4000:   RMC
RMCT.DEGF                     70.0000:   RMC TEMP
CMC .                               M:   RMC CODE
TMAX.DEGF                    178.0000:   MAX REC TEMP
TIMC.                          8.0000:   TIME SINCE CIRCLN
~PARAMETER INFORMATION (zones)
#MNEM.UNIT                       Value     Description
#=========                       =====     ===========
#ZONATION                          FDC:   ZONATION NAME
#ZONE                            RUN_3:   ZONE NAME
TOP .                       8480.0000:   TOP DEPTH
BOT .                      13304.0000:   BOTTOM DEPTH
RUN .                               3:   RUN NUMBER
LCCD.                             440:   LOGGING CONTRACTOR
SRVC.                    Schlumberger:   LOGGING CONT NAME
DICO.          QC Data Collectors Ltd:   DIG COMPANY NAME
LDAT.                      01/30/1983:   DATE LOGGED
ELD .F                        95.0000:   LOG DATUM ELEVATION
TDD .F                     13308.0000:   TOTAL DEPTH DRILLER
TDL .F                     13305.0000:   TOTAL DEPTH LOGGER
BOTL.F                     13304.0000:   BOTTOM DEPTH LOGGED
TOPL.F                      8480.0000:   TOP DEPTH LOGGED
CS1 .IN                       11.7500:   CASING SIZE 1
BS1 .IN                        9.8750:   BIT SIZE 1
DDB1.F                     13308.0000:   DEPTH DRILLED BIT 1
BHF .                              99:   FLUID CODE
DPT .                   Miscellaneous:   DRILLING FLUID TYPE
MUDD.                         15.6000:   FLUID DENSITY
MUDV.                         55.0000:   FLUID VISCOSITY
DFPH.                         10.7000:   FLUID PH
FL  .                          3.6000:   FLUID LOSS
RM  .OHMM                       .8600:   RM
RMT .DEGF                     70.0000:   RM TEMP
RMF .OHMM                       .4200:   RMF
RMFT.DEGF                     70.0000:   RMF TEMP
FSC .                               M:   RMF CODE
RMC .OHMM                      1.6700:   RMC
RMCT.DEGF                     70.0000:   RMC TEMP
CMC .                               M:   RMC CODE
TMAX.DEGF                    260.0000:   MAX REC TEMP
TIMC.                          8.5000:   TIME SINCE CIRCLN
~PARAMETER INFORMATION (zones)
#MNEM.UNIT                       Value     Description
#=========                       =====     ===========
#ZONATION                          FDC:   ZONATION NAME
#ZONE                            RUN_4:   ZONE NAME
TOP .                      12060.0000:   TOP DEPTH
BOT .                      14644.0000:   BOTTOM DEPTH
RUN .                               4:   RUN NUMBER
LCCD.                             440:   LOGGING CONTRACTOR
SRVC.                    Schlumberger:   LOGGING CONT NAME
DICO.          QC Data Collectors Ltd:   DIG COMPANY NAME
LDAT.                      02/16/1983:   DATE LOGGED
ELD .F                        95.0000:   LOG DATUM ELEVATION
TDD .F                     14641.0000:   TOTAL DEPTH DRILLER
TDL .F                     14647.0000:   TOTAL DEPTH LOGGER
BOTL.F                     14644.0000:   BOTTOM DEPTH LOGGED
TOPL.F                     12060.0000:   TOP DEPTH LOGGED
CS1 .IN                       11.7500:   CASING SIZE 1
BS1 .IN                        9.8750:   BIT SIZE 1
DDB1.F                     14641.0000:   DEPTH DRILLED BIT 1
BHF .                              99:   FLUID CODE
DPT .                   Miscellaneous:   DRILLING FLUID TYPE
MUDD.                         15.6000:   FLUID DENSITY
MUDV.                         55.0000:   FLUID VISCOSITY
DFPH.                         11.5000:   FLUID PH
FL  .                          3.2000:   FLUID LOSS
RM  .OHMM                       .6900:   RM
RMT .DEGF                     75.0000:   RM TEMP
RMF .OHMM                       .4400:   RMF
RMFT.DEGF                     75.0000:   RMF TEMP
FSC .                               M:   RMF CODE
RMC .OHMM                       .9400:   RMC
RMCT.DEGF                     75.0000:   RMC TEMP
CMC .                               M:   RMC CODE
TMAX.DEGF                    284.0000:   MAX REC TEMP
TIMC.                         13.0000:   TIME SINCE CIRCLN
~PARAMETER INFORMATION (zones)
#MNEM.UNIT                       Value     Description
#=========                       =====     ===========
#ZONATION                          FDC:   ZONATION NAME
#ZONE                            RUN_2:   ZONE NAME
TOP .                       3894.0000:   TOP DEPTH
BOT .                      14644.5000:   BOTTOM DEPTH
RUN .                               2:   RUN NUMBER
LCCD.                             440:   LOGGING CONTRACTOR
SRVC.                    Schlumberger:   LOGGING CONT NAME
DICO.          QC Data Collectors Ltd:   DIG COMPANY NAME
LDAT.                      12/10/1982:   DATE LOGGED
ELD .F                        95.0000:   LOG DATUM ELEVATION
TDD .F                      8594.0000:   TOTAL DEPTH DRILLER
TDL .F                      8592.0000:   TOTAL DEPTH LOGGER
BOTL.F                      8594.0000:   BOTTOM DEPTH LOGGED
TOPL.F                      4037.0000:   TOP DEPTH LOGGED
CS1 .IN                       16.0000:   CASING SIZE 1
BS1 .IN                       14.7500:   BIT SIZE 1
DDB1.F                      8594.0000:   DEPTH DRILLED BIT 1
BHF .                              99:   FLUID CODE
DPT .                   Miscellaneous:   DRILLING FLUID TYPE
MUDD.                         13.1000:   FLUID DENSITY
MUDV.                         45.0000:   FLUID VISCOSITY
DFPH.                         11.5000:   FLUID PH
FL  .                          3.0000:   FLUID LOSS
RM  .OHMM                       .7500:   RM
RMT .DEGF                     75.0000:   RM TEMP
RMF .OHMM                       .5500:   RMF
RMFT.DEGF                     75.0000:   RMF TEMP
FSC .                               M:   RMF CODE
RMC .OHMM                       .8000:   RMC
RMCT.DEGF                     75.0000:   RMC TEMP
CMC .                               M:   RMC CODE
TMAX.DEGF                    195.0000:   MAX REC TEMP
TIMC.                          7.0000:   TIME SINCE CIRCLN
~Curve Information Block
#MNEM.UNIT                    API CODE    No Description
#=========                    ========    == ===========
DEPT.F                   00 001 00 00:     1  DEPTH
CILD.MMHO                            :     2  Deep Induction Conductivity
DT.US/F                              :     3  Sonic Transit Time
GR.GAPI                              :     4  Gamma Ray
ILD.OHMM                             :     5  Deep Induction Resistivity
ILM.OHMM                             :     6  Medium Induction Resistivity
SFL.OHMM                             :     7  Medium Resistivity
SP.MV                                :     8  Spontaneous Potential
CALI.IN                              :     9  Caliper
GR.GAPI                              :    10  Gamma Ray
RHOB.G/C3                            :    11  Bulk Density
~ASCII
# ...
 4886.5000  1119.1172   113.1727  -999.2500      .8538      .9807     1.0780   -17.3351    17.4967    63.3829     2.1837
 4887.0000  1131.0508   112.9785  -999.2500      .8424      .9571     1.0991   -20.3996    17.4385    58.0070     2.1258
 4887.5000  1142.9727   112.3186  -999.2500      .8310      .9328     1.1191   -23.5991    17.4442    54.6258     2.1356
 4888.0000  1154.3027   111.6594  -999.2500      .8225      .8995     1.1395   -24.1600    17.4908    58.4290     2.1779
 4888.5000  1165.3340   111.1958  -999.2500      .8235      .8840     1.1170   -18.1224    17.5562    63.6749     2.2199
 4889.0000  1168.6270   114.8636  -999.2500      .8245      .8749     1.0925   -12.0198    17.6229    67.8289     2.2613
 4889.5000  1162.8770   119.4010  -999.2500      .8285      .8831     1.0168    -8.1966    17.7144    69.9095     2.2766
 4890.0000  1157.1211   123.2375  -999.2500      .8402      .8951      .9475    -2.6722    17.8102    70.4506     2.2670
 4890.5000  1132.7852   125.1859  -999.2500      .8521      .9138      .9043     -.4213    17.8067    70.0260     2.2586
 4891.0000  1102.9941   122.8739  -999.2500      .8779      .9329      .9253    -2.4858    17.8163    71.1818     2.2684
 4891.5000  1073.2266   118.7653  -999.2500      .9072      .9523      .9468    -5.5730    17.8980    72.5552     2.2771
 4892.0000  1043.9160   114.7987  -999.2500      .9484      .9715      .9823    -5.1023    17.9346    72.4662     2.2856
 4892.5000  1018.3887   111.6582  -999.2500      .9915      .9911     1.0232    -2.6650    17.9123    71.2284     2.2925
 4893.0000   992.8604   111.6708  -999.2500     1.0349     1.0062     1.0560    -1.9198    17.9066    70.5732     2.2969
 4893.5000   967.3320   112.4481  -999.2500     1.0534     1.0180     1.0900    -2.3557    17.9344    71.1621     2.3008
 4894.0000   951.2139   114.2700  -999.2500     1.0578     1.0270     1.0854    -2.5632    17.9872    71.3142     2.3043
 4894.5000   942.2129   116.0919  -999.2500     1.0621     1.0276     1.0665    -2.4479    18.0458    69.6169     2.3023
 4895.0000   933.2051   118.0524  -999.2500     1.0665     1.0283     1.0471    -1.8729    18.0843    68.8428     2.2988
 4895.5000   924.2041   120.4944  -999.2500     1.0712     1.0277     1.0244     -.8550    18.1267    69.3562     2.2971
 4896.0000   924.8203   122.7751  -999.2500     1.0768     1.0255     1.0070      .3553    18.2038    70.8137     2.2981
 4896.5000   926.9951   124.6079  -999.2500     1.0825     1.0232     1.0120     1.2979    18.2534    72.6552     2.3049
 4897.0000   929.1689   122.9546  -999.2500     1.0882     1.0212     1.0192     2.1802    18.2910    73.1400     2.3149
 4897.5000   931.1104   119.9285  -999.2500     1.0938     1.0268     1.0332     2.8785    18.3060    73.0619     2.3223
 4898.0000   928.9355   117.2822  -999.2500     1.0945     1.0324     1.0473     1.8899    18.3207    73.0577     2.3279
 4898.5000   926.7617   116.9493  -999.2500     1.0952     1.0381     1.0461     1.4213    18.3253    73.0836     2.3199
 4899.0000   924.5869   119.8490  -999.2500     1.0959     1.0413     1.0399     1.5064    18.3258    72.2074     2.3103
 4899.5000   922.4131   122.9027  -999.2500     1.0966     1.0424     1.0336     1.7304    18.3005    70.4751     2.2935
 4900.0000   920.2383   125.5303  -999.2500     1.0896     1.0434     1.0213      .2800    18.1362    68.0664     2.2700
 4900.5000   922.2881   128.0903  -999.2500     1.0813     1.0450     1.0021      .6854    18.0319    66.8043     2.2559
 4901.0000   924.6328   130.0037  -999.2500     1.0731     1.0492      .9833     1.3178    17.9242    65.7435     2.2497
 4901.5000   926.9785   131.3433  -999.2500     1.0649     1.0535      .9705     3.6057    17.8272    65.1609     2.2472
 4902.0000   932.4590   128.3938  -999.2500     1.0567     1.0560      .9598     2.0231    17.7099    65.4503     2.2472
 4902.5000   940.8281   124.7668  -999.2500     1.0486     1.0566      .9728    -4.9624    17.5690    66.1216     2.2528
 4903.0000   947.1982   121.4529  -999.2500     1.0453     1.0573      .9852    -8.3738    17.4818    65.5503     2.2520
 4903.5000   949.9316   121.0977  -999.2500     1.0528     1.0617      .9729    -6.2366    17.4346    65.0573     2.2421
 4904.0000   952.6680   124.0636  -999.2500     1.0603     1.0680      .9606    -4.0994    17.3383    64.7672     2.2343
 4904.5000   945.3438   127.2522  -999.2500     1.0679     1.0744      .9465    -2.4403    17.2180    64.9987     2.2370
 4905.0000   929.6650   125.2966  -999.2500     1.0719     1.0931      .9358    -2.6769    17.1069    65.4666     2.2417
 4905.5000   913.9990   119.2228  -999.2500     1.0705     1.1151      .9854    -9.1173    17.0180    64.5991     2.2403
 4906.0000   901.0811   113.7269  -999.2500     1.0676     1.1428     1.0709   -14.1353    16.9328    60.9590     2.2383
 4906.5000   944.5244   108.7079  -999.2500     1.0455     1.1626     1.1991   -14.7984    16.9065    58.1357     2.2397
 4907.0000   961.2871   108.5032  -999.2500     1.0289     1.1309     1.2235   -14.9176    16.9560    55.4130     2.2314
 4907.5000   976.1348   109.7953  -999.2500     1.0242     1.1012     1.2115   -14.3289    16.9585    54.5496     2.2206
 4908.0000   985.1748   112.3734  -999.2500     1.0195     1.0874     1.1613   -13.4611    16.9370    57.1080     2.2146
 4908.5000   987.7998   115.2400  -999.2500     1.0141     1.0737     1.1131   -11.0012    16.9154    63.5690     2.2302
 4909.0000   990.4219   114.5392  -999.2500     1.0064     1.0603     1.0747    -9.4677    16.9350    67.6742     2.2773
 4909.5000   993.0469   108.7898  -999.2500      .9988     1.0576     1.0705    -9.2315    16.9249    66.3408     2.2995
 4910.0000  1008.0449   101.7478  -999.2500      .9912     1.0608     1.1297    -8.9953    16.8967    61.8936     2.3060
 4910.5000  1026.6133    98.2822  -999.2500      .9771     1.0580     1.2068    -9.1478    16.8829    59.1611     2.3287
 4911.0000  1045.1699    99.2383  -999.2500      .9628     1.0304     1.2086    -9.6857    16.8782    58.7604     2.3543
 4911.5000  1062.7012   103.9298  -999.2500      .9482     1.0047     1.1391   -10.2236    16.8980    58.5558     2.3516
 4912.0000  1070.8125   109.0066  -999.2500      .9321      .9871     1.0789   -10.5215    16.9460    60.0355     2.3355
 4912.5000  1078.9277   114.6421  -999.2500      .9162      .9698     1.0245   -10.2388    16.9484    62.0972     2.2988
 4913.0000  1087.0391   119.5817  -999.2500      .9019      .9569      .9855    -8.9811    16.9235    66.2672     2.2789
 4913.5000  1094.0586   122.2982  -999.2500      .8887      .9458      .9671    -6.6813    16.8758    69.8705     2.2786
 4914.0000  1097.4570   123.0503  -999.2500      .8756      .9348      .9587    -5.3164    16.8281    70.1550     2.2807
 4914.5000  1100.8555   120.2512  -999.2500      .8742      .9389      .9813    -5.5698    16.7938    66.0537     2.2736
 4915.0000  1104.2520   117.5935  -999.2500      .8809      .9430     1.0045    -6.1147    16.7652    62.8699     2.2447
 4915.5000  1104.8066   116.3641  -999.2500      .8876      .9499     1.0374    -7.3554    16.7629    60.4182     2.2137
 4916.0000  1105.3457   116.9686  -999.2500      .8975      .9596     1.0990    -7.6046    16.7740    59.6553     2.1951
 4916.5000  1090.0859   119.3552  -999.2500      .9136      .9693     1.0838    -6.6705    16.8766    61.3577     2.2174
 4917.0000  1061.3301   121.5999  -999.2500      .9300      .9792     1.0301    -5.9632    17.0095    64.2705     2.2502
 4917.5000  1032.5742   122.3754  -999.2500      .9467      .9955      .9974    -5.9929    17.1066    67.2263     2.2765
 4918.0000  1016.3955   121.4771  -999.2500      .9661     1.0132      .9853    -6.0226    17.1358    69.3174     2.2974
 4918.5000  1008.8643   118.9410  -999.2500      .9864     1.0313     1.0007    -5.5021    17.1456    70.4543     2.3119
 4919.0000  1001.3379   117.2528  -999.2500     1.0071     1.0501     1.0235    -4.5297    17.1669    67.9437     2.3207
 4919.5000   987.0801   116.6182  -999.2500     1.0267     1.0697     1.0468    -3.2447    17.2025    66.6130     2.3274
