~VERSION INFORMATION
VERS.                             2.0:   CWLS Log ASCII Standard-VERSION 2.0
WRAP.                              NO:   One line per depth step
~Well Information Block
STRT.F                      1319.0000:   Top Depth
STOP.F                      7911.0000:   Bottom Depth
STEP.F                         .50000:   Depth Increment
NULL.                        -999.250:   Null Value
FLD .                    MU BLK A 167:   Field Name
WELL.       OCSG08096   001 ST00 BP00:   NAME
API .                    427124009800:   WELL API
EDF .F                        84.0000:   ELEV DRILL FLOOR
COMP.         UNION PACIFIC RESOURCES:   OPERATOR
BN  .                           A 167:   BLOCK
CTRY.                             USA:   COUNTRY NAME
CNTY.                        M I E AD:   COUNTY NAME
EKB .F                        85.0000:   ELEV KELLY BUSHING
TDD .F                       7913.000:   FINAL TD DRILLER
STAT.                           TEXAS:   STATE NAME
UWI .                    427124009800:   WELL API
DICO.               IHS : Digitizing Company
~PARAMETER INFORMATION (zones)
#MNEM.UNIT                       Value     Description
#=========                       =====     ===========
#ZONATION                          DIL:   ZONATION NAME
#ZONE                            RUN_2:   ZONE NAME
TOP .                       4520.0000:   TOP DEPTH
BOT .                       7911.0000:   BOTTOM DEPTH
RUN .                               2:   RUN NUMBER
LCCD.                             440:   LOGGING CONTRACTOR
SRVC.                    Schlumberger:   LOGGING CONT NAME
DICO.          QC Data Collectors Ltd:   DIG COMPANY NAME
LDAT.                      05/30/1988:   DATE LOGGED
ELD .F                        85.0000:   LOG DATUM ELEVATION
TDD .F                      7904.0000:   TOTAL DEPTH DRILLER
TDL .F                      7913.0000:   TOTAL DEPTH LOGGER
BOTL.F                      7911.0000:   BOTTOM DEPTH LOGGED
TOPL.F                      4520.0000:   TOP DEPTH LOGGED
CS1 .IN                       13.3750:   CASING SIZE 1
BS1 .IN                       12.2500:   BIT SIZE 1
DDB1.F                      7904.0000:   DEPTH DRILLED BIT 1
BHF .                              80:   FLUID CODE
DPT .                      Salt Water:   DRILLING FLUID TYPE
MUDD.                         13.3000:   FLUID DENSITY
MUDV.                         44.0000:   FLUID VISCOSITY
DFPH.                          9.6000:   FLUID PH
FL  .                         11.9000:   FLUID LOSS
RM  .OHMM                       .2330:   RM
RMT .DEGF                     75.0000:   RM TEMP
RMF .OHMM                       .1510:   RMF
RMFT.DEGF                     75.0000:   RMF TEMP
FSC .                               M:   RMF CODE
RMC .OHMM                       .4890:   RMC
RMCT.DEGF                     75.0000:   RMC TEMP
CMC .                               M:   RMC CODE
TMAX.DEGF                    182.0000:   MAX REC TEMP
TIMC.                         10.7500:   TIME SINCE CIRCLN
~PARAMETER INFORMATION (zones)
#MNEM.UNIT                       Value     Description
#=========                       =====     ===========
#ZONATION                          DIL:   ZONATION NAME
#ZONE                            RUN_1:   ZONE NAME
TOP .                       1319.0000:   TOP DEPTH
BOT .                       7911.5000:   BOTTOM DEPTH
RUN .                               1:   RUN NUMBER
LCCD.                             440:   LOGGING CONTRACTOR
SRVC.                    Schlumberger:   LOGGING CONT NAME
DICO.          QC Data Collectors Ltd:   DIG COMPANY NAME
LDAT.                      05/21/1988:   DATE LOGGED
ELD .F                        85.0000:   LOG DATUM ELEVATION
TDD .F                      4550.0000:   TOTAL DEPTH DRILLER
TDL .F                      4551.0000:   TOTAL DEPTH LOGGER
BOTL.F                      4549.0000:   BOTTOM DEPTH LOGGED
TOPL.F                      1394.0000:   TOP DEPTH LOGGED
CS1 .IN                       20.0000:   CASING SIZE 1
BS1 .IN                       17.5000:   BIT SIZE 1
DDB1.F                      4550.0000:   DEPTH DRILLED BIT 1
BHF .                              80:   FLUID CODE
DPT .                      Salt Water:   DRILLING FLUID TYPE
MUDD.                         10.0000:   FLUID DENSITY
MUDV.                         38.0000:   FLUID VISCOSITY
DFPH.                          8.4000:   FLUID PH
FL  .                            NULL:   FLUID LOSS
RM  .OHMM                       .3040:   RM
RMT .DEGF                     82.0000:   RM TEMP
RMF .OHMM                       .2310:   RMF
RMFT.DEGF                     82.0000:   RMF TEMP
FSC .                               M:   RMF CODE
RMC .OHMM                       .4210:   RMC
RMCT.DEGF                     82.0000:   RMC TEMP
CMC .                               M:   RMC CODE
TMAX.DEGF                    130.0000:   MAX REC TEMP
TIMC.                          5.0000:   TIME SINCE CIRCLN
~Curve Information Block
#MNEM.UNIT                    API CODE    No Description
#=========                    ========    == ===========
DEPT.F                   00 001 00 00:     1  DEPTH
DCAL.IN                              :     2  Differential Caliper
DT.US/F                              :     3  Sonic Transit Time
GR.GAPI                              :     4  Gamma Ray
ILD.OHMM                             :     5  Deep Induction Resistivity
ILM.OHMM                             :     6  Medium Induction Resistivity
SFL.OHMM                             :     7  Medium Resistivity
SP.MV                                :     8  Spontaneous Potential
~ASCII
# ...
 1819.5000  -999.2500   169.0515    65.2872      .7625      .6927      .7471   -60.6791
 1820.0000  -999.2500   168.8215    63.1555      .7598      .6922      .7454   -60.6125
 1820.5000  -999.2500   168.9019    60.0395      .7619      .6917      .7460   -60.6552
 1821.0000  -999.2500   169.0588    57.1652      .7646      .6927      .7500   -60.7241
 1821.5000  -999.2500   169.2947    55.1180      .7713      .6979      .7546   -60.9163
 1822.0000  -999.2500   169.5186    54.9908      .7792      .7075      .7599   -61.1688
 1822.5000  -999.2500   169.6201    56.8506      .7925      .7182      .7647   -61.4431
 1823.0000  -999.2500   169.6296    57.6106      .8075      .7329      .7674   -61.6470
 1823.5000  -999.2500   169.6052    56.5273      .8160      .7501      .7705   -61.7750
 1824.0000  -999.2500   169.5359    55.5610      .8239      .7608      .7739   -61.7623
 1824.5000  -999.2500   169.4016    56.1566      .8384      .7681      .7763   -61.7642
 1825.0000  -999.2500   169.2217    57.6642      .8478      .7687      .7785   -61.7730
 1825.5000  -999.2500   168.8887    61.0717      .8528      .7702      .7791   -61.6855
 1826.0000  -999.2500   168.6140    63.6676      .8547      .7662      .7793   -61.5909
 1826.5000  -999.2500   168.4014    65.4197      .8527      .7631      .7791   -61.4875
 1827.0000  -999.2500   168.1858    64.7777      .8502      .7626      .7769   -61.4332
 1827.5000  -999.2500   167.9087    61.2318      .8413      .7632      .7746   -61.3992
 1828.0000  -999.2500   167.5610    60.0201      .8326      .7634      .7719   -61.3107
 1828.5000  -999.2500   167.4468    61.3839      .8219      .7625      .7695   -61.2113
 1829.0000  -999.2500   166.6299    63.7305      .8112      .7600      .7680   -61.0989
 1829.5000  -999.2500   165.7546    63.9303      .8056      .7582      .7685   -60.9871
 1830.0000  -999.2500   165.1628    63.4888      .8014      .7575      .7692   -60.9133
 1830.5000  -999.2500   165.6831    62.9348      .7981      .7560      .7694   -60.8466
 1831.0000  -999.2500   166.8809    62.3142      .7952      .7544      .7690   -60.8802
 1831.5000  -999.2500   167.6692    61.4932      .7955      .7537      .7697   -60.9454
 1832.0000  -999.2500   167.0503    60.6008      .7975      .7524      .7716   -61.0685
 1832.5000  -999.2500   167.0688    59.5093      .7992      .7495      .7744   -61.2320
 1833.0000  -999.2500   170.6536    58.0579      .8005      .7491      .7794   -61.4223
 1833.5000  -999.2500   173.4912    56.5375      .8024      .7519      .7840   -61.6100
 1834.0000  -999.2500   172.1248    55.7808      .8089      .7562      .7866   -61.7964
 1834.5000  -999.2500   168.6174    56.8737      .8155      .7610      .7880   -61.9467
 1835.0000  -999.2500   166.6248    59.7716      .8229      .7639      .7957   -62.0534
 1835.5000  -999.2500   166.1313    61.5538      .8305      .7679      .7964   -62.1326
 1836.0000  -999.2500   166.2556    61.1262      .8442      .7730      .7941   -62.1797
 1836.5000  -999.2500   167.1028    59.9249      .8582      .7818      .7838   -62.1791
 1837.0000  -999.2500   168.2529    58.3812      .8721      .7902      .7796   -62.1248
 1837.5000  -999.2500   169.2322    58.4993      .8862      .8033      .7892   -62.0792
 1838.0000  -999.2500   168.6438    57.3312      .8956      .8198      .8078   -62.0437
 1838.5000  -999.2500   166.1665    56.5790      .9046      .8371      .8347   -62.0763
 1839.0000  -999.2500   160.7058    58.1021      .9142      .8517      .8708   -62.1139
 1839.5000  -999.2500   156.5903    59.5751      .9240      .8610      .8966   -62.1635
 1840.0000  -999.2500   156.3855    60.8026      .9242      .8664      .9095   -62.1891
 1840.5000  -999.2500   160.0645    62.2893      .9236      .8591      .9047   -62.1764
 1841.0000  -999.2500   164.7632    63.3464      .9203      .8390      .8765   -61.4231
 1841.5000  -999.2500   169.4595    63.7670      .9164      .8195      .8542   -61.3924
 1842.0000  -999.2500   171.8464    63.2772      .9099      .8069      .8381   -61.4214
 1842.5000  -999.2500   172.2910    61.9869      .9020      .8044      .8266   -61.4116
 1843.0000  -999.2500   170.4751    60.3242      .8919      .8058      .8243   -61.4650
 1843.5000  -999.2500   167.8674    58.9831      .8905      .8108      .8248   -61.4656
 1844.0000  -999.2500   165.4336    59.3704      .8922      .8169      .8283   -61.7781
 1844.5000  -999.2500   163.6404    63.9180      .8932      .8204      .8317   -62.0313
 1845.0000  -999.2500   162.8020    66.2908      .8940      .8269      .8371   -62.1165
 1845.5000  -999.2500   162.8262    67.1581      .8930      .8293      .8463   -62.1446
 1846.0000  -999.2500   163.1804    67.1331      .8913      .8259      .8558   -62.1195
 1846.5000  -999.2500   163.6997    66.2769      .8885      .8230      .8628   -62.0212
 1847.0000  -999.2500   164.4819    65.4000      .8854      .8162      .8658   -61.9764
 1847.5000  -999.2500   165.1917    65.1699      .8824      .8077      .8626   -61.8839
 1848.0000  -999.2500   165.7859    66.4678      .8796      .7992      .8594   -61.8273
 1848.5000  -999.2500   166.2451    67.6823      .8748      .7902      .8567   -61.8146
 1849.0000  -999.2500   166.6721    67.5851      .8674      .7809      .8530   -61.7547
 1849.5000  -999.2500   166.9917    66.7782      .8601      .7721      .8487   -61.6840
 1850.0000  -999.2500   167.2412    67.8065      .8529      .7670      .8428   -61.5985
 1850.5000  -999.2500   167.1411    70.3114      .8458      .7646      .8364   -61.5996
 1851.0000  -999.2500   166.9841    69.0312      .8403      .7635      .8303   -61.6353
 1851.5000  -999.2500   166.7698    66.1606      .8349      .7658      .8264   -61.6145
 1852.0000  -999.2500   166.2871    65.0336      .8318      .7681      .8217   -61.5858
 1852.5000  -999.2500   165.6382    65.0161      .8293      .7711      .8166   -61.5999
 1853.0000  -999.2500   165.0759    64.8621      .8272      .7729      .8163   -61.6138
 1853.5000  -999.2500   164.6262    63.9271      .8259      .7748      .8157   -61.6269
 1854.0000  -999.2500   164.5105    63.4207      .8246      .7762      .8147   -61.6350
 1854.5000  -999.2500   164.4551    64.8867      .8220      .7540      .8135   -61.6274
 1855.0000  -999.2500   164.5020    66.7568      .8193      .7527      .8123   -61.6295
 1855.5000  -999.2500   164.5176    68.3329      .8200      .7515      .8107   -61.6609
 1856.0000  -999.2500   164.5173    69.1792      .8222      .7508      .8088   -61.6842
 1856.5000  -999.2500   164.1460    68.4578      .8209      .7514      .8043   -61.6766
 1857.0000  -999.2500   163.4819    67.3982      .8180      .7534      .8029   -61.6564
 1857.5000  -999.2500   162.3689    66.4799      .8174      .7557      .8088   -61.5880
 1858.0000  -999.2500   161.0588    65.6405      .8182      .7578      .8120   -61.5136
 1858.5000  -999.2500   159.9788    65.2223      .8497      .7599      .8169   -61.4215
 1859.0000  -999.2500   159.3640    65.2052      .8578      .7631      .8272   -61.3613
 1859.5000  -999.2500   159.3137    64.8859      .8621      .7663      .8360   -61.3538
 1860.0000  -999.2500   160.5166    62.8964      .8599      .7624      .8412   -61.3394
 1860.5000  -999.2500   162.0579    60.0152      .8499      .7559      .8409   -61.3115
 1861.0000  -999.2500   163.5540    58.7525      .8316      .7453      .8311   -61.2832
 1861.5000  -999.2500   164.9724    61.3913      .8157      .7382      .8156   -61.2541
 1862.0000  -999.2500   166.0305    63.7025      .8035      .7374      .7982   -61.1555
 1862.5000  -999.2500   166.8179    64.2020      .7949      .7404      .7934   -60.9988
 1863.0000  -999.2500   167.3599    60.9303      .7973      .7477      .7937   -61.0854
 1863.5000  -999.2500   167.7163    58.4984      .8014      .7541      .7986   -61.1833
 1864.0000  -999.2500   167.6111    58.9720      .8085      .7604      .8065   -61.2791
 1864.5000  -999.2500   167.0173    59.9025      .8167      .7674      .8153   -61.3848
