~VERSION INFORMATION
VERS.                             2.0:   CWLS Log ASCII Standard-VERSION 2.0
WRAP.                              NO:   One line per depth step
~Well Information Block
STRT.F                      1319.0000:   Top Depth
STOP.F                      7911.0000:   Bottom Depth
STEP.F                         .50000:   Depth Increment
NULL.                        -999.250:   Null Value
FLD .                    MU BLK A 167:   Field Name
WELL.       OCSG08096   001 ST00 BP00:   NAME
API .                    427124009800:   WELL API
EDF .F                        84.0000:   ELEV DRILL FLOOR
COMP.         UNION PACIFIC RESOURCES:   OPERATOR
BN  .                           A 167:   BLOCK
CTRY.                             USA:   COUNTRY NAME
CNTY.                        M I E AD:   COUNTY NAME
EKB .F                        85.0000:   ELEV KELLY BUSHING
TDD .F                       7913.000:   FINAL TD DRILLER
STAT.                           TEXAS:   STATE NAME
UWI .                    427124009800:   WELL API
DICO.               IHS : Digitizing Company
~PARAMETER INFORMATION (zones)
#MNEM.UNIT                       Value     Description
#=========                       =====     ===========
#ZONATION                          DIL:   ZONATION NAME
#ZONE                            RUN_2:   ZONE NAME
TOP .                       4520.0000:   TOP DEPTH
BOT .                       7911.0000:   BOTTOM DEPTH
RUN .                               2:   RUN NUMBER
LCCD.                             440:   LOGGING CONTRACTOR
SRVC.                    Schlumberger:   LOGGING CONT NAME
DICO.          QC Data Collectors Ltd:   DIG COMPANY NAME
LDAT.                      05/30/1988:   DATE LOGGED
ELD .F                        85.0000:   LOG DATUM ELEVATION
TDD .F                      7904.0000:   TOTAL DEPTH DRILLER
TDL .F                      7913.0000:   TOTAL DEPTH LOGGER
BOTL.F                      7911.0000:   BOTTOM DEPTH LOGGED
TOPL.F                      4520.0000:   TOP DEPTH LOGGED
CS1 .IN                       13.3750:   CASING SIZE 1
BS1 .IN                       12.2500:   BIT SIZE 1
DDB1.F                      7904.0000:   DEPTH DRILLED BIT 1
BHF .                              80:   FLUID CODE
DPT .                      Salt Water:   DRILLING FLUID TYPE
MUDD.                         13.3000:   FLUID DENSITY
MUDV.                         44.0000:   FLUID VISCOSITY
DFPH.                          9.6000:   FLUID PH
FL  .                         11.9000:   FLUID LOSS
RM  .OHMM                       .2330:   RM
RMT .DEGF                     75.0000:   RM TEMP
RMF .OHMM                       .1510:   RMF
RMFT.DEGF                     75.0000:   RMF TEMP
FSC .                               M:   RMF CODE
RMC .OHMM                       .4890:   RMC
RMCT.DEGF                     75.0000:   RMC TEMP
CMC .                               M:   RMC CODE
TMAX.DEGF                    182.0000:   MAX REC TEMP
TIMC.                         10.7500:   TIME SINCE CIRCLN
~PARAMETER INFORMATION (zones)
#MNEM.UNIT                       Value     Description
#=========                       =====     ===========
#ZONATION                          DIL:   ZONATION NAME
#ZONE                            RUN_1:   ZONE NAME
TOP .                       1319.0000:   TOP DEPTH
BOT .                       7911.5000:   BOTTOM DEPTH
RUN .                               1:   RUN NUMBER
LCCD.                             440:   LOGGING CONTRACTOR
SRVC.                    Schlumberger:   LOGGING CONT NAME
DICO.          QC Data Collectors Ltd:   DIG COMPANY NAME
LDAT.                      05/21/1988:   DATE LOGGED
ELD .F                        85.0000:   LOG DATUM ELEVATION
TDD .F                      4550.0000:   TOTAL DEPTH DRILLER
TDL .F                      4551.0000:   TOTAL DEPTH LOGGER
BOTL.F                      4549.0000:   BOTTOM DEPTH LOGGED
TOPL.F                      1394.0000:   TOP DEPTH LOGGED
CS1 .IN                       20.0000:   CASING SIZE 1
BS1 .IN                       17.5000:   BIT SIZE 1
DDB1.F                      4550.0000:   DEPTH DRILLED BIT 1
BHF .                              80:   FLUID CODE
DPT .                      Salt Water:   DRILLING FLUID TYPE
MUDD.                         10.0000:   FLUID DENSITY
MUDV.                         38.0000:   FLUID VISCOSITY
DFPH.                          8.4000:   FLUID PH
FL  .                            NULL:   FLUID LOSS
RM  .OHMM                       .3040:   RM
RMT .DEGF                     82.0000:   RM TEMP
RMF .OHMM                       .2310:   RMF
RMFT.DEGF                     82.0000:   RMF TEMP
FSC .                               M:   RMF CODE
RMC .OHMM                       .4210:   RMC
RMCT.DEGF                     82.0000:   RMC TEMP
CMC .                               M:   RMC CODE
TMAX.DEGF                    130.0000:   MAX REC TEMP
TIMC.                          5.0000:   TIME SINCE CIRCLN
~Curve Information Block
#MNEM.UNIT                    API CODE    No Description
#=========                    ========    == ===========
DEPT.F                   00 001 00 00:     1  DEPTH
DCAL.IN                              :     2  Differential Caliper
DT.US/F                              :     3  Sonic Transit Time
GR.GAPI                              :     4  Gamma Ray
ILD.OHMM                             :     5  Deep Induction Resistivity
ILM.OHMM                             :     6  Medium Induction Resistivity
SFL.OHMM                             :     7  Medium Resistivity
SP.MV                                :     8  Spontaneous Potential
~ASCII
# ...
 4868.0000      .7930   126.9431    54.9590      .6754      .6376      .6904   -56.4340
 4868.5000      .7967   123.4790    54.2702      .6975      .6544      .6984   -56.5078
 4869.0000      .8664   123.2876    56.5513      .7207      .6720      .7065   -56.4183
 4869.5000      .9714   126.2798    58.6089      .7444      .6934      .7148   -56.2844
 4870.0000     1.0172   129.0254    59.7164      .7667      .7163      .7275   -55.9250
 4870.5000     1.0103   130.7688    59.1699      .7895      .7353      .7413   -55.3113
 4871.0000      .9692   128.2319    58.9794      .8122      .7540      .7598   -55.7187
 4871.5000      .9196   125.4513    59.4485      .8332      .7705      .7792   -55.9832
 4872.0000      .8791   123.0686    59.2021      .8518      .7872      .7999   -55.9221
 4872.5000      .8403   120.7584    58.4076      .8632      .8039      .8203   -56.1192
 4873.0000      .8189   119.6840    58.0861      .8704      .8148      .8403   -56.9448
 4873.5000      .8096   120.3641    58.9043      .8630      .8225      .8515   -57.4639
 4874.0000      .8208   120.8645    59.6471      .8475      .8153      .8584   -57.5652
 4874.5000      .8347   121.2048    59.5198      .8199      .8047      .8443   -57.3426
 4875.0000      .8506   122.6781    58.7450      .7921      .7829      .8226   -57.0341
 4875.5000      .8487   125.3087    58.5385      .7643      .7566      .7979   -56.9036
 4876.0000      .8423   128.1445    59.3622      .7423      .7290      .7707   -56.4689
 4876.5000      .8330   131.2468    60.1267      .7214      .7089      .7446   -56.3659
 4877.0000      .8236   131.3281    60.3191      .7104      .6917      .7201   -56.6715
 4877.5000      .7411   129.2456    59.0706      .6996      .6798      .7029   -56.9929
 4878.0000      .6516   127.7766    57.6595      .7005      .6808      .6907   -57.1211
 4878.5000      .6655   126.9512    57.5739      .7045      .6843      .6963   -57.2517
 4879.0000      .7189   127.5563    61.7488      .7075      .6893      .7052   -57.4952
 4879.5000      .7600   129.1794    64.6652      .7079      .6916      .7118   -57.4917
 4880.0000      .7608   130.6646    65.0809      .7082      .6927      .7181   -57.2368
 4880.5000      .7235   130.7798    63.2355      .7027      .6855      .7185   -56.8397
 4881.0000      .6844   130.4402    61.4894      .6966      .6780      .7179   -56.5641
 4881.5000      .6520   130.3567    61.4174      .6874      .6676      .7117   -56.6623
 4882.0000      .6329   131.0479    62.1893      .6787      .6577      .7037   -57.0835
 4882.5000      .6281   132.3437    62.8763      .6754      .6493      .6932   -57.3248
 4883.0000      .6253   133.3010    62.8682      .6730      .6423      .6849   -57.1776
 4883.5000      .6193   133.4270    61.8077      .6698      .6374      .6863   -56.9908
 4884.0000      .6132   133.1909    61.2300      .6622      .6368      .6903   -57.1243
 4884.5000      .6067   132.4888    63.7419      .6530      .6352      .6948   -57.1564
 4885.0000      .6120   131.9783    67.0381      .6422      .6299      .6979   -57.0565
 4885.5000      .6352   131.7002    69.3110      .6292      .6235      .7003   -56.8480
 4886.0000      .6996   132.4031    70.0419      .6172      .6160      .7001   -56.5638
 4886.5000      .7755   133.2805    69.6940      .6072      .6075      .6992   -56.1506
 4887.0000      .8552   134.4580    67.4824      .6002      .5984      .6941   -55.7733
 4887.5000      .8752   136.5894    63.2529      .5938      .5895      .6879   -55.5223
 4888.0000      .8660   139.9055    56.4520      .5898      .5807      .6787   -55.5070
 4888.5000      .7527   141.9431    53.2997      .5864      .5736      .6681   -55.7317
 4889.0000      .6009   142.8464    54.9379      .5827      .5678      .6640   -55.8326
 4889.5000      .4940   141.7478    59.1724      .5791      .5631      .6610   -55.8288
 4890.0000      .5087   139.2261    62.9203      .5778      .5588      .6729   -55.5347
 4890.5000      .5910   137.4265    64.8750      .5776      .5572      .6830   -55.2639
 4891.0000      .6461   136.7139    64.7996      .5790      .5569      .6881   -55.0279
 4891.5000      .6848   136.8977    65.1691      .5826      .5584      .6899   -55.0701
 4892.0000      .7756   137.4146    65.9167      .5859      .5605      .6877   -55.5099
 4892.5000      .8722   138.1355    66.6497      .5874      .5620      .6864   -56.0662
 4893.0000      .9585   138.9238    65.0425      .5879      .5639      .6862   -55.9759
 4893.5000      .9180   139.5591    61.0637      .5860      .5661      .6868   -55.4821
 4894.0000      .8985   139.9583    57.6670      .5842      .5674      .6890   -55.2784
 4894.5000      .8967   139.7058    56.8305      .5824      .5684      .6916   -55.7525
 4895.0000      .9346   139.1760    56.8660      .5818      .5692      .6946   -56.2064
 4895.5000      .9748   137.5691    56.8491      .5848      .5704      .6958   -56.5784
 4896.0000     1.0230   136.1150    58.1932      .5893      .5719      .6943   -56.6205
 4896.5000     1.0558   135.1013    60.1702      .6001      .5808      .6901   -56.7267
 4897.0000     1.0541   134.9048    61.5818      .6186      .5967      .6819   -56.3687
 4897.5000     1.0460   134.6821    61.9287      .6345      .6209      .6804   -56.1796
 4898.0000     1.0234   132.6521    63.5669      .6558      .6535      .6924   -56.0976
 4898.5000      .9969   129.9641    65.1437      .6797      .6867      .7094   -56.0038
 4899.0000      .9640   127.2009    65.8171      .7073      .7068      .7344   -55.9641
 4899.5000      .9533   124.5753    65.3788      .7389      .7317      .7614   -55.8798
 4900.0000      .9865   122.9591    62.5034      .7646      .7521      .7910   -55.7780
 4900.5000     1.0327   122.3296    58.0256      .7832      .7695      .8229   -55.7802
 4901.0000     1.0827   122.4991    53.7117      .7989      .7865      .8515   -55.8971
 4901.5000     1.0648   122.7611    52.3864      .8149      .7969      .8711   -56.1946
 4902.0000     1.0376   122.6199    54.9131      .8250      .8010      .8693   -56.6073
 4902.5000      .9895   122.0574    58.6425      .8317      .8010      .8499   -56.8899
 4903.0000      .9569   121.6012    60.1290      .8351      .7951      .8253   -56.8372
 4903.5000     1.0043   121.4536    59.8251      .8353      .7819      .8021   -56.3895
 4904.0000     1.1406   122.2627    59.1953      .8333      .7702      .7865   -55.9135
 4904.5000     1.2845   124.9308    59.9734      .8249      .7622      .7721   -55.5391
 4905.0000     1.3714   127.7991    62.5369      .8167      .7554      .7647   -56.0931
 4905.5000     1.3275   129.6223    64.5802      .8098      .7513      .7604   -56.3907
 4906.0000     1.2296   129.7588    65.0511      .8041      .7507      .7589   -56.2503
 4906.5000     1.0279   127.1333    63.2715      .7986      .7538      .7610   -56.0648
 4907.0000      .9044   124.0122    62.7397      .7930      .7580      .7666   -55.8794
 4907.5000      .8265   121.7733    63.7146      .7864      .7622      .7742   -55.7322
 4908.0000      .8147   120.5757    65.6754      .7795      .7486      .7835   -55.6697
 4908.5000      .8116   121.3516    66.7111      .7723      .7350      .7863   -55.6073
 4909.0000      .8150   123.6818    66.6652      .7642      .7211      .7839   -55.7699
 4909.5000      .8490   125.8756    67.7380      .7536      .7107      .7755   -56.0581
 4910.0000      .8902   127.2103    70.2673      .7430      .7020      .7638   -56.4838
 4910.5000      .9266   127.6001    70.5332      .7324      .6916      .7532   -56.8394
 4911.0000      .9370   127.5546    66.9016      .7218      .6802      .7437   -57.0738
 4911.5000      .9479   127.7052    62.4587      .7109      .6702      .7365   -57.1136
 4912.0000      .9722   128.3796    58.9664      .6992      .6609      .7306   -57.0367
 4912.5000      .9873   129.6187    56.7163      .6738      .6510      .7233   -56.9268
 4913.0000      .9946   130.9089    56.0461      .6576      .6421      .7157   -56.4854
