~VERSION INFORMATION
VERS.                             2.0:   CWLS Log ASCII Standard-VERSION 2.0
WRAP.                              NO:   One line per depth step
~Well Information Block
STRT.F                      1302.0000:   Top Depth
STOP.F                     14644.0000:   Bottom Depth
STEP.F                         .50000:   Depth Increment
NULL.                        -999.250:   Null Value
FLD .                    MU BLK A 152:   Field Name
WELL.       OCSG04991   001 ST00 BP00:   NAME
API .                    427124006100:   WELL API
EDF .F                        94.0000:   ELEV DRILL FLOOR
COMP.            TRANSCO EXPL PROD CO:   OPERATOR
BN  .                           A 152:   BLOCK
CTRY.                             USA:   COUNTRY NAME
CNTY.                        M I E AD:   COUNTY NAME
EKB .F                        95.0000:   ELEV KELLY BUSHING
TDD .F                      14647.000:   FINAL TD DRILLER
STAT.                           TEXAS:   STATE NAME
UWI .                    427124006100:   WELL API
DICO.               IHS : Digitizing Company
~PARAMETER INFORMATION (zones)
#MNEM.UNIT                       Value     Description
#=========                       =====     ===========
#ZONATION                          DIL:   ZONATION NAME
#ZONE                            RUN_1:   ZONE NAME
TOP .                       1302.0000:   TOP DEPTH
BOT .                      14644.5000:   BOTTOM DEPTH
RUN .                               1:   RUN NUMBER
LCCD.                             440:   LOGGING CONTRACTOR
SRVC.                    Schlumberger:   LOGGING CONT NAME
DICO.          QC Data Collectors Ltd:   DIG COMPANY NAME
LDAT.                      11/20/1982:   DATE LOGGED
ELD .F                        95.0000:   LOG DATUM ELEVATION
TDD .F                      4095.0000:   TOTAL DEPTH DRILLER
TDL .F                      4095.0000:   TOTAL DEPTH LOGGER
BOTL.F                      4092.0000:   BOTTOM DEPTH LOGGED
TOPL.F                      1334.0000:   TOP DEPTH LOGGED
CS1 .IN                       20.0000:   CASING SIZE 1
BS1 .IN                       12.2500:   BIT SIZE 1
DDB1.F                      4095.0000:   DEPTH DRILLED BIT 1
BHF .                              99:   FLUID CODE
DPT .                   Miscellaneous:   DRILLING FLUID TYPE
MUDD.                          9.4000:   FLUID DENSITY
MUDV.                         43.0000:   FLUID VISCOSITY
DFPH.                         11.2000:   FLUID PH
RM  .OHMM                       .2800:   RM
RMT .DEGF                     70.0000:   RM TEMP
RMF .OHMM                       .2300:   RMF
RMFT.DEGF                     70.0000:   RMF TEMP
FSC .                               M:   RMF CODE
RMC .OHMM                       .4000:   RMC
RMCT.DEGF                     70.0000:   RMC TEMP
CMC .                               M:   RMC CODE
TMAX.DEGF                    178.0000:   MAX REC TEMP
TIMC.                          8.0000:   TIME SINCE CIRCLN
~PARAMETER INFORMATION (zones)
#MNEM.UNIT                       Value     Description
#=========                       =====     ===========
#ZONATION                          FDC:   ZONATION NAME
#ZONE                            RUN_3:   ZONE NAME
TOP .                       8480.0000:   TOP DEPTH
BOT .                      13304.0000:   BOTTOM DEPTH
RUN .                               3:   RUN NUMBER
LCCD.                             440:   LOGGING CONTRACTOR
SRVC.                    Schlumberger:   LOGGING CONT NAME
DICO.          QC Data Collectors Ltd:   DIG COMPANY NAME
LDAT.                      01/30/1983:   DATE LOGGED
ELD .F                        95.0000:   LOG DATUM ELEVATION
TDD .F                     13308.0000:   TOTAL DEPTH DRILLER
TDL .F                     13305.0000:   TOTAL DEPTH LOGGER
BOTL.F                     13304.0000:   BOTTOM DEPTH LOGGED
TOPL.F                      8480.0000:   TOP DEPTH LOGGED
CS1 .IN                       11.7500:   CASING SIZE 1
BS1 .IN                        9.8750:   BIT SIZE 1
DDB1.F                     13308.0000:   DEPTH DRILLED BIT 1
BHF .                              99:   FLUID CODE
DPT .                   Miscellaneous:   DRILLING FLUID TYPE
MUDD.                         15.6000:   FLUID DENSITY
MUDV.                         55.0000:   FLUID VISCOSITY
DFPH.                         10.7000:   FLUID PH
FL  .                          3.6000:   FLUID LOSS
RM  .OHMM                       .8600:   RM
RMT .DEGF                     70.0000:   RM TEMP
RMF .OHMM                       .4200:   RMF
RMFT.DEGF                     70.0000:   RMF TEMP
FSC .                               M:   RMF CODE
RMC .OHMM                      1.6700:   RMC
RMCT.DEGF                     70.0000:   RMC TEMP
CMC .                               M:   RMC CODE
TMAX.DEGF                    260.0000:   MAX REC TEMP
TIMC.                          8.5000:   TIME SINCE CIRCLN
~PARAMETER INFORMATION (zones)
#MNEM.UNIT                       Value     Description
#=========                       =====     ===========
#ZONATION                          FDC:   ZONATION NAME
#ZONE                            RUN_4:   ZONE NAME
TOP .                      12060.0000:   TOP DEPTH
BOT .                      14644.0000:   BOTTOM DEPTH
RUN .                               4:   RUN NUMBER
LCCD.                             440:   LOGGING CONTRACTOR
SRVC.                    Schlumberger:   LOGGING CONT NAME
DICO.          QC Data Collectors Ltd:   DIG COMPANY NAME
LDAT.                      02/16/1983:   DATE LOGGED
ELD .F                        95.0000:   LOG DATUM ELEVATION
TDD .F                     14641.0000:   TOTAL DEPTH DRILLER
TDL .F                     14647.0000:   TOTAL DEPTH LOGGER
BOTL.F                     14644.0000:   BOTTOM DEPTH LOGGED
TOPL.F                     12060.0000:   TOP DEPTH LOGGED
CS1 .IN                       11.7500:   CASING SIZE 1
BS1 .IN                        9.8750:   BIT SIZE 1
DDB1.F                     14641.0000:   DEPTH DRILLED BIT 1
BHF .                              99:   FLUID CODE
DPT .                   Miscellaneous:   DRILLING FLUID TYPE
MUDD.                         15.6000:   FLUID DENSITY
MUDV.                         55.0000:   FLUID VISCOSITY
DFPH.                         11.5000:   FLUID PH
FL  .                          3.2000:   FLUID LOSS
RM  .OHMM                       .6900:   RM
RMT .DEGF                     75.0000:   RM TEMP
RMF .OHMM                       .4400:   RMF
RMFT.DEGF                     75.0000:   RMF TEMP
FSC .                               M:   RMF CODE
RMC .OHMM                       .9400:   RMC
RMCT.DEGF                     75.0000:   RMC TEMP
CMC .                               M:   RMC CODE
TMAX.DEGF                    284.0000:   MAX REC TEMP
TIMC.                         13.0000:   TIME SINCE CIRCLN
~PARAMETER INFORMATION (zones)
#MNEM.UNIT                       Value     Description
#=========                       =====     ===========
#ZONATION                          FDC:   ZONATION NAME
#ZONE                            RUN_2:   ZONE NAME
TOP .                       3894.0000:   TOP DEPTH
BOT .                      14644.5000:   BOTTOM DEPTH
RUN .                               2:   RUN NUMBER
LCCD.                             440:   LOGGING CONTRACTOR
SRVC.                    Schlumberger:   LOGGING CONT NAME
DICO.          QC Data Collectors Ltd:   DIG COMPANY NAME
LDAT.                      12/10/1982:   DATE LOGGED
ELD .F                        95.0000:   LOG DATUM ELEVATION
TDD .F                      8594.0000:   TOTAL DEPTH DRILLER
TDL .F                      8592.0000:   TOTAL DEPTH LOGGER
BOTL.F                      8594.0000:   BOTTOM DEPTH LOGGED
TOPL.F                      4037.0000:   TOP DEPTH LOGGED
CS1 .IN                       16.0000:   CASING SIZE 1
BS1 .IN                       14.7500:   BIT SIZE 1
DDB1.F                      8594.0000:   DEPTH DRILLED BIT 1
BHF .                              99:   FLUID CODE
DPT .                   Miscellaneous:   DRILLING FLUID TYPE
MUDD.                         13.1000:   FLUID DENSITY
MUDV.                         45.0000:   FLUID VISCOSITY
DFPH.                         11.5000:   FLUID PH
FL  .                          3.0000:   FLUID LOSS
RM  .OHMM                       .7500:   RM
RMT .DEGF                     75.0000:   RM TEMP
RMF .OHMM                       .5500:   RMF
RMFT.DEGF                     75.0000:   RMF TEMP
FSC .                               M:   RMF CODE
RMC .OHMM                       .8000:   RMC
RMCT.DEGF                     75.0000:   RMC TEMP
CMC .                               M:   RMC CODE
TMAX.DEGF                    195.0000:   MAX REC TEMP
TIMC.                          7.0000:   TIME SINCE CIRCLN
~Curve Information Block
#MNEM.UNIT                    API CODE    No Description
#=========                    ========    == ===========
DEPT.F                   00 001 00 00:     1  DEPTH
CILD.MMHO                            :     2  Deep Induction Conductivity
DT.US/F                              :     3  Sonic Transit Time
GR.GAPI                              :     4  Gamma Ray
ILD.OHMM                             :     5  Deep Induction Resistivity
ILM.OHMM                             :     6  Medium Induction Resistivity
SFL.OHMM                             :     7  Medium Resistivity
SP.MV                                :     8  Spontaneous Potential
CALI.IN                              :     9  Caliper
GR.GAPI                              :    10  Gamma Ray
RHOB.G/C3                            :    11  Bulk Density
~ASCII
# ...
 5757.5000   985.1426   119.2992  -999.2500      .9954      .9868      .9985     -.8265    20.5053    72.3265     2.2899
 5758.0000   982.7686   119.3464  -999.2500     1.0035      .9888     1.0049    -5.1193    20.5968    72.9808     2.2967
 5758.5000   980.3945   119.5444  -999.2500     1.0098      .9849     1.0053    -7.6526    20.6976    72.2493     2.3085
 5759.0000   984.2842   119.7893  -999.2500     1.0011      .9810     1.0056    -9.2984    20.4777    71.6130     2.3197
 5759.5000   992.1260   120.0343  -999.2500      .9926      .9771      .9988    -9.4143    20.1156    71.2101     2.3139
 5760.0000   999.9687   120.0314  -999.2500      .9841      .9752      .9802    -3.6868    19.9687    71.8525     2.3013
 5760.5000  1006.4043   119.9459  -999.2500      .9834      .9750      .9620     1.3200    19.8781    72.4915     2.2882
 5761.0000  1007.4883   119.5585  -999.2500      .9860      .9749      .9449     4.9325    19.9991    70.7855     2.2852
 5761.5000  1008.5732   118.8390  -999.2500      .9886      .9797      .9465     3.4305    20.3575    69.3125     2.2917
 5762.0000  1009.6572   118.1190  -999.2500      .9974      .9870      .9633     2.1095    20.6109    67.8665     2.2994
 5762.5000   997.6484   118.4104  -999.2500     1.0101      .9943      .9724     2.3201    20.7655    66.8252     2.3024
 5763.0000   983.0430   118.8552  -999.2500     1.0230     1.0155      .9766     2.4848    20.8644    66.3837     2.3027
 5763.5000   960.2598   118.6022  -999.2500     1.0464     1.0447      .9826     2.6411    21.0073    66.7927     2.3064
 5764.0000   929.8252   117.8732  -999.2500     1.0925     1.0782      .9957     1.8171    21.1729    66.2991     2.3104
 5764.5000   903.0127   114.9233  -999.2500     1.1367     1.1166     1.0090      .3605    21.3369    66.6536     2.3166
 5765.0000   872.3877   112.1533  -999.2500     1.1734     1.1565     1.0525    -3.7730    21.2744    68.2664     2.3230
 5765.5000   826.6289   109.9230  -999.2500     1.2080     1.1986     1.1055    -5.3876    20.9339    70.4150     2.3321
 5766.0000   790.2236   108.1710  -999.2500     1.2434     1.2389     1.1733    -6.4129    20.6796    72.0450     2.3424
 5766.5000   762.8115   106.8250  -999.2500     1.2802     1.2725     1.2455    -7.0501    20.4389    69.9810     2.3586
 5767.0000   735.3994   106.1534  -999.2500     1.3148     1.3013     1.3043    -3.1789    20.3765    67.2803     2.3726
 5767.5000   745.5322   105.1755  -999.2500     1.3049     1.3209     1.3566      .9127    20.4038    64.9451     2.3842
 5768.0000   758.2549   105.9850  -999.2500     1.2881     1.3063     1.4046     4.5300    20.4301    62.9827     2.3727
 5768.5000   770.9775   108.9733  -999.2500     1.2700     1.2760     1.3676     5.0277    20.1964    65.4773     2.3443
 5769.0000   796.2910   113.5251  -999.2500     1.2372     1.2458     1.2389     4.5115    19.8961    69.3285     2.3266
 5769.5000   823.1514   117.7772  -999.2500     1.2052     1.2164     1.1144     4.1087    19.6277    72.8459     2.3171
 5770.0000   850.0361   119.5543  -999.2500     1.1741     1.1842     1.0371     4.1318    19.3813    74.7788     2.3162
 5770.5000   878.1436   118.9236  -999.2500     1.1471     1.1483      .9992     4.1538    19.2492    75.4620     2.3186
 5771.0000   907.5703   117.1246  -999.2500     1.1225     1.1136      .9776     4.1982    19.2675    73.5132     2.3156
 5771.5000   936.9727   116.8580  -999.2500     1.0984     1.0834      .9821     5.4859    19.2857    70.8492     2.2910
 5772.0000   946.3320   118.6934  -999.2500     1.0736     1.0560      .9865     2.8963    19.3602    68.6097     2.2682
 5772.5000   953.0469   121.0952  -999.2500     1.0461     1.0293      .9911    -2.1871    19.5147    66.7007     2.2497
 5773.0000   962.3701   122.7332  -999.2500     1.0194     1.0046      .9949    -7.8503    19.5912    65.8667     2.2386
 5773.5000   973.3418   123.7815  -999.2500      .9933      .9837      .9980    -9.2666    19.6342    65.3584     2.2549
 5774.0000   988.7744   122.7368  -999.2500      .9725      .9634     1.0011    -7.4334    19.7261    65.0813     2.2782
 5774.5000  1018.5615   120.8734  -999.2500      .9543      .9434     1.0042    -3.5239    19.8350    65.0562     2.2989
 5775.0000  1048.3477   121.1648  -999.2500      .9365      .9247      .9826     1.0565    19.9048    64.3190     2.3000
 5775.5000  1080.4590   121.7607  -999.2500      .9181      .9082      .9584     4.8127    19.9333    63.4880     2.2983
 5776.0000  1115.3789   122.8962  -999.2500      .8942      .8919      .9343     6.8933    19.9648    62.7000     2.2987
 5776.5000  1148.7148   124.1445  -999.2500      .8709      .8758      .8917     7.6595    20.0581    61.9911     2.3021
 5777.0000  1170.6582   125.1057  -999.2500      .8461      .8588      .8539     7.3412    20.1125    61.9044     2.2997
 5777.5000  1193.0586   125.6333  -999.2500      .8373      .8423      .8365     7.2451    19.8681    62.7607     2.2905
 5778.0000  1179.3164   124.0630  -999.2500      .8378      .8359      .8195     7.6209    19.5466    64.8224     2.2833
 5778.5000  1140.1758   120.5928  -999.2500      .8689      .8395      .8490     2.7046    19.1815    66.5173     2.2881
 5779.0000  1092.0664   117.1249  -999.2500      .9013      .8647      .8811     2.1596    19.1151    66.5818     2.2995
 5779.5000  1044.1016   113.6547  -999.2500      .9393      .8906      .9691     3.0160    19.1687    65.5497     2.3139
 5780.0000   997.3848   112.9033  -999.2500      .9834      .9327     1.1104    -1.7511    19.2222    65.1600     2.3253
 5780.5000   950.7148   113.5065  -999.2500     1.0296      .9825     1.1862    -6.9831    19.2559    65.1716     2.3251
 5781.0000   899.9678   117.6166  -999.2500     1.0931     1.0387     1.1697   -10.3416    19.2499    63.1201     2.3188
 5781.5000   847.6377   119.4872  -999.2500     1.1685     1.1071     1.0660   -12.3108    19.1740    60.8242     2.3141
 5782.0000   793.1973   118.8157  -999.2500     1.2497     1.1813      .9632    -9.1487    19.1524    59.4419     2.3300
 5782.5000   736.1670   113.7601  -999.2500     1.3369     1.2624      .9747    -4.9852    19.1621    59.1636     2.3490
 5783.0000   687.0020   105.5581  -999.2500     1.4309     1.3570     1.0374      .3761    19.2084    59.2592     2.3713
 5783.5000   655.4170    99.8599  -999.2500     1.5325     1.4633     1.1914     1.5553    19.0216    59.8203     2.3907
 5784.0000   621.6260    96.4832  -999.2500     1.6435     1.5857     1.4893     1.2391    18.6478    60.5334     2.4117
 5784.5000   576.3945    93.4685  -999.2500     1.7999     1.7237     1.8453     1.5505    18.2409    61.4668     2.4184
 5785.0000   537.9746    91.0020  -999.2500     1.9788     1.8761     1.8776     2.0309    18.1580    61.4300     2.4150
 5785.5000   514.5918    88.6534  -999.2500     2.1395     2.0520     1.8878     2.5112    18.2284    58.6926     2.4173
 5786.0000   508.1768    88.2037  -999.2500     2.2073     2.1486     1.9683     2.9867    18.2066    55.9649     2.4247
 5786.5000   511.7500    89.5953  -999.2500     2.1995     2.1193     2.1604     -.8935    18.1417    55.0260     2.4146
 5787.0000   520.4678    91.6626  -999.2500     2.1037     2.0088     2.2488    -6.0967    18.0958    54.8231     2.3849
 5787.5000   529.1973    94.4686  -999.2500     2.0013     1.8711     1.9909    -9.6170    18.1021    56.4653     2.3574
 5788.0000   542.8789    98.8286  -999.2500     1.8710     1.7560     1.7283   -11.3286    18.1903    57.9088     2.3311
 5788.5000   556.5615   102.0375  -999.2500     1.8129     1.6835     1.5179   -13.1253    19.1703    59.0151     2.3106
 5789.0000   570.5674   103.9177  -999.2500     1.7657     1.6496     1.3973   -13.8787    19.7889    59.3688     2.3020
 5789.5000   585.0645   104.5077  -999.2500     1.7467     1.6316     1.3734   -12.0713    20.1049    59.2892     2.3118
 5790.0000   599.5615   103.6335  -999.2500     1.7298     1.6101     1.3872    -4.4677    20.1426    58.4338     2.3221
 5790.5000   627.2861   102.4020  -999.2500     1.5940     1.5853     1.4325     1.3727    19.8897    57.4232     2.3352
