~VERSION INFORMATION
VERS.                             2.0:   CWLS Log ASCII Standard-VERSION 2.0
WRAP.                              NO:   One line per depth step
~Well Information Block
STRT.F                      1319.0000:   Top Depth
STOP.F                      7911.0000:   Bottom Depth
STEP.F                         .50000:   Depth Increment
NULL.                        -999.250:   Null Value
FLD .                    MU BLK A 167:   Field Name
WELL.       OCSG08096   001 ST00 BP00:   NAME
API .                    427124009800:   WELL API
EDF .F                        84.0000:   ELEV DRILL FLOOR
COMP.         UNION PACIFIC RESOURCES:   OPERATOR
BN  .                           A 167:   BLOCK
CTRY.                             USA:   COUNTRY NAME
CNTY.                        M I E AD:   COUNTY NAME
EKB .F                        85.0000:   ELEV KELLY BUSHING
TDD .F                       7913.000:   FINAL TD DRILLER
STAT.                           TEXAS:   STATE NAME
UWI .                    427124009800:   WELL API
DICO.               IHS : Digitizing Company
~PARAMETER INFORMATION (zones)
#MNEM.UNIT                       Value     Description
#=========                       =====     ===========
#ZONATION                          DIL:   ZONATION NAME
#ZONE                            RUN_2:   ZONE NAME
TOP .                       4520.0000:   TOP DEPTH
BOT .                       7911.0000:   BOTTOM DEPTH
RUN .                               2:   RUN NUMBER
LCCD.                             440:   LOGGING CONTRACTOR
SRVC.                    Schlumberger:   LOGGING CONT NAME
DICO.          QC Data Collectors Ltd:   DIG COMPANY NAME
LDAT.                      05/30/1988:   DATE LOGGED
ELD .F                        85.0000:   LOG DATUM ELEVATION
TDD .F                      7904.0000:   TOTAL DEPTH DRILLER
TDL .F                      7913.0000:   TOTAL DEPTH LOGGER
BOTL.F                      7911.0000:   BOTTOM DEPTH LOGGED
TOPL.F                      4520.0000:   TOP DEPTH LOGGED
CS1 .IN                       13.3750:   CASING SIZE 1
BS1 .IN                       12.2500:   BIT SIZE 1
DDB1.F                      7904.0000:   DEPTH DRILLED BIT 1
BHF .                              80:   FLUID CODE
DPT .                      Salt Water:   DRILLING FLUID TYPE
MUDD.                         13.3000:   FLUID DENSITY
MUDV.                         44.0000:   FLUID VISCOSITY
DFPH.                          9.6000:   FLUID PH
FL  .                         11.9000:   FLUID LOSS
RM  .OHMM                       .2330:   RM
RMT .DEGF                     75.0000:   RM TEMP
RMF .OHMM                       .1510:   RMF
RMFT.DEGF                     75.0000:   RMF TEMP
FSC .                               M:   RMF CODE
RMC .OHMM                       .4890:   RMC
RMCT.DEGF                     75.0000:   RMC TEMP
CMC .                               M:   RMC CODE
TMAX.DEGF                    182.0000:   MAX REC TEMP
TIMC.                         10.7500:   TIME SINCE CIRCLN
~PARAMETER INFORMATION (zones)
#MNEM.UNIT                       Value     Description
#=========                       =====     ===========
#ZONATION                          DIL:   ZONATION NAME
#ZONE                            RUN_1:   ZONE NAME
TOP .                       1319.0000:   TOP DEPTH
BOT .                       7911.5000:   BOTTOM DEPTH
RUN .                               1:   RUN NUMBER
LCCD.                             440:   LOGGING CONTRACTOR
SRVC.                    Schlumberger:   LOGGING CONT NAME
DICO.          QC Data Collectors Ltd:   DIG COMPANY NAME
LDAT.                      05/21/1988:   DATE LOGGED
ELD .F                        85.0000:   LOG DATUM ELEVATION
TDD .F                      4550.0000:   TOTAL DEPTH DRILLER
TDL .F                      4551.0000:   TOTAL DEPTH LOGGER
BOTL.F                      4549.0000:   BOTTOM DEPTH LOGGED
TOPL.F                      1394.0000:   TOP DEPTH LOGGED
CS1 .IN                       20.0000:   CASING SIZE 1
BS1 .IN                       17.5000:   BIT SIZE 1
DDB1.F                      4550.0000:   DEPTH DRILLED BIT 1
BHF .                              80:   FLUID CODE
DPT .                      Salt Water:   DRILLING FLUID TYPE
MUDD.                         10.0000:   FLUID DENSITY
MUDV.                         38.0000:   FLUID VISCOSITY
DFPH.                          8.4000:   FLUID PH
FL  .                            NULL:   FLUID LOSS
RM  .OHMM                       .3040:   RM
RMT .DEGF                     82.0000:   RM TEMP
RMF .OHMM                       .2310:   RMF
RMFT.DEGF                     82.0000:   RMF TEMP
FSC .                               M:   RMF CODE
RMC .OHMM                       .4210:   RMC
RMCT.DEGF                     82.0000:   RMC TEMP
CMC .                               M:   RMC CODE
TMAX.DEGF                    130.0000:   MAX REC TEMP
TIMC.                          5.0000:   TIME SINCE CIRCLN
~Curve Information Block
#MNEM.UNIT                    API CODE    No Description
#=========                    ========    == ===========
DEPT.F                   00 001 00 00:     1  DEPTH
DCAL.IN                              :     2  Differential Caliper
DT.US/F                              :     3  Sonic Transit Time
GR.GAPI                              :     4  Gamma Ray
ILD.OHMM                             :     5  Deep Induction Resistivity
ILM.OHMM                             :     6  Medium Induction Resistivity
SFL.OHMM                             :     7  Medium Resistivity
SP.MV                                :     8  Spontaneous Potential
~ASCII
# ...
 7461.5000      .6671   112.5979    73.3712      .6850      .6929      .7466   -43.3997
 7462.0000      .6503   112.3503    72.1628      .6835      .6981      .7547   -43.3289
 7462.5000      .6122   112.3711    69.3130      .6771      .7000      .7493   -43.2981
 7463.0000      .5238   112.9657    66.8291      .6682      .6991      .7375   -43.2743
 7463.5000      .4360   113.8019    67.3263      .6574      .6944      .7190   -43.2628
 7464.0000      .4094   114.6493    67.3762      .6458      .6862      .7100   -43.2124
 7464.5000      .4503   115.4218    66.3512      .6326      .6766      .7057   -43.0701
 7465.0000      .5246   116.2180    65.1902      .6197      .6666      .7053   -42.8427
 7465.5000      .5799   117.0480    65.5597      .6066      .6528      .7001   -42.5197
 7466.0000      .6285   118.0129    67.3542      .5937      .6385      .6929   -42.4276
 7466.5000      .6676   118.9503    69.4487      .5827      .6252      .6774   -42.5010
 7467.0000      .6610   119.8141    70.7118      .5724      .6144      .6624   -42.8931
 7467.5000      .6189   120.5852    68.5389      .5653      .6101      .6485   -43.1054
 7468.0000      .5768   121.3627    66.4340      .5594      .6081      .6399   -43.0461
 7468.5000      .5347   122.0059    65.7712      .5562      .6091      .6348   -42.6684
 7469.0000      .5120   122.3879    65.0146      .5535      .6128      .6315   -42.8538
 7469.5000      .5138   122.0115    63.8922      .5520      .6182      .6351   -43.4649
 7470.0000      .5749   120.8502    64.1361      .5520      .6205      .6384   -43.9515
 7470.5000      .7008   119.5703    65.1006      .5535      .6220      .6416   -44.1310
 7471.0000      .8154   118.3066    66.0057      .5583      .6246      .6456   -43.9278
 7471.5000      .9062   117.2179    64.5717      .5646      .6250      .6547   -43.7309
 7472.0000      .9396   116.6429    59.8776      .5727      .6253      .6758   -43.5349
 7472.5000      .8663   116.9843    57.9250      .5780      .6245      .6806   -43.6298
 7473.0000      .7241   118.2129    59.0836      .5824      .6237      .6683   -43.7814
 7473.5000      .5498   118.9966    60.8009      .5863      .6224      .6589   -43.8096
 7474.0000      .4643   118.9569    61.5053      .5892      .6206      .6579   -43.7368
 7474.5000      .4507   118.4241    60.2073      .5920      .6184      .6620   -43.3578
 7475.0000      .4876   116.9867    59.2578      .5947      .6191      .6691   -43.0573
 7475.5000      .4996   115.6730    59.2150      .5975      .6219      .6796   -43.1740
 7476.0000      .5019   114.5555    58.1602      .6013      .6274      .6903   -43.2889
 7476.5000      .5041   113.7528    57.7203      .6051      .6327      .7023   -43.3961
 7477.0000      .5040   113.9722    58.2374      .6106      .6371      .7036   -43.0717
 7477.5000      .4972   114.2662    59.4432      .6175      .6420      .6937   -42.8005
 7478.0000      .4853   114.5712    58.9293      .6233      .6483      .6870   -42.7053
 7478.5000      .4678   114.3568    56.7515      .6287      .6551      .6873   -42.7108
 7479.0000      .4610   113.8812    55.3639      .6312      .6625      .6940   -42.9235
 7479.5000      .4673   113.2375    56.5225      .6331      .6672      .7005   -43.2309
 7480.0000      .4822   112.5663    60.4600      .6337      .6696      .7070   -43.6964
 7480.5000      .5069   112.8157    64.4471      .6335      .6700      .7117   -43.9739
 7481.0000      .5294   114.0581    66.3188      .6340      .6697      .7151   -44.0249
 7481.5000      .5504   114.9587    66.8926      .6377      .6661      .7148   -43.8333
 7482.0000      .5411   115.0857    65.3407      .6412      .6606      .7091   -43.4400
 7482.5000      .5075   115.0475    62.6378      .6409      .6544      .7035   -43.1012
 7483.0000      .4500   115.2168    60.6591      .6407      .6513      .6971   -42.9257
 7483.5000      .3756   115.5005    59.4084      .6347      .6498      .6909   -42.8186
 7484.0000      .3214   115.7299    58.0208      .6282      .6511      .6836   -42.8648
 7484.5000      .2768   115.6833    56.3047      .6307      .6534      .6755   -42.9581
 7485.0000      .3312   115.4290    55.3981      .6374      .6500      .6701   -43.2004
 7485.5000      .3139   114.9893    56.8908      .6438      .6507      .6712   -43.4428
 7486.0000      .2534   114.4862    60.9677      .6503      .6679      .6827   -43.4425
 7486.5000      .2760   113.9718    65.7115      .6552      .6818      .6992   -43.4113
 7487.0000      .3927   113.6204    67.7251      .6594      .6913      .7159   -43.0318
 7487.5000      .4988   113.4987    68.0742      .6581      .6963      .7329   -42.8083
 7488.0000      .5784   113.6218    66.7968      .6554      .6950      .7431   -43.0269
 7488.5000      .6286   114.7468    64.8105      .6521      .6894      .7454   -43.3405
 7489.0000      .5750   116.4817    62.5133      .6478      .6814      .7272   -43.4448
 7489.5000      .4680   117.7842    60.5670      .6432      .6740      .7161   -43.4541
 7490.0000      .3326   118.5529    59.3281      .6376      .6676      .7087   -43.3602
 7490.5000      .2187   119.0391    61.4058      .6335      .6642      .7074   -43.2371
 7491.0000      .1530   118.2828    64.1783      .6307      .6619      .7072   -43.1259
 7491.5000      .1961   117.1217    65.9020      .6338      .6626      .7079   -43.0215
 7492.0000      .3602   115.8492    66.9722      .6409      .6640      .7099   -42.9105
 7492.5000      .5087   114.4568    67.6554      .6478      .6715      .7191   -42.7921
 7493.0000      .6268   113.2856    67.9336      .6547      .6789      .7307   -42.8370
 7493.5000      .6412   115.0219    67.5708      .6597      .6856      .7401   -42.9816
 7494.0000      .6732   118.3616    66.9199      .6601      .6875      .7434   -43.1542
 7494.5000      .7079   120.2640    66.3564      .6530      .6814      .7424   -43.1401
 7495.0000      .7254   119.3365    66.2504      .6440      .6733      .7239   -42.9789
 7495.5000      .7023   117.7191    66.8988      .6368      .6643      .6950   -42.7179
 7496.0000      .6496   116.8792    67.5776      .6300      .6562      .6666   -42.4130
 7496.5000      .5758   118.6366    67.6716      .6239      .6497      .6551   -42.2869
 7497.0000      .5289   120.4940    66.4950      .6199      .6449      .6563   -42.2166
 7497.5000      .5480   122.3164    65.8783      .6159      .6441      .6695   -42.3374
 7498.0000      .5961   122.5951    65.9504      .6156      .6443      .6887   -42.4583
 7498.5000      .6424   121.2340    66.2343      .6159      .6490      .7072   -42.6193
 7499.0000      .6399   119.2816    65.4327      .6155      .6524      .7247   -42.8573
 7499.5000      .6699   117.8167    63.2824      .6149      .6521      .7320   -43.0956
 7500.0000      .7504   118.0542    60.9951      .6130      .6510      .7333   -43.2538
 7500.5000      .8932   121.5914    59.8912      .6090      .6464      .7079   -43.3364
 7501.0000      .9255   124.8213    61.4306      .6049      .6419      .6877   -43.1693
 7501.5000      .8624   127.6361    63.3695      .5967      .6370      .6782   -42.9285
 7502.0000      .7611   128.7241    65.1577      .5872      .6300      .6697   -42.5508
 7502.5000      .7297   128.4285    66.3413      .5708      .6187      .6495   -42.7089
 7503.0000      .7057   129.8909    66.5214      .5605      .6050      .6325   -43.2477
 7503.5000      .7026   131.6345    66.6794      .5543      .5908      .6218   -44.1910
 7504.0000      .6995   131.3621    67.0431      .5534      .5851      .6147   -44.9924
 7504.5000      .6962   128.0261    67.6013      .5527      .5808      .6111   -45.3743
 7505.0000      .6835   126.1112    67.0892      .5523      .5800      .6167   -45.3132
 7505.5000      .6674   124.3163    65.3706      .5510      .5799      .6224   -45.3441
 7506.0000      .6236   122.5873    63.2625      .5487      .5826      .6361   -45.4791
 7506.5000      .5737   122.3555    60.9428      .5477      .5847      .6572   -45.7401
