~VERSION INFORMATION
VERS.                             2.0:   CWLS Log ASCII Standard-VERSION 2.0
WRAP.                              NO:   One line per depth step
~Well Information Block
STRT.F                      1319.0000:   Top Depth
STOP.F                      7911.0000:   Bottom Depth
STEP.F                         .50000:   Depth Increment
NULL.                        -999.250:   Null Value
FLD .                    MU BLK A 167:   Field Name
WELL.       OCSG08096   001 ST00 BP00:   NAME
API .                    427124009800:   WELL API
EDF .F                        84.0000:   ELEV DRILL FLOOR
COMP.         UNION PACIFIC RESOURCES:   OPERATOR
BN  .                           A 167:   BLOCK
CTRY.                             USA:   COUNTRY NAME
CNTY.                        M I E AD:   COUNTY NAME
EKB .F                        85.0000:   ELEV KELLY BUSHING
TDD .F                       7913.000:   FINAL TD DRILLER
STAT.                           TEXAS:   STATE NAME
UWI .                    427124009800:   WELL API
DICO.               IHS : Digitizing Company
~PARAMETER INFORMATION (zones)
#MNEM.UNIT                       Value     Description
#=========                       =====     ===========
#ZONATION                          DIL:   ZONATION NAME
#ZONE                            RUN_2:   ZONE NAME
TOP .                       4520.0000:   TOP DEPTH
BOT .                       7911.0000:   BOTTOM DEPTH
RUN .                               2:   RUN NUMBER
LCCD.                             440:   LOGGING CONTRACTOR
SRVC.                    Schlumberger:   LOGGING CONT NAME
DICO.          QC Data Collectors Ltd:   DIG COMPANY NAME
LDAT.                      05/30/1988:   DATE LOGGED
ELD .F                        85.0000:   LOG DATUM ELEVATION
TDD .F                      7904.0000:   TOTAL DEPTH DRILLER
TDL .F                      7913.0000:   TOTAL DEPTH LOGGER
BOTL.F                      7911.0000:   BOTTOM DEPTH LOGGED
TOPL.F                      4520.0000:   TOP DEPTH LOGGED
CS1 .IN                       13.3750:   CASING SIZE 1
BS1 .IN                       12.2500:   BIT SIZE 1
DDB1.F                      7904.0000:   DEPTH DRILLED BIT 1
BHF .                              80:   FLUID CODE
DPT .                      Salt Water:   DRILLING FLUID TYPE
MUDD.                         13.3000:   FLUID DENSITY
MUDV.                         44.0000:   FLUID VISCOSITY
DFPH.                          9.6000:   FLUID PH
FL  .                         11.9000:   FLUID LOSS
RM  .OHMM                       .2330:   RM
RMT .DEGF                     75.0000:   RM TEMP
RMF .OHMM                       .1510:   RMF
RMFT.DEGF                     75.0000:   RMF TEMP
FSC .                               M:   RMF CODE
RMC .OHMM                       .4890:   RMC
RMCT.DEGF                     75.0000:   RMC TEMP
CMC .                               M:   RMC CODE
TMAX.DEGF                    182.0000:   MAX REC TEMP
TIMC.                         10.7500:   TIME SINCE CIRCLN
~PARAMETER INFORMATION (zones)
#MNEM.UNIT                       Value     Description
#=========                       =====     ===========
#ZONATION                          DIL:   ZONATION NAME
#ZONE                            RUN_1:   ZONE NAME
TOP .                       1319.0000:   TOP DEPTH
BOT .                       7911.5000:   BOTTOM DEPTH
RUN .                               1:   RUN NUMBER
LCCD.                             440:   LOGGING CONTRACTOR
SRVC.                    Schlumberger:   LOGGING CONT NAME
DICO.          QC Data Collectors Ltd:   DIG COMPANY NAME
LDAT.                      05/21/1988:   DATE LOGGED
ELD .F                        85.0000:   LOG DATUM ELEVATION
TDD .F                      4550.0000:   TOTAL DEPTH DRILLER
TDL .F                      4551.0000:   TOTAL DEPTH LOGGER
BOTL.F                      4549.0000:   BOTTOM DEPTH LOGGED
TOPL.F                      1394.0000:   TOP DEPTH LOGGED
CS1 .IN                       20.0000:   CASING SIZE 1
BS1 .IN                       17.5000:   BIT SIZE 1
DDB1.F                      4550.0000:   DEPTH DRILLED BIT 1
BHF .                              80:   FLUID CODE
DPT .                      Salt Water:   DRILLING FLUID TYPE
MUDD.                         10.0000:   FLUID DENSITY
MUDV.                         38.0000:   FLUID VISCOSITY
DFPH.                          8.4000:   FLUID PH
FL  .                            NULL:   FLUID LOSS
RM  .OHMM                       .3040:   RM
RMT .DEGF                     82.0000:   RM TEMP
RMF .OHMM                       .2310:   RMF
RMFT.DEGF                     82.0000:   RMF TEMP
FSC .                               M:   RMF CODE
RMC .OHMM                       .4210:   RMC
RMCT.DEGF                     82.0000:   RMC TEMP
CMC .                               M:   RMC CODE
TMAX.DEGF                    130.0000:   MAX REC TEMP
TIMC.                          5.0000:   TIME SINCE CIRCLN
~Curve Information Block
#MNEM.UNIT                    API CODE    No Description
#=========                    ========    == ===========
DEPT.F                   00 001 00 00:     1  DEPTH
DCAL.IN                              :     2  Differential Caliper
DT.US/F                              :     3  Sonic Transit Time
GR.GAPI                              :     4  Gamma Ray
ILD.OHMM                             :     5  Deep Induction Resistivity
ILM.OHMM                             :     6  Medium Induction Resistivity
SFL.OHMM                             :     7  Medium Resistivity
SP.MV                                :     8  Spontaneous Potential
~ASCII
# ...
 7871.0000      .3962  -999.2500    60.7429      .7092      .7434      .7987   -40.7031
 7871.5000      .4299  -999.2500    59.8268      .7119      .7428      .8094   -40.7118
 7872.0000      .4577  -999.2500    59.7420      .7146      .7418      .8209   -40.7809
 7872.5000      .4777  -999.2500    62.1265      .7140      .7424      .8278   -40.7988
 7873.0000      .4876  -999.2500    65.6117      .7132      .7407      .8250   -40.7957
 7873.5000      .4804  -999.2500    67.4596      .7083      .7346      .8112   -40.8068
 7874.0000      .4731  -999.2500    67.8005      .7022      .7236      .7972   -40.8221
 7874.5000      .4655  -999.2500    68.0094      .6910      .7100      .7833   -40.7988
 7875.0000      .4566  -999.2500    68.1805      .6773      .6935      .7678   -40.7516
 7875.5000      .4449  -999.2500    67.9926      .6599      .6744      .7502   -40.6001
 7876.0000      .4217  -999.2500    66.8033      .6423      .6527      .7273   -40.1906
 7876.5000      .3748  -999.2500    67.1038      .6242      .6305      .7004   -39.4726
 7877.0000      .2665  -999.2500    67.5918      .6070      .6057      .6799   -39.0323
 7877.5000     -.0728  -999.2500    67.7919      .5907      .5838      .6643   -38.7110
 7878.0000     -.6639  -999.2500    66.3920      .5755      .5681      .6518   -38.8148
 7878.5000  -999.2500  -999.2500    64.3677      .5622      .5533      .6366   -39.1086
 7879.0000  -999.2500  -999.2500    63.0439      .5502      .5450      .6234   -39.4025
 7879.5000  -999.2500  -999.2500    62.6457      .5391      .5457      .6173   -39.6960
 7880.0000  -999.2500  -999.2500    62.7118      .5287      .5490      .6316   -39.6689
 7880.5000  -999.2500  -999.2500    63.0234      .5186      .5529      .6379   -39.6298
 7881.0000  -999.2500  -999.2500    62.5435      .5118      .5472      .6375   -39.7567
 7881.5000  -999.2500  -999.2500    60.7679      .5057      .5441      .6239   -39.9482
 7882.0000  -999.2500  -999.2500    59.2322      .5100      .5478      .6106   -40.1591
 7882.5000  -999.2500  -999.2500    59.5301      .5146      .5536      .6167   -40.3355
 7883.0000  -999.2500  -999.2500    59.7059      .5196      .5628      .6260   -40.4985
 7883.5000  -999.2500  -999.2500    58.4968      .5235      .5644      .6409   -40.5806
 7884.0000  -999.2500  -999.2500    56.4749      .5256      .5639      .6382   -40.4872
 7884.5000  -999.2500  -999.2500    54.9810      .5283      .5654      .6297   -40.2217
 7885.0000  -999.2500  -999.2500    54.4288      .5316      .5674      .6280   -39.7936
 7885.5000  -999.2500  -999.2500    54.4915      .5366      .5724      .6272   -39.2707
 7886.0000  -999.2500  -999.2500    54.9006      .5425      .5792      .6352   -39.1577
 7886.5000  -999.2500  -999.2500    55.6423      .5512      .5858      .6432   -39.2970
 7887.0000  -999.2500  -999.2500    56.7255      .5596      .5923      .6545   -39.4628
 7887.5000  -999.2500  -999.2500    58.0929      .5662      .5967      .6672   -39.1924
 7888.0000  -999.2500  -999.2500    59.2159      .5727      .6004      .6788   -38.9908
 7888.5000  -999.2500  -999.2500    59.7124      .5791      .6030      .6846   -38.9076
 7889.0000  -999.2500  -999.2500    59.3917      .5850      .6054      .6805   -39.2264
 7889.5000  -999.2500  -999.2500    58.4070      .5881      .6060      .6687   -39.5390
 7890.0000  -999.2500  -999.2500    57.6597      .5913      .6065      .6520   -39.7288
 7890.5000  -999.2500  -999.2500    57.5743      .5911      .6037      .6522   -39.7592
 7891.0000  -999.2500  -999.2500    58.4718      .5893      .6007      .6573   -39.6751
 7891.5000  -999.2500  -999.2500    59.5999      .5861      .5970      .6634   -39.4807
 7892.0000  -999.2500  -999.2500    60.0617      .5805      .5943      .6649   -39.2516
 7892.5000  -999.2500  -999.2500    60.2370      .5753      .5950      .6529   -39.4175
 7893.0000  -999.2500  -999.2500    60.3616      .5744      .5994      .6437   -39.8135
 7893.5000  -999.2500  -999.2500    60.3648      .5735      .6042      .6360   -39.9193
 7894.0000  -999.2500  -999.2500    59.4740      .5752      .6084      .6361   -39.8755
 7894.5000  -999.2500  -999.2500    57.7713      .5772      .6126      .6378   -39.5823
 7895.0000  -999.2500  -999.2500    55.8915      .5817      .6162      .6477   -39.1878
 7895.5000  -999.2500  -999.2500    55.1124      .5871      .6195      .6608   -38.9655
 7896.0000  -999.2500  -999.2500    56.7965      .5937      .6261      .6785   -38.9382
 7896.5000  -999.2500  -999.2500    58.7236      .6014      .6353      .6999   -39.2339
 7897.0000  -999.2500  -999.2500    59.3325      .6097      .6416      .7124   -39.6028
 7897.5000  -999.2500  -999.2500    58.9985      .6186      .6451      .7209   -39.9241
 7898.0000  -999.2500  -999.2500    58.9396      .6277      .6440      .7261   -40.2389
 7898.5000  -999.2500  -999.2500    59.1873      .6370      .6453      .7262   -40.3702
 7899.0000  -999.2500  -999.2500    59.8579      .6448      .6477      .7250   -40.3621
 7899.5000  -999.2500  -999.2500    60.2079      .6513      .6514      .7215   -40.1978
 7900.0000  -999.2500  -999.2500    60.3500      .6551      .6552      .7195   -40.1744
 7900.5000  -999.2500  -999.2500  -999.2500      .6562      .6592      .7211   -40.2141
 7901.0000  -999.2500  -999.2500  -999.2500      .6573      .6636      .7249   -40.5290
 7901.5000  -999.2500  -999.2500  -999.2500      .6584      .6668      .7310   -40.7001
 7902.0000  -999.2500  -999.2500  -999.2500      .6596      .6657      .7301   -40.6646
 7902.5000  -999.2500  -999.2500  -999.2500      .6563      .6637      .7212   -40.3950
 7903.0000  -999.2500  -999.2500  -999.2500      .6513      .6587      .7000   -40.1476
 7903.5000  -999.2500  -999.2500  -999.2500      .6418      .6537      .6773   -39.9973
 7904.0000  -999.2500  -999.2500  -999.2500      .6317      .6477      .6558   -39.9891
 7904.5000  -999.2500  -999.2500  -999.2500      .6283      .6420      .6464   -40.1221
 7905.0000  -999.2500  -999.2500  -999.2500      .6251      .6378      .6525   -40.5184
 7905.5000  -999.2500  -999.2500  -999.2500      .6256      .6336      .6698   -41.1335
 7906.0000  -999.2500  -999.2500  -999.2500      .6262      .6303      .6950   -40.6935
 7906.5000  -999.2500  -999.2500  -999.2500      .6268      .6271      .7108   -40.3508
 7907.0000  -999.2500  -999.2500  -999.2500      .6274      .6237      .7170   -40.1322
 7907.5000  -999.2500  -999.2500  -999.2500      .6271      .6200      .7165   -40.1418
 7908.0000  -999.2500  -999.2500  -999.2500      .6237      .6162      .7160   -40.3470
 7908.5000  -999.2500  -999.2500  -999.2500      .6217      .6126      .7127   -40.5870
 7909.0000  -999.2500  -999.2500  -999.2500      .6234      .6091      .7088   -40.9454
 7909.5000  -999.2500  -999.2500  -999.2500      .6253      .6056      .7054   -41.1429
 7910.0000  -999.2500  -999.2500  -999.2500      .6284      .6041      .7039   -41.2090
 7910.5000  -999.2500  -999.2500  -999.2500      .6313      .6025      .7023   -40.9117
 7911.0000  -999.2500  -999.2500  -999.2500      .6338      .6015      .7023   -40.7600
