~VERSION INFORMATION
VERS.                             2.0:   CWLS Log ASCII Standard-VERSION 2.0
WRAP.                              NO:   One line per depth step
~Well Information Block
STRT.F                      1302.0000:   Top Depth
STOP.F                     14644.0000:   Bottom Depth
STEP.F                         .50000:   Depth Increment
NULL.                        -999.250:   Null Value
FLD .                    MU BLK A 152:   Field Name
WELL.       OCSG04991   001 ST00 BP00:   NAME
API .                    427124006100:   WELL API
EDF .F                        94.0000:   ELEV DRILL FLOOR
COMP.            TRANSCO EXPL PROD CO:   OPERATOR
BN  .                           A 152:   BLOCK
CTRY.                             USA:   COUNTRY NAME
CNTY.                        M I E AD:   COUNTY NAME
EKB .F                        95.0000:   ELEV KELLY BUSHING
TDD .F                      14647.000:   FINAL TD DRILLER
STAT.                           TEXAS:   STATE NAME
UWI .                    427124006100:   WELL API
DICO.               IHS : Digitizing Company
~PARAMETER INFORMATION (zones)
#MNEM.UNIT                       Value     Description
#=========                       =====     ===========
#ZONATION                          DIL:   ZONATION NAME
#ZONE                            RUN_1:   ZONE NAME
TOP .                       1302.0000:   TOP DEPTH
BOT .                      14644.5000:   BOTTOM DEPTH
RUN .                               1:   RUN NUMBER
LCCD.                             440:   LOGGING CONTRACTOR
SRVC.                    Schlumberger:   LOGGING CONT NAME
DICO.          QC Data Collectors Ltd:   DIG COMPANY NAME
LDAT.                      11/20/1982:   DATE LOGGED
ELD .F                        95.0000:   LOG DATUM ELEVATION
TDD .F                      4095.0000:   TOTAL DEPTH DRILLER
TDL .F                      4095.0000:   TOTAL DEPTH LOGGER
BOTL.F                      4092.0000:   BOTTOM DEPTH LOGGED
TOPL.F                      1334.0000:   TOP DEPTH LOGGED
CS1 .IN                       20.0000:   CASING SIZE 1
BS1 .IN                       12.2500:   BIT SIZE 1
DDB1.F                      4095.0000:   DEPTH DRILLED BIT 1
BHF .                              99:   FLUID CODE
DPT .                   Miscellaneous:   DRILLING FLUID TYPE
MUDD.                          9.4000:   FLUID DENSITY
MUDV.                         43.0000:   FLUID VISCOSITY
DFPH.                         11.2000:   FLUID PH
RM  .OHMM                       .2800:   RM
RMT .DEGF                     70.0000:   RM TEMP
RMF .OHMM                       .2300:   RMF
RMFT.DEGF                     70.0000:   RMF TEMP
FSC .                               M:   RMF CODE
RMC .OHMM                       .4000:   RMC
RMCT.DEGF                     70.0000:   RMC TEMP
CMC .                               M:   RMC CODE
TMAX.DEGF                    178.0000:   MAX REC TEMP
TIMC.                          8.0000:   TIME SINCE CIRCLN
~PARAMETER INFORMATION (zones)
#MNEM.UNIT                       Value     Description
#=========                       =====     ===========
#ZONATION                          FDC:   ZONATION NAME
#ZONE                            RUN_3:   ZONE NAME
TOP .                       8480.0000:   TOP DEPTH
BOT .                      13304.0000:   BOTTOM DEPTH
RUN .                               3:   RUN NUMBER
LCCD.                             440:   LOGGING CONTRACTOR
SRVC.                    Schlumberger:   LOGGING CONT NAME
DICO.          QC Data Collectors Ltd:   DIG COMPANY NAME
LDAT.                      01/30/1983:   DATE LOGGED
ELD .F                        95.0000:   LOG DATUM ELEVATION
TDD .F                     13308.0000:   TOTAL DEPTH DRILLER
TDL .F                     13305.0000:   TOTAL DEPTH LOGGER
BOTL.F                     13304.0000:   BOTTOM DEPTH LOGGED
TOPL.F                      8480.0000:   TOP DEPTH LOGGED
CS1 .IN                       11.7500:   CASING SIZE 1
BS1 .IN                        9.8750:   BIT SIZE 1
DDB1.F                     13308.0000:   DEPTH DRILLED BIT 1
BHF .                              99:   FLUID CODE
DPT .                   Miscellaneous:   DRILLING FLUID TYPE
MUDD.                         15.6000:   FLUID DENSITY
MUDV.                         55.0000:   FLUID VISCOSITY
DFPH.                         10.7000:   FLUID PH
FL  .                          3.6000:   FLUID LOSS
RM  .OHMM                       .8600:   RM
RMT .DEGF                     70.0000:   RM TEMP
RMF .OHMM                       .4200:   RMF
RMFT.DEGF                     70.0000:   RMF TEMP
FSC .                               M:   RMF CODE
RMC .OHMM                      1.6700:   RMC
RMCT.DEGF                     70.0000:   RMC TEMP
CMC .                               M:   RMC CODE
TMAX.DEGF                    260.0000:   MAX REC TEMP
TIMC.                          8.5000:   TIME SINCE CIRCLN
~PARAMETER INFORMATION (zones)
#MNEM.UNIT                       Value     Description
#=========                       =====     ===========
#ZONATION                          FDC:   ZONATION NAME
#ZONE                            RUN_4:   ZONE NAME
TOP .                      12060.0000:   TOP DEPTH
BOT .                      14644.0000:   BOTTOM DEPTH
RUN .                               4:   RUN NUMBER
LCCD.                             440:   LOGGING CONTRACTOR
SRVC.                    Schlumberger:   LOGGING CONT NAME
DICO.          QC Data Collectors Ltd:   DIG COMPANY NAME
LDAT.                      02/16/1983:   DATE LOGGED
ELD .F                        95.0000:   LOG DATUM ELEVATION
TDD .F                     14641.0000:   TOTAL DEPTH DRILLER
TDL .F                     14647.0000:   TOTAL DEPTH LOGGER
BOTL.F                     14644.0000:   BOTTOM DEPTH LOGGED
TOPL.F                     12060.0000:   TOP DEPTH LOGGED
CS1 .IN                       11.7500:   CASING SIZE 1
BS1 .IN                        9.8750:   BIT SIZE 1
DDB1.F                     14641.0000:   DEPTH DRILLED BIT 1
BHF .                              99:   FLUID CODE
DPT .                   Miscellaneous:   DRILLING FLUID TYPE
MUDD.                         15.6000:   FLUID DENSITY
MUDV.                         55.0000:   FLUID VISCOSITY
DFPH.                         11.5000:   FLUID PH
FL  .                          3.2000:   FLUID LOSS
RM  .OHMM                       .6900:   RM
RMT .DEGF                     75.0000:   RM TEMP
RMF .OHMM                       .4400:   RMF
RMFT.DEGF                     75.0000:   RMF TEMP
FSC .                               M:   RMF CODE
RMC .OHMM                       .9400:   RMC
RMCT.DEGF                     75.0000:   RMC TEMP
CMC .                               M:   RMC CODE
TMAX.DEGF                    284.0000:   MAX REC TEMP
TIMC.                         13.0000:   TIME SINCE CIRCLN
~PARAMETER INFORMATION (zones)
#MNEM.UNIT                       Value     Description
#=========                       =====     ===========
#ZONATION                          FDC:   ZONATION NAME
#ZONE                            RUN_2:   ZONE NAME
TOP .                       3894.0000:   TOP DEPTH
BOT .                      14644.5000:   BOTTOM DEPTH
RUN .                               2:   RUN NUMBER
LCCD.                             440:   LOGGING CONTRACTOR
SRVC.                    Schlumberger:   LOGGING CONT NAME
DICO.          QC Data Collectors Ltd:   DIG COMPANY NAME
LDAT.                      12/10/1982:   DATE LOGGED
ELD .F                        95.0000:   LOG DATUM ELEVATION
TDD .F                      8594.0000:   TOTAL DEPTH DRILLER
TDL .F                      8592.0000:   TOTAL DEPTH LOGGER
BOTL.F                      8594.0000:   BOTTOM DEPTH LOGGED
TOPL.F                      4037.0000:   TOP DEPTH LOGGED
CS1 .IN                       16.0000:   CASING SIZE 1
BS1 .IN                       14.7500:   BIT SIZE 1
DDB1.F                      8594.0000:   DEPTH DRILLED BIT 1
BHF .                              99:   FLUID CODE
DPT .                   Miscellaneous:   DRILLING FLUID TYPE
MUDD.                         13.1000:   FLUID DENSITY
MUDV.                         45.0000:   FLUID VISCOSITY
DFPH.                         11.5000:   FLUID PH
FL  .                          3.0000:   FLUID LOSS
RM  .OHMM                       .7500:   RM
RMT .DEGF                     75.0000:   RM TEMP
RMF .OHMM                       .5500:   RMF
RMFT.DEGF                     75.0000:   RMF TEMP
FSC .                               M:   RMF CODE
RMC .OHMM                       .8000:   RMC
RMCT.DEGF                     75.0000:   RMC TEMP
CMC .                               M:   RMC CODE
TMAX.DEGF                    195.0000:   MAX REC TEMP
TIMC.                          7.0000:   TIME SINCE CIRCLN
~Curve Information Block
#MNEM.UNIT                    API CODE    No Description
#=========                    ========    == ===========
DEPT.F                   00 001 00 00:     1  DEPTH
CILD.MMHO                            :     2  Deep Induction Conductivity
DT.US/F                              :     3  Sonic Transit Time
GR.GAPI                              :     4  Gamma Ray
ILD.OHMM                             :     5  Deep Induction Resistivity
ILM.OHMM                             :     6  Medium Induction Resistivity
SFL.OHMM                             :     7  Medium Resistivity
SP.MV                                :     8  Spontaneous Potential
CALI.IN                              :     9  Caliper
GR.GAPI                              :    10  Gamma Ray
RHOB.G/C3                            :    11  Bulk Density
~ASCII
# ...
13730.5000   988.9727    96.9325  -999.2500     1.0638      .9165      .9791     -.8174    19.4255    45.2579     2.4146
13731.0000  1013.3623    97.3513  -999.2500      .9972      .9151      .9277     -.5511    19.7434    44.2534     2.3810
13731.5000  1029.9473    97.2386  -999.2500      .9647      .9065      .8925     -.6120    20.0327    43.2366     2.3564
13732.0000  1042.4531    96.8740  -999.2500      .9472      .9129      .8738     -.6857    20.5036    43.2687     2.3498
13732.5000  1047.1055    97.1389  -999.2500      .9576      .9322      .9011     -.3939    20.8136    43.9449     2.3556
13733.0000  1031.0684    96.6772  -999.2500      .9680      .9526      .9721      .9333    20.1620    43.5920     2.3584
13733.5000  1014.9854    94.3862  -999.2500      .9885      .9534     1.0484     3.3371    19.5874    42.8497     2.3567
13734.0000   994.2227    93.9363  -999.2500     1.0107      .9510     1.1307     5.2030    18.9734    42.5419     2.3552
13734.5000   970.8838    94.9017  -999.2500     1.0291      .9486     1.1513     4.3975    18.4845    42.0791     2.3712
13735.0000   955.2998    96.6199  -999.2500     1.0462      .9448     1.0847     2.3295    19.2458    40.6229     2.3900
13735.5000   949.0713    98.3716  -999.2500     1.0534      .9397     1.0313      .7990    19.9121    39.1174     2.3861
13736.0000   948.6660    98.8202  -999.2500     1.0575      .9478     1.0055     -.3796    19.8382    37.7798     2.3676
13736.5000   958.3789    98.4050  -999.2500     1.0464      .9516      .9781     -.6824    19.7368    38.2536     2.3615
13737.0000   972.0771    97.6891  -999.2500     1.0334      .9478      .9508    -1.0267    19.8352    40.0898     2.3757
13737.5000   998.3750    97.2738  -999.2500     1.0205      .9390      .9820    -1.3925    20.0524    40.8303     2.3919
13738.0000  1024.7207    97.9850  -999.2500     1.0019      .9404     1.0113    -1.5488    20.2903    40.4872     2.4033
13738.5000  1053.5977    98.9968  -999.2500      .9822      .9369     1.0356     -.5205    20.6892    41.9656     2.4064
13739.0000  1087.9629   100.0254  -999.2500      .9541      .8901     1.0497      .7582    20.9685    44.0239     2.4107
13739.5000  1122.3262   100.9608  -999.2500      .9242      .8399      .9851     1.8209    21.3733    46.3587     2.4184
13740.0000  1149.6270   102.0228  -999.2500      .8914      .7957      .9055     1.4095    21.4503    47.8815     2.4167
13740.5000  1169.8652   103.5167  -999.2500      .8586      .7744      .8644     1.1318    21.0999    47.8839     2.3912
13741.0000  1190.1016   104.5310  -999.2500      .8423      .7698      .8566     1.0945    21.2361    45.7565     2.3659
13741.5000  1179.4102   105.3854  -999.2500      .8290      .7872      .8486     1.1504    21.4967    43.3773     2.3414
13742.0000  1165.9277   103.3640  -999.2500      .8399      .8137      .8434     1.3351    21.3541    41.0870     2.3250
13742.5000  1151.7988   100.1996  -999.2500      .8596      .8637      .8516      .7198    21.1342    38.9299     2.3257
13743.0000  1137.8633    97.1736  -999.2500      .8798      .9055      .8788     -.1678    21.1581    38.1895     2.3621
13743.5000  1124.4023    95.0878  -999.2500      .9087      .9259      .9723    -1.3098    21.3170    41.5411     2.4059
13744.0000  1110.9199    92.9019  -999.2500      .9406      .9129     1.0964    -1.6234    21.1216    46.2797     2.4454
13744.5000  1075.2656    95.7656  -999.2500      .9709      .8702     1.1672    -1.3194    20.7050    48.9551     2.4502
13745.0000  1038.2285    98.0232  -999.2500     1.0004      .8313     1.1242     -.0167    20.2755    46.4475     2.4032
13745.5000  1001.9551    99.1066  -999.2500     1.0276      .8426     1.0236     1.5163    20.0277    43.9203     2.3610
13746.0000   966.2539    99.1758  -999.2500     1.0410      .8556      .9218     2.5143    20.2696    40.9537     2.3386
13746.5000   962.2686    98.5291  -999.2500     1.0431      .9093      .9009     3.2268    20.5583    37.9871     2.3324
13747.0000   972.7451    96.8490  -999.2500     1.0315      .9579      .9680     2.0321    21.0840    38.0081     2.3861
13747.5000   979.8086    95.1260  -999.2500     1.0273      .9910     1.0612      .7678    21.4824    41.7187     2.4382
13748.0000   976.1816    93.7538  -999.2500     1.0436     1.0123     1.1906      .0793    21.0919    43.9968     2.4558
13748.5000   939.7168    92.6823  -999.2500     1.0692     1.0332     1.2569     -.4125    20.3081    43.1342     2.4347
13749.0000   912.8926    92.3171  -999.2500     1.1071     1.0545     1.2363     -.9043    19.8871    42.6714     2.4112
13749.5000   893.8486    92.7122  -999.2500     1.1406     1.0654     1.1976    -1.1214    19.9061    42.3555     2.3960
13750.0000   890.9082    93.2812  -999.2500     1.1512     1.0680     1.1601    -1.2954    19.7158    43.5476     2.4017
13750.5000   893.1865    93.8492  -999.2500     1.1475     1.0383     1.1390    -1.3218    19.4783    43.9351     2.4153
13751.0000   895.4600    93.4961  -999.2500     1.1363     1.0128     1.1240     -.8671    19.5539    43.9526     2.4288
13751.5000   895.5342    92.7419  -999.2500     1.1286     1.0392     1.1214     -.3718    19.8915    44.0942     2.4329
13752.0000   894.1650    91.9735  -999.2500     1.1210     1.0655     1.1362      .3839    19.3228    43.9153     2.4339
13752.5000   901.6768    91.2026  -999.2500     1.0881     1.0869     1.1615      .7570    18.9244    43.2983     2.4384
13753.0000   930.5049    91.3698  -999.2500     1.0550     1.0936     1.1996      .3000    18.8808    42.2494     2.4455
13753.5000   952.2783    92.2241  -999.2500     1.0144     1.0808     1.2446     -.0617    18.8339    41.2005     2.4495
13754.0000   950.5781    93.4602  -999.2500      .9794     1.0681     1.1927     -.2632    18.7861    42.1581     2.4088
13754.5000   941.5303    94.6774  -999.2500      .9618     1.0587     1.1111     -.4641    18.7446    43.4242     2.3728
13755.0000   920.4814    95.8777  -999.2500      .9580     1.0493     1.0549     -.6578    19.0089    44.5225     2.3508
13755.5000   929.8125    95.6987  -999.2500      .9805     1.0415     1.0651     -.8414    19.5894    45.4677     2.3698
13756.0000   944.2988    94.6439  -999.2500     1.0040     1.0337     1.0888     -.9211    20.0356    46.5364     2.4108
13756.5000   947.1143    92.4054  -999.2500     1.0314     1.0364     1.1254     -.2746    19.4315    47.9283     2.4511
13757.0000   943.6602    91.5977  -999.2500     1.0595     1.0405     1.1405      .2082    19.0405    49.5869     2.4855
13757.5000   926.9248    91.5367  -999.2500     1.0855     1.0565     1.1347      .1544    18.8685    50.6334     2.5118
13758.0000   891.0332    91.9771  -999.2500     1.1100     1.0833     1.1380      .1006    18.8956    48.8810     2.5295
13758.5000   861.2266    92.3225  -999.2500     1.1336     1.1217     1.1644     -.1295    18.9597    47.4644     2.5408
13759.0000   847.2178    92.5946  -999.2500     1.1514     1.1352     1.1985     -.3658    18.9541    46.2155     2.5337
13759.5000   847.4385    92.7063  -999.2500     1.1697     1.1340     1.2141     -.6003    18.8744    45.5516     2.5248
13760.0000   872.5146    92.6284  -999.2500     1.1727     1.1192     1.2219     -.8288    18.7942    44.8692     2.5253
13760.5000   907.8340    92.7390  -999.2500     1.1125     1.0934     1.2201    -1.0573    18.7431    44.1301     2.5335
13761.0000   941.3398    93.0635  -999.2500     1.0429     1.0237     1.2082    -1.1725    18.7290    43.9412     2.5354
13761.5000   974.6543    93.2457  -999.2500      .9852      .9588     1.1335    -1.1442    18.9507    42.5949     2.5096
13762.0000   963.3662    93.2980  -999.2500      .9593      .9125     1.0709    -1.1160    19.1723    40.8303     2.4548
13762.5000   956.3506    94.7585  -999.2500      .9400      .8991     1.0445     -.4977    19.6822    38.9422     2.3684
13763.0000   968.7354    95.7489  -999.2500      .9296      .9041     1.0139      .1272    20.1452    40.1293     2.3494
13763.5000  1021.7148    95.3384  -999.2500      .9136      .9041      .9900      .2646    19.9285    43.3378     2.3600
