~VERSION INFORMATION
VERS.                             2.0:   CWLS Log ASCII Standard-VERSION 2.0
WRAP.                              NO:   One line per depth step
~Well Information Block
STRT.F                      1319.0000:   Top Depth
STOP.F                      7911.0000:   Bottom Depth
STEP.F                         .50000:   Depth Increment
NULL.                        -999.250:   Null Value
FLD .                    MU BLK A 167:   Field Name
WELL.       OCSG08096   001 ST00 BP00:   NAME
API .                    427124009800:   WELL API
EDF .F                        84.0000:   ELEV DRILL FLOOR
COMP.         UNION PACIFIC RESOURCES:   OPERATOR
BN  .                           A 167:   BLOCK
CTRY.                             USA:   COUNTRY NAME
CNTY.                        M I E AD:   COUNTY NAME
EKB .F                        85.0000:   ELEV KELLY BUSHING
TDD .F                       7913.000:   FINAL TD DRILLER
STAT.                           TEXAS:   STATE NAME
UWI .                    427124009800:   WELL API
DICO.               IHS : Digitizing Company
~PARAMETER INFORMATION (zones)
#MNEM.UNIT                       Value     Description
#=========                       =====     ===========
#ZONATION                          DIL:   ZONATION NAME
#ZONE                            RUN_2:   ZONE NAME
TOP .                       4520.0000:   TOP DEPTH
BOT .                       7911.0000:   BOTTOM DEPTH
RUN .                               2:   RUN NUMBER
LCCD.                             440:   LOGGING CONTRACTOR
SRVC.                    Schlumberger:   LOGGING CONT NAME
DICO.          QC Data Collectors Ltd:   DIG COMPANY NAME
LDAT.                      05/30/1988:   DATE LOGGED
ELD .F                        85.0000:   LOG DATUM ELEVATION
TDD .F                      7904.0000:   TOTAL DEPTH DRILLER
TDL .F                      7913.0000:   TOTAL DEPTH LOGGER
BOTL.F                      7911.0000:   BOTTOM DEPTH LOGGED
TOPL.F                      4520.0000:   TOP DEPTH LOGGED
CS1 .IN                       13.3750:   CASING SIZE 1
BS1 .IN                       12.2500:   BIT SIZE 1
DDB1.F                      7904.0000:   DEPTH DRILLED BIT 1
BHF .                              80:   FLUID CODE
DPT .                      Salt Water:   DRILLING FLUID TYPE
MUDD.                         13.3000:   FLUID DENSITY
MUDV.                         44.0000:   FLUID VISCOSITY
DFPH.                          9.6000:   FLUID PH
FL  .                         11.9000:   FLUID LOSS
RM  .OHMM                       .2330:   RM
RMT .DEGF                     75.0000:   RM TEMP
RMF .OHMM                       .1510:   RMF
RMFT.DEGF                     75.0000:   RMF TEMP
FSC .                               M:   RMF CODE
RMC .OHMM                       .4890:   RMC
RMCT.DEGF                     75.0000:   RMC TEMP
CMC .                               M:   RMC CODE
TMAX.DEGF                    182.0000:   MAX REC TEMP
TIMC.                         10.7500:   TIME SINCE CIRCLN
~PARAMETER INFORMATION (zones)
#MNEM.UNIT                       Value     Description
#=========                       =====     ===========
#ZONATION                          DIL:   ZONATION NAME
#ZONE                            RUN_1:   ZONE NAME
TOP .                       1319.0000:   TOP DEPTH
BOT .                       7911.5000:   BOTTOM DEPTH
RUN .                               1:   RUN NUMBER
LCCD.                             440:   LOGGING CONTRACTOR
SRVC.                    Schlumberger:   LOGGING CONT NAME
DICO.          QC Data Collectors Ltd:   DIG COMPANY NAME
LDAT.                      05/21/1988:   DATE LOGGED
ELD .F                        85.0000:   LOG DATUM ELEVATION
TDD .F                      4550.0000:   TOTAL DEPTH DRILLER
TDL .F                      4551.0000:   TOTAL DEPTH LOGGER
BOTL.F                      4549.0000:   BOTTOM DEPTH LOGGED
TOPL.F                      1394.0000:   TOP DEPTH LOGGED
CS1 .IN                       20.0000:   CASING SIZE 1
BS1 .IN                       17.5000:   BIT SIZE 1
DDB1.F                      4550.0000:   DEPTH DRILLED BIT 1
BHF .                              80:   FLUID CODE
DPT .                      Salt Water:   DRILLING FLUID TYPE
MUDD.                         10.0000:   FLUID DENSITY
MUDV.                         38.0000:   FLUID VISCOSITY
DFPH.                          8.4000:   FLUID PH
FL  .                            NULL:   FLUID LOSS
RM  .OHMM                       .3040:   RM
RMT .DEGF                     82.0000:   RM TEMP
RMF .OHMM                       .2310:   RMF
RMFT.DEGF                     82.0000:   RMF TEMP
FSC .                               M:   RMF CODE
RMC .OHMM                       .4210:   RMC
RMCT.DEGF                     82.0000:   RMC TEMP
CMC .                               M:   RMC CODE
TMAX.DEGF                    130.0000:   MAX REC TEMP
TIMC.                          5.0000:   TIME SINCE CIRCLN
~Curve Information Block
#MNEM.UNIT                    API CODE    No Description
#=========                    ========    == ===========
DEPT.F                   00 001 00 00:     1  DEPTH
DCAL.IN                              :     2  Differential Caliper
DT.US/F                              :     3  Sonic Transit Time
GR.GAPI                              :     4  Gamma Ray
ILD.OHMM                             :     5  Deep Induction Resistivity
ILM.OHMM                             :     6  Medium Induction Resistivity
SFL.OHMM                             :     7  Medium Resistivity
SP.MV                                :     8  Spontaneous Potential
~ASCII
# ...
 4413.0000  -999.2500   136.9548    60.7355      .6893      .6574      .7538   -58.7488
 4413.5000  -999.2500   138.1812    61.8026      .6732      .6462      .7349   -58.8722
 4414.0000  -999.2500   139.6880    62.6418      .6572      .6351      .7161   -58.9512
 4414.5000  -999.2500   141.4199    62.5493      .6416      .6233      .6978   -58.9329
 4415.0000  -999.2500   143.4175    62.0596      .6269      .6108      .6914   -58.8789
 4415.5000  -999.2500   144.7725    61.7538      .6161      .5993      .6873   -58.8087
 4416.0000  -999.2500   144.8547    63.5618      .6148      .5904      .6870   -58.7416
 4416.5000  -999.2500   143.7610    65.4253      .6135      .5878      .6855   -58.6213
 4417.0000  -999.2500   142.6670    65.0789      .6121      .5888      .6842   -58.5576
 4417.5000  -999.2500   141.7529    63.0850      .6108      .5888      .6847   -58.5680
 4418.0000  -999.2500   140.9014    61.1619      .6102      .5907      .6882   -58.7009
 4418.5000  -999.2500   140.0098    60.9639      .6192      .5989      .6953   -58.7877
 4419.0000  -999.2500   139.0603    62.0856      .6284      .6104      .7032   -58.7013
 4419.5000  -999.2500   137.9985    61.3196      .6375      .6222      .7101   -58.5354
 4420.0000  -999.2500   136.7659    60.2625      .6457      .6259      .7169   -58.3918
 4420.5000  -999.2500   135.7297    60.3177      .6519      .6280      .7245   -58.3621
 4421.0000  -999.2500   135.7859    61.9279      .6549      .6286      .7334   -58.2927
 4421.5000  -999.2500   136.8210    64.4010      .6581      .6272      .7382   -58.3087
 4422.0000  -999.2500   138.1538    66.6470      .6624      .6251      .7322   -58.4375
 4422.5000  -999.2500   138.8733    66.7748      .6667      .6259      .7190   -58.5286
 4423.0000  -999.2500   137.6826    64.1552      .6736      .6289      .7051   -58.6155
 4423.5000  -999.2500   136.7480    61.9938      .6829      .6358      .6925   -58.5538
 4424.0000  -999.2500   137.3616    61.2979      .6957      .6432      .7037   -58.4620
 4424.5000  -999.2500   139.3540    62.6170      .7102      .6532      .7206   -58.3713
 4425.0000  -999.2500   141.0071    63.6876      .7256      .6757      .7396   -58.2807
 4425.5000  -999.2500   138.4141    62.0720      .7419      .6957      .7591   -58.2010
 4426.0000  -999.2500   134.7573    60.2395      .7551      .7052      .7871   -58.1433
 4426.5000  -999.2500   131.9302    60.6436      .7588      .7039      .8101   -58.0930
 4427.0000  -999.2500   133.3906    61.6653      .7564      .6957      .8091   -58.0515
 4427.5000  -999.2500   136.7195    62.6859      .7544      .6847      .7974   -57.9855
 4428.0000  -999.2500   139.2588    64.2346      .7606      .6752      .7815   -57.9516
 4428.5000  -999.2500   140.2080    66.0560      .7466      .6686      .7658   -58.0278
 4429.0000  -999.2500   138.4604    68.3689      .7329      .6677      .7524   -58.1478
 4429.5000  -999.2500   135.7634    69.9755      .7194      .6713      .7407   -58.2106
 4430.0000  -999.2500   133.2156    69.1982      .7187      .6775      .7445   -58.3831
 4430.5000  -999.2500   131.0981    66.2285      .7181      .6833      .7478   -58.4732
 4431.0000  -999.2500   131.9990    65.1863      .7165      .6794      .7501   -58.5572
 4431.5000  -999.2500   133.9563    64.5684      .7147      .6743      .7520   -58.6436
 4432.0000  -999.2500   135.1941    64.3970      .7126      .6665      .7525   -58.7342
 4432.5000  -999.2500   135.6511    64.6249      .7072      .6553      .7499   -58.8212
 4433.0000  -999.2500   136.2690    64.8293      .6892      .6428      .7427   -58.8096
 4433.5000  -999.2500   137.4480    64.5251      .6717      .6292      .7304   -58.7980
 4434.0000  -999.2500   139.3425    59.5864      .6560      .6167      .7148   -58.7847
 4434.5000  -999.2500   141.4575    57.0922      .6407      .6060      .7000   -58.7707
 4435.0000  -999.2500   143.2271    56.7645      .6273      .5959      .6861   -58.7354
 4435.5000  -999.2500   143.8516    59.0873      .6148      .5900      .6742   -58.8351
 4436.0000  -999.2500   143.6104    61.2600      .6025      .5841      .6703   -58.8383
 4436.5000  -999.2500   143.1545    60.7324      .5904      .5803      .6695   -58.7615
 4437.0000  -999.2500   143.0679    58.5473      .5822      .5771      .6683   -58.6559
 4437.5000  -999.2500   143.7739    57.5913      .5787      .5736      .6670   -58.5851
 4438.0000  -999.2500   144.3022    59.2612      .5825      .5706      .6614   -58.5262
 4438.5000  -999.2500   144.4839    62.6555      .5951      .5724      .6505   -58.5147
 4439.0000  -999.2500   143.8271    64.4420      .6115      .5823      .6350   -58.5032
 4439.5000  -999.2500   140.7969    64.0416      .6355      .5994      .6286   -58.5079
 4440.0000  -999.2500   136.7046    63.1161      .6605      .6217      .6652   -58.4971
 4440.5000  -999.2500   132.7649    61.2849      .6884      .6484      .7062   -58.4466
 4441.0000  -999.2500   129.9192    59.4536      .7181      .6742      .7522   -58.3973
 4441.5000  -999.2500   127.7656    58.2791      .7440      .6996      .8029   -58.3535
 4442.0000  -999.2500   128.5713    58.8639      .7681      .7203      .8367   -58.3095
 4442.5000  -999.2500   129.4580    60.0781      .7813      .7369      .8411   -58.2041
 4443.0000  -999.2500   130.1863    61.3370      .7938      .7420      .8306   -58.0828
 4443.5000  -999.2500   130.3672    62.4025      .7948      .7401      .8190   -58.0597
 4444.0000  -999.2500   130.0115    60.6169      .7958      .7382      .8061   -58.0448
 4444.5000  -999.2500   129.4644    57.4622      .7905      .7334      .7934   -58.0222
 4445.0000  -999.2500   129.5796    55.7951      .7837      .7282      .7812   -58.1022
 4445.5000  -999.2500   130.3079    56.8588      .7756      .7223      .7697   -58.2100
 4446.0000  -999.2500   130.9932    59.6013      .7677      .7161      .7618   -58.2639
 4446.5000  -999.2500   131.3403    60.9357      .7616      .7102      .7543   -58.2455
 4447.0000  -999.2500   131.1992    57.8682      .7559      .7054      .7474   -58.2617
 4447.5000  -999.2500   131.0305    55.5751      .7514      .7043      .7435   -58.3101
 4448.0000  -999.2500   130.8157    56.6763      .7482      .7035      .7449   -58.4000
 4448.5000  -999.2500   130.5637    60.0060      .7479      .7031      .7538   -58.5151
 4449.0000  -999.2500   130.2498    62.7846      .7489      .7094      .7670   -58.6361
 4449.5000  -999.2500   129.8040    64.7698      .7543      .7188      .7782   -58.7567
 4450.0000  -999.2500   129.1853    62.5363      .7600      .7284      .7830   -58.8625
 4450.5000  -999.2500   128.7380    58.5323      .7665      .7314      .7879   -58.9371
 4451.0000  -999.2500   129.3435    56.7408      .7707      .7336      .7915   -58.9996
 4451.5000  -999.2500   129.7085    57.4783      .7732      .7361      .7946   -59.0565
 4452.0000  -999.2500   130.0151    60.1786      .7716      .7387      .7973   -59.0663
 4452.5000  -999.2500   129.9734    61.9422      .7666      .7378      .7959   -59.0740
 4453.0000  -999.2500   129.9104    63.0289      .7641      .7343      .7945   -59.0647
 4453.5000  -999.2500   129.9507    63.2159      .7636      .7193      .7967   -59.0554
 4454.0000  -999.2500   130.4685    63.3090      .7519      .7047      .7941   -59.0615
 4454.5000  -999.2500   131.9490    63.3694      .7395      .6910      .7832   -59.0703
 4455.0000  -999.2500   133.7385    63.4056      .7272      .6775      .7725   -59.0790
 4455.5000  -999.2500   135.3191    63.4440      .7098      .6641      .7611   -59.0877
 4456.0000  -999.2500   136.6995    63.4847      .6921      .6509      .7468   -59.1198
 4456.5000  -999.2500   137.9321    64.6221      .6721      .6364      .7324   -59.1960
 4457.0000  -999.2500   139.0962    66.9238      .6529      .6218      .7154   -59.2723
 4457.5000  -999.2500   140.3889    69.2728      .6354      .6133      .6981   -59.3517
 4458.0000  -999.2500   142.3811    70.3660      .6218      .6063      .6745   -59.4167
