~VERSION INFORMATION
VERS.                             2.0:   CWLS Log ASCII Standard-VERSION 2.0
WRAP.                              NO:   One line per depth step
~Well Information Block
STRT.F                      1302.0000:   Top Depth
STOP.F                     14644.0000:   Bottom Depth
STEP.F                         .50000:   Depth Increment
NULL.                        -999.250:   Null Value
FLD .                    MU BLK A 152:   Field Name
WELL.       OCSG04991   001 ST00 BP00:   NAME
API .                    427124006100:   WELL API
EDF .F                        94.0000:   ELEV DRILL FLOOR
COMP.            TRANSCO EXPL PROD CO:   OPERATOR
BN  .                           A 152:   BLOCK
CTRY.                             USA:   COUNTRY NAME
CNTY.                        M I E AD:   COUNTY NAME
EKB .F                        95.0000:   ELEV KELLY BUSHING
TDD .F                      14647.000:   FINAL TD DRILLER
STAT.                           TEXAS:   STATE NAME
UWI .                    427124006100:   WELL API
DICO.               IHS : Digitizing Company
~PARAMETER INFORMATION (zones)
#MNEM.UNIT                       Value     Description
#=========                       =====     ===========
#ZONATION                          DIL:   ZONATION NAME
#ZONE                            RUN_1:   ZONE NAME
TOP .                       1302.0000:   TOP DEPTH
BOT .                      14644.5000:   BOTTOM DEPTH
RUN .                               1:   RUN NUMBER
LCCD.                             440:   LOGGING CONTRACTOR
SRVC.                    Schlumberger:   LOGGING CONT NAME
DICO.          QC Data Collectors Ltd:   DIG COMPANY NAME
LDAT.                      11/20/1982:   DATE LOGGED
ELD .F                        95.0000:   LOG DATUM ELEVATION
TDD .F                      4095.0000:   TOTAL DEPTH DRILLER
TDL .F                      4095.0000:   TOTAL DEPTH LOGGER
BOTL.F                      4092.0000:   BOTTOM DEPTH LOGGED
TOPL.F                      1334.0000:   TOP DEPTH LOGGED
CS1 .IN                       20.0000:   CASING SIZE 1
BS1 .IN                       12.2500:   BIT SIZE 1
DDB1.F                      4095.0000:   DEPTH DRILLED BIT 1
BHF .                              99:   FLUID CODE
DPT .                   Miscellaneous:   DRILLING FLUID TYPE
MUDD.                          9.4000:   FLUID DENSITY
MUDV.                         43.0000:   FLUID VISCOSITY
DFPH.                         11.2000:   FLUID PH
RM  .OHMM                       .2800:   RM
RMT .DEGF                     70.0000:   RM TEMP
RMF .OHMM                       .2300:   RMF
RMFT.DEGF                     70.0000:   RMF TEMP
FSC .                               M:   RMF CODE
RMC .OHMM                       .4000:   RMC
RMCT.DEGF                     70.0000:   RMC TEMP
CMC .                               M:   RMC CODE
TMAX.DEGF                    178.0000:   MAX REC TEMP
TIMC.                          8.0000:   TIME SINCE CIRCLN
~PARAMETER INFORMATION (zones)
#MNEM.UNIT                       Value     Description
#=========                       =====     ===========
#ZONATION                          FDC:   ZONATION NAME
#ZONE                            RUN_3:   ZONE NAME
TOP .                       8480.0000:   TOP DEPTH
BOT .                      13304.0000:   BOTTOM DEPTH
RUN .                               3:   RUN NUMBER
LCCD.                             440:   LOGGING CONTRACTOR
SRVC.                    Schlumberger:   LOGGING CONT NAME
DICO.          QC Data Collectors Ltd:   DIG COMPANY NAME
LDAT.                      01/30/1983:   DATE LOGGED
ELD .F                        95.0000:   LOG DATUM ELEVATION
TDD .F                     13308.0000:   TOTAL DEPTH DRILLER
TDL .F                     13305.0000:   TOTAL DEPTH LOGGER
BOTL.F                     13304.0000:   BOTTOM DEPTH LOGGED
TOPL.F                      8480.0000:   TOP DEPTH LOGGED
CS1 .IN                       11.7500:   CASING SIZE 1
BS1 .IN                        9.8750:   BIT SIZE 1
DDB1.F                     13308.0000:   DEPTH DRILLED BIT 1
BHF .                              99:   FLUID CODE
DPT .                   Miscellaneous:   DRILLING FLUID TYPE
MUDD.                         15.6000:   FLUID DENSITY
MUDV.                         55.0000:   FLUID VISCOSITY
DFPH.                         10.7000:   FLUID PH
FL  .                          3.6000:   FLUID LOSS
RM  .OHMM                       .8600:   RM
RMT .DEGF                     70.0000:   RM TEMP
RMF .OHMM                       .4200:   RMF
RMFT.DEGF                     70.0000:   RMF TEMP
FSC .                               M:   RMF CODE
RMC .OHMM                      1.6700:   RMC
RMCT.DEGF                     70.0000:   RMC TEMP
CMC .                               M:   RMC CODE
TMAX.DEGF                    260.0000:   MAX REC TEMP
TIMC.                          8.5000:   TIME SINCE CIRCLN
~PARAMETER INFORMATION (zones)
#MNEM.UNIT                       Value     Description
#=========                       =====     ===========
#ZONATION                          FDC:   ZONATION NAME
#ZONE                            RUN_4:   ZONE NAME
TOP .                      12060.0000:   TOP DEPTH
BOT .                      14644.0000:   BOTTOM DEPTH
RUN .                               4:   RUN NUMBER
LCCD.                             440:   LOGGING CONTRACTOR
SRVC.                    Schlumberger:   LOGGING CONT NAME
DICO.          QC Data Collectors Ltd:   DIG COMPANY NAME
LDAT.                      02/16/1983:   DATE LOGGED
ELD .F                        95.0000:   LOG DATUM ELEVATION
TDD .F                     14641.0000:   TOTAL DEPTH DRILLER
TDL .F                     14647.0000:   TOTAL DEPTH LOGGER
BOTL.F                     14644.0000:   BOTTOM DEPTH LOGGED
TOPL.F                     12060.0000:   TOP DEPTH LOGGED
CS1 .IN                       11.7500:   CASING SIZE 1
BS1 .IN                        9.8750:   BIT SIZE 1
DDB1.F                     14641.0000:   DEPTH DRILLED BIT 1
BHF .                              99:   FLUID CODE
DPT .                   Miscellaneous:   DRILLING FLUID TYPE
MUDD.                         15.6000:   FLUID DENSITY
MUDV.                         55.0000:   FLUID VISCOSITY
DFPH.                         11.5000:   FLUID PH
FL  .                          3.2000:   FLUID LOSS
RM  .OHMM                       .6900:   RM
RMT .DEGF                     75.0000:   RM TEMP
RMF .OHMM                       .4400:   RMF
RMFT.DEGF                     75.0000:   RMF TEMP
FSC .                               M:   RMF CODE
RMC .OHMM                       .9400:   RMC
RMCT.DEGF                     75.0000:   RMC TEMP
CMC .                               M:   RMC CODE
TMAX.DEGF                    284.0000:   MAX REC TEMP
TIMC.                         13.0000:   TIME SINCE CIRCLN
~PARAMETER INFORMATION (zones)
#MNEM.UNIT                       Value     Description
#=========                       =====     ===========
#ZONATION                          FDC:   ZONATION NAME
#ZONE                            RUN_2:   ZONE NAME
TOP .                       3894.0000:   TOP DEPTH
BOT .                      14644.5000:   BOTTOM DEPTH
RUN .                               2:   RUN NUMBER
LCCD.                             440:   LOGGING CONTRACTOR
SRVC.                    Schlumberger:   LOGGING CONT NAME
DICO.          QC Data Collectors Ltd:   DIG COMPANY NAME
LDAT.                      12/10/1982:   DATE LOGGED
ELD .F                        95.0000:   LOG DATUM ELEVATION
TDD .F                      8594.0000:   TOTAL DEPTH DRILLER
TDL .F                      8592.0000:   TOTAL DEPTH LOGGER
BOTL.F                      8594.0000:   BOTTOM DEPTH LOGGED
TOPL.F                      4037.0000:   TOP DEPTH LOGGED
CS1 .IN                       16.0000:   CASING SIZE 1
BS1 .IN                       14.7500:   BIT SIZE 1
DDB1.F                      8594.0000:   DEPTH DRILLED BIT 1
BHF .                              99:   FLUID CODE
DPT .                   Miscellaneous:   DRILLING FLUID TYPE
MUDD.                         13.1000:   FLUID DENSITY
MUDV.                         45.0000:   FLUID VISCOSITY
DFPH.                         11.5000:   FLUID PH
FL  .                          3.0000:   FLUID LOSS
RM  .OHMM                       .7500:   RM
RMT .DEGF                     75.0000:   RM TEMP
RMF .OHMM                       .5500:   RMF
RMFT.DEGF                     75.0000:   RMF TEMP
FSC .                               M:   RMF CODE
RMC .OHMM                       .8000:   RMC
RMCT.DEGF                     75.0000:   RMC TEMP
CMC .                               M:   RMC CODE
TMAX.DEGF                    195.0000:   MAX REC TEMP
TIMC.                          7.0000:   TIME SINCE CIRCLN
~Curve Information Block
#MNEM.UNIT                    API CODE    No Description
#=========                    ========    == ===========
DEPT.F                   00 001 00 00:     1  DEPTH
CILD.MMHO                            :     2  Deep Induction Conductivity
DT.US/F                              :     3  Sonic Transit Time
GR.GAPI                              :     4  Gamma Ray
ILD.OHMM                             :     5  Deep Induction Resistivity
ILM.OHMM                             :     6  Medium Induction Resistivity
SFL.OHMM                             :     7  Medium Resistivity
SP.MV                                :     8  Spontaneous Potential
CALI.IN                              :     9  Caliper
GR.GAPI                              :    10  Gamma Ray
RHOB.G/C3                            :    11  Bulk Density
~ASCII
# ...
 6628.5000  1489.4629   146.1697  -999.2500      .6584      .6500      .6593     7.7196    20.3532    86.0189     2.1539
 6629.0000  1550.8516   146.0715  -999.2500      .6456      .6382      .6482     7.6807    20.4356    85.5262     2.1439
 6629.5000  1578.7031   145.9734  -999.2500      .6389      .6307      .6412     7.5789    20.4860    84.1292     2.1346
 6630.0000  1597.5547   145.8752  -999.2500      .6322      .6239      .6354     7.4743    20.4507    82.3276     2.1344
 6630.5000  1599.9219   145.3125  -999.2500      .6270      .6241      .6388     7.3697    20.4350    82.1088     2.1445
 6631.0000  1602.2871   144.7205  -999.2500      .6264      .6244      .6422     7.3114    20.4493    83.1953     2.1562
 6631.5000  1598.8066   144.0481  -999.2500      .6259      .6246      .6472     7.6450    20.4533    86.0262     2.1654
 6632.0000  1581.8457   143.0417  -999.2500      .6304      .6311      .6525     7.9786    20.4492    87.7542     2.1740
 6632.5000  1564.9082   142.0671  -999.2500      .6373      .6379      .6638     8.7077    20.4455    88.6556     2.1779
 6633.0000  1547.9492   141.8889  -999.2500      .6437      .6447      .6813     9.4516    20.4423    85.8939     2.1809
 6633.5000  1536.0742   141.7107  -999.2500      .6487      .6521      .6971    10.1871    20.4390    82.8129     2.1836
 6634.0000  1527.9063   142.0667  -999.2500      .6538      .6597      .6988    10.8668    20.4911    81.1560     2.1854
 6634.5000  1519.7480   143.3286  -999.2500      .6552      .6674      .7004     5.3787    20.5481    79.7258     2.1841
 6635.0000  1511.5918   144.5784  -999.2500      .6539      .6654      .6996     3.3071    20.6010    79.0753     2.1801
 6635.5000  1514.4121   145.5427  -999.2500      .6527      .6614      .6935     5.3043    20.6538    79.0487     2.1761
 6636.0000  1524.3184   146.5071  -999.2500      .6505      .6574      .6875     5.0268    20.7122    79.6057     2.1754
 6636.5000  1534.2266   147.0630  -999.2500      .6469      .6542      .6816     4.4886    20.7708    80.5114     2.1773
 6637.0000  1544.1582   147.4211  -999.2500      .6433      .6513      .6758     4.2458    20.6668    82.6438     2.1708
 6637.5000  1554.2578   147.7795  -999.2500      .6411      .6483      .6737     4.0027    20.3188    84.1511     2.1628
 6638.0000  1564.3574   148.1138  -999.2500      .6407      .6473      .6811     4.3807    20.0940    83.3644     2.1594
 6638.5000  1574.4570   148.4319  -999.2500      .6402      .6479      .6851     5.1443    20.1378    82.6990     2.1617
 6639.0000  1574.3145   148.7500  -999.2500      .6403      .6485      .6848     5.9079    20.0649    82.3999     2.1601
 6639.5000  1573.3145   149.1477  -999.2500      .6431      .6504      .6712     6.4772    20.1062    83.2369     2.1584
 6640.0000  1572.3125   149.3569  -999.2500      .6460      .6541      .6616     6.3692    20.3720    83.9180     2.1571
 6640.5000  1561.4785   148.8569  -999.2500      .6488      .6579      .6585     6.2613    20.5288    83.9312     2.1610
 6641.0000  1541.5918   146.9641  -999.2500      .6547      .6644      .6559     6.1532    20.6158    83.6998     2.1685
 6641.5000  1521.7051   144.8337  -999.2500      .6623      .6720      .6690     6.1350    20.5636    84.0507     2.1766
 6642.0000  1500.9766   142.5500  -999.2500      .6699      .6798      .6825     7.0306    20.4529    84.9281     2.1828
 6642.5000  1473.4141   142.0852  -999.2500      .6779      .6855      .6962     7.6036    20.3790    85.9552     2.1808
 6643.0000  1445.8262   142.1458  -999.2500      .6872      .6901      .7101     4.0024    20.3478    85.1071     2.1797
 6643.5000  1421.0684   143.3945  -999.2500      .6966      .6947      .7244     2.4049    20.4453    83.6769     2.1789
 6644.0000  1401.3496   145.2537  -999.2500      .7062      .6992      .7389     2.4804    20.5874    82.2112     2.1775
 6644.5000  1381.6543   146.4890  -999.2500      .7134      .7033      .7538     1.8602    20.6951    80.6658     2.1659
 6645.0000  1363.7949   146.6199  -999.2500      .7191      .7074      .7689      .9515    20.7514    79.0089     2.1513
 6645.5000  1350.3125   145.8005  -999.2500      .7179      .7079      .7843      .4252    20.7794    77.5725     2.1366
 6646.0000  1347.8301   143.5264  -999.2500      .7083      .7007      .7917     3.6860    20.8541    76.4611     2.1318
 6646.5000  1392.3047   141.1526  -999.2500      .6982      .6936      .7621     6.7693    20.9857    79.3496     2.1382
 6647.0000  1434.7188   141.5498  -999.2500      .6883      .6865      .7322     7.9729    21.1724    82.4133     2.1439
 6647.5000  1472.5742   144.4932  -999.2500      .6777      .6717      .7036     4.1319    21.0309    85.3375     2.1472
 6648.0000  1510.4766   147.0696  -999.2500      .6665      .6568      .6761     -.3468    20.9538    87.8081     2.1390
 6648.5000  1548.3320   149.2024  -999.2500      .6555      .6421      .6499    -3.4949    20.8360    89.9651     2.1358
 6649.0000  1597.7988   150.8228  -999.2500      .6447      .6257      .6257      .1950    20.6590    91.4884     2.1368
 6649.5000  1650.2383   151.8184  -999.2500      .6345      .6103      .6081     2.7077    20.5894    92.4778     2.1325
 6650.0000  1694.3320   152.2173  -999.2500      .6245      .6030      .5927     4.6570    20.6163    91.8376     2.1282
 6650.5000  1723.0469   152.4314  -999.2500      .6246      .6010      .5869     5.4851    20.6589    89.7076     2.1262
 6651.0000  1738.5898   152.5374  -999.2500      .6254      .5999      .5811     5.8057    20.6658    87.2223     2.1297
 6651.5000  1738.6523   152.6541  -999.2500      .6262      .5999      .5802     5.1521    20.6452    83.9196     2.1348
 6652.0000  1738.7129   152.9490  -999.2500      .6291      .6022      .5799     3.3839    20.6293    83.6610     2.1408
 6652.5000  1724.5586   153.2434  -999.2500      .6321      .6094      .5810     3.1216    20.6156    85.1635     2.1442
 6653.0000  1703.8555   153.1848  -999.2500      .6351      .6170      .5858     1.1781    20.5800    85.0323     2.1454
 6653.5000  1683.1523   152.9756  -999.2500      .6390      .6243      .5906    -2.2985    20.5206    83.7467     2.1456
 6654.0000  1662.4258   152.2310  -999.2500      .6436      .6322      .5955    -4.8495    20.4615    83.3301     2.1455
 6654.5000  1643.0176   151.2571  -999.2500      .6482      .6414      .5993    -5.7121    20.5742    84.7903     2.1453
 6655.0000  1627.4980   150.2817  -999.2500      .6527      .6507      .6031    -3.2287    20.6504    85.4183     2.1523
 6655.5000  1611.9766   149.3293  -999.2500      .6558      .6592      .6101     1.3555    20.7058    84.4575     2.1589
 6656.0000  1596.4551   148.3794  -999.2500      .6589      .6657      .6230     6.1579    20.7595    82.3668     2.1612
 6656.5000  1580.9336   147.4282  -999.2500      .6621      .6722      .6319     7.6654    20.7581    80.2687     2.1602
 6657.0000  1577.1172   146.3057  -999.2500      .6617      .6761      .6392     7.9867    20.7555    78.1559     2.1592
 6657.5000  1575.9492   145.1182  -999.2500      .6611      .6754      .6465     6.3137    20.7257    76.0431     2.1582
 6658.0000  1574.7832   143.9595  -999.2500      .6605      .6747      .6462     3.4750    20.6869    75.0186     2.1579
 6658.5000  1573.1738   143.0466  -999.2500      .6599      .6733      .6459     1.2284    20.7241    75.6068     2.1540
 6659.0000  1565.2324   142.1338  -999.2500      .6588      .6699      .6456      .5978    20.7636    77.3324     2.1510
 6659.5000  1557.2930   141.5046  -999.2500      .6577      .6665      .6495     4.1895    20.8142    79.0554     2.1483
 6660.0000  1549.3516   140.8977  -999.2500      .6566      .6664      .6546     7.9968    20.8527    80.3815     2.1478
 6660.5000  1538.3652   140.4951  -999.2500      .6608      .6690      .6598     8.1071    20.8627    80.1094     2.1477
 6661.0000  1523.1074   140.2744  -999.2500      .6650      .6721      .6698     2.7677    20.8487    79.0922     2.1524
 6661.5000  1507.8750   140.5649  -999.2500      .6700      .6820      .6698     -.5674    20.8347    78.0199     2.1584
