~VERSION INFORMATION
VERS.                             2.0:   CWLS Log ASCII Standard-VERSION 2.0
WRAP.                              NO:   One line per depth step
~Well Information Block
STRT.F                      1319.0000:   Top Depth
STOP.F                      7911.0000:   Bottom Depth
STEP.F                         .50000:   Depth Increment
NULL.                        -999.250:   Null Value
FLD .                    MU BLK A 167:   Field Name
WELL.       OCSG08096   001 ST00 BP00:   NAME
API .                    427124009800:   WELL API
EDF .F                        84.0000:   ELEV DRILL FLOOR
COMP.         UNION PACIFIC RESOURCES:   OPERATOR
BN  .                           A 167:   BLOCK
CTRY.                             USA:   COUNTRY NAME
CNTY.                        M I E AD:   COUNTY NAME
EKB .F                        85.0000:   ELEV KELLY BUSHING
TDD .F                       7913.000:   FINAL TD DRILLER
STAT.                           TEXAS:   STATE NAME
UWI .                    427124009800:   WELL API
DICO.               IHS : Digitizing Company
~PARAMETER INFORMATION (zones)
#MNEM.UNIT                       Value     Description
#=========                       =====     ===========
#ZONATION                          DIL:   ZONATION NAME
#ZONE                            RUN_2:   ZONE NAME
TOP .                       4520.0000:   TOP DEPTH
BOT .                       7911.0000:   BOTTOM DEPTH
RUN .                               2:   RUN NUMBER
LCCD.                             440:   LOGGING CONTRACTOR
SRVC.                    Schlumberger:   LOGGING CONT NAME
DICO.          QC Data Collectors Ltd:   DIG COMPANY NAME
LDAT.                      05/30/1988:   DATE LOGGED
ELD .F                        85.0000:   LOG DATUM ELEVATION
TDD .F                      7904.0000:   TOTAL DEPTH DRILLER
TDL .F                      7913.0000:   TOTAL DEPTH LOGGER
BOTL.F                      7911.0000:   BOTTOM DEPTH LOGGED
TOPL.F                      4520.0000:   TOP DEPTH LOGGED
CS1 .IN                       13.3750:   CASING SIZE 1
BS1 .IN                       12.2500:   BIT SIZE 1
DDB1.F                      7904.0000:   DEPTH DRILLED BIT 1
BHF .                              80:   FLUID CODE
DPT .                      Salt Water:   DRILLING FLUID TYPE
MUDD.                         13.3000:   FLUID DENSITY
MUDV.                         44.0000:   FLUID VISCOSITY
DFPH.                          9.6000:   FLUID PH
FL  .                         11.9000:   FLUID LOSS
RM  .OHMM                       .2330:   RM
RMT .DEGF                     75.0000:   RM TEMP
RMF .OHMM                       .1510:   RMF
RMFT.DEGF                     75.0000:   RMF TEMP
FSC .                               M:   RMF CODE
RMC .OHMM                       .4890:   RMC
RMCT.DEGF                     75.0000:   RMC TEMP
CMC .                               M:   RMC CODE
TMAX.DEGF                    182.0000:   MAX REC TEMP
TIMC.                         10.7500:   TIME SINCE CIRCLN
~PARAMETER INFORMATION (zones)
#MNEM.UNIT                       Value     Description
#=========                       =====     ===========
#ZONATION                          DIL:   ZONATION NAME
#ZONE                            RUN_1:   ZONE NAME
TOP .                       1319.0000:   TOP DEPTH
BOT .                       7911.5000:   BOTTOM DEPTH
RUN .                               1:   RUN NUMBER
LCCD.                             440:   LOGGING CONTRACTOR
SRVC.                    Schlumberger:   LOGGING CONT NAME
DICO.          QC Data Collectors Ltd:   DIG COMPANY NAME
LDAT.                      05/21/1988:   DATE LOGGED
ELD .F                        85.0000:   LOG DATUM ELEVATION
TDD .F                      4550.0000:   TOTAL DEPTH DRILLER
TDL .F                      4551.0000:   TOTAL DEPTH LOGGER
BOTL.F                      4549.0000:   BOTTOM DEPTH LOGGED
TOPL.F                      1394.0000:   TOP DEPTH LOGGED
CS1 .IN                       20.0000:   CASING SIZE 1
BS1 .IN                       17.5000:   BIT SIZE 1
DDB1.F                      4550.0000:   DEPTH DRILLED BIT 1
BHF .                              80:   FLUID CODE
DPT .                      Salt Water:   DRILLING FLUID TYPE
MUDD.                         10.0000:   FLUID DENSITY
MUDV.                         38.0000:   FLUID VISCOSITY
DFPH.                          8.4000:   FLUID PH
FL  .                            NULL:   FLUID LOSS
RM  .OHMM                       .3040:   RM
RMT .DEGF                     82.0000:   RM TEMP
RMF .OHMM                       .2310:   RMF
RMFT.DEGF                     82.0000:   RMF TEMP
FSC .                               M:   RMF CODE
RMC .OHMM                       .4210:   RMC
RMCT.DEGF                     82.0000:   RMC TEMP
CMC .                               M:   RMC CODE
TMAX.DEGF                    130.0000:   MAX REC TEMP
TIMC.                          5.0000:   TIME SINCE CIRCLN
~Curve Information Block
#MNEM.UNIT                    API CODE    No Description
#=========                    ========    == ===========
DEPT.F                   00 001 00 00:     1  DEPTH
DCAL.IN                              :     2  Differential Caliper
DT.US/F                              :     3  Sonic Transit Time
GR.GAPI                              :     4  Gamma Ray
ILD.OHMM                             :     5  Deep Induction Resistivity
ILM.OHMM                             :     6  Medium Induction Resistivity
SFL.OHMM                             :     7  Medium Resistivity
SP.MV                                :     8  Spontaneous Potential
~ASCII
# ...
 1410.0000  -999.2500    96.6190    49.9420      .7036      .6964      .7235   -65.6343
 1410.5000  -999.2500   103.8590    50.6198      .7083      .6969      .7284   -65.6012
 1411.0000  -999.2500   117.2338    51.6417      .7143      .6981      .7349   -65.5427
 1411.5000  -999.2500   125.3658    50.8384      .7218      .6993      .7448   -65.5430
 1412.0000  -999.2500   135.7307    49.1839      .7322      .7008      .7593   -65.9369
 1412.5000  -999.2500   149.2383    48.2057      .7487      .7013      .7599   -67.1030
 1413.0000  -999.2500   156.1750    50.5594      .7598      .6980      .7423   -67.9364
 1413.5000  -999.2500   169.9702    54.4728      .7588      .6921      .7040   -67.9423
 1414.0000  -999.2500   169.9197    57.1085      .7496      .6847      .6772   -67.8947
 1414.5000  -999.2500   175.6670    59.9635      .7383      .6787      .6606   -68.5122
 1415.0000  -999.2500   180.0693    63.0291      .7296      .6758      .6513   -69.4961
 1415.5000  -999.2500   182.3220    66.3438      .7234      .6769      .6506   -70.4624
 1416.0000  -999.2500   185.4670    71.1617      .7219      .6813      .6562   -71.0425
 1416.5000  -999.2500   187.7551    75.5829      .7257      .6874      .6650   -70.8573
 1417.0000  -999.2500   189.9080    82.5095      .7402      .6917      .6860   -70.7115
 1417.5000  -999.2500   191.6736    85.0839      .7626      .6931      .7260   -70.6722
 1418.0000  -999.2500   178.6704    85.9293      .7816      .6955      .7586   -70.8611
 1418.5000  -999.2500   176.7314    85.6301      .7840      .6980      .7748   -71.1775
 1419.0000  -999.2500   179.0720    85.4631      .7793      .7001      .7660   -71.5831
 1419.5000  -999.2500   181.2393    85.6237      .7738      .7018      .7480   -72.2203
 1420.0000  -999.2500   183.1868    86.0065      .7700      .7041      .7359   -72.7699
 1420.5000  -999.2500   179.4590    86.5803      .7712      .7042      .7354   -72.2754
 1421.0000  -999.2500   178.0562    87.2781      .7751      .7032      .7576   -71.4373
 1421.5000  -999.2500   177.4275    87.8593      .7812      .7010      .7696   -70.6450
 1422.0000  -999.2500   176.7627    87.5962      .7851      .7011      .7664   -70.5309
 1422.5000  -999.2500   175.9204    84.7795      .7883      .7006      .7567   -70.6899
 1423.0000  -999.2500   175.3994    80.8387      .7991      .6982      .7447   -70.7806
 1423.5000  -999.2500   176.0840    75.3119      .8155      .6977      .7908   -71.0430
 1424.0000  -999.2500   177.6145    70.6160      .8266      .6978      .8096   -71.5038
 1424.5000  -999.2500   178.7092    67.9725      .8200      .6981      .7832   -71.9144
 1425.0000  -999.2500   179.5730    66.7032      .8022      .6959      .7665   -72.2502
 1425.5000  -999.2500   179.9507    66.7845      .7885      .6944      .7567   -71.3890
 1426.0000  -999.2500   179.6843    66.8722      .7781      .6932      .7527   -70.6494
 1426.5000  -999.2500   178.9731    66.3752      .7764      .6972      .7518   -70.4745
 1427.0000  -999.2500   177.9226    65.7557      .7761      .7035      .7541   -70.4573
 1427.5000  -999.2500   176.8992    66.3481      .7777      .7101      .7585   -70.4852
 1428.0000  -999.2500   176.5339    68.4229      .7769      .7106      .7584   -70.4536
 1428.5000  -999.2500   176.7764    67.8177      .7752      .7075      .7525   -70.4072
 1429.0000  -999.2500   177.4041    64.8855      .7768      .7033      .7414   -70.3645
 1429.5000  -999.2500   177.8765    61.6063      .7790      .6995      .7329   -70.3259
 1430.0000  -999.2500   177.9470    60.6909      .7804      .6986      .7276   -70.2905
 1430.5000  -999.2500   177.7803    61.7343      .7816      .7012      .7285   -70.2560
 1431.0000  -999.2500   177.5266    63.0051      .7814      .7096      .7390   -70.2836
 1431.5000  -999.2500   177.3386    62.7313      .7806      .7113      .7561   -70.2080
 1432.0000  -999.2500   177.2461    61.9548      .7784      .7092      .7723   -69.9463
 1432.5000  -999.2500   177.2676    62.3983      .7840      .7054      .7778   -69.6838
 1433.0000  -999.2500   177.2783    64.3624      .7878      .7025      .7821   -69.2720
 1433.5000  -999.2500   177.3398    64.8007      .7867      .7001      .7858   -68.6774
 1434.0000  -999.2500   177.7324    62.4379      .7853      .7006      .7830   -67.9590
 1434.5000  -999.2500   178.3416    58.4740      .7848      .7007      .7780   -67.0961
 1435.0000  -999.2500   178.3049    56.8852      .7846      .7002      .7663   -66.1870
 1435.5000  -999.2500   178.2649    57.0524      .7861      .6990      .7517   -65.5027
 1436.0000  -999.2500   178.3086    58.1663      .7885      .6982      .7375   -65.6156
 1436.5000  -999.2500   178.2144    59.3742      .7852      .6978      .7248   -65.8159
 1437.0000  -999.2500   177.9204    59.9941      .7826      .6982      .7195   -65.8322
 1437.5000  -999.2500   177.2466    59.7218      .7825      .7025      .7329   -65.5449
 1438.0000  -999.2500   176.7375    59.1898      .7823      .7069      .7454   -65.1772
 1438.5000  -999.2500   176.4036    59.2698      .7822      .7051      .7519   -64.7793
 1439.0000  -999.2500   176.2766    59.6426      .7816      .7027      .7549   -64.4412
 1439.5000  -999.2500   176.2817    60.3452      .7809      .6990      .7545   -64.0675
 1440.0000  -999.2500   176.3735    61.1371      .7807      .6957      .7510   -63.6857
 1440.5000  -999.2500   176.6677    61.8619      .7819      .6944      .7457   -63.3994
 1441.0000  -999.2500   177.2014    62.6383      .7832      .6932      .7391   -63.1815
 1441.5000  -999.2500   177.8171    62.6810      .7850      .6929      .7318   -62.8773
 1442.0000  -999.2500   178.4604    61.2318      .7849      .6927      .7259   -62.5701
 1442.5000  -999.2500   179.4866    56.5198      .7840      .6943      .7224   -62.3864
 1443.0000  -999.2500   179.8174    55.2377      .7853      .6960      .7215   -62.2385
 1443.5000  -999.2500   180.0752    55.4098      .7866      .6938      .7245   -62.0703
 1444.0000  -999.2500   180.6726    56.8288      .7873      .6911      .7315   -61.8759
 1444.5000  -999.2500   181.0974    59.1287      .7874      .6884      .7388   -61.6556
 1445.0000  -999.2500   181.2075    60.0420      .7863      .6881      .7406   -61.3575
 1445.5000  -999.2500   180.9050    58.9303      .7870      .6875      .7360   -60.8599
 1446.0000  -999.2500   179.6182    58.5481      .7884      .6864      .7301   -60.1453
 1446.5000  -999.2500   179.2783    57.8087      .7898      .6852      .7251   -59.2977
 1447.0000  -999.2500   178.7603    55.6713      .7913      .6823      .7190   -58.3444
 1447.5000  -999.2500   178.0503    51.0988      .7897      .6793      .7183   -57.1793
 1448.0000  -999.2500   177.2390    48.4722      .7880      .6776      .7235   -56.2331
 1448.5000  -999.2500   176.5205    48.1884      .7863      .6774      .7307   -55.6811
 1449.0000  -999.2500   176.0845    49.6442      .7851      .6779      .7348   -55.4949
 1449.5000  -999.2500   175.8340    52.4114      .7863      .6796      .7345   -55.9499
 1450.0000  -999.2500   175.7544    56.9310      .7874      .6800      .7274   -57.7504
 1450.5000  -999.2500   175.8059    60.9135      .7867      .6780      .7157   -60.2054
 1451.0000  -999.2500   175.8838    62.5143      .7859      .6730      .7092   -61.7589
 1451.5000  -999.2500   176.0627    62.2103      .7834      .6677      .7062   -62.0484
 1452.0000  -999.2500   176.6035    59.5175      .7805      .6628      .7088   -61.8049
 1452.5000  -999.2500   177.4834    55.8124      .7811      .6599      .7139   -62.4385
 1453.0000  -999.2500   178.6978    56.3553      .7833      .6581      .7193   -64.1138
 1453.5000  -999.2500   179.8748    56.7246      .7835      .6576      .7258   -66.2787
 1454.0000  -999.2500   179.9814    54.7973      .7833      .6588      .7326   -53.6557
 1454.5000  -999.2500   181.0435    52.9182      .7832      .6610      .7382   -56.0859
 1455.0000  -999.2500   181.6270    54.6441      .7854      .6637      .7388   -58.3271
