~VERSION INFORMATION
VERS.                             2.0:   CWLS Log ASCII Standard-VERSION 2.0
WRAP.                              NO:   One line per depth step
~Well Information Block
STRT.F                      1319.0000:   Top Depth
STOP.F                      7911.0000:   Bottom Depth
STEP.F                         .50000:   Depth Increment
NULL.                        -999.250:   Null Value
FLD .                    MU BLK A 167:   Field Name
WELL.       OCSG08096   001 ST00 BP00:   NAME
API .                    427124009800:   WELL API
EDF .F                        84.0000:   ELEV DRILL FLOOR
COMP.         UNION PACIFIC RESOURCES:   OPERATOR
BN  .                           A 167:   BLOCK
CTRY.                             USA:   COUNTRY NAME
CNTY.                        M I E AD:   COUNTY NAME
EKB .F                        85.0000:   ELEV KELLY BUSHING
TDD .F                       7913.000:   FINAL TD DRILLER
STAT.                           TEXAS:   STATE NAME
UWI .                    427124009800:   WELL API
DICO.               IHS : Digitizing Company
~PARAMETER INFORMATION (zones)
#MNEM.UNIT                       Value     Description
#=========                       =====     ===========
#ZONATION                          DIL:   ZONATION NAME
#ZONE                            RUN_2:   ZONE NAME
TOP .                       4520.0000:   TOP DEPTH
BOT .                       7911.0000:   BOTTOM DEPTH
RUN .                               2:   RUN NUMBER
LCCD.                             440:   LOGGING CONTRACTOR
SRVC.                    Schlumberger:   LOGGING CONT NAME
DICO.          QC Data Collectors Ltd:   DIG COMPANY NAME
LDAT.                      05/30/1988:   DATE LOGGED
ELD .F                        85.0000:   LOG DATUM ELEVATION
TDD .F                      7904.0000:   TOTAL DEPTH DRILLER
TDL .F                      7913.0000:   TOTAL DEPTH LOGGER
BOTL.F                      7911.0000:   BOTTOM DEPTH LOGGED
TOPL.F                      4520.0000:   TOP DEPTH LOGGED
CS1 .IN                       13.3750:   CASING SIZE 1
BS1 .IN                       12.2500:   BIT SIZE 1
DDB1.F                      7904.0000:   DEPTH DRILLED BIT 1
BHF .                              80:   FLUID CODE
DPT .                      Salt Water:   DRILLING FLUID TYPE
MUDD.                         13.3000:   FLUID DENSITY
MUDV.                         44.0000:   FLUID VISCOSITY
DFPH.                          9.6000:   FLUID PH
FL  .                         11.9000:   FLUID LOSS
RM  .OHMM                       .2330:   RM
RMT .DEGF                     75.0000:   RM TEMP
RMF .OHMM                       .1510:   RMF
RMFT.DEGF                     75.0000:   RMF TEMP
FSC .                               M:   RMF CODE
RMC .OHMM                       .4890:   RMC
RMCT.DEGF                     75.0000:   RMC TEMP
CMC .                               M:   RMC CODE
TMAX.DEGF                    182.0000:   MAX REC TEMP
TIMC.                         10.7500:   TIME SINCE CIRCLN
~PARAMETER INFORMATION (zones)
#MNEM.UNIT                       Value     Description
#=========                       =====     ===========
#ZONATION                          DIL:   ZONATION NAME
#ZONE                            RUN_1:   ZONE NAME
TOP .                       1319.0000:   TOP DEPTH
BOT .                       7911.5000:   BOTTOM DEPTH
RUN .                               1:   RUN NUMBER
LCCD.                             440:   LOGGING CONTRACTOR
SRVC.                    Schlumberger:   LOGGING CONT NAME
DICO.          QC Data Collectors Ltd:   DIG COMPANY NAME
LDAT.                      05/21/1988:   DATE LOGGED
ELD .F                        85.0000:   LOG DATUM ELEVATION
TDD .F                      4550.0000:   TOTAL DEPTH DRILLER
TDL .F                      4551.0000:   TOTAL DEPTH LOGGER
BOTL.F                      4549.0000:   BOTTOM DEPTH LOGGED
TOPL.F                      1394.0000:   TOP DEPTH LOGGED
CS1 .IN                       20.0000:   CASING SIZE 1
BS1 .IN                       17.5000:   BIT SIZE 1
DDB1.F                      4550.0000:   DEPTH DRILLED BIT 1
BHF .                              80:   FLUID CODE
DPT .                      Salt Water:   DRILLING FLUID TYPE
MUDD.                         10.0000:   FLUID DENSITY
MUDV.                         38.0000:   FLUID VISCOSITY
DFPH.                          8.4000:   FLUID PH
FL  .                            NULL:   FLUID LOSS
RM  .OHMM                       .3040:   RM
RMT .DEGF                     82.0000:   RM TEMP
RMF .OHMM                       .2310:   RMF
RMFT.DEGF                     82.0000:   RMF TEMP
FSC .                               M:   RMF CODE
RMC .OHMM                       .4210:   RMC
RMCT.DEGF                     82.0000:   RMC TEMP
CMC .                               M:   RMC CODE
TMAX.DEGF                    130.0000:   MAX REC TEMP
TIMC.                          5.0000:   TIME SINCE CIRCLN
~Curve Information Block
#MNEM.UNIT                    API CODE    No Description
#=========                    ========    == ===========
DEPT.F                   00 001 00 00:     1  DEPTH
DCAL.IN                              :     2  Differential Caliper
DT.US/F                              :     3  Sonic Transit Time
GR.GAPI                              :     4  Gamma Ray
ILD.OHMM                             :     5  Deep Induction Resistivity
ILM.OHMM                             :     6  Medium Induction Resistivity
SFL.OHMM                             :     7  Medium Resistivity
SP.MV                                :     8  Spontaneous Potential
~ASCII
# ...
 5732.5000      .6488   110.7814    57.9874      .9241      .8771      .9328   -54.5078
 5733.0000      .6292   110.5981    56.6663      .9421      .9213      .9435   -54.2800
 5733.5000      .6188   110.9137    55.0185      .9544      .9894      .9837   -54.2336
 5734.0000      .6097   111.9723    54.0466      .9501      .9773      .9378   -54.5498
 5734.5000      .6100   113.6527    52.2799      .9441      .9581      .8927   -54.9025
 5735.0000      .6102   114.6890    50.7113      .9262      .9319      .8476   -54.9472
 5735.5000      .6212   115.1639    53.2147      .9088      .9084      .8149   -54.9919
 5736.0000      .6356   114.6222    56.8743      .8860      .8866      .7996   -55.0367
 5736.5000      .6496   114.0623    61.2917      .8667      .8746      .8063   -55.0033
 5737.0000      .6631   113.4055    63.3011      .8595      .8636      .8162   -54.9467
 5737.5000      .6718   112.8438    62.1868      .8578      .8663      .8296   -55.0005
 5738.0000      .6371   112.3512    59.7145      .8586      .8691      .8406   -55.1249
 5738.5000      .6025   111.6870    57.3721      .8594      .8675      .8487   -55.4598
 5739.0000      .5708   111.6603    55.5867      .8603      .8639      .8460   -55.8176
 5739.5000      .6038   112.8937    55.1460      .8563      .8482      .8333   -55.7007
 5740.0000      .6868   115.0535    56.0052      .8499      .8226      .8125   -55.4041
 5740.5000      .7493   117.2245    57.6073      .8262      .8025      .7905   -55.0836
 5741.0000      .7792   118.6090    58.9097      .7965      .7890      .7778   -55.2111
 5741.5000      .7888   118.3069    57.5453      .7848      .7772      .7692   -55.2225
 5742.0000      .7840   116.5316    55.7601      .7843      .7887      .7658   -55.1444
 5742.5000      .7718   114.5765    54.5620      .7969      .8013      .7840   -55.1148
 5743.0000      .7513   112.9462    55.5571      .8104      .8196      .8025   -55.2244
 5743.5000      .7409   112.2206    56.9536      .8244      .8362      .8215   -55.4137
 5744.0000      .7375   112.0238    57.5776      .8357      .8453      .8409   -55.7201
 5744.5000      .7478   111.8179    55.5100      .8460      .8533      .8513   -55.9478
 5745.0000      .7780   111.4370    54.2051      .8490      .8540      .8590   -55.8160
 5745.5000      .8176   111.1349    55.0989      .8512      .8548      .8607   -55.7434
 5746.0000      .8641   111.0916    58.0158      .8517      .8518      .8602   -55.7480
 5746.5000      .8846   111.8151    59.5622      .8518      .8484      .8590   -55.9980
 5747.0000      .8891   113.5629    60.2245      .8474      .8417      .8514   -55.8993
 5747.5000      .8687   115.8026    59.7912      .8417      .8330      .8437   -55.6192
 5748.0000      .8528   117.4554    58.8577      .8310      .8209      .8311   -55.3292
 5748.5000      .8442   117.5210    57.6642      .8194      .8060      .8183   -55.1072
 5749.0000      .8474   116.9604    56.8867      .8055      .7899      .8049   -55.2291
 5749.5000      .8598   116.2308    56.6312      .7830      .7721      .7978   -55.3539
 5750.0000      .8582   115.8455    56.7657      .7558      .7511      .7959   -55.4892
 5750.5000      .8466   117.0610    56.7679      .7301      .7270      .7871   -55.6243
 5751.0000      .8213   126.1846    56.4478      .7073      .7023      .7685   -55.3329
 5751.5000      .7867   129.2034    56.0027      .6909      .6866      .7322   -54.9178
 5752.0000      .7473   130.7102    56.2665      .6858      .6818      .6810   -54.1651
 5752.5000      .6978   127.5779    54.7585      .6852      .6813      .6391   -53.6400
 5753.0000      .6486   122.2645    53.5477      .6900      .6885      .6462   -53.7181
 5753.5000      .6001   117.4979    52.9182      .6956      .6966      .6891   -54.8002
 5754.0000      .5197   116.4861    53.6876      .7069      .7083      .7435   -55.4484
 5754.5000      .5090   117.5978    56.0027      .7184      .7202      .7839   -55.7317
 5755.0000      .5979   118.0116    58.8231      .7347      .7382      .7909   -55.6550
 5755.5000      .7065   117.4642    61.0441      .7517      .7567      .7824   -55.5281
 5756.0000      .8182   116.0435    61.8516      .7698      .7759      .7931   -55.6814
 5756.5000      .8202   114.3969    61.3239      .7885      .7957      .8067   -55.9659
 5757.0000      .7178   113.1958    59.3678      .8067      .8146      .8227   -55.6424
 5757.5000      .7358   112.3500    57.4067      .8231      .8272      .8400   -55.2001
 5758.0000      .7819   111.8818    56.3717      .8398      .8399      .8542   -54.7222
 5758.5000      .8149   112.1066    57.8623      .8502      .8470      .8629   -54.7431
 5759.0000      .8422   112.0498    58.3607      .8580      .8506      .8717   -54.7849
 5759.5000      .8261   111.7064    56.3692      .8630      .8542      .8731   -54.8667
 5760.0000      .7989   111.2722    53.0710      .8591      .8521      .8727   -54.9088
 5760.5000      .7611   111.8201    51.5272      .8552      .8495      .8723   -54.9060
 5761.0000      .7458   113.3307    53.2147      .8502      .8467      .8678   -54.9061
 5761.5000      .7511   114.9161    57.2408      .8440      .8390      .8624   -54.9402
 5762.0000      .7658   115.4167    61.0020      .8378      .8315      .8570   -54.9742
 5762.5000      .7723   114.2645    63.2714      .8317      .8234      .8487   -55.4651
 5763.0000      .7583   113.2389    63.2831      .8257      .8149      .8390   -55.5447
 5763.5000      .7169   112.6615    62.7886      .8199      .8066      .8293   -55.3973
 5764.0000      .6652   113.5990    60.9649      .8174      .8049      .8213   -55.1023
 5764.5000      .6340   114.3881    57.3002      .8149      .8031      .8137   -54.8893
 5765.0000      .6112   114.8875    54.8055      .8159      .8068      .8061   -54.9072
 5765.5000      .6069   113.8287    55.4976      .8180      .8142      .8094   -55.0844
 5766.0000      .6239   112.4268    61.2769      .8273      .8229      .8138   -55.5561
 5766.5000      .6510   110.8387    64.5453      .8445      .8410      .8227   -55.7633
 5767.0000      .6790   109.3931    64.8351      .8622      .8595      .8375   -55.7922
 5767.5000      .6884   108.5222    62.1559      .8805      .8768      .8540   -55.8212
 5768.0000      .6712   107.9547    57.9836      .8972      .8936      .8716   -55.8502
 5768.5000      .6968   108.0580    55.6858      .9107      .9073      .8899   -55.6871
 5769.0000      .7487   108.1459    54.0565      .9241      .9138      .9033   -55.5740
 5769.5000      .8123   108.1431    52.5368      .9256      .9203      .9099   -55.7636
 5770.0000      .8799   108.2128    52.7120      .9272      .9162      .9118   -55.6124
 5770.5000      .9215   108.3961    55.6883      .9227      .9112      .9054   -55.2360
 5771.0000      .9405   109.1996    58.4070      .9150      .9031      .8988   -55.0369
 5771.5000      .9155   108.9524    59.5238      .9071      .8931      .8876   -55.1982
 5772.0000      .8832   109.1040    58.1471      .8932      .8836      .8765   -55.7925
 5772.5000      .8482   110.0398    57.2947      .8795      .8749      .8643   -55.8504
 5773.0000      .8510   111.4817    58.3093      .8655      .8664      .8495   -55.5706
 5773.5000      .8665   112.6090    60.4053      .8507      .8554      .8349   -55.4172
 5774.0000      .9173   112.9574    61.9653      .8363      .8436      .8232   -55.8223
 5774.5000      .9511   113.3656    62.3856      .8274      .8325      .8129   -55.9708
 5775.0000      .9478   113.8406    60.7173      .8201      .8219      .8028   -55.9865
 5775.5000      .9297   114.2635    58.7772      .8140      .8133      .7993   -55.8743
 5776.0000      .8736   114.4617    57.4017      .8147      .8109      .7964   -55.4678
 5776.5000      .8192   114.0328    56.4639      .8153      .8085      .7935   -54.9803
 5777.0000      .7733   112.5242    56.3516      .8160      .8117      .7959   -54.6984
 5777.5000      .7485   111.7483    57.0235      .8167      .8155      .7983   -54.9962
