~VERSION INFORMATION
VERS.                             2.0:   CWLS Log ASCII Standard-VERSION 2.0
WRAP.                              NO:   One line per depth step
~Well Information Block
STRT.F                      1302.0000:   Top Depth
STOP.F                     14644.0000:   Bottom Depth
STEP.F                         .50000:   Depth Increment
NULL.                        -999.250:   Null Value
FLD .                    MU BLK A 152:   Field Name
WELL.       OCSG04991   001 ST00 BP00:   NAME
API .                    427124006100:   WELL API
EDF .F                        94.0000:   ELEV DRILL FLOOR
COMP.            TRANSCO EXPL PROD CO:   OPERATOR
BN  .                           A 152:   BLOCK
CTRY.                             USA:   COUNTRY NAME
CNTY.                        M I E AD:   COUNTY NAME
EKB .F                        95.0000:   ELEV KELLY BUSHING
TDD .F                      14647.000:   FINAL TD DRILLER
STAT.                           TEXAS:   STATE NAME
UWI .                    427124006100:   WELL API
DICO.               IHS : Digitizing Company
~PARAMETER INFORMATION (zones)
#MNEM.UNIT                       Value     Description
#=========                       =====     ===========
#ZONATION                          DIL:   ZONATION NAME
#ZONE                            RUN_1:   ZONE NAME
TOP .                       1302.0000:   TOP DEPTH
BOT .                      14644.5000:   BOTTOM DEPTH
RUN .                               1:   RUN NUMBER
LCCD.                             440:   LOGGING CONTRACTOR
SRVC.                    Schlumberger:   LOGGING CONT NAME
DICO.          QC Data Collectors Ltd:   DIG COMPANY NAME
LDAT.                      11/20/1982:   DATE LOGGED
ELD .F                        95.0000:   LOG DATUM ELEVATION
TDD .F                      4095.0000:   TOTAL DEPTH DRILLER
TDL .F                      4095.0000:   TOTAL DEPTH LOGGER
BOTL.F                      4092.0000:   BOTTOM DEPTH LOGGED
TOPL.F                      1334.0000:   TOP DEPTH LOGGED
CS1 .IN                       20.0000:   CASING SIZE 1
BS1 .IN                       12.2500:   BIT SIZE 1
DDB1.F                      4095.0000:   DEPTH DRILLED BIT 1
BHF .                              99:   FLUID CODE
DPT .                   Miscellaneous:   DRILLING FLUID TYPE
MUDD.                          9.4000:   FLUID DENSITY
MUDV.                         43.0000:   FLUID VISCOSITY
DFPH.                         11.2000:   FLUID PH
RM  .OHMM                       .2800:   RM
RMT .DEGF                     70.0000:   RM TEMP
RMF .OHMM                       .2300:   RMF
RMFT.DEGF                     70.0000:   RMF TEMP
FSC .                               M:   RMF CODE
RMC .OHMM                       .4000:   RMC
RMCT.DEGF                     70.0000:   RMC TEMP
CMC .                               M:   RMC CODE
TMAX.DEGF                    178.0000:   MAX REC TEMP
TIMC.                          8.0000:   TIME SINCE CIRCLN
~PARAMETER INFORMATION (zones)
#MNEM.UNIT                       Value     Description
#=========                       =====     ===========
#ZONATION                          FDC:   ZONATION NAME
#ZONE                            RUN_3:   ZONE NAME
TOP .                       8480.0000:   TOP DEPTH
BOT .                      13304.0000:   BOTTOM DEPTH
RUN .                               3:   RUN NUMBER
LCCD.                             440:   LOGGING CONTRACTOR
SRVC.                    Schlumberger:   LOGGING CONT NAME
DICO.          QC Data Collectors Ltd:   DIG COMPANY NAME
LDAT.                      01/30/1983:   DATE LOGGED
ELD .F                        95.0000:   LOG DATUM ELEVATION
TDD .F                     13308.0000:   TOTAL DEPTH DRILLER
TDL .F                     13305.0000:   TOTAL DEPTH LOGGER
BOTL.F                     13304.0000:   BOTTOM DEPTH LOGGED
TOPL.F                      8480.0000:   TOP DEPTH LOGGED
CS1 .IN                       11.7500:   CASING SIZE 1
BS1 .IN                        9.8750:   BIT SIZE 1
DDB1.F                     13308.0000:   DEPTH DRILLED BIT 1
BHF .                              99:   FLUID CODE
DPT .                   Miscellaneous:   DRILLING FLUID TYPE
MUDD.                         15.6000:   FLUID DENSITY
MUDV.                         55.0000:   FLUID VISCOSITY
DFPH.                         10.7000:   FLUID PH
FL  .                          3.6000:   FLUID LOSS
RM  .OHMM                       .8600:   RM
RMT .DEGF                     70.0000:   RM TEMP
RMF .OHMM                       .4200:   RMF
RMFT.DEGF                     70.0000:   RMF TEMP
FSC .                               M:   RMF CODE
RMC .OHMM                      1.6700:   RMC
RMCT.DEGF                     70.0000:   RMC TEMP
CMC .                               M:   RMC CODE
TMAX.DEGF                    260.0000:   MAX REC TEMP
TIMC.                          8.5000:   TIME SINCE CIRCLN
~PARAMETER INFORMATION (zones)
#MNEM.UNIT                       Value     Description
#=========                       =====     ===========
#ZONATION                          FDC:   ZONATION NAME
#ZONE                            RUN_4:   ZONE NAME
TOP .                      12060.0000:   TOP DEPTH
BOT .                      14644.0000:   BOTTOM DEPTH
RUN .                               4:   RUN NUMBER
LCCD.                             440:   LOGGING CONTRACTOR
SRVC.                    Schlumberger:   LOGGING CONT NAME
DICO.          QC Data Collectors Ltd:   DIG COMPANY NAME
LDAT.                      02/16/1983:   DATE LOGGED
ELD .F                        95.0000:   LOG DATUM ELEVATION
TDD .F                     14641.0000:   TOTAL DEPTH DRILLER
TDL .F                     14647.0000:   TOTAL DEPTH LOGGER
BOTL.F                     14644.0000:   BOTTOM DEPTH LOGGED
TOPL.F                     12060.0000:   TOP DEPTH LOGGED
CS1 .IN                       11.7500:   CASING SIZE 1
BS1 .IN                        9.8750:   BIT SIZE 1
DDB1.F                     14641.0000:   DEPTH DRILLED BIT 1
BHF .                              99:   FLUID CODE
DPT .                   Miscellaneous:   DRILLING FLUID TYPE
MUDD.                         15.6000:   FLUID DENSITY
MUDV.                         55.0000:   FLUID VISCOSITY
DFPH.                         11.5000:   FLUID PH
FL  .                          3.2000:   FLUID LOSS
RM  .OHMM                       .6900:   RM
RMT .DEGF                     75.0000:   RM TEMP
RMF .OHMM                       .4400:   RMF
RMFT.DEGF                     75.0000:   RMF TEMP
FSC .                               M:   RMF CODE
RMC .OHMM                       .9400:   RMC
RMCT.DEGF                     75.0000:   RMC TEMP
CMC .                               M:   RMC CODE
TMAX.DEGF                    284.0000:   MAX REC TEMP
TIMC.                         13.0000:   TIME SINCE CIRCLN
~PARAMETER INFORMATION (zones)
#MNEM.UNIT                       Value     Description
#=========                       =====     ===========
#ZONATION                          FDC:   ZONATION NAME
#ZONE                            RUN_2:   ZONE NAME
TOP .                       3894.0000:   TOP DEPTH
BOT .                      14644.5000:   BOTTOM DEPTH
RUN .                               2:   RUN NUMBER
LCCD.                             440:   LOGGING CONTRACTOR
SRVC.                    Schlumberger:   LOGGING CONT NAME
DICO.          QC Data Collectors Ltd:   DIG COMPANY NAME
LDAT.                      12/10/1982:   DATE LOGGED
ELD .F                        95.0000:   LOG DATUM ELEVATION
TDD .F                      8594.0000:   TOTAL DEPTH DRILLER
TDL .F                      8592.0000:   TOTAL DEPTH LOGGER
BOTL.F                      8594.0000:   BOTTOM DEPTH LOGGED
TOPL.F                      4037.0000:   TOP DEPTH LOGGED
CS1 .IN                       16.0000:   CASING SIZE 1
BS1 .IN                       14.7500:   BIT SIZE 1
DDB1.F                      8594.0000:   DEPTH DRILLED BIT 1
BHF .                              99:   FLUID CODE
DPT .                   Miscellaneous:   DRILLING FLUID TYPE
MUDD.                         13.1000:   FLUID DENSITY
MUDV.                         45.0000:   FLUID VISCOSITY
DFPH.                         11.5000:   FLUID PH
FL  .                          3.0000:   FLUID LOSS
RM  .OHMM                       .7500:   RM
RMT .DEGF                     75.0000:   RM TEMP
RMF .OHMM                       .5500:   RMF
RMFT.DEGF                     75.0000:   RMF TEMP
FSC .                               M:   RMF CODE
RMC .OHMM                       .8000:   RMC
RMCT.DEGF                     75.0000:   RMC TEMP
CMC .                               M:   RMC CODE
TMAX.DEGF                    195.0000:   MAX REC TEMP
TIMC.                          7.0000:   TIME SINCE CIRCLN
~Curve Information Block
#MNEM.UNIT                    API CODE    No Description
#=========                    ========    == ===========
DEPT.F                   00 001 00 00:     1  DEPTH
CILD.MMHO                            :     2  Deep Induction Conductivity
DT.US/F                              :     3  Sonic Transit Time
GR.GAPI                              :     4  Gamma Ray
ILD.OHMM                             :     5  Deep Induction Resistivity
ILM.OHMM                             :     6  Medium Induction Resistivity
SFL.OHMM                             :     7  Medium Resistivity
SP.MV                                :     8  Spontaneous Potential
CALI.IN                              :     9  Caliper
GR.GAPI                              :    10  Gamma Ray
RHOB.G/C3                            :    11  Bulk Density
~ASCII
# ...
12826.0000  1259.3262   108.6979  -999.2500      .7861      .8101      .8667     1.4596    17.6070    55.4413     2.4206
12826.5000  1280.3320   109.4092  -999.2500      .7880      .7959      .8055     1.9995    16.9503    58.2530     2.4111
12827.0000  1315.8906   109.6223  -999.2500      .7855      .7819      .7912     2.0583    16.9429    59.9832     2.4016
12827.5000  1359.1699   109.8696  -999.2500      .7815      .7682      .8223     2.1037    17.2501    61.1974     2.4054
12828.0000  1390.9688   111.2159  -999.2500      .7690      .7547      .8913     2.0862    17.3506    62.1117     2.4150
12828.5000  1414.4395   113.0085  -999.2500      .7501      .7410     1.0016     2.0687    17.2731    61.1777     2.4250
12829.0000  1409.1152   114.0771  -999.2500      .7301      .7269     1.0693     2.2763    17.2204    60.4644     2.4288
12829.5000  1407.7461   113.5361  -999.2500      .7146      .7216     1.0481     2.5182    17.2474    60.0742     2.4248
12830.0000  1416.5391   111.9047  -999.2500      .7039      .7245     1.0108     2.7280    17.3750    61.8463     2.4227
12830.5000  1425.3320   110.4246  -999.2500      .6976      .7273     1.0187     2.7322    17.4364    63.7977     2.4217
12831.0000  1439.8145   110.2244  -999.2500      .6925      .7301      .9920     2.5043    17.4951    64.1713     2.4237
12831.5000  1454.4922   110.7776  -999.2500      .6905      .7219      .9182     2.4335    17.8390    62.1461     2.4281
12832.0000  1462.7109   111.3234  -999.2500      .6885      .7132      .8661     2.4710    18.0422    60.4601     2.4161
12832.5000  1469.6953   111.7043  -999.2500      .6875      .7047      .8282     2.6856    18.2143    60.5336     2.3942
12833.0000  1462.3809   111.2074  -999.2500      .6869      .6979      .8101     3.0078    18.8769    62.0773     2.3757
12833.5000  1445.4316   110.4246  -999.2500      .6865      .6921      .7959     3.1388    19.4432    63.3430     2.3583
12834.0000  1425.8437   109.4379  -999.2500      .6898      .6886      .8003     3.0818    19.7097    62.2051     2.3442
12834.5000  1403.3750   108.4097  -999.2500      .6931      .6936      .8103     2.9598    19.7640    61.0671     2.3529
12835.0000  1383.1523   107.2032  -999.2500      .6967      .6998      .8308     3.0292    19.8009    60.2733     2.3651
12835.5000  1367.5957   106.3160  -999.2500      .7018      .7090      .8309     2.7923    19.8377    58.8674     2.3783
12836.0000  1352.0625   106.3069  -999.2500      .7070      .7183      .8222     1.5044    19.8639    56.5620     2.3915
12836.5000  1337.8965   107.3351  -999.2500      .7134      .7233      .8291     1.0958    19.8674    53.6201     2.3986
12837.0000  1323.8770   108.9080  -999.2500      .7200      .7272      .7813     1.0552    19.6836    52.6172     2.3996
12837.5000  1312.8379   110.4099  -999.2500      .7192      .7305      .7712     1.4135    19.5182    52.5650     2.3973
12838.0000  1305.4141   111.6116  -999.2500      .7044      .7314      .7728     1.5713    19.4203    52.7546     2.3969
12838.5000  1297.9883   112.5149  -999.2500      .6888      .7323      .7784     1.6565    19.3855    50.6682     2.4035
12839.0000  1302.8008   112.4786  -999.2500      .6805      .7327      .7808     1.6421    19.3953    48.0925     2.4094
12839.5000  1308.6016   111.7594  -999.2500      .6723      .7326      .7769     1.6578    19.4052    45.5659     2.3898
12840.0000  1312.5273   111.7092  -999.2500      .6748      .7405      .7729     1.9416    19.3960    44.9146     2.3646
12840.5000  1314.5898   114.7378  -999.2500      .6779      .7548      .8065     1.9643    19.3850    45.6642     2.3412
12841.0000  1317.3086   116.9994  -999.2500      .6809      .7611      .9004     1.8076    18.8297    46.5416     2.3198
12841.5000  1322.2285   117.5171  -999.2500      .6838      .7662      .9284     1.5263    17.7348    48.0876     2.3090
12842.0000  1332.4004   116.1494  -999.2500      .6867      .7644      .9352     1.6306    16.7694    49.7982     2.3464
12842.5000  1353.6016   114.3176  -999.2500      .6916      .7562      .9329     1.8446    16.0988    52.8753     2.3756
12843.0000  1368.4375   113.1478  -999.2500      .6970      .7497      .9304     2.2442    16.3643    54.5909     2.3935
12843.5000  1376.3145   112.4506  -999.2500      .7028      .7467      .9441     2.6013    16.7871    56.8962     2.3833
12844.0000  1372.1621   112.0402  -999.2500      .7129      .7437      .9530     2.2181    17.3071    60.4158     2.3702
12844.5000  1355.8965   111.3502  -999.2500      .7231      .7465      .9566     1.7979    17.6045    64.1221     2.3665
12845.0000  1343.1484   109.9166  -999.2500      .7352      .7539      .9536     1.3286    17.3887    66.0785     2.3809
12845.5000  1332.0586   107.6819  -999.2500      .7484      .7632      .9612     1.2661    17.4974    66.4846     2.4103
12846.0000  1310.5664   107.3278  -999.2500      .7628      .7755      .9863     1.5990    17.6717    65.7959     2.4299
12846.5000  1287.0723   108.2290  -999.2500      .7808      .7881     1.0572     3.0712    17.2314    64.5251     2.4128
12847.0000  1229.5313   109.1400  -999.2500      .7992      .8059     1.2821     5.0599    16.1982    60.1110     2.3765
12847.5000  1179.2188   108.7260  -999.2500      .8238      .8262     1.5068     2.6686    15.5710    55.5002     2.3527
12848.0000  1135.9414   105.9308  -999.2500      .8492      .8571     1.6977    -4.9517    15.1168    52.3051     2.3855
12848.5000  1103.6055   101.4662  -999.2500      .8751      .9145     1.6396   -10.9325    14.8192    50.6879     2.4752
12849.0000  1076.5449    96.9528  -999.2500      .9019     1.0032     1.4746   -11.8710    14.8282    53.0867     2.5210
12849.5000  1053.4883    93.4603  -999.2500      .9201     1.0691     1.4092   -13.2753    14.9459    55.6182     2.5495
12850.0000  1034.1445    91.7396  -999.2500      .9378     1.1356     1.8820   -15.2058    15.0634    59.6981     2.5425
12850.5000  1016.6592    91.8093  -999.2500      .9587     1.1607   290.2969   -10.5008    15.1947    61.8659     2.5243
12851.0000  1002.4932    93.1965  -999.2500      .9814     1.1392  1330.3516    -1.3138    15.3326    62.5787     2.4994
12851.5000   989.2314    95.3018  -999.2500     1.0049     1.1039  1289.6328     1.6936    15.4613    60.4994     2.4738
12852.0000   976.1895    97.2422  -999.2500     1.0307     1.0909   220.7410     3.1876    15.5783    57.6287     2.4488
12852.5000   963.1963    96.5229  -999.2500     1.0570     1.0932     3.7125     6.1174    15.4702    54.7580     2.4652
12853.0000   952.2305    92.3319  -999.2500     1.0761     1.1577     1.4957     7.8054    15.3355    52.2314     2.5324
12853.5000   941.6250    88.9860  -999.2500     1.0826     1.1980     1.2974     5.0987    15.2397    49.8178     2.5645
12854.0000   945.2451    87.9504  -999.2500     1.0612     1.2116     1.2740    -7.3188    15.3313    51.0615     2.5359
12854.5000   978.9492    91.8728  -999.2500     1.0381     1.1606     1.3004   -11.5485    15.4608    54.0157     2.4919
12855.0000   992.0889    95.9075  -999.2500     1.0167     1.0993     1.4058    -3.3219    15.6491    57.6385     2.4636
12855.5000  1001.7607    99.0728  -999.2500      .9974     1.0311     1.4722      .5489    15.8389    59.4622     2.4474
12856.0000  1024.7676   101.3881  -999.2500      .9705      .9971     1.4311     2.1011    16.0419    60.7525     2.4518
12856.5000  1084.6523   102.5505  -999.2500      .9382      .9710     1.1611     2.6746    16.2395    61.7037     2.4572
12857.0000  1160.4629   103.6887  -999.2500      .8849      .9285      .8809     3.2482    16.3683    62.5627     2.4699
12857.5000  1246.2363   104.7657  -999.2500      .8247      .8876      .7750     3.6490    16.4467    63.3553     2.4878
12858.0000  1294.1055   105.8306  -999.2500      .7787      .8487      .7401     3.9316    16.5095    64.7513     2.4963
12858.5000  1325.9531   106.8057  -999.2500      .7473      .8116      .7213     4.1350    16.5721    66.1842     2.4860
12859.0000  1342.3652   107.1929  -999.2500      .7223      .8013      .7079     4.3196    16.6348    66.4521     2.4753
