~VERSION INFORMATION
VERS.                             2.0:   CWLS Log ASCII Standard-VERSION 2.0
WRAP.                              NO:   One line per depth step
~Well Information Block
STRT.F                      1319.0000:   Top Depth
STOP.F                      7911.0000:   Bottom Depth
STEP.F                         .50000:   Depth Increment
NULL.                        -999.250:   Null Value
FLD .                    MU BLK A 167:   Field Name
WELL.       OCSG08096   001 ST00 BP00:   NAME
API .                    427124009800:   WELL API
EDF .F                        84.0000:   ELEV DRILL FLOOR
COMP.         UNION PACIFIC RESOURCES:   OPERATOR
BN  .                           A 167:   BLOCK
CTRY.                             USA:   COUNTRY NAME
CNTY.                        M I E AD:   COUNTY NAME
EKB .F                        85.0000:   ELEV KELLY BUSHING
TDD .F                       7913.000:   FINAL TD DRILLER
STAT.                           TEXAS:   STATE NAME
UWI .                    427124009800:   WELL API
DICO.               IHS : Digitizing Company
~PARAMETER INFORMATION (zones)
#MNEM.UNIT                       Value     Description
#=========                       =====     ===========
#ZONATION                          DIL:   ZONATION NAME
#ZONE                            RUN_2:   ZONE NAME
TOP .                       4520.0000:   TOP DEPTH
BOT .                       7911.0000:   BOTTOM DEPTH
RUN .                               2:   RUN NUMBER
LCCD.                             440:   LOGGING CONTRACTOR
SRVC.                    Schlumberger:   LOGGING CONT NAME
DICO.          QC Data Collectors Ltd:   DIG COMPANY NAME
LDAT.                      05/30/1988:   DATE LOGGED
ELD .F                        85.0000:   LOG DATUM ELEVATION
TDD .F                      7904.0000:   TOTAL DEPTH DRILLER
TDL .F                      7913.0000:   TOTAL DEPTH LOGGER
BOTL.F                      7911.0000:   BOTTOM DEPTH LOGGED
TOPL.F                      4520.0000:   TOP DEPTH LOGGED
CS1 .IN                       13.3750:   CASING SIZE 1
BS1 .IN                       12.2500:   BIT SIZE 1
DDB1.F                      7904.0000:   DEPTH DRILLED BIT 1
BHF .                              80:   FLUID CODE
DPT .                      Salt Water:   DRILLING FLUID TYPE
MUDD.                         13.3000:   FLUID DENSITY
MUDV.                         44.0000:   FLUID VISCOSITY
DFPH.                          9.6000:   FLUID PH
FL  .                         11.9000:   FLUID LOSS
RM  .OHMM                       .2330:   RM
RMT .DEGF                     75.0000:   RM TEMP
RMF .OHMM                       .1510:   RMF
RMFT.DEGF                     75.0000:   RMF TEMP
FSC .                               M:   RMF CODE
RMC .OHMM                       .4890:   RMC
RMCT.DEGF                     75.0000:   RMC TEMP
CMC .                               M:   RMC CODE
TMAX.DEGF                    182.0000:   MAX REC TEMP
TIMC.                         10.7500:   TIME SINCE CIRCLN
~PARAMETER INFORMATION (zones)
#MNEM.UNIT                       Value     Description
#=========                       =====     ===========
#ZONATION                          DIL:   ZONATION NAME
#ZONE                            RUN_1:   ZONE NAME
TOP .                       1319.0000:   TOP DEPTH
BOT .                       7911.5000:   BOTTOM DEPTH
RUN .                               1:   RUN NUMBER
LCCD.                             440:   LOGGING CONTRACTOR
SRVC.                    Schlumberger:   LOGGING CONT NAME
DICO.          QC Data Collectors Ltd:   DIG COMPANY NAME
LDAT.                      05/21/1988:   DATE LOGGED
ELD .F                        85.0000:   LOG DATUM ELEVATION
TDD .F                      4550.0000:   TOTAL DEPTH DRILLER
TDL .F                      4551.0000:   TOTAL DEPTH LOGGER
BOTL.F                      4549.0000:   BOTTOM DEPTH LOGGED
TOPL.F                      1394.0000:   TOP DEPTH LOGGED
CS1 .IN                       20.0000:   CASING SIZE 1
BS1 .IN                       17.5000:   BIT SIZE 1
DDB1.F                      4550.0000:   DEPTH DRILLED BIT 1
BHF .                              80:   FLUID CODE
DPT .                      Salt Water:   DRILLING FLUID TYPE
MUDD.                         10.0000:   FLUID DENSITY
MUDV.                         38.0000:   FLUID VISCOSITY
DFPH.                          8.4000:   FLUID PH
FL  .                            NULL:   FLUID LOSS
RM  .OHMM                       .3040:   RM
RMT .DEGF                     82.0000:   RM TEMP
RMF .OHMM                       .2310:   RMF
RMFT.DEGF                     82.0000:   RMF TEMP
FSC .                               M:   RMF CODE
RMC .OHMM                       .4210:   RMC
RMCT.DEGF                     82.0000:   RMC TEMP
CMC .                               M:   RMC CODE
TMAX.DEGF                    130.0000:   MAX REC TEMP
TIMC.                          5.0000:   TIME SINCE CIRCLN
~Curve Information Block
#MNEM.UNIT                    API CODE    No Description
#=========                    ========    == ===========
DEPT.F                   00 001 00 00:     1  DEPTH
DCAL.IN                              :     2  Differential Caliper
DT.US/F                              :     3  Sonic Transit Time
GR.GAPI                              :     4  Gamma Ray
ILD.OHMM                             :     5  Deep Induction Resistivity
ILM.OHMM                             :     6  Medium Induction Resistivity
SFL.OHMM                             :     7  Medium Resistivity
SP.MV                                :     8  Spontaneous Potential
~ASCII
# ...
 6597.0000     1.2010   108.9727    63.9506      .5331      .5391      .6130   -59.6519
 6597.5000     1.1634   108.4954    63.3238      .5333      .5382      .6126   -59.6226
 6598.0000     1.1220   106.4187    62.7193      .5335      .5372      .6138   -59.7209
 6598.5000     1.1003   103.7983    61.6834      .5337      .5366      .6193   -60.2260
 6599.0000     1.1057   103.8698    59.5350      .5339      .5368      .6248   -60.7155
 6599.5000     1.1184   104.7026    58.3173      .5340      .5370      .6251   -61.0651
 6600.0000     1.1445   105.4010    57.5868      .5346      .5381      .6248   -61.1917
 6600.5000     1.1729   105.4406    57.0596      .5353      .5395      .6185   -60.8613
 6601.0000     1.2055   105.4034    56.6572      .5359      .5411      .6112   -60.4460
 6601.5000     1.2415   105.1796    56.2554      .5366      .5436      .6114   -59.9354
 6602.0000     1.2866   104.9507    55.8148      .5372      .5460      .6163   -60.1085
 6602.5000     1.3066   104.6917    56.1973      .5369      .5503      .6214   -60.3197
 6603.0000     1.2625   104.4330    58.4051      .5364      .5543      .6267   -60.4919
 6603.5000     1.0521   104.3008    60.6426      .5358      .5567      .6267   -60.5035
 6604.0000     1.0021   104.2161    62.6823      .5346      .5563      .6227   -60.4496
 6604.5000     1.0456   104.2087    62.5154      .5334      .5550      .6207   -60.4529
 6605.0000     1.0956   104.2570    60.7464      .5324      .5542      .6195   -60.4988
 6605.5000     1.1555   104.4728    59.4039      .5316      .5535      .6196   -60.5356
 6606.0000     1.2089   104.8451    59.6512      .5308      .5542      .6218   -59.9793
 6606.5000     1.2514   105.2344    62.5388      .5318      .5555      .6240   -59.7006
 6607.0000     1.2124   105.4930    65.0767      .5333      .5598      .6290   -59.7914
 6607.5000     1.1554   105.0446    65.3876      .5354      .5655      .6341   -59.7636
 6608.0000     1.1202   104.7634    65.2744      .5380      .5721      .6380   -59.2988
 6608.5000     1.1168   104.8385    65.6168      .5396      .5793      .6409   -58.8501
 6609.0000     1.1585   105.5293    66.0720      .5393      .5844      .6438   -58.4144
 6609.5000     1.1700   106.3309    65.2090      .5388      .5842      .6417   -58.5731
 6610.0000     1.1607   107.1326    62.6031      .5380      .5841      .6382   -58.5647
 6610.5000     1.1503   107.8484    60.3793      .5372      .5798      .6348   -58.4304
 6611.0000     1.2001   108.4753    60.2322      .5363      .5741      .6301   -58.0688
 6611.5000     1.2570   109.0859    61.3942      .5354      .5678      .6248   -57.7734
 6612.0000     1.2996   109.6721    62.5673      .5339      .5612      .6195   -57.5941
 6612.5000     1.2766   110.2596    63.2626      .5292      .5574      .6155   -57.2363
 6613.0000     1.1606   111.0405    63.7725      .5246      .5550      .6116   -56.6571
 6613.5000     1.0406   112.0308    64.4030      .5186      .5527      .6079   -56.2786
 6614.0000      .9361   112.7966    63.4091      .5122      .5504      .6045   -56.1673
 6614.5000      .9749   113.1573    61.0208      .5069      .5455      .6011   -56.3085
 6615.0000     1.0213   113.4210    60.4037      .5053      .5401      .5978   -56.3138
 6615.5000      .9979   113.3885    61.9479      .5037      .5380      .5944   -56.3024
 6616.0000      .8788   113.2369    63.7454      .5075      .5378      .5903   -56.0295
 6616.5000      .7778   112.8634    65.0803      .5140      .5431      .5873   -55.7130
 6617.0000      .7600   112.0376    65.6394      .5203      .5467      .5864   -55.8010
 6617.5000      .7454   111.0957    64.9629      .5265      .5491      .5938   -56.0774
 6618.0000      .7358   110.0674    63.8739      .5260      .5489      .6080   -56.9587
 6618.5000      .7343   108.7684    62.8021      .5257      .5478      .6235   -56.7477
 6619.0000      .7740   109.8231    61.7922      .5270      .5450      .6232   -56.5669
 6619.5000      .8375   111.2998    60.1951      .5283      .5409      .6195   -56.5161
 6620.0000      .9285   112.2217    58.7178      .5282      .5369      .6056   -56.5698
 6620.5000      .9444   112.4806    58.5998      .5263      .5330      .6112   -56.4414
 6621.0000      .8881   112.4886    59.5894      .5233      .5278      .6141   -56.1719
 6621.5000      .7850   112.4540    61.5944      .5139      .5217      .6171   -55.9511
 6622.0000      .7591   112.3551    64.6230      .5092      .5226      .6201   -55.8887
 6622.5000      .7332   112.0990    67.0953      .5094      .5247      .6232   -55.8976
 6623.0000      .7072   111.7689    69.5293      .5119      .5278      .6251   -55.9293
 6623.5000      .7055   111.4698    69.4268      .5170      .5284      .6267   -55.9415
 6624.0000      .7279   111.2856    65.5502      .5218      .5277      .6278   -55.9464
 6624.5000      .8040   111.3031    60.8799      .5236      .5283      .6257   -55.9147
 6625.0000      .8700   111.8065    63.9233      .5254      .5295      .6212   -55.8693
 6625.5000      .9293   112.5787    67.9434      .5264      .5301      .6190   -55.7631
 6626.0000      .8959   113.3031    70.3464      .5270      .5304      .6171   -55.6577
 6626.5000      .8436   113.3102    70.3612      .5276      .5306      .6203   -55.6121
 6627.0000      .8561   112.4685    66.1533      .5274      .5309      .6245   -55.7558
 6627.5000      .8909   111.7871    62.4523      .5270      .5312      .6252   -56.3024
 6628.0000      .9436   111.6199    60.4028      .5263      .5288      .6249   -56.5201
 6628.5000      .9283   112.3765    59.0677      .5234      .5262      .6173   -56.4225
 6629.0000      .8951   112.8737    58.2364      .5205      .5223      .6091   -56.1336
 6629.5000      .8571   113.2349    58.5485      .5165      .5176      .6049   -56.0603
 6630.0000      .8418   113.1406    60.1630      .5101      .5145      .6013   -56.0488
 6630.5000      .8275   113.1855    62.2521      .5043      .5135      .6049   -56.1976
 6631.0000      .8090   113.5278    63.9204      .5006      .5128      .6085   -56.3801
 6631.5000      .7623   113.4785    63.0086      .4968      .5131      .6101   -56.5468
 6632.0000      .6799   112.8042    61.7539      .4949      .5135      .6105   -56.4526
 6632.5000      .5843   112.0503    61.6080      .4939      .5141      .6078   -56.0199
 6633.0000      .4884   111.8995    63.3052      .4930      .5148      .6047   -55.6497
 6633.5000      .3924   112.0344    65.7058      .4913      .5150      .5970   -55.3128
 6634.0000      .2342   113.0847    67.4117      .4892      .5150      .5894   -55.3219
 6634.5000      .0533   117.3334    67.4835      .4871      .5099      .5824   -55.4375
 6635.0000      .0236   120.4849    66.6862      .4841      .5046      .5754   -55.4492
 6635.5000      .1508   118.3605    65.7949      .4809      .4991      .5725   -55.5005
 6636.0000      .3588   116.9263    65.6348      .4797      .5002      .5698   -55.5836
 6636.5000      .5326   116.5193    66.0829      .4788      .5024      .5691   -55.7422
 6637.0000      .6052   117.0635    66.9272      .4796      .5070      .5690   -55.9494
 6637.5000      .6417   117.7743    67.8914      .4834      .5118      .5709   -56.4216
 6638.0000      .6650   117.2745    68.6918      .4876      .5186      .5759   -56.8004
 6638.5000      .6556   115.9130    68.9644      .4955      .5251      .5826   -56.9872
 6639.0000      .6211   114.1418    67.8580      .5034      .5308      .5922   -56.7180
 6639.5000      .5000   112.8411    66.8916      .5097      .5386      .5990   -56.4683
 6640.0000      .4025   115.0787    66.5245      .5161      .5477      .6039   -56.3411
 6640.5000      .3204   123.5460    64.8777      .5180      .5540      .6042   -56.3112
 6641.0000      .3471   134.3279    62.6699      .5196      .5568      .6045   -56.3482
 6641.5000      .3754   143.6318    60.8021      .5205      .5562      .6014   -56.4036
 6642.0000      .4057   146.4778    59.7717      .5212      .5544      .5962   -56.4136
