~VERSION INFORMATION
VERS.                             2.0:   CWLS Log ASCII Standard-VERSION 2.0
WRAP.                              NO:   One line per depth step
~Well Information Block
STRT.F                      1302.0000:   Top Depth
STOP.F                     14644.0000:   Bottom Depth
STEP.F                         .50000:   Depth Increment
NULL.                        -999.250:   Null Value
FLD .                    MU BLK A 152:   Field Name
WELL.       OCSG04991   001 ST00 BP00:   NAME
API .                    427124006100:   WELL API
EDF .F                        94.0000:   ELEV DRILL FLOOR
COMP.            TRANSCO EXPL PROD CO:   OPERATOR
BN  .                           A 152:   BLOCK
CTRY.                             USA:   COUNTRY NAME
CNTY.                        M I E AD:   COUNTY NAME
EKB .F                        95.0000:   ELEV KELLY BUSHING
TDD .F                      14647.000:   FINAL TD DRILLER
STAT.                           TEXAS:   STATE NAME
UWI .                    427124006100:   WELL API
DICO.               IHS : Digitizing Company
~PARAMETER INFORMATION (zones)
#MNEM.UNIT                       Value     Description
#=========                       =====     ===========
#ZONATION                          DIL:   ZONATION NAME
#ZONE                            RUN_1:   ZONE NAME
TOP .                       1302.0000:   TOP DEPTH
BOT .                      14644.5000:   BOTTOM DEPTH
RUN .                               1:   RUN NUMBER
LCCD.                             440:   LOGGING CONTRACTOR
SRVC.                    Schlumberger:   LOGGING CONT NAME
DICO.          QC Data Collectors Ltd:   DIG COMPANY NAME
LDAT.                      11/20/1982:   DATE LOGGED
ELD .F                        95.0000:   LOG DATUM ELEVATION
TDD .F                      4095.0000:   TOTAL DEPTH DRILLER
TDL .F                      4095.0000:   TOTAL DEPTH LOGGER
BOTL.F                      4092.0000:   BOTTOM DEPTH LOGGED
TOPL.F                      1334.0000:   TOP DEPTH LOGGED
CS1 .IN                       20.0000:   CASING SIZE 1
BS1 .IN                       12.2500:   BIT SIZE 1
DDB1.F                      4095.0000:   DEPTH DRILLED BIT 1
BHF .                              99:   FLUID CODE
DPT .                   Miscellaneous:   DRILLING FLUID TYPE
MUDD.                          9.4000:   FLUID DENSITY
MUDV.                         43.0000:   FLUID VISCOSITY
DFPH.                         11.2000:   FLUID PH
RM  .OHMM                       .2800:   RM
RMT .DEGF                     70.0000:   RM TEMP
RMF .OHMM                       .2300:   RMF
RMFT.DEGF                     70.0000:   RMF TEMP
FSC .                               M:   RMF CODE
RMC .OHMM                       .4000:   RMC
RMCT.DEGF                     70.0000:   RMC TEMP
CMC .                               M:   RMC CODE
TMAX.DEGF                    178.0000:   MAX REC TEMP
TIMC.                          8.0000:   TIME SINCE CIRCLN
~PARAMETER INFORMATION (zones)
#MNEM.UNIT                       Value     Description
#=========                       =====     ===========
#ZONATION                          FDC:   ZONATION NAME
#ZONE                            RUN_3:   ZONE NAME
TOP .                       8480.0000:   TOP DEPTH
BOT .                      13304.0000:   BOTTOM DEPTH
RUN .                               3:   RUN NUMBER
LCCD.                             440:   LOGGING CONTRACTOR
SRVC.                    Schlumberger:   LOGGING CONT NAME
DICO.          QC Data Collectors Ltd:   DIG COMPANY NAME
LDAT.                      01/30/1983:   DATE LOGGED
ELD .F                        95.0000:   LOG DATUM ELEVATION
TDD .F                     13308.0000:   TOTAL DEPTH DRILLER
TDL .F                     13305.0000:   TOTAL DEPTH LOGGER
BOTL.F                     13304.0000:   BOTTOM DEPTH LOGGED
TOPL.F                      8480.0000:   TOP DEPTH LOGGED
CS1 .IN                       11.7500:   CASING SIZE 1
BS1 .IN                        9.8750:   BIT SIZE 1
DDB1.F                     13308.0000:   DEPTH DRILLED BIT 1
BHF .                              99:   FLUID CODE
DPT .                   Miscellaneous:   DRILLING FLUID TYPE
MUDD.                         15.6000:   FLUID DENSITY
MUDV.                         55.0000:   FLUID VISCOSITY
DFPH.                         10.7000:   FLUID PH
FL  .                          3.6000:   FLUID LOSS
RM  .OHMM                       .8600:   RM
RMT .DEGF                     70.0000:   RM TEMP
RMF .OHMM                       .4200:   RMF
RMFT.DEGF                     70.0000:   RMF TEMP
FSC .                               M:   RMF CODE
RMC .OHMM                      1.6700:   RMC
RMCT.DEGF                     70.0000:   RMC TEMP
CMC .                               M:   RMC CODE
TMAX.DEGF                    260.0000:   MAX REC TEMP
TIMC.                          8.5000:   TIME SINCE CIRCLN
~PARAMETER INFORMATION (zones)
#MNEM.UNIT                       Value     Description
#=========                       =====     ===========
#ZONATION                          FDC:   ZONATION NAME
#ZONE                            RUN_4:   ZONE NAME
TOP .                      12060.0000:   TOP DEPTH
BOT .                      14644.0000:   BOTTOM DEPTH
RUN .                               4:   RUN NUMBER
LCCD.                             440:   LOGGING CONTRACTOR
SRVC.                    Schlumberger:   LOGGING CONT NAME
DICO.          QC Data Collectors Ltd:   DIG COMPANY NAME
LDAT.                      02/16/1983:   DATE LOGGED
ELD .F                        95.0000:   LOG DATUM ELEVATION
TDD .F                     14641.0000:   TOTAL DEPTH DRILLER
TDL .F                     14647.0000:   TOTAL DEPTH LOGGER
BOTL.F                     14644.0000:   BOTTOM DEPTH LOGGED
TOPL.F                     12060.0000:   TOP DEPTH LOGGED
CS1 .IN                       11.7500:   CASING SIZE 1
BS1 .IN                        9.8750:   BIT SIZE 1
DDB1.F                     14641.0000:   DEPTH DRILLED BIT 1
BHF .                              99:   FLUID CODE
DPT .                   Miscellaneous:   DRILLING FLUID TYPE
MUDD.                         15.6000:   FLUID DENSITY
MUDV.                         55.0000:   FLUID VISCOSITY
DFPH.                         11.5000:   FLUID PH
FL  .                          3.2000:   FLUID LOSS
RM  .OHMM                       .6900:   RM
RMT .DEGF                     75.0000:   RM TEMP
RMF .OHMM                       .4400:   RMF
RMFT.DEGF                     75.0000:   RMF TEMP
FSC .                               M:   RMF CODE
RMC .OHMM                       .9400:   RMC
RMCT.DEGF                     75.0000:   RMC TEMP
CMC .                               M:   RMC CODE
TMAX.DEGF                    284.0000:   MAX REC TEMP
TIMC.                         13.0000:   TIME SINCE CIRCLN
~PARAMETER INFORMATION (zones)
#MNEM.UNIT                       Value     Description
#=========                       =====     ===========
#ZONATION                          FDC:   ZONATION NAME
#ZONE                            RUN_2:   ZONE NAME
TOP .                       3894.0000:   TOP DEPTH
BOT .                      14644.5000:   BOTTOM DEPTH
RUN .                               2:   RUN NUMBER
LCCD.                             440:   LOGGING CONTRACTOR
SRVC.                    Schlumberger:   LOGGING CONT NAME
DICO.          QC Data Collectors Ltd:   DIG COMPANY NAME
LDAT.                      12/10/1982:   DATE LOGGED
ELD .F                        95.0000:   LOG DATUM ELEVATION
TDD .F                      8594.0000:   TOTAL DEPTH DRILLER
TDL .F                      8592.0000:   TOTAL DEPTH LOGGER
BOTL.F                      8594.0000:   BOTTOM DEPTH LOGGED
TOPL.F                      4037.0000:   TOP DEPTH LOGGED
CS1 .IN                       16.0000:   CASING SIZE 1
BS1 .IN                       14.7500:   BIT SIZE 1
DDB1.F                      8594.0000:   DEPTH DRILLED BIT 1
BHF .                              99:   FLUID CODE
DPT .                   Miscellaneous:   DRILLING FLUID TYPE
MUDD.                         13.1000:   FLUID DENSITY
MUDV.                         45.0000:   FLUID VISCOSITY
DFPH.                         11.5000:   FLUID PH
FL  .                          3.0000:   FLUID LOSS
RM  .OHMM                       .7500:   RM
RMT .DEGF                     75.0000:   RM TEMP
RMF .OHMM                       .5500:   RMF
RMFT.DEGF                     75.0000:   RMF TEMP
FSC .                               M:   RMF CODE
RMC .OHMM                       .8000:   RMC
RMCT.DEGF                     75.0000:   RMC TEMP
CMC .                               M:   RMC CODE
TMAX.DEGF                    195.0000:   MAX REC TEMP
TIMC.                          7.0000:   TIME SINCE CIRCLN
~Curve Information Block
#MNEM.UNIT                    API CODE    No Description
#=========                    ========    == ===========
DEPT.F                   00 001 00 00:     1  DEPTH
CILD.MMHO                            :     2  Deep Induction Conductivity
DT.US/F                              :     3  Sonic Transit Time
GR.GAPI                              :     4  Gamma Ray
ILD.OHMM                             :     5  Deep Induction Resistivity
ILM.OHMM                             :     6  Medium Induction Resistivity
SFL.OHMM                             :     7  Medium Resistivity
SP.MV                                :     8  Spontaneous Potential
CALI.IN                              :     9  Caliper
GR.GAPI                              :    10  Gamma Ray
RHOB.G/C3                            :    11  Bulk Density
~ASCII
# ...
10179.5000  2459.1250   138.9307  -999.2500      .4177      .4368      .5415     -.7345    15.3602    69.1110     2.2919
10180.0000  2476.7500   138.4297  -999.2500      .4178      .4328      .5403     -.7073    15.3046    71.1663     2.2987
10180.5000  2476.9336   136.7344  -999.2500      .4125      .4287      .5379     -.8202    15.2494    74.1509     2.2953
10181.0000  2471.1563   134.1602  -999.2500      .4080      .4263      .5323    -1.1595    15.2228    77.2732     2.2919
10181.5000  2464.2695   132.3101  -999.2500      .4076      .4244      .5355    -1.2286    15.2325    79.3087     2.2966
10182.0000  2454.0547   130.9316  -999.2500      .4066      .4250      .5468     -.9826    15.2325    79.8472     2.3015
10182.5000  2445.1484   130.2966  -999.2500      .4055      .4287      .5662     -.7860    15.2207    77.9197     2.3114
10183.0000  2438.4414   130.4783  -999.2500      .4039      .4321      .5757     -.7527    15.1547    75.9923     2.3222
10183.5000  2446.9883   131.4009  -999.2500      .4013      .4347      .5567     -.5516    15.1034    74.5811     2.3304
10184.0000  2460.6875   132.4319  -999.2500      .3987      .4344      .5218     -.4010    15.0715    74.1023     2.3352
10184.5000  2487.1602   133.8408  -999.2500      .3965      .4310      .5020     -.3986    15.0397    74.6376     2.3224
10185.0000  2514.4609   134.8525  -999.2500      .3946      .4277      .4994    -1.8847    15.0031    74.6548     2.3129
10185.5000  2524.1992   135.3984  -999.2500      .3926      .4245      .5059    -3.1145    14.9423    73.3174     2.3054
10186.0000  2539.8594   135.7307  -999.2500      .3903      .4220      .5210    -3.6664    14.8934    72.0496     2.3049
10186.5000  2558.7539   135.4978  -999.2500      .3880      .4196      .5430    -3.4329    14.8681    72.4373     2.3094
10187.0000  2572.8164   135.7751  -999.2500      .3858      .4188      .5329    -2.7050    14.8802    73.3223     2.3125
10187.5000  2581.8438   136.3564  -999.2500      .3841      .4189      .5181    -2.2294    14.9401    71.6825     2.3105
10188.0000  2584.4023   136.7935  -999.2500      .3824      .4192      .5125    -1.9341    14.9698    71.2554     2.2944
10188.5000  2577.3984   136.5735  -999.2500      .3818      .4212      .5453    -1.7632    14.9979    70.8281     2.2792
10189.0000  2566.1875   134.9988  -999.2500      .3825      .4231      .5776    -1.5433    15.0052    71.3002     2.2689
10189.5000  2545.2734   133.3289  -999.2500      .3851      .4259      .5881    -1.3479    15.0044    72.0280     2.2623
10190.0000  2509.8789   132.3723  -999.2500      .3905      .4291      .5937    -1.2071    15.0035    73.0027     2.2727
10190.5000  2480.5781   131.9089  -999.2500      .3950      .4330      .5938    -1.1707    15.0240    72.7949     2.2832
10191.0000  2460.6133   131.6982  -999.2500      .3993      .4372      .5866    -1.5188    15.0544    71.2744     2.2917
10191.5000  2465.9258   131.4160  -999.2500      .4012      .4409      .5567    -2.0289    15.0848    68.4569     2.2998
10192.0000  2473.8359   130.9631  -999.2500      .4025      .4438      .5244    -1.6423    15.1248    66.7679     2.3022
10192.5000  2482.8828   131.2180  -999.2500      .4012      .4430      .5125    -1.0620    15.1698    65.8977     2.3035
10193.0000  2487.9141   132.1541  -999.2500      .3999      .4380      .5177     -.5096    15.2154    67.1614     2.3048
10193.5000  2492.9375   132.9419  -999.2500      .3990      .4358      .5360     -.5609    15.2666    68.5405     2.3066
10194.0000  2506.6602   133.2900  -999.2500      .3987      .4356      .5613    -1.0171    15.3178    70.0796     2.3089
10194.5000  2514.5078   133.5146  -999.2500      .3984      .4355      .5914    -1.4043    15.3578    71.5498     2.3119
10195.0000  2517.1289   133.2998  -999.2500      .3973      .4402      .6310    -1.6608    15.3863    70.2664     2.3169
10195.5000  2467.4141   132.0103  -999.2500      .4007      .4450      .6661    -1.8556    15.4148    66.8884     2.3272
10196.0000  2398.5742   129.6555  -999.2500      .4052      .4515      .6985    -2.0101    15.4566    62.2517     2.3383
10196.5000  2322.9102   127.5006  -999.2500      .4219      .4587      .7250    -2.1305    15.5095    59.3679     2.3471
10197.0000  2241.7891   126.6759  -999.2500      .4389      .4678      .6999    -2.0499    15.5813    60.1522     2.3491
10197.5000  2173.9258   127.1387  -999.2500      .4550      .4791      .6749    -1.7859    15.6946    61.4404     2.3499
10198.0000  2120.5898   127.8114  -999.2500      .4663      .4876      .6508    -1.3297    15.7552    62.6697     2.3485
10198.5000  2081.5391   128.1741  -999.2500      .4768      .4940      .6300     -.5822    15.7504    57.4478     2.3465
10199.0000  2057.7734   128.4573  -999.2500      .4860      .4978      .6111     -.5367    15.7759    55.3090     2.3496
10199.5000  2045.1699   128.1016  -999.2500      .4890      .5006      .5950    -1.2885    15.8188    58.0870     2.3588
10200.0000  2053.7969   127.8246  -999.2500      .4895      .5032      .5830    -2.4639    15.8617    60.6144     2.3666
10200.5000  2060.7031   127.6957  -999.2500      .4895      .5057      .5889    -2.9849    15.9011    62.9647     2.3542
10201.0000  2063.6758   127.5665  -999.2500      .4892      .5065      .5969    -2.8582    15.9037    64.1545     2.3375
10201.5000  2070.4219   126.7303  -999.2500      .4886      .5059      .6105    -2.0046    15.8501    61.1208     2.3239
10202.0000  2086.1680   124.6730  -999.2500      .4865      .5053      .6003    -1.0656    15.8237    58.0920     2.3181
10202.5000  2108.9375   123.8960  -999.2500      .4844      .5068      .5597     -.7336    15.8265    57.9170     2.3233
10203.0000  2133.3125   124.6389  -999.2500      .4783      .5087      .5373    -1.3213    15.8724    59.7097     2.3293
10203.5000  2155.0586   127.1106  -999.2500      .4704      .5087      .5215    -1.7526    15.8897    61.9371     2.3355
10204.0000  2174.2188   129.3630  -999.2500      .4581      .5004      .5221    -2.0392    15.8687    63.8301     2.3442
10204.5000  2200.4961   130.5061  -999.2500      .4461      .4901      .5285    -1.5412    15.7853    65.4502     2.3555
10205.0000  2234.2813   130.9871  -999.2500      .4379      .4816      .5366     -.7821    15.6248    66.2321     2.3459
10205.5000  2281.6680   131.9639  -999.2500      .4307      .4738      .5449     -.1069    15.5094    65.6948     2.3256
10206.0000  2308.4336   133.6338  -999.2500      .4236      .4678      .5646    -1.4703    15.4388    64.9708     2.3154
10206.5000  2313.9922   135.4478  -999.2500      .4238      .4673      .6025    -2.7922    15.5055    64.2037     2.3083
10207.0000  2283.5195   134.6575  -999.2500      .4325      .4731      .6646    -2.9812    15.6253    64.5308     2.3029
10207.5000  2240.9102   133.4509  -999.2500      .4435      .4822      .7229    -2.0155    15.7254    65.5634     2.2994
10208.0000  2198.3008   131.2058  -999.2500      .4565      .4900      .7652     -.7462    15.7299    65.1073     2.3004
10208.5000  2148.3789   127.8712  -999.2500      .4695      .4978      .7834     -.9360    15.7654    64.6276     2.3123
10209.0000  2086.5586   125.2288  -999.2500      .4806      .5075      .7981    -1.2249    15.8026    64.4020     2.3243
10209.5000  2022.9883   123.4883  -999.2500      .4919      .5179      .8001    -1.2211    15.8505    64.1079     2.3369
10210.0000  1959.8047   122.4633  -999.2500      .5018      .5316      .8012    -1.2000    15.8639    61.8977     2.3492
10210.5000  1921.3867   122.0699  -999.2500      .5118      .5452      .7040     -.8530    15.8178    58.6672     2.3586
10211.0000  1889.8926   122.5632  -999.2500      .5206      .5590      .6506     -.0212    15.7856    57.1110     2.3676
10211.5000  1863.7617   123.1970  -999.2500      .5277      .5694      .6245     1.3965    15.7589    57.3901     2.3745
10212.0000  1846.9414   123.8490  -999.2500      .5306      .5778      .6174     1.8580    15.7320    57.9500     2.3744
10212.5000  1838.0781   123.6870  -999.2500      .5302      .5786      .6095     -.4380    15.7046    57.5511     2.3655
