~VERSION INFORMATION
VERS.                             2.0:   CWLS Log ASCII Standard-VERSION 2.0
WRAP.                              NO:   One line per depth step
~Well Information Block
STRT.F                      1319.0000:   Top Depth
STOP.F                      7911.0000:   Bottom Depth
STEP.F                         .50000:   Depth Increment
NULL.                        -999.250:   Null Value
FLD .                    MU BLK A 167:   Field Name
WELL.       OCSG08096   001 ST00 BP00:   NAME
API .                    427124009800:   WELL API
EDF .F                        84.0000:   ELEV DRILL FLOOR
COMP.         UNION PACIFIC RESOURCES:   OPERATOR
BN  .                           A 167:   BLOCK
CTRY.                             USA:   COUNTRY NAME
CNTY.                        M I E AD:   COUNTY NAME
EKB .F                        85.0000:   ELEV KELLY BUSHING
TDD .F                       7913.000:   FINAL TD DRILLER
STAT.                           TEXAS:   STATE NAME
UWI .                    427124009800:   WELL API
DICO.               IHS : Digitizing Company
~PARAMETER INFORMATION (zones)
#MNEM.UNIT                       Value     Description
#=========                       =====     ===========
#ZONATION                          DIL:   ZONATION NAME
#ZONE                            RUN_2:   ZONE NAME
TOP .                       4520.0000:   TOP DEPTH
BOT .                       7911.0000:   BOTTOM DEPTH
RUN .                               2:   RUN NUMBER
LCCD.                             440:   LOGGING CONTRACTOR
SRVC.                    Schlumberger:   LOGGING CONT NAME
DICO.          QC Data Collectors Ltd:   DIG COMPANY NAME
LDAT.                      05/30/1988:   DATE LOGGED
ELD .F                        85.0000:   LOG DATUM ELEVATION
TDD .F                      7904.0000:   TOTAL DEPTH DRILLER
TDL .F                      7913.0000:   TOTAL DEPTH LOGGER
BOTL.F                      7911.0000:   BOTTOM DEPTH LOGGED
TOPL.F                      4520.0000:   TOP DEPTH LOGGED
CS1 .IN                       13.3750:   CASING SIZE 1
BS1 .IN                       12.2500:   BIT SIZE 1
DDB1.F                      7904.0000:   DEPTH DRILLED BIT 1
BHF .                              80:   FLUID CODE
DPT .                      Salt Water:   DRILLING FLUID TYPE
MUDD.                         13.3000:   FLUID DENSITY
MUDV.                         44.0000:   FLUID VISCOSITY
DFPH.                          9.6000:   FLUID PH
FL  .                         11.9000:   FLUID LOSS
RM  .OHMM                       .2330:   RM
RMT .DEGF                     75.0000:   RM TEMP
RMF .OHMM                       .1510:   RMF
RMFT.DEGF                     75.0000:   RMF TEMP
FSC .                               M:   RMF CODE
RMC .OHMM                       .4890:   RMC
RMCT.DEGF                     75.0000:   RMC TEMP
CMC .                               M:   RMC CODE
TMAX.DEGF                    182.0000:   MAX REC TEMP
TIMC.                         10.7500:   TIME SINCE CIRCLN
~PARAMETER INFORMATION (zones)
#MNEM.UNIT                       Value     Description
#=========                       =====     ===========
#ZONATION                          DIL:   ZONATION NAME
#ZONE                            RUN_1:   ZONE NAME
TOP .                       1319.0000:   TOP DEPTH
BOT .                       7911.5000:   BOTTOM DEPTH
RUN .                               1:   RUN NUMBER
LCCD.                             440:   LOGGING CONTRACTOR
SRVC.                    Schlumberger:   LOGGING CONT NAME
DICO.          QC Data Collectors Ltd:   DIG COMPANY NAME
LDAT.                      05/21/1988:   DATE LOGGED
ELD .F                        85.0000:   LOG DATUM ELEVATION
TDD .F                      4550.0000:   TOTAL DEPTH DRILLER
TDL .F                      4551.0000:   TOTAL DEPTH LOGGER
BOTL.F                      4549.0000:   BOTTOM DEPTH LOGGED
TOPL.F                      1394.0000:   TOP DEPTH LOGGED
CS1 .IN                       20.0000:   CASING SIZE 1
BS1 .IN                       17.5000:   BIT SIZE 1
DDB1.F                      4550.0000:   DEPTH DRILLED BIT 1
BHF .                              80:   FLUID CODE
DPT .                      Salt Water:   DRILLING FLUID TYPE
MUDD.                         10.0000:   FLUID DENSITY
MUDV.                         38.0000:   FLUID VISCOSITY
DFPH.                          8.4000:   FLUID PH
FL  .                            NULL:   FLUID LOSS
RM  .OHMM                       .3040:   RM
RMT .DEGF                     82.0000:   RM TEMP
RMF .OHMM                       .2310:   RMF
RMFT.DEGF                     82.0000:   RMF TEMP
FSC .                               M:   RMF CODE
RMC .OHMM                       .4210:   RMC
RMCT.DEGF                     82.0000:   RMC TEMP
CMC .                               M:   RMC CODE
TMAX.DEGF                    130.0000:   MAX REC TEMP
TIMC.                          5.0000:   TIME SINCE CIRCLN
~Curve Information Block
#MNEM.UNIT                    API CODE    No Description
#=========                    ========    == ===========
DEPT.F                   00 001 00 00:     1  DEPTH
DCAL.IN                              :     2  Differential Caliper
DT.US/F                              :     3  Sonic Transit Time
GR.GAPI                              :     4  Gamma Ray
ILD.OHMM                             :     5  Deep Induction Resistivity
ILM.OHMM                             :     6  Medium Induction Resistivity
SFL.OHMM                             :     7  Medium Resistivity
SP.MV                                :     8  Spontaneous Potential
~ASCII
# ...
 5277.5000     1.0532   134.3958    66.1874      .6244      .6037      .6406   -54.0503
 5278.0000     1.0556   133.5056    65.2715      .6340      .6113      .6384   -54.0768
 5278.5000     1.0204   131.6785    64.5957      .6490      .6258      .6525   -54.1653
 5279.0000      .9560   128.8276    64.1619      .6658      .6447      .6726   -54.2595
 5279.5000      .9428   125.4489    64.2223      .6870      .6685      .7017   -54.3770
 5280.0000      .9482   122.3602    64.5659      .7070      .6946      .7451   -53.7438
 5280.5000      .9595   120.8035    65.0688      .7249      .7184      .7730   -53.8276
 5281.0000      .9682   120.9198    65.3813      .7375      .7283      .7860   -53.7930
 5281.5000      .9746   121.7607    65.6204      .7475      .7401      .7917   -53.8183
 5282.0000      .9788   122.1844    65.7097      .7513      .7508      .7922   -53.9544
 5282.5000      .9812   121.7527    65.4213      .7550      .7580      .7913   -53.7924
 5283.0000      .9737   121.1672    64.9426      .7544      .7588      .7888   -53.5509
 5283.5000      .9613   120.8882    64.2874      .7530      .7562      .7783   -53.7289
 5284.0000      .9197   121.6219    63.6600      .7441      .7503      .7659   -54.7721
 5284.5000      .8966   124.3101    63.2292      .7295      .7381      .7508   -55.1033
 5285.0000      .9038   126.1772    63.3541      .7132      .7249      .7371   -54.7078
 5285.5000      .9076   127.0426    63.8546      .6951      .7108      .7241   -54.1537
 5286.0000      .9100   127.5525    64.2029      .6789      .6969      .7128   -53.7392
 5286.5000      .8746   127.9799    64.1259      .6643      .6832      .7014   -53.5283
 5287.0000      .8063   128.1484    65.0612      .6510      .6713      .6899   -53.5555
 5287.5000      .7184   128.7471    66.4697      .6402      .6592      .6759   -53.6160
 5288.0000      .7367   129.6274    67.1808      .6296      .6446      .6602   -53.7590
 5288.5000      .8315   130.6387    67.3856      .6204      .6314      .6503   -53.9404
 5289.0000      .8860   130.7974    66.5522      .6118      .6199      .6423   -54.0686
 5289.5000      .9099   130.5747    65.4657      .6068      .6123      .6379   -54.0833
 5290.0000      .9075   130.3550    64.4363      .6036      .6064      .6501   -54.0176
 5290.5000      .9127   130.2893    64.1263      .6017      .6023      .6620   -53.9207
 5291.0000      .9246   130.8245    64.6001      .6001      .5990      .6714   -53.8271
 5291.5000      .9243   131.3870    65.4446      .5986      .5964      .6757   -53.7379
 5292.0000      .9221   131.9426    66.4036      .5973      .5936      .6761   -53.5313
 5292.5000      .9206   132.4583    66.8414      .5940      .5886      .6770   -53.4068
 5293.0000      .9216   132.9255    66.0850      .5891      .5837      .6778   -53.3301
 5293.5000      .9408   133.3765    65.8572      .5837      .5787      .6744   -53.4520
 5294.0000      .9684   133.8052    66.4635      .5804      .5737      .6714   -53.8576
 5294.5000     1.0278   134.1121    66.7018      .5786      .5706      .6718   -54.3214
 5295.0000     1.0829   134.2927    65.3826      .5766      .5695      .6721   -54.5513
 5295.5000     1.1357   134.1987    64.0844      .5743      .5693      .6739   -54.2106
 5296.0000     1.1885   133.8862    63.9206      .5722      .5727      .6760   -53.3901
 5296.5000     1.2406   133.3667    64.6863      .5720      .5768      .6788   -52.7534
 5297.0000     1.2533   132.8374    64.1722      .5718      .5816      .6818   -52.6655
 5297.5000     1.2420   132.4182    64.1682      .5752      .5860      .6864   -52.8233
 5298.0000     1.2034   132.3528    64.9718      .5794      .5905      .6913   -52.9911
 5298.5000     1.1411   132.6409    66.3903      .5831      .5950      .6960   -53.0164
 5299.0000     1.0694   133.0310    68.5372      .5868      .5989      .6952   -52.8686
 5299.5000     1.0059   133.0291    69.7051      .5911      .6026      .6931   -52.6249
 5300.0000     1.0208   132.4014    67.6440      .5767      .5861      .7006   -52.1205
 5300.5000     1.1621   132.1777    63.0011      .5795      .5918      .7070   -52.1412
 5301.0000     1.3129   131.7898    60.3710      .5849      .5967      .7120   -52.4239
 5301.5000     1.1923   130.6843    60.2204      .5941      .6060      .7109   -52.9672
 5302.0000     1.0960   128.6365    60.2833      .6084      .6234      .7094   -53.6354
 5302.5000     1.1248   126.5750    59.8046      .6314      .6426      .7057   -54.3010
 5303.0000     1.1573   124.7639    56.0219      .6581      .6627      .7053   -54.8456
 5303.5000     1.1431   123.0551    55.0981      .6859      .6845      .7089   -55.3226
 5304.0000     1.0203   121.3363    57.2650      .7095      .7077      .7219   -55.4103
 5304.5000      .8662   120.1260    60.1058      .7318      .7337      .7404   -55.3901
 5305.0000      .7457   119.5333    62.3740      .7505      .7565      .7693   -55.1611
 5305.5000      .6871   119.3428    63.8854      .7604      .7705      .7956   -54.8882
 5306.0000      .7230   119.1949    64.0503      .7680      .7794      .8181   -54.5997
 5306.5000      .8176   118.7119    62.9255      .7757      .7835      .8293   -54.3047
 5307.0000      .9516   118.1750    62.5637      .7804      .7851      .8333   -54.2125
 5307.5000     1.1574   117.7598    63.7448      .7835      .7856      .8341   -54.2024
 5308.0000     1.1098   117.9543    65.4105      .7852      .7876      .8336   -54.3230
 5308.5000     1.0006   118.4353    65.3920      .7869      .7900      .8340   -54.4304
 5309.0000      .9528   119.1277    64.1110      .7886      .7932      .8351   -54.3724
 5309.5000      .9951   119.2001    64.2281      .7906      .7970      .8372   -54.2617
 5310.0000     1.1166   118.6814    65.4081      .7957      .8018      .8398   -54.2768
 5310.5000     1.2492   118.2910    66.4495      .8017      .8068      .8429   -54.5710
 5311.0000     1.2153   117.8816    64.3768      .8100      .8129      .8459   -54.5881
 5311.5000     1.1215   117.3508    62.3752      .8178      .8190      .8490   -54.4924
 5312.0000     1.0363   116.7240    62.3628      .8247      .8251      .8521   -54.4178
 5312.5000      .9868   116.2975    63.2403      .8305      .8302      .8552   -54.4602
 5313.0000     1.0247   116.4391    64.5492      .8356      .8344      .8585   -54.7953
 5313.5000     1.1281   118.5780    65.6857      .8372      .8371      .8584   -55.2440
 5314.0000     1.1262   120.4171    66.2264      .8367      .8391      .8566   -55.4082
 5314.5000     1.0179   120.7341    64.4240      .8367      .8370      .8494   -55.3201
 5315.0000     1.0204   120.6545    60.9362      .8370      .8339      .8421   -55.1396
 5315.5000     1.1233   120.2771    58.2838      .8347      .8292      .8346   -54.8235
 5316.0000     1.1724   120.1671    56.8200      .8313      .8246      .8286   -54.5340
 5316.5000     1.1436   121.6591    58.4152      .8262      .8205      .8234   -54.4797
 5317.0000     1.1119   123.0563    60.2545      .8199      .8164      .8150   -54.5530
 5317.5000     1.1038   124.3738    61.6191      .8127      .8070      .8039   -54.6873
 5318.0000     1.0941   125.2596    59.8926      .8029      .7966      .7900   -54.7343
 5318.5000     1.0740   125.7046    57.4930      .7894      .7779      .7734   -54.6668
 5319.0000     1.0411   126.0421    58.6581      .7724      .7614      .7566   -54.3159
 5319.5000     1.0037   126.0248    62.6169      .7588      .7498      .7403   -53.8865
 5320.0000      .9660   125.9832    66.4567      .7468      .7408      .7308   -53.7073
 5320.5000      .9364   126.4266    67.4587      .7363      .7354      .7268   -54.1328
 5321.0000      .9166   127.8687    67.6466      .7288      .7320      .7301   -54.6202
 5321.5000      .9254   128.9280    67.1917      .7250      .7306      .7375   -54.9155
 5322.0000      .9751   129.2458    66.1964      .7230      .7276      .7435   -54.8773
 5322.5000     1.0724   127.4424    65.0610      .7234      .7246      .7442   -54.5649
