~VERSION INFORMATION
VERS.                             2.0:   CWLS Log ASCII Standard-VERSION 2.0
WRAP.                              NO:   One line per depth step
~Well Information Block
STRT.F                      1302.0000:   Top Depth
STOP.F                     14644.0000:   Bottom Depth
STEP.F                         .50000:   Depth Increment
NULL.                        -999.250:   Null Value
FLD .                    MU BLK A 152:   Field Name
WELL.       OCSG04991   001 ST00 BP00:   NAME
API .                    427124006100:   WELL API
EDF .F                        94.0000:   ELEV DRILL FLOOR
COMP.            TRANSCO EXPL PROD CO:   OPERATOR
BN  .                           A 152:   BLOCK
CTRY.                             USA:   COUNTRY NAME
CNTY.                        M I E AD:   COUNTY NAME
EKB .F                        95.0000:   ELEV KELLY BUSHING
TDD .F                      14647.000:   FINAL TD DRILLER
STAT.                           TEXAS:   STATE NAME
UWI .                    427124006100:   WELL API
DICO.               IHS : Digitizing Company
~PARAMETER INFORMATION (zones)
#MNEM.UNIT                       Value     Description
#=========                       =====     ===========
#ZONATION                          DIL:   ZONATION NAME
#ZONE                            RUN_1:   ZONE NAME
TOP .                       1302.0000:   TOP DEPTH
BOT .                      14644.5000:   BOTTOM DEPTH
RUN .                               1:   RUN NUMBER
LCCD.                             440:   LOGGING CONTRACTOR
SRVC.                    Schlumberger:   LOGGING CONT NAME
DICO.          QC Data Collectors Ltd:   DIG COMPANY NAME
LDAT.                      11/20/1982:   DATE LOGGED
ELD .F                        95.0000:   LOG DATUM ELEVATION
TDD .F                      4095.0000:   TOTAL DEPTH DRILLER
TDL .F                      4095.0000:   TOTAL DEPTH LOGGER
BOTL.F                      4092.0000:   BOTTOM DEPTH LOGGED
TOPL.F                      1334.0000:   TOP DEPTH LOGGED
CS1 .IN                       20.0000:   CASING SIZE 1
BS1 .IN                       12.2500:   BIT SIZE 1
DDB1.F                      4095.0000:   DEPTH DRILLED BIT 1
BHF .                              99:   FLUID CODE
DPT .                   Miscellaneous:   DRILLING FLUID TYPE
MUDD.                          9.4000:   FLUID DENSITY
MUDV.                         43.0000:   FLUID VISCOSITY
DFPH.                         11.2000:   FLUID PH
RM  .OHMM                       .2800:   RM
RMT .DEGF                     70.0000:   RM TEMP
RMF .OHMM                       .2300:   RMF
RMFT.DEGF                     70.0000:   RMF TEMP
FSC .                               M:   RMF CODE
RMC .OHMM                       .4000:   RMC
RMCT.DEGF                     70.0000:   RMC TEMP
CMC .                               M:   RMC CODE
TMAX.DEGF                    178.0000:   MAX REC TEMP
TIMC.                          8.0000:   TIME SINCE CIRCLN
~PARAMETER INFORMATION (zones)
#MNEM.UNIT                       Value     Description
#=========                       =====     ===========
#ZONATION                          FDC:   ZONATION NAME
#ZONE                            RUN_3:   ZONE NAME
TOP .                       8480.0000:   TOP DEPTH
BOT .                      13304.0000:   BOTTOM DEPTH
RUN .                               3:   RUN NUMBER
LCCD.                             440:   LOGGING CONTRACTOR
SRVC.                    Schlumberger:   LOGGING CONT NAME
DICO.          QC Data Collectors Ltd:   DIG COMPANY NAME
LDAT.                      01/30/1983:   DATE LOGGED
ELD .F                        95.0000:   LOG DATUM ELEVATION
TDD .F                     13308.0000:   TOTAL DEPTH DRILLER
TDL .F                     13305.0000:   TOTAL DEPTH LOGGER
BOTL.F                     13304.0000:   BOTTOM DEPTH LOGGED
TOPL.F                      8480.0000:   TOP DEPTH LOGGED
CS1 .IN                       11.7500:   CASING SIZE 1
BS1 .IN                        9.8750:   BIT SIZE 1
DDB1.F                     13308.0000:   DEPTH DRILLED BIT 1
BHF .                              99:   FLUID CODE
DPT .                   Miscellaneous:   DRILLING FLUID TYPE
MUDD.                         15.6000:   FLUID DENSITY
MUDV.                         55.0000:   FLUID VISCOSITY
DFPH.                         10.7000:   FLUID PH
FL  .                          3.6000:   FLUID LOSS
RM  .OHMM                       .8600:   RM
RMT .DEGF                     70.0000:   RM TEMP
RMF .OHMM                       .4200:   RMF
RMFT.DEGF                     70.0000:   RMF TEMP
FSC .                               M:   RMF CODE
RMC .OHMM                      1.6700:   RMC
RMCT.DEGF                     70.0000:   RMC TEMP
CMC .                               M:   RMC CODE
TMAX.DEGF                    260.0000:   MAX REC TEMP
TIMC.                          8.5000:   TIME SINCE CIRCLN
~PARAMETER INFORMATION (zones)
#MNEM.UNIT                       Value     Description
#=========                       =====     ===========
#ZONATION                          FDC:   ZONATION NAME
#ZONE                            RUN_4:   ZONE NAME
TOP .                      12060.0000:   TOP DEPTH
BOT .                      14644.0000:   BOTTOM DEPTH
RUN .                               4:   RUN NUMBER
LCCD.                             440:   LOGGING CONTRACTOR
SRVC.                    Schlumberger:   LOGGING CONT NAME
DICO.          QC Data Collectors Ltd:   DIG COMPANY NAME
LDAT.                      02/16/1983:   DATE LOGGED
ELD .F                        95.0000:   LOG DATUM ELEVATION
TDD .F                     14641.0000:   TOTAL DEPTH DRILLER
TDL .F                     14647.0000:   TOTAL DEPTH LOGGER
BOTL.F                     14644.0000:   BOTTOM DEPTH LOGGED
TOPL.F                     12060.0000:   TOP DEPTH LOGGED
CS1 .IN                       11.7500:   CASING SIZE 1
BS1 .IN                        9.8750:   BIT SIZE 1
DDB1.F                     14641.0000:   DEPTH DRILLED BIT 1
BHF .                              99:   FLUID CODE
DPT .                   Miscellaneous:   DRILLING FLUID TYPE
MUDD.                         15.6000:   FLUID DENSITY
MUDV.                         55.0000:   FLUID VISCOSITY
DFPH.                         11.5000:   FLUID PH
FL  .                          3.2000:   FLUID LOSS
RM  .OHMM                       .6900:   RM
RMT .DEGF                     75.0000:   RM TEMP
RMF .OHMM                       .4400:   RMF
RMFT.DEGF                     75.0000:   RMF TEMP
FSC .                               M:   RMF CODE
RMC .OHMM                       .9400:   RMC
RMCT.DEGF                     75.0000:   RMC TEMP
CMC .                               M:   RMC CODE
TMAX.DEGF                    284.0000:   MAX REC TEMP
TIMC.                         13.0000:   TIME SINCE CIRCLN
~PARAMETER INFORMATION (zones)
#MNEM.UNIT                       Value     Description
#=========                       =====     ===========
#ZONATION                          FDC:   ZONATION NAME
#ZONE                            RUN_2:   ZONE NAME
TOP .                       3894.0000:   TOP DEPTH
BOT .                      14644.5000:   BOTTOM DEPTH
RUN .                               2:   RUN NUMBER
LCCD.                             440:   LOGGING CONTRACTOR
SRVC.                    Schlumberger:   LOGGING CONT NAME
DICO.          QC Data Collectors Ltd:   DIG COMPANY NAME
LDAT.                      12/10/1982:   DATE LOGGED
ELD .F                        95.0000:   LOG DATUM ELEVATION
TDD .F                      8594.0000:   TOTAL DEPTH DRILLER
TDL .F                      8592.0000:   TOTAL DEPTH LOGGER
BOTL.F                      8594.0000:   BOTTOM DEPTH LOGGED
TOPL.F                      4037.0000:   TOP DEPTH LOGGED
CS1 .IN                       16.0000:   CASING SIZE 1
BS1 .IN                       14.7500:   BIT SIZE 1
DDB1.F                      8594.0000:   DEPTH DRILLED BIT 1
BHF .                              99:   FLUID CODE
DPT .                   Miscellaneous:   DRILLING FLUID TYPE
MUDD.                         13.1000:   FLUID DENSITY
MUDV.                         45.0000:   FLUID VISCOSITY
DFPH.                         11.5000:   FLUID PH
FL  .                          3.0000:   FLUID LOSS
RM  .OHMM                       .7500:   RM
RMT .DEGF                     75.0000:   RM TEMP
RMF .OHMM                       .5500:   RMF
RMFT.DEGF                     75.0000:   RMF TEMP
FSC .                               M:   RMF CODE
RMC .OHMM                       .8000:   RMC
RMCT.DEGF                     75.0000:   RMC TEMP
CMC .                               M:   RMC CODE
TMAX.DEGF                    195.0000:   MAX REC TEMP
TIMC.                          7.0000:   TIME SINCE CIRCLN
~Curve Information Block
#MNEM.UNIT                    API CODE    No Description
#=========                    ========    == ===========
DEPT.F                   00 001 00 00:     1  DEPTH
CILD.MMHO                            :     2  Deep Induction Conductivity
DT.US/F                              :     3  Sonic Transit Time
GR.GAPI                              :     4  Gamma Ray
ILD.OHMM                             :     5  Deep Induction Resistivity
ILM.OHMM                             :     6  Medium Induction Resistivity
SFL.OHMM                             :     7  Medium Resistivity
SP.MV                                :     8  Spontaneous Potential
CALI.IN                              :     9  Caliper
GR.GAPI                              :    10  Gamma Ray
RHOB.G/C3                            :    11  Bulk Density
~ASCII
# ...
 7533.0000  1806.4023   149.6353  -999.2500      .5435      .5421      .5989     5.0042    19.0920    83.5087     2.1575
 7533.5000  1821.4688   149.8926  -999.2500      .5387      .5370      .5994     3.2717    19.4438    84.3425     2.1585
 7534.0000  1843.3672   150.1499  -999.2500      .5335      .5310      .5917     1.3053    19.7741    85.3843     2.1618
 7534.5000  1865.2441   150.4153  -999.2500      .5280      .5250      .5837     1.4908    19.6194    86.4728     2.1571
 7535.0000  1889.7187   150.8311  -999.2500      .5226      .5207      .5778     2.1667    19.3286    87.0331     2.1507
 7535.5000  1919.2227   151.2466  -999.2500      .5173      .5169      .5743     2.8815    19.2514    86.6167     2.1442
 7536.0000  1948.7754   151.6624  -999.2500      .5113      .5131      .5705     3.7179    19.4753    85.9531     2.1491
 7536.5000  1974.8633   152.0737  -999.2500      .5042      .5089      .5658     4.8789    19.7537    85.5116     2.1561
 7537.0000  2000.7813   152.2266  -999.2500      .4971      .5039      .5560     6.0387    19.5240    86.1371     2.1576
 7537.5000  2025.6172   152.3794  -999.2500      .4926      .4990      .5425     8.0373    18.9759    87.7360     2.1501
 7538.0000  2049.3711   152.5320  -999.2500      .4903      .4942      .5347     9.8677    18.8684    87.9844     2.1495
 7538.5000  2068.8984   152.6809  -999.2500      .4881      .4906      .5311     7.3763    18.9001    86.6683     2.1532
 7539.0000  2075.9375   152.8000  -999.2500      .4867      .4874      .5378     4.5221    18.8604    84.9292     2.1578
 7539.5000  2082.9883   152.9189  -999.2500      .4872      .4842      .5421     3.1732    18.7369    83.3943     2.1587
 7540.0000  2084.0195   153.0378  -999.2500      .4877      .4813      .5395     2.7496    18.7304    82.2664     2.1583
 7540.5000  2081.5117   153.0601  -999.2500      .4882      .4802      .5368     3.0047    18.7980    81.6323     2.1578
 7541.0000  2078.3203   152.9519  -999.2500      .4883      .4791      .5360     3.2594    18.5818    81.9702     2.1573
 7541.5000  2070.9922   152.8440  -999.2500      .4874      .4779      .5359     3.7239    18.3944    82.4688     2.1562
 7542.0000  2063.6641   152.7358  -999.2500      .4864      .4768      .5358     4.3617    18.4668    82.3967     2.1549
 7542.5000  2060.1055   152.8035  -999.2500      .4854      .4767      .5360     4.9994    18.6824    82.0044     2.1526
 7543.0000  2075.2422   152.8757  -999.2500      .4841      .4770      .5371     6.3310    18.9168    83.0978     2.1490
 7543.5000  2097.3320   152.9482  -999.2500      .4799      .4772      .5382     5.7428    19.0378    84.2946     2.1447
 7544.0000  2121.8086   153.3313  -999.2500      .4757      .4682      .5389     4.9926    18.8241    83.8936     2.1406
 7544.5000  2146.2813   153.8909  -999.2500      .4716      .4598      .5341     4.6907    18.6167    81.2319     2.1373
 7545.0000  2170.7578   154.3608  -999.2500      .4662      .4532      .5271     4.3581    18.6278    80.1754     2.1350
 7545.5000  2189.1797   154.3755  -999.2500      .4597      .4530      .5169     3.9261    18.7298    80.2406     2.1348
 7546.0000  2201.5273   154.3901  -999.2500      .4532      .4529      .5134     4.2131    18.7150    81.0278     2.1378
 7546.5000  2213.8828   154.3096  -999.2500      .4469      .4528      .5103     5.4278    18.6348    81.9196     2.1410
 7547.0000  2223.6914   154.1035  -999.2500      .4453      .4527      .5092     6.4050    18.5543    82.8530     2.1400
 7547.5000  2230.8398   153.8972  -999.2500      .4447      .4527      .5125     6.0160    18.4624    83.8051     2.1367
 7548.0000  2237.9844   153.7422  -999.2500      .4442      .4527      .5159     4.5198    18.3639    84.7877     2.1323
 7548.5000  2237.2383   153.9766  -999.2500      .4439      .4527      .5190     3.0998    18.4350    85.8049     2.1280
 7549.0000  2226.4336   154.2107  -999.2500      .4457      .4527      .5220     1.7133    18.7830    87.1750     2.1242
 7549.5000  2215.6172   154.4451  -999.2500      .4475      .4526      .5250     1.6119    19.2499    88.2870     2.1220
 7550.0000  2206.4766   154.9048  -999.2500      .4493      .4523      .5267     5.8919    19.4519    89.0225     2.1246
 7550.5000  2204.2031   155.4258  -999.2500      .4511      .4521      .5240     6.3310    19.5906    89.3191     2.1293
 7551.0000  2201.9297   155.9468  -999.2500      .4525      .4518      .5141     2.9519    19.6949    86.5896     2.1329
 7551.5000  2199.6563   156.4160  -999.2500      .4539      .4518      .5099     -.8378    19.9178    83.6870     2.1358
 7552.0000  2196.4609   156.7583  -999.2500      .4552      .4521      .5076    -4.9424    20.1075    81.9503     2.1393
 7552.5000  2191.7422   157.1013  -999.2500      .4566      .4523      .5125    -4.1310    19.4088    83.0326     2.1434
 7553.0000  2187.0273   157.1846  -999.2500      .4580      .4537      .5177      .8518    18.8047    84.4053     2.1490
 7553.5000  2179.2539   156.9890  -999.2500      .4594      .4592      .5198     5.2094    18.3221    85.0018     2.1499
 7554.0000  2155.7891   156.7939  -999.2500      .4607      .4647      .5199     6.6640    17.9432    84.4188     2.1457
 7554.5000  2132.3242   156.3569  -999.2500      .4621      .4703      .5243     5.4051    17.7720    83.0842     2.1413
 7555.0000  2107.0313   155.8289  -999.2500      .4672      .4751      .5315     4.1069    17.7654    81.3058     2.1368
 7555.5000  2074.9297   155.3091  -999.2500      .4727      .4785      .5415     2.8505    17.8906    80.8341     2.1360
 7556.0000  2042.8730   154.8740  -999.2500      .4783      .4820      .5552     1.6131    18.4701    80.1920     2.1389
 7556.5000  2011.2031   154.4390  -999.2500      .4822      .4854      .5692      .3781    18.8052    79.6632     2.1448
 7557.0000  1982.0820   154.0051  -999.2500      .4853      .4875      .5811     1.3554    19.0826    79.6444     2.1500
 7557.5000  1952.9629   153.7283  -999.2500      .4885      .4890      .5930     3.6081    18.5951    79.9882     2.1498
 7558.0000  1943.9395   153.4509  -999.2500      .4891      .4905      .6008     1.0189    18.4293    81.7461     2.1436
 7558.5000  1945.5586   153.2458  -999.2500      .4894      .4918      .5929    -2.3555    18.8440    83.8174     2.1366
 7559.0000  1947.1777   153.7622  -999.2500      .4896      .4920      .5851    -5.1381    19.0886    86.0865     2.1321
 7559.5000  1962.4219   154.4553  -999.2500      .4887      .4922      .5731    -3.5177    19.0728    86.7625     2.1319
 7560.0000  1981.8906   155.1331  -999.2500      .4879      .4924      .5595      .5893    18.8008    85.3055     2.1374
 7560.5000  2001.3594   155.2351  -999.2500      .4877      .4924      .5463     4.5460    18.6067    82.7325     2.1451
 7561.0000  2014.1152   155.3372  -999.2500      .4890      .4919      .5435     4.1773    18.6096    80.5580     2.1535
 7561.5000  2026.8457   155.0737  -999.2500      .4903      .4914      .5411     4.4046    18.7742    79.3379     2.1554
 7562.0000  2027.6152   154.7424  -999.2500      .4923      .4909      .5387     4.5198    19.0738    81.0548     2.1576
 7562.5000  2014.5352   154.4111  -999.2500      .4953      .4923      .5443     3.9005    19.1046    82.9244     2.1652
 7563.0000  2000.0352   154.3872  -999.2500      .4983      .4968      .5516     2.6536    18.8657    83.1901     2.1755
 7563.5000  1971.3496   154.4260  -999.2500      .5016      .5013      .5590     2.3589    18.5724    80.7080     2.1656
 7564.0000  1942.6152   154.4646  -999.2500      .5049      .5059      .5658     4.2907    18.2394    78.2850     2.1531
 7564.5000  1932.3496   154.7947  -999.2500      .5083      .5078      .5705     5.9230    18.2125    76.2629     2.1445
 7565.0000  1931.1738   155.2339  -999.2500      .5103      .5069      .5753     2.6082    18.6231    75.8473     2.1409
 7565.5000  1930.0020   155.6724  -999.2500      .5112      .5059      .5802    -3.4867    19.0526    76.0117     2.1408
 7566.0000  1930.5586   156.0496  -999.2500      .5121      .5050      .5840    -2.6085    19.2332    76.2678     2.1409
