~VERSION INFORMATION
VERS.                             2.0:   CWLS Log ASCII Standard-VERSION 2.0
WRAP.                              NO:   One line per depth step
~Well Information Block
STRT.F                      1302.0000:   Top Depth
STOP.F                     14644.0000:   Bottom Depth
STEP.F                         .50000:   Depth Increment
NULL.                        -999.250:   Null Value
FLD .                    MU BLK A 152:   Field Name
WELL.       OCSG04991   001 ST00 BP00:   NAME
API .                    427124006100:   WELL API
EDF .F                        94.0000:   ELEV DRILL FLOOR
COMP.            TRANSCO EXPL PROD CO:   OPERATOR
BN  .                           A 152:   BLOCK
CTRY.                             USA:   COUNTRY NAME
CNTY.                        M I E AD:   COUNTY NAME
EKB .F                        95.0000:   ELEV KELLY BUSHING
TDD .F                      14647.000:   FINAL TD DRILLER
STAT.                           TEXAS:   STATE NAME
UWI .                    427124006100:   WELL API
DICO.               IHS : Digitizing Company
~PARAMETER INFORMATION (zones)
#MNEM.UNIT                       Value     Description
#=========                       =====     ===========
#ZONATION                          DIL:   ZONATION NAME
#ZONE                            RUN_1:   ZONE NAME
TOP .                       1302.0000:   TOP DEPTH
BOT .                      14644.5000:   BOTTOM DEPTH
RUN .                               1:   RUN NUMBER
LCCD.                             440:   LOGGING CONTRACTOR
SRVC.                    Schlumberger:   LOGGING CONT NAME
DICO.          QC Data Collectors Ltd:   DIG COMPANY NAME
LDAT.                      11/20/1982:   DATE LOGGED
ELD .F                        95.0000:   LOG DATUM ELEVATION
TDD .F                      4095.0000:   TOTAL DEPTH DRILLER
TDL .F                      4095.0000:   TOTAL DEPTH LOGGER
BOTL.F                      4092.0000:   BOTTOM DEPTH LOGGED
TOPL.F                      1334.0000:   TOP DEPTH LOGGED
CS1 .IN                       20.0000:   CASING SIZE 1
BS1 .IN                       12.2500:   BIT SIZE 1
DDB1.F                      4095.0000:   DEPTH DRILLED BIT 1
BHF .                              99:   FLUID CODE
DPT .                   Miscellaneous:   DRILLING FLUID TYPE
MUDD.                          9.4000:   FLUID DENSITY
MUDV.                         43.0000:   FLUID VISCOSITY
DFPH.                         11.2000:   FLUID PH
RM  .OHMM                       .2800:   RM
RMT .DEGF                     70.0000:   RM TEMP
RMF .OHMM                       .2300:   RMF
RMFT.DEGF                     70.0000:   RMF TEMP
FSC .                               M:   RMF CODE
RMC .OHMM                       .4000:   RMC
RMCT.DEGF                     70.0000:   RMC TEMP
CMC .                               M:   RMC CODE
TMAX.DEGF                    178.0000:   MAX REC TEMP
TIMC.                          8.0000:   TIME SINCE CIRCLN
~PARAMETER INFORMATION (zones)
#MNEM.UNIT                       Value     Description
#=========                       =====     ===========
#ZONATION                          FDC:   ZONATION NAME
#ZONE                            RUN_3:   ZONE NAME
TOP .                       8480.0000:   TOP DEPTH
BOT .                      13304.0000:   BOTTOM DEPTH
RUN .                               3:   RUN NUMBER
LCCD.                             440:   LOGGING CONTRACTOR
SRVC.                    Schlumberger:   LOGGING CONT NAME
DICO.          QC Data Collectors Ltd:   DIG COMPANY NAME
LDAT.                      01/30/1983:   DATE LOGGED
ELD .F                        95.0000:   LOG DATUM ELEVATION
TDD .F                     13308.0000:   TOTAL DEPTH DRILLER
TDL .F                     13305.0000:   TOTAL DEPTH LOGGER
BOTL.F                     13304.0000:   BOTTOM DEPTH LOGGED
TOPL.F                      8480.0000:   TOP DEPTH LOGGED
CS1 .IN                       11.7500:   CASING SIZE 1
BS1 .IN                        9.8750:   BIT SIZE 1
DDB1.F                     13308.0000:   DEPTH DRILLED BIT 1
BHF .                              99:   FLUID CODE
DPT .                   Miscellaneous:   DRILLING FLUID TYPE
MUDD.                         15.6000:   FLUID DENSITY
MUDV.                         55.0000:   FLUID VISCOSITY
DFPH.                         10.7000:   FLUID PH
FL  .                          3.6000:   FLUID LOSS
RM  .OHMM                       .8600:   RM
RMT .DEGF                     70.0000:   RM TEMP
RMF .OHMM                       .4200:   RMF
RMFT.DEGF                     70.0000:   RMF TEMP
FSC .                               M:   RMF CODE
RMC .OHMM                      1.6700:   RMC
RMCT.DEGF                     70.0000:   RMC TEMP
CMC .                               M:   RMC CODE
TMAX.DEGF                    260.0000:   MAX REC TEMP
TIMC.                          8.5000:   TIME SINCE CIRCLN
~PARAMETER INFORMATION (zones)
#MNEM.UNIT                       Value     Description
#=========                       =====     ===========
#ZONATION                          FDC:   ZONATION NAME
#ZONE                            RUN_4:   ZONE NAME
TOP .                      12060.0000:   TOP DEPTH
BOT .                      14644.0000:   BOTTOM DEPTH
RUN .                               4:   RUN NUMBER
LCCD.                             440:   LOGGING CONTRACTOR
SRVC.                    Schlumberger:   LOGGING CONT NAME
DICO.          QC Data Collectors Ltd:   DIG COMPANY NAME
LDAT.                      02/16/1983:   DATE LOGGED
ELD .F                        95.0000:   LOG DATUM ELEVATION
TDD .F                     14641.0000:   TOTAL DEPTH DRILLER
TDL .F                     14647.0000:   TOTAL DEPTH LOGGER
BOTL.F                     14644.0000:   BOTTOM DEPTH LOGGED
TOPL.F                     12060.0000:   TOP DEPTH LOGGED
CS1 .IN                       11.7500:   CASING SIZE 1
BS1 .IN                        9.8750:   BIT SIZE 1
DDB1.F                     14641.0000:   DEPTH DRILLED BIT 1
BHF .                              99:   FLUID CODE
DPT .                   Miscellaneous:   DRILLING FLUID TYPE
MUDD.                         15.6000:   FLUID DENSITY
MUDV.                         55.0000:   FLUID VISCOSITY
DFPH.                         11.5000:   FLUID PH
FL  .                          3.2000:   FLUID LOSS
RM  .OHMM                       .6900:   RM
RMT .DEGF                     75.0000:   RM TEMP
RMF .OHMM                       .4400:   RMF
RMFT.DEGF                     75.0000:   RMF TEMP
FSC .                               M:   RMF CODE
RMC .OHMM                       .9400:   RMC
RMCT.DEGF                     75.0000:   RMC TEMP
CMC .                               M:   RMC CODE
TMAX.DEGF                    284.0000:   MAX REC TEMP
TIMC.                         13.0000:   TIME SINCE CIRCLN
~PARAMETER INFORMATION (zones)
#MNEM.UNIT                       Value     Description
#=========                       =====     ===========
#ZONATION                          FDC:   ZONATION NAME
#ZONE                            RUN_2:   ZONE NAME
TOP .                       3894.0000:   TOP DEPTH
BOT .                      14644.5000:   BOTTOM DEPTH
RUN .                               2:   RUN NUMBER
LCCD.                             440:   LOGGING CONTRACTOR
SRVC.                    Schlumberger:   LOGGING CONT NAME
DICO.          QC Data Collectors Ltd:   DIG COMPANY NAME
LDAT.                      12/10/1982:   DATE LOGGED
ELD .F                        95.0000:   LOG DATUM ELEVATION
TDD .F                      8594.0000:   TOTAL DEPTH DRILLER
TDL .F                      8592.0000:   TOTAL DEPTH LOGGER
BOTL.F                      8594.0000:   BOTTOM DEPTH LOGGED
TOPL.F                      4037.0000:   TOP DEPTH LOGGED
CS1 .IN                       16.0000:   CASING SIZE 1
BS1 .IN                       14.7500:   BIT SIZE 1
DDB1.F                      8594.0000:   DEPTH DRILLED BIT 1
BHF .                              99:   FLUID CODE
DPT .                   Miscellaneous:   DRILLING FLUID TYPE
MUDD.                         13.1000:   FLUID DENSITY
MUDV.                         45.0000:   FLUID VISCOSITY
DFPH.                         11.5000:   FLUID PH
FL  .                          3.0000:   FLUID LOSS
RM  .OHMM                       .7500:   RM
RMT .DEGF                     75.0000:   RM TEMP
RMF .OHMM                       .5500:   RMF
RMFT.DEGF                     75.0000:   RMF TEMP
FSC .                               M:   RMF CODE
RMC .OHMM                       .8000:   RMC
RMCT.DEGF                     75.0000:   RMC TEMP
CMC .                               M:   RMC CODE
TMAX.DEGF                    195.0000:   MAX REC TEMP
TIMC.                          7.0000:   TIME SINCE CIRCLN
~Curve Information Block
#MNEM.UNIT                    API CODE    No Description
#=========                    ========    == ===========
DEPT.F                   00 001 00 00:     1  DEPTH
CILD.MMHO                            :     2  Deep Induction Conductivity
DT.US/F                              :     3  Sonic Transit Time
GR.GAPI                              :     4  Gamma Ray
ILD.OHMM                             :     5  Deep Induction Resistivity
ILM.OHMM                             :     6  Medium Induction Resistivity
SFL.OHMM                             :     7  Medium Resistivity
SP.MV                                :     8  Spontaneous Potential
CALI.IN                              :     9  Caliper
GR.GAPI                              :    10  Gamma Ray
RHOB.G/C3                            :    11  Bulk Density
~ASCII
# ...
11955.0000  1500.6758   114.1692  -999.2500      .6736      .6773      .6642     7.0328    18.0894    46.4997     2.3238
11955.5000  1542.6973   115.5585  -999.2500      .6552      .6598      .6399     6.9162    18.5575    45.8256     2.3265
11956.0000  1586.8223   116.9185  -999.2500      .6373      .6438      .6261     7.5294    19.0195    45.6064     2.3328
11956.5000  1630.9473   117.5323  -999.2500      .6199      .6340      .6135     9.0936    19.4216    45.5781     2.3397
11957.0000  1671.8437   117.4272  -999.2500      .6079      .6244      .5962    10.5173    19.5738    45.7708     2.3426
11957.5000  1708.6309   116.2091  -999.2500      .5963      .6235      .5690     8.7933    19.2697    45.6082     2.3279
11958.0000  1735.5605   115.3176  -999.2500      .5931      .6259      .5214     4.5416    18.6403    45.3262     2.3143
11958.5000  1751.1172   116.7179  -999.2500      .5913      .6292      .5506     1.9072    18.5227    46.7706     2.3029
11959.0000  1748.5488   117.8491  -999.2500      .5891      .6285      .6017     1.3358    18.8698    48.2308     2.3075
11959.5000  1734.2891   118.4252  -999.2500      .5869      .6242      .6354     4.5173    19.2510    50.3635     2.3151
11960.0000  1717.2891   118.2094  -999.2500      .5790      .6145      .6573     6.4423    19.5933    49.9645     2.3275
11960.5000  1706.0879   118.0920  -999.2500      .5684      .5946      .7404     6.3778    19.9750    48.4081     2.3406
11961.0000  1724.3828   118.1064  -999.2500      .5578      .5794      .7907     6.5863    20.2104    46.8494     2.3461
11961.5000  1768.1172   118.0958  -999.2500      .5463      .5651      .7805     7.3103    19.8420    45.6667     2.3476
11962.0000  1819.3848   117.6412  -999.2500      .5354      .5576      .7271     7.9186    19.5347    45.4167     2.3377
11962.5000  1840.6387   116.9674  -999.2500      .5302      .5526      .6980     8.2267    19.9208    45.9604     2.3350
11963.0000  1837.4844   116.3192  -999.2500      .5269      .5554      .6970     7.9289    20.2570    46.4357     2.3375
11963.5000  1787.0977   115.5952  -999.2500      .5415      .5634      .7305     7.4931    20.1163    45.5541     2.3377
11964.0000  1756.8652   114.8101  -999.2500      .5527      .5796      .8073     6.9289    19.5485    45.0930     2.3343
11964.5000  1733.6289   111.9899  -999.2500      .5620      .5964      .8644     6.4156    18.2167    45.5153     2.3385
11965.0000  1719.3438   109.7738  -999.2500      .5702      .6063      .8804     6.1481    17.9252    46.1697     2.3263
11965.5000  1701.4883   108.1962  -999.2500      .5785      .6142      .8265     6.2231    18.0349    46.8075     2.3196
11966.0000  1675.1699   109.4852  -999.2500      .5905      .6201      .7766     7.0597    18.3319    44.0199     2.3234
11966.5000  1635.2520   111.0090  -999.2500      .6032      .6214      .7547     9.4568    18.7762    41.2273     2.3411
11967.0000  1591.0293   111.6548  -999.2500      .6147      .6224      .7538    12.5899    19.1791    39.4666     2.3549
11967.5000  1559.1094   111.4132  -999.2500      .6240      .6216      .7599    10.6044    19.6753    37.9940     2.3629
11968.0000  1549.8887   110.9442  -999.2500      .6222      .6211      .7723     1.9556    19.7300    37.3956     2.3706
11968.5000  1568.0371   110.4550  -999.2500      .6141      .6280      .7443    -1.8313    19.7213    37.3660     2.3790
11969.0000  1596.9492   110.9491  -999.2500      .6068      .6325      .6962     1.9847    19.6407    38.4520     2.3805
11969.5000  1613.8750   111.9409  -999.2500      .6022      .6322      .6634     5.1517    19.5332    40.0157     2.3752
11970.0000  1626.6426   113.3302  -999.2500      .5976      .6270      .6648     6.3787    19.4403    42.7689     2.3700
11970.5000  1628.2461   114.0842  -999.2500      .5937      .6167      .6779     6.5772    19.4093    44.7956     2.3718
11971.0000  1628.2324   114.0714  -999.2500      .5936      .6084      .6838     6.7970    19.5433    46.2632     2.3735
11971.5000  1642.9824   113.6671  -999.2500      .5935      .6055      .6888     7.7473    19.6404    46.5532     2.3687
11972.0000  1658.5879   113.3724  -999.2500      .5935      .6039      .6926    10.8611    19.6475    46.2349     2.3605
11972.5000  1678.9375   113.1942  -999.2500      .5923      .6087      .7051    13.5148    19.6564    45.5910     2.3624
11973.0000  1699.2383   113.3627  -999.2500      .5910      .6135      .7254     9.0645    19.6400    44.9175     2.3791
11973.5000  1702.2656   113.4022  -999.2500      .5897      .6165      .7605    -2.6739    19.5472    44.2440     2.3941
11974.0000  1703.4063   113.2067  -999.2500      .5901      .6189      .7964    -5.8312    19.3583    43.2122     2.3840
11974.5000  1696.4258   112.5328  -999.2500      .5923      .6223      .8098      .2220    19.0284    42.0547     2.3536
11975.0000  1688.5742   111.8724  -999.2500      .5948      .6306      .7823     4.1929    18.5644    42.0917     2.3373
11975.5000  1684.0430   113.6874  -999.2500      .5981      .6390      .7837     6.1323    18.2122    45.4827     2.3335
11976.0000  1680.3613   115.1476  -999.2500      .6006      .6473      .8053     6.8708    17.3656    49.1075     2.3559
11976.5000  1678.2031   116.1071  -999.2500      .5995      .6557      .8892     7.3248    17.1538    51.2401     2.3821
11977.0000  1678.3867   116.1528  -999.2500      .5985      .6547      .9992     7.8926    16.0432    50.7377     2.3991
11977.5000  1678.5703   114.7635  -999.2500      .6008      .6467     1.1036     8.4991    15.7645    49.1506     2.4123
11978.0000  1672.4551   113.4769  -999.2500      .6042      .6359     1.1881     9.1408    15.7837    48.5898     2.4125
11978.5000  1664.8496   112.7411  -999.2500      .6122      .6253     1.1121     6.6045    16.2890    48.2715     2.4057
11979.0000  1632.7090   112.9395  -999.2500      .6221      .6220     1.0024     2.8224    16.8219    47.3739     2.3858
11979.5000  1592.0078   112.6454  -999.2500      .6323      .6196      .8890      .8636    17.4050    45.8274     2.3692
11980.0000  1541.5234   112.3213  -999.2500      .6437      .6327      .8084     2.6723    17.6055    44.5050     2.3578
11980.5000  1517.5527   111.2463  -999.2500      .6625      .6500      .8318     5.6941    17.6749    43.2762     2.3789
11981.0000  1499.6738   110.0160  -999.2500      .6802      .6752      .9013     5.8522    17.1982    43.4190     2.3989
11981.5000  1487.3711   108.6095  -999.2500      .6940      .6991      .9878     5.7679    16.7628    44.2760     2.4165
11982.0000  1471.1777   107.9308  -999.2500      .7009      .7203     1.0078     6.6190    16.9125    45.3029     2.4211
11982.5000  1440.7988   107.6898  -999.2500      .7017      .7258      .9389     7.7885    17.7557    46.0035     2.4077
11983.0000  1410.4688   108.0897  -999.2500      .6972      .7213      .8670     8.4186    18.0454    46.6696     2.3920
11983.5000  1380.0918   108.5924  -999.2500      .6950      .7189      .8255     7.2776    18.2748    49.3390     2.3714
11984.0000  1362.3027   109.2174  -999.2500      .6958      .7172      .8226     6.2837    18.6422    51.8705     2.3442
11984.5000  1359.8320   109.9780  -999.2500      .6967      .7160      .8384     6.4858    18.6444    50.8116     2.3165
11985.0000  1385.2266   110.3795  -999.2500      .6970      .7206      .8626     7.3962    18.3979    47.8861     2.2980
11985.5000  1412.8672   110.5840  -999.2500      .6973      .7253      .7988     7.2582    17.8809    45.4531     2.2880
11986.0000  1424.1172   110.5027  -999.2500      .6967      .7263      .6528     6.3430    17.4553    46.1229     2.2872
11986.5000  1428.1426   110.2606  -999.2500      .6923      .7272      .5417     5.5863    16.9184    46.7472     2.2912
11987.0000  1417.7578   110.0760  -999.2500      .6880      .7267      .6662     5.7740    16.6625    46.1783     2.2969
11987.5000  1396.9199   110.0441  -999.2500      .6836      .7256      .8345     6.3176    17.1726    45.5073     2.3200
11988.0000  1377.6445   109.9288  -999.2500      .6794      .7315      .9141     6.9217    17.5597    45.5861     2.3526
