~VERSION INFORMATION
VERS.                             2.0:   CWLS Log ASCII Standard-VERSION 2.0
WRAP.                              NO:   One line per depth step
~Well Information Block
STRT.F                      1302.0000:   Top Depth
STOP.F                     14644.0000:   Bottom Depth
STEP.F                         .50000:   Depth Increment
NULL.                        -999.250:   Null Value
FLD .                    MU BLK A 152:   Field Name
WELL.       OCSG04991   001 ST00 BP00:   NAME
API .                    427124006100:   WELL API
EDF .F                        94.0000:   ELEV DRILL FLOOR
COMP.            TRANSCO EXPL PROD CO:   OPERATOR
BN  .                           A 152:   BLOCK
CTRY.                             USA:   COUNTRY NAME
CNTY.                        M I E AD:   COUNTY NAME
EKB .F                        95.0000:   ELEV KELLY BUSHING
TDD .F                      14647.000:   FINAL TD DRILLER
STAT.                           TEXAS:   STATE NAME
UWI .                    427124006100:   WELL API
DICO.               IHS : Digitizing Company
~PARAMETER INFORMATION (zones)
#MNEM.UNIT                       Value     Description
#=========                       =====     ===========
#ZONATION                          DIL:   ZONATION NAME
#ZONE                            RUN_1:   ZONE NAME
TOP .                       1302.0000:   TOP DEPTH
BOT .                      14644.5000:   BOTTOM DEPTH
RUN .                               1:   RUN NUMBER
LCCD.                             440:   LOGGING CONTRACTOR
SRVC.                    Schlumberger:   LOGGING CONT NAME
DICO.          QC Data Collectors Ltd:   DIG COMPANY NAME
LDAT.                      11/20/1982:   DATE LOGGED
ELD .F                        95.0000:   LOG DATUM ELEVATION
TDD .F                      4095.0000:   TOTAL DEPTH DRILLER
TDL .F                      4095.0000:   TOTAL DEPTH LOGGER
BOTL.F                      4092.0000:   BOTTOM DEPTH LOGGED
TOPL.F                      1334.0000:   TOP DEPTH LOGGED
CS1 .IN                       20.0000:   CASING SIZE 1
BS1 .IN                       12.2500:   BIT SIZE 1
DDB1.F                      4095.0000:   DEPTH DRILLED BIT 1
BHF .                              99:   FLUID CODE
DPT .                   Miscellaneous:   DRILLING FLUID TYPE
MUDD.                          9.4000:   FLUID DENSITY
MUDV.                         43.0000:   FLUID VISCOSITY
DFPH.                         11.2000:   FLUID PH
RM  .OHMM                       .2800:   RM
RMT .DEGF                     70.0000:   RM TEMP
RMF .OHMM                       .2300:   RMF
RMFT.DEGF                     70.0000:   RMF TEMP
FSC .                               M:   RMF CODE
RMC .OHMM                       .4000:   RMC
RMCT.DEGF                     70.0000:   RMC TEMP
CMC .                               M:   RMC CODE
TMAX.DEGF                    178.0000:   MAX REC TEMP
TIMC.                          8.0000:   TIME SINCE CIRCLN
~PARAMETER INFORMATION (zones)
#MNEM.UNIT                       Value     Description
#=========                       =====     ===========
#ZONATION                          FDC:   ZONATION NAME
#ZONE                            RUN_3:   ZONE NAME
TOP .                       8480.0000:   TOP DEPTH
BOT .                      13304.0000:   BOTTOM DEPTH
RUN .                               3:   RUN NUMBER
LCCD.                             440:   LOGGING CONTRACTOR
SRVC.                    Schlumberger:   LOGGING CONT NAME
DICO.          QC Data Collectors Ltd:   DIG COMPANY NAME
LDAT.                      01/30/1983:   DATE LOGGED
ELD .F                        95.0000:   LOG DATUM ELEVATION
TDD .F                     13308.0000:   TOTAL DEPTH DRILLER
TDL .F                     13305.0000:   TOTAL DEPTH LOGGER
BOTL.F                     13304.0000:   BOTTOM DEPTH LOGGED
TOPL.F                      8480.0000:   TOP DEPTH LOGGED
CS1 .IN                       11.7500:   CASING SIZE 1
BS1 .IN                        9.8750:   BIT SIZE 1
DDB1.F                     13308.0000:   DEPTH DRILLED BIT 1
BHF .                              99:   FLUID CODE
DPT .                   Miscellaneous:   DRILLING FLUID TYPE
MUDD.                         15.6000:   FLUID DENSITY
MUDV.                         55.0000:   FLUID VISCOSITY
DFPH.                         10.7000:   FLUID PH
FL  .                          3.6000:   FLUID LOSS
RM  .OHMM                       .8600:   RM
RMT .DEGF                     70.0000:   RM TEMP
RMF .OHMM                       .4200:   RMF
RMFT.DEGF                     70.0000:   RMF TEMP
FSC .                               M:   RMF CODE
RMC .OHMM                      1.6700:   RMC
RMCT.DEGF                     70.0000:   RMC TEMP
CMC .                               M:   RMC CODE
TMAX.DEGF                    260.0000:   MAX REC TEMP
TIMC.                          8.5000:   TIME SINCE CIRCLN
~PARAMETER INFORMATION (zones)
#MNEM.UNIT                       Value     Description
#=========                       =====     ===========
#ZONATION                          FDC:   ZONATION NAME
#ZONE                            RUN_4:   ZONE NAME
TOP .                      12060.0000:   TOP DEPTH
BOT .                      14644.0000:   BOTTOM DEPTH
RUN .                               4:   RUN NUMBER
LCCD.                             440:   LOGGING CONTRACTOR
SRVC.                    Schlumberger:   LOGGING CONT NAME
DICO.          QC Data Collectors Ltd:   DIG COMPANY NAME
LDAT.                      02/16/1983:   DATE LOGGED
ELD .F                        95.0000:   LOG DATUM ELEVATION
TDD .F                     14641.0000:   TOTAL DEPTH DRILLER
TDL .F                     14647.0000:   TOTAL DEPTH LOGGER
BOTL.F                     14644.0000:   BOTTOM DEPTH LOGGED
TOPL.F                     12060.0000:   TOP DEPTH LOGGED
CS1 .IN                       11.7500:   CASING SIZE 1
BS1 .IN                        9.8750:   BIT SIZE 1
DDB1.F                     14641.0000:   DEPTH DRILLED BIT 1
BHF .                              99:   FLUID CODE
DPT .                   Miscellaneous:   DRILLING FLUID TYPE
MUDD.                         15.6000:   FLUID DENSITY
MUDV.                         55.0000:   FLUID VISCOSITY
DFPH.                         11.5000:   FLUID PH
FL  .                          3.2000:   FLUID LOSS
RM  .OHMM                       .6900:   RM
RMT .DEGF                     75.0000:   RM TEMP
RMF .OHMM                       .4400:   RMF
RMFT.DEGF                     75.0000:   RMF TEMP
FSC .                               M:   RMF CODE
RMC .OHMM                       .9400:   RMC
RMCT.DEGF                     75.0000:   RMC TEMP
CMC .                               M:   RMC CODE
TMAX.DEGF                    284.0000:   MAX REC TEMP
TIMC.                         13.0000:   TIME SINCE CIRCLN
~PARAMETER INFORMATION (zones)
#MNEM.UNIT                       Value     Description
#=========                       =====     ===========
#ZONATION                          FDC:   ZONATION NAME
#ZONE                            RUN_2:   ZONE NAME
TOP .                       3894.0000:   TOP DEPTH
BOT .                      14644.5000:   BOTTOM DEPTH
RUN .                               2:   RUN NUMBER
LCCD.                             440:   LOGGING CONTRACTOR
SRVC.                    Schlumberger:   LOGGING CONT NAME
DICO.          QC Data Collectors Ltd:   DIG COMPANY NAME
LDAT.                      12/10/1982:   DATE LOGGED
ELD .F                        95.0000:   LOG DATUM ELEVATION
TDD .F                      8594.0000:   TOTAL DEPTH DRILLER
TDL .F                      8592.0000:   TOTAL DEPTH LOGGER
BOTL.F                      8594.0000:   BOTTOM DEPTH LOGGED
TOPL.F                      4037.0000:   TOP DEPTH LOGGED
CS1 .IN                       16.0000:   CASING SIZE 1
BS1 .IN                       14.7500:   BIT SIZE 1
DDB1.F                      8594.0000:   DEPTH DRILLED BIT 1
BHF .                              99:   FLUID CODE
DPT .                   Miscellaneous:   DRILLING FLUID TYPE
MUDD.                         13.1000:   FLUID DENSITY
MUDV.                         45.0000:   FLUID VISCOSITY
DFPH.                         11.5000:   FLUID PH
FL  .                          3.0000:   FLUID LOSS
RM  .OHMM                       .7500:   RM
RMT .DEGF                     75.0000:   RM TEMP
RMF .OHMM                       .5500:   RMF
RMFT.DEGF                     75.0000:   RMF TEMP
FSC .                               M:   RMF CODE
RMC .OHMM                       .8000:   RMC
RMCT.DEGF                     75.0000:   RMC TEMP
CMC .                               M:   RMC CODE
TMAX.DEGF                    195.0000:   MAX REC TEMP
TIMC.                          7.0000:   TIME SINCE CIRCLN
~Curve Information Block
#MNEM.UNIT                    API CODE    No Description
#=========                    ========    == ===========
DEPT.F                   00 001 00 00:     1  DEPTH
CILD.MMHO                            :     2  Deep Induction Conductivity
DT.US/F                              :     3  Sonic Transit Time
GR.GAPI                              :     4  Gamma Ray
ILD.OHMM                             :     5  Deep Induction Resistivity
ILM.OHMM                             :     6  Medium Induction Resistivity
SFL.OHMM                             :     7  Medium Resistivity
SP.MV                                :     8  Spontaneous Potential
CALI.IN                              :     9  Caliper
GR.GAPI                              :    10  Gamma Ray
RHOB.G/C3                            :    11  Bulk Density
~ASCII
# ...
 2206.5000  1308.7012   157.8262    87.4498      .7503      .7344      .7487    -4.9892  -999.2500  -999.2500  -999.2500
 2207.0000  1293.8125   160.2600    85.9075      .7617      .7466      .7580    -4.8167  -999.2500  -999.2500  -999.2500
 2207.5000  1288.7480   161.5688    83.6082      .7733      .7531      .7542    -4.6191  -999.2500  -999.2500  -999.2500
 2208.0000  1278.2988   162.0703    81.2288      .7836      .7597      .7497    -4.4217  -999.2500  -999.2500  -999.2500
 2208.5000  1260.2754   160.2234    77.3778      .7938      .7654      .7382    -4.2241  -999.2500  -999.2500  -999.2500
 2209.0000  1242.2441   158.2021    77.1859      .8041      .7706      .7320    -4.1063  -999.2500  -999.2500  -999.2500
 2209.5000  1225.4902   155.7078    81.1083      .8147      .7762      .7266    -4.0333  -999.2500  -999.2500  -999.2500
 2210.0000  1209.0664   153.3064    85.0999      .8261      .7854      .7220    -3.9603  -999.2500  -999.2500  -999.2500
 2210.5000  1192.6465   151.1521    85.7035      .8377      .7947      .7609    -3.8873  -999.2500  -999.2500  -999.2500
 2211.0000  1176.8809   149.6221    84.4917      .8496      .8038      .7864    -4.0667  -999.2500  -999.2500  -999.2500
 2211.5000  1161.2617   148.7766    81.0118      .8627      .8115      .8118    -4.2741  -999.2500  -999.2500  -999.2500
 2212.0000  1145.3555   148.5647    79.0211      .8760      .8192      .8257    -4.4814  -999.2500  -999.2500  -999.2500
 2212.5000  1126.1660   148.3735    77.6934      .8855      .8267      .8339    -4.6824  -999.2500  -999.2500  -999.2500
 2213.0000  1110.4805   148.2266    76.4575      .8904      .8336      .8422    -4.8568  -999.2500  -999.2500  -999.2500
 2213.5000  1125.3730   148.0630    75.9346      .8763      .8405      .8475    -5.0313  -999.2500  -999.2500  -999.2500
 2214.0000  1141.4805   148.6113    77.0569      .8684      .8380      .8421    -5.2057  -999.2500  -999.2500  -999.2500
 2214.5000  1158.0098   150.2166    80.5695      .8605      .8311      .8367    -5.3773  -999.2500  -999.2500  -999.2500
 2215.0000  1174.5371   151.4448    82.2318      .8481      .8243      .8197    -5.2910  -999.2500  -999.2500  -999.2500
 2215.5000  1192.8125   152.5193    82.0569      .8352      .8148      .8055    -5.2047  -999.2500  -999.2500  -999.2500
 2216.0000  1211.9883   153.5334    81.4385      .8227      .8041      .7986    -5.1184  -999.2500  -999.2500  -999.2500
 2216.5000  1231.1641   154.6902    82.9922      .8112      .7936      .7859    -5.0321  -999.2500  -999.2500  -999.2500
 2217.0000  1251.3730   156.1265    85.6333      .7998      .7842      .7696    -4.9282  -999.2500  -999.2500  -999.2500
 2217.5000  1272.9355   157.9080    86.8718      .7880      .7763      .7574    -4.8070  -999.2500  -999.2500  -999.2500
 2218.0000  1294.4980   159.1086    87.2681      .7726      .7685      .7496    -4.6857  -999.2500  -999.2500  -999.2500
 2218.5000  1313.3145   159.0530    87.3589      .7576      .7608      .7421    -4.5644  -999.2500  -999.2500  -999.2500
 2219.0000  1330.5020   158.7383    87.1495      .7472      .7555      .7384    -4.4432  -999.2500  -999.2500  -999.2500
 2219.5000  1346.9746   158.1763    86.3625      .7389      .7512      .7335    -4.3084  -999.2500  -999.2500  -999.2500
 2220.0000  1357.5430   157.6140    85.3340      .7398      .7469      .7260    -4.1679  -999.2500  -999.2500  -999.2500
 2220.5000  1359.1934   157.3079    84.0579      .7432      .7445      .7189    -4.0274  -999.2500  -999.2500  -999.2500
 2221.0000  1356.1328   157.0461    82.9546      .7488      .7470      .7194    -3.8868  -999.2500  -999.2500  -999.2500
 2221.5000  1350.2363   156.6892    82.9288      .7571      .7496      .7240    -3.7456  -999.2500  -999.2500  -999.2500
 2222.0000  1341.3926   155.6392    83.3248      .7654      .7520      .7372    -3.5208  -999.2500  -999.2500  -999.2500
 2222.5000  1332.9063   154.5889    83.7280      .7670      .7543      .7496    -3.4651  -999.2500  -999.2500  -999.2500
 2223.0000  1326.4414   154.0305    84.1453      .7670      .7566      .7622    -3.8313  -999.2500  -999.2500  -999.2500
 2223.5000  1319.9805   153.4758    85.0908      .7671      .7586      .7619    -4.1974  -999.2500  -999.2500  -999.2500
 2224.0000  1328.4199   154.3784    86.1908      .7600      .7536      .7510    -4.4208  -999.2500  -999.2500  -999.2500
 2224.5000  1344.3145   155.9653    84.2036      .7522      .7486      .7392    -4.6402  -999.2500  -999.2500  -999.2500
 2225.0000  1361.6543   157.8533    81.7700      .7391      .7437      .7278    -4.8596  -999.2500  -999.2500  -999.2500
 2225.5000  1380.8809   158.0728    81.8748      .7260      .7388      .7136    -5.0391  -999.2500  -999.2500  -999.2500
 2226.0000  1392.2715   158.2920    82.0873      .7151      .7316      .6976    -4.9246  -999.2500  -999.2500  -999.2500
 2226.5000  1388.3047   157.8245    82.1290      .7132      .7239      .6855    -4.8222  -999.2500  -999.2500  -999.2500
 2227.0000  1372.5879   157.1746    82.1708      .7264      .7162      .6777    -4.7077  -999.2500  -999.2500  -999.2500
 2227.5000  1326.7070   155.9380    82.0737      .7472      .7156      .6850    -4.5245  -999.2500  -999.2500  -999.2500
 2228.0000  1281.1289   154.5171    81.5792      .7732      .7239      .7038    -4.3414  -999.2500  -999.2500  -999.2500
 2228.5000  1235.9668   153.9729    80.3126      .8050      .7599      .7446    -4.1751  -999.2500  -999.2500  -999.2500
 2229.0000  1195.0762   153.5100    77.7843      .8229      .7939      .7945    -4.0309  -999.2500  -999.2500  -999.2500
 2229.5000  1152.7559   153.5059    76.6274      .8327      .8193      .8443    -3.8857  -999.2500  -999.2500  -999.2500
 2230.0000  1114.9766   152.9731    77.8483      .8308      .8203      .8814    -3.6970  -999.2500  -999.2500  -999.2500
 2230.5000  1093.2305   151.7927    79.5618      .8279      .8161      .9058    -3.5083  -999.2500  -999.2500  -999.2500
 2231.0000  1085.4023   150.0459    81.1013      .8217      .8117      .9168    -3.2781  -999.2500  -999.2500  -999.2500
 2231.5000  1090.7344   148.4136    81.5087      .8163      .8074      .8975    -3.0465  -999.2500  -999.2500  -999.2500
 2232.0000  1115.2578   148.9922    81.9161      .8123      .8020      .8785    -2.8708  -999.2500  -999.2500  -999.2500
 2232.5000  1157.9551   150.0662    82.1967      .8059      .7967      .8447    -2.8295  -999.2500  -999.2500  -999.2500
 2233.0000  1213.4531   150.9541    82.4697      .7972      .7927      .8106    -2.7883  -999.2500  -999.2500  -999.2500
 2233.5000  1240.7871   151.0679    82.3693      .7956      .7897      .7873    -2.8853  -999.2500  -999.2500  -999.2500
 2234.0000  1258.3652   151.0833    83.1442      .7940      .7867      .7721    -3.1633  -999.2500  -999.2500  -999.2500
 2234.5000  1270.8906   150.9790    86.2083      .7924      .7839      .7605    -3.5499  -999.2500  -999.2500  -999.2500
 2235.0000  1277.3887   150.8613    90.1571      .7941      .7817      .7647    -3.9682  -999.2500  -999.2500  -999.2500
 2235.5000  1280.9473   151.1660    90.1655      .7981      .7794      .7689    -4.0781  -999.2500  -999.2500  -999.2500
 2236.0000  1274.3691   151.9250    86.9821      .8020      .7806      .7739    -4.1880  -999.2500  -999.2500  -999.2500
 2236.5000  1260.4395   152.8276    83.9301      .8065      .7903      .7795    -4.2979  -999.2500  -999.2500  -999.2500
 2237.0000  1246.5039   153.0120    81.3062      .8123      .8002      .7852    -4.3258  -999.2500  -999.2500  -999.2500
 2237.5000  1234.1797   152.9114    81.6667      .8181      .8073      .7909    -4.3006  -999.2500  -999.2500  -999.2500
 2238.0000  1222.4160   152.5645    81.4095      .8241      .8118      .8009    -4.2754  -999.2500  -999.2500  -999.2500
 2238.5000  1210.6582   152.3252    79.1398      .8350      .8164      .8121    -4.1948  -999.2500  -999.2500  -999.2500
 2239.0000  1203.5313   152.2139    76.6362      .8461      .8211      .8248    -4.0474  -999.2500  -999.2500  -999.2500
 2239.5000  1204.2070   152.1025    75.9509      .8570      .8220      .8427    -3.9002  -999.2500  -999.2500  -999.2500
