~VERSION INFORMATION
VERS.                             2.0:   CWLS Log ASCII Standard-VERSION 2.0
WRAP.                              NO:   One line per depth step
~Well Information Block
STRT.F                      1302.0000:   Top Depth
STOP.F                     14644.0000:   Bottom Depth
STEP.F                         .50000:   Depth Increment
NULL.                        -999.250:   Null Value
FLD .                    MU BLK A 152:   Field Name
WELL.       OCSG04991   001 ST00 BP00:   NAME
API .                    427124006100:   WELL API
EDF .F                        94.0000:   ELEV DRILL FLOOR
COMP.            TRANSCO EXPL PROD CO:   OPERATOR
BN  .                           A 152:   BLOCK
CTRY.                             USA:   COUNTRY NAME
CNTY.                        M I E AD:   COUNTY NAME
EKB .F                        95.0000:   ELEV KELLY BUSHING
TDD .F                      14647.000:   FINAL TD DRILLER
STAT.                           TEXAS:   STATE NAME
UWI .                    427124006100:   WELL API
DICO.               IHS : Digitizing Company
~PARAMETER INFORMATION (zones)
#MNEM.UNIT                       Value     Description
#=========                       =====     ===========
#ZONATION                          DIL:   ZONATION NAME
#ZONE                            RUN_1:   ZONE NAME
TOP .                       1302.0000:   TOP DEPTH
BOT .                      14644.5000:   BOTTOM DEPTH
RUN .                               1:   RUN NUMBER
LCCD.                             440:   LOGGING CONTRACTOR
SRVC.                    Schlumberger:   LOGGING CONT NAME
DICO.          QC Data Collectors Ltd:   DIG COMPANY NAME
LDAT.                      11/20/1982:   DATE LOGGED
ELD .F                        95.0000:   LOG DATUM ELEVATION
TDD .F                      4095.0000:   TOTAL DEPTH DRILLER
TDL .F                      4095.0000:   TOTAL DEPTH LOGGER
BOTL.F                      4092.0000:   BOTTOM DEPTH LOGGED
TOPL.F                      1334.0000:   TOP DEPTH LOGGED
CS1 .IN                       20.0000:   CASING SIZE 1
BS1 .IN                       12.2500:   BIT SIZE 1
DDB1.F                      4095.0000:   DEPTH DRILLED BIT 1
BHF .                              99:   FLUID CODE
DPT .                   Miscellaneous:   DRILLING FLUID TYPE
MUDD.                          9.4000:   FLUID DENSITY
MUDV.                         43.0000:   FLUID VISCOSITY
DFPH.                         11.2000:   FLUID PH
RM  .OHMM                       .2800:   RM
RMT .DEGF                     70.0000:   RM TEMP
RMF .OHMM                       .2300:   RMF
RMFT.DEGF                     70.0000:   RMF TEMP
FSC .                               M:   RMF CODE
RMC .OHMM                       .4000:   RMC
RMCT.DEGF                     70.0000:   RMC TEMP
CMC .                               M:   RMC CODE
TMAX.DEGF                    178.0000:   MAX REC TEMP
TIMC.                          8.0000:   TIME SINCE CIRCLN
~PARAMETER INFORMATION (zones)
#MNEM.UNIT                       Value     Description
#=========                       =====     ===========
#ZONATION                          FDC:   ZONATION NAME
#ZONE                            RUN_3:   ZONE NAME
TOP .                       8480.0000:   TOP DEPTH
BOT .                      13304.0000:   BOTTOM DEPTH
RUN .                               3:   RUN NUMBER
LCCD.                             440:   LOGGING CONTRACTOR
SRVC.                    Schlumberger:   LOGGING CONT NAME
DICO.          QC Data Collectors Ltd:   DIG COMPANY NAME
LDAT.                      01/30/1983:   DATE LOGGED
ELD .F                        95.0000:   LOG DATUM ELEVATION
TDD .F                     13308.0000:   TOTAL DEPTH DRILLER
TDL .F                     13305.0000:   TOTAL DEPTH LOGGER
BOTL.F                     13304.0000:   BOTTOM DEPTH LOGGED
TOPL.F                      8480.0000:   TOP DEPTH LOGGED
CS1 .IN                       11.7500:   CASING SIZE 1
BS1 .IN                        9.8750:   BIT SIZE 1
DDB1.F                     13308.0000:   DEPTH DRILLED BIT 1
BHF .                              99:   FLUID CODE
DPT .                   Miscellaneous:   DRILLING FLUID TYPE
MUDD.                         15.6000:   FLUID DENSITY
MUDV.                         55.0000:   FLUID VISCOSITY
DFPH.                         10.7000:   FLUID PH
FL  .                          3.6000:   FLUID LOSS
RM  .OHMM                       .8600:   RM
RMT .DEGF                     70.0000:   RM TEMP
RMF .OHMM                       .4200:   RMF
RMFT.DEGF                     70.0000:   RMF TEMP
FSC .                               M:   RMF CODE
RMC .OHMM                      1.6700:   RMC
RMCT.DEGF                     70.0000:   RMC TEMP
CMC .                               M:   RMC CODE
TMAX.DEGF                    260.0000:   MAX REC TEMP
TIMC.                          8.5000:   TIME SINCE CIRCLN
~PARAMETER INFORMATION (zones)
#MNEM.UNIT                       Value     Description
#=========                       =====     ===========
#ZONATION                          FDC:   ZONATION NAME
#ZONE                            RUN_4:   ZONE NAME
TOP .                      12060.0000:   TOP DEPTH
BOT .                      14644.0000:   BOTTOM DEPTH
RUN .                               4:   RUN NUMBER
LCCD.                             440:   LOGGING CONTRACTOR
SRVC.                    Schlumberger:   LOGGING CONT NAME
DICO.          QC Data Collectors Ltd:   DIG COMPANY NAME
LDAT.                      02/16/1983:   DATE LOGGED
ELD .F                        95.0000:   LOG DATUM ELEVATION
TDD .F                     14641.0000:   TOTAL DEPTH DRILLER
TDL .F                     14647.0000:   TOTAL DEPTH LOGGER
BOTL.F                     14644.0000:   BOTTOM DEPTH LOGGED
TOPL.F                     12060.0000:   TOP DEPTH LOGGED
CS1 .IN                       11.7500:   CASING SIZE 1
BS1 .IN                        9.8750:   BIT SIZE 1
DDB1.F                     14641.0000:   DEPTH DRILLED BIT 1
BHF .                              99:   FLUID CODE
DPT .                   Miscellaneous:   DRILLING FLUID TYPE
MUDD.                         15.6000:   FLUID DENSITY
MUDV.                         55.0000:   FLUID VISCOSITY
DFPH.                         11.5000:   FLUID PH
FL  .                          3.2000:   FLUID LOSS
RM  .OHMM                       .6900:   RM
RMT .DEGF                     75.0000:   RM TEMP
RMF .OHMM                       .4400:   RMF
RMFT.DEGF                     75.0000:   RMF TEMP
FSC .                               M:   RMF CODE
RMC .OHMM                       .9400:   RMC
RMCT.DEGF                     75.0000:   RMC TEMP
CMC .                               M:   RMC CODE
TMAX.DEGF                    284.0000:   MAX REC TEMP
TIMC.                         13.0000:   TIME SINCE CIRCLN
~PARAMETER INFORMATION (zones)
#MNEM.UNIT                       Value     Description
#=========                       =====     ===========
#ZONATION                          FDC:   ZONATION NAME
#ZONE                            RUN_2:   ZONE NAME
TOP .                       3894.0000:   TOP DEPTH
BOT .                      14644.5000:   BOTTOM DEPTH
RUN .                               2:   RUN NUMBER
LCCD.                             440:   LOGGING CONTRACTOR
SRVC.                    Schlumberger:   LOGGING CONT NAME
DICO.          QC Data Collectors Ltd:   DIG COMPANY NAME
LDAT.                      12/10/1982:   DATE LOGGED
ELD .F                        95.0000:   LOG DATUM ELEVATION
TDD .F                      8594.0000:   TOTAL DEPTH DRILLER
TDL .F                      8592.0000:   TOTAL DEPTH LOGGER
BOTL.F                      8594.0000:   BOTTOM DEPTH LOGGED
TOPL.F                      4037.0000:   TOP DEPTH LOGGED
CS1 .IN                       16.0000:   CASING SIZE 1
BS1 .IN                       14.7500:   BIT SIZE 1
DDB1.F                      8594.0000:   DEPTH DRILLED BIT 1
BHF .                              99:   FLUID CODE
DPT .                   Miscellaneous:   DRILLING FLUID TYPE
MUDD.                         13.1000:   FLUID DENSITY
MUDV.                         45.0000:   FLUID VISCOSITY
DFPH.                         11.5000:   FLUID PH
FL  .                          3.0000:   FLUID LOSS
RM  .OHMM                       .7500:   RM
RMT .DEGF                     75.0000:   RM TEMP
RMF .OHMM                       .5500:   RMF
RMFT.DEGF                     75.0000:   RMF TEMP
FSC .                               M:   RMF CODE
RMC .OHMM                       .8000:   RMC
RMCT.DEGF                     75.0000:   RMC TEMP
CMC .                               M:   RMC CODE
TMAX.DEGF                    195.0000:   MAX REC TEMP
TIMC.                          7.0000:   TIME SINCE CIRCLN
~Curve Information Block
#MNEM.UNIT                    API CODE    No Description
#=========                    ========    == ===========
DEPT.F                   00 001 00 00:     1  DEPTH
CILD.MMHO                            :     2  Deep Induction Conductivity
DT.US/F                              :     3  Sonic Transit Time
GR.GAPI                              :     4  Gamma Ray
ILD.OHMM                             :     5  Deep Induction Resistivity
ILM.OHMM                             :     6  Medium Induction Resistivity
SFL.OHMM                             :     7  Medium Resistivity
SP.MV                                :     8  Spontaneous Potential
CALI.IN                              :     9  Caliper
GR.GAPI                              :    10  Gamma Ray
RHOB.G/C3                            :    11  Bulk Density
~ASCII
# ...
 1335.5000  1158.5781   188.3125    66.2749    22.5344     1.9229      .4894   -30.0948  -999.2500  -999.2500  -999.2500
 1336.0000  1859.3262   188.3582    67.9315      .9171      .8777      .6484   -26.3937  -999.2500  -999.2500  -999.2500
 1336.5000  2107.8672   194.7249    71.7473      .5359      .5348      .6774   -24.2320  -999.2500  -999.2500  -999.2500
 1337.0000  1850.1113   210.5967    73.7268      .5297      .4888      .6848   -22.6732  -999.2500  -999.2500  -999.2500
 1337.5000  1653.9824   227.0356    72.7499      .5526      .4788      .7285   -21.1871  -999.2500  -999.2500  -999.2500
 1338.0000  1641.2578   199.5383    70.0045      .5674      .4939      .7874   -19.7249  -999.2500  -999.2500  -999.2500
 1338.5000  1653.4219   186.1360    69.3770      .5793      .5182      .7987   -18.0575  -999.2500  -999.2500  -999.2500
 1339.0000  1661.2305   190.0303    69.3038      .5855      .5506      .7635   -16.4959  -999.2500  -999.2500  -999.2500
 1339.5000  1666.7383   190.4739    69.7635      .5919      .5660      .7285   -15.0382  -999.2500  -999.2500  -999.2500
 1340.0000  1659.7227   183.4155    70.2620      .5987      .5760      .6989   -13.9265  -999.2500  -999.2500  -999.2500
 1340.5000  1629.2949   180.5942    70.0166      .6058      .5731      .6782   -12.8799  -999.2500  -999.2500  -999.2500
 1341.0000  1598.8750   180.4465    69.5884      .6150      .5689      .6736   -12.1735  -999.2500  -999.2500  -999.2500
 1341.5000  1568.4473   180.7373    68.6487      .6242      .5632      .6700   -11.7141  -999.2500  -999.2500  -999.2500
 1342.0000  1518.8164   181.2336    67.6940      .6340      .5594      .6664   -11.5119  -999.2500  -999.2500  -999.2500
 1342.5000  1477.5781   181.4985    66.6704      .6438      .5563      .6628   -11.4386  -999.2500  -999.2500  -999.2500
 1343.0000  1485.2285   181.6907    65.6417      .6438      .5549      .6605   -11.5095  -999.2500  -999.2500  -999.2500
 1343.5000  1507.7324   181.7251    64.1357      .6437      .5541      .6582   -11.5770  -999.2500  -999.2500  -999.2500
 1344.0000  1524.3809   181.6580    62.1031      .6408      .5534      .6521   -11.5527  -999.2500  -999.2500  -999.2500
 1344.5000  1536.3750   181.6577    60.9109      .6376      .5526      .6447   -11.5283  -999.2500  -999.2500  -999.2500
 1345.0000  1547.4707   181.6692    61.4584      .6353      .5547      .6317   -11.5144  -999.2500  -999.2500  -999.2500
 1345.5000  1554.6289   181.5649    62.7474      .6353      .5577      .6192   -11.5065  -999.2500  -999.2500  -999.2500
 1346.0000  1561.7852   181.0261    64.4686      .6366      .5661      .6072   -11.4664  -999.2500  -999.2500  -999.2500
 1346.5000  1544.3242   180.2571    66.2476      .6430      .5782      .5987   -11.2541  -999.2500  -999.2500  -999.2500
 1347.0000  1526.4980   179.4968    68.2213      .6496      .5911      .5934   -11.0417  -999.2500  -999.2500  -999.2500
 1347.5000  1504.6152   178.7363    69.9639      .6563      .6047      .5944   -10.8266  -999.2500  -999.2500  -999.2500
 1348.0000  1482.1465   177.9636    70.9171      .6631      .6187      .6016   -10.5989  -999.2500  -999.2500  -999.2500
 1348.5000  1460.0098   177.0559    71.2517      .6697      .6316      .6137   -10.3713  -999.2500  -999.2500  -999.2500
 1349.0000  1439.4824   176.1921    70.6869      .6762      .6440      .6283   -10.1436  -999.2500  -999.2500  -999.2500
 1349.5000  1418.9512   175.3398    71.3384      .6828      .6531      .6442    -9.9226  -999.2500  -999.2500  -999.2500
 1350.0000  1402.1992   174.6118    72.5334      .6915      .6602      .6517    -9.7039  -999.2500  -999.2500  -999.2500
 1350.5000  1385.9434   173.9316    74.6967      .7005      .6646      .6535    -9.5103  -999.2500  -999.2500  -999.2500
 1351.0000  1387.3691   173.5005    78.4091      .7084      .6659      .6540    -9.4178  -999.2500  -999.2500  -999.2500
 1351.5000  1390.7539   173.1482    81.3210      .7156      .6672      .6627    -9.3252  -999.2500  -999.2500  -999.2500
 1352.0000  1394.7539   172.9580    82.6793      .7143      .6667      .6693    -9.3446  -999.2500  -999.2500  -999.2500
 1352.5000  1399.9082   173.0852    81.1990      .7042      .6661      .6737    -9.4706  -999.2500  -999.2500  -999.2500
 1353.0000  1406.7793   173.6328    80.3079      .6941      .6630      .6853    -9.5966  -999.2500  -999.2500  -999.2500
 1353.5000  1414.2637   174.1255    80.5588      .6842      .6553      .6841    -9.7085  -999.2500  -999.2500  -999.2500
 1354.0000  1427.4648   174.0452    85.3817      .6758      .6476      .6842    -9.8106  -999.2500  -999.2500  -999.2500
 1354.5000  1440.6660   173.6106    88.0193      .6677      .6399      .6843    -9.9126  -999.2500  -999.2500  -999.2500
 1355.0000  1451.7344   173.4214    88.2867      .6618      .6339      .6843   -10.0147  -999.2500  -999.2500  -999.2500
 1355.5000  1462.3672   173.4399    88.5673      .6569      .6290      .6843   -10.1202  -999.2500  -999.2500  -999.2500
 1356.0000  1473.3477   173.3735    87.8546      .6596      .6289      .6837   -10.2260  -999.2500  -999.2500  -999.2500
 1356.5000  1484.4277   173.2126    86.4384      .6590      .6308      .6831   -10.3319  -999.2500  -999.2500  -999.2500
 1357.0000  1487.2090   173.1692    83.6268      .6599      .6331      .6801   -10.4743  -999.2500  -999.2500  -999.2500
 1357.5000  1489.5254   173.2395    80.3787      .6618      .6365      .6767   -10.6763  -999.2500  -999.2500  -999.2500
 1358.0000  1490.3477   173.3396    79.1523      .6638      .6398      .6764   -10.8784  -999.2500  -999.2500  -999.2500
 1358.5000  1487.0176   173.5364    83.6460      .6673      .6427      .6777   -10.8218  -999.2500  -999.2500  -999.2500
 1359.0000  1476.3262   173.7236    86.6747      .6713      .6455      .6792   -10.6210  -999.2500  -999.2500  -999.2500
 1359.5000  1462.9570   173.6377    85.4496      .6753      .6449      .6845   -10.2143  -999.2500  -999.2500  -999.2500
 1360.0000  1448.4941   173.6011    75.9641      .6891      .6559      .6921    -9.9361  -999.2500  -999.2500  -999.2500
 1360.5000  1445.5996   173.7961    75.9542      .6902      .6575      .6943    -9.7907  -999.2500  -999.2500  -999.2500
 1361.0000  1448.7031   174.2368    74.0199      .6912      .6591      .6965    -9.6453  -999.2500  -999.2500  -999.2500
 1361.5000  1451.8066   174.6865    72.7061      .6923      .6595      .6967    -9.5973  -999.2500  -999.2500  -999.2500
 1362.0000  1453.8516   175.1362    74.1709      .6887      .6582      .6965    -9.5577  -999.2500  -999.2500  -999.2500
 1362.5000  1451.9160   175.7292    76.7644      .6839      .6569      .6964    -9.5181  -999.2500  -999.2500  -999.2500
 1363.0000  1449.9785   176.3926    79.4841      .6792      .6586      .6961    -9.5054  -999.2500  -999.2500  -999.2500
 1363.5000  1446.0430   176.4858    78.4027      .6821      .6617      .6946    -9.5217  -999.2500  -999.2500  -999.2500
 1364.0000  1440.7266   176.3933    76.8883      .6855      .6643      .6932    -9.5381  -999.2500  -999.2500  -999.2500
 1364.5000  1435.7559   176.0979    77.1145      .6892      .6667      .6912    -9.5544  -999.2500  -999.2500  -999.2500
 1365.0000  1432.6992   175.5986    77.5116      .6965      .6693      .6888    -9.5708  -999.2500  -999.2500  -999.2500
 1365.5000  1423.2129   173.3767    78.0979      .7038      .6721      .6902    -9.8141  -999.2500  -999.2500  -999.2500
 1366.0000  1402.8242   171.1934    78.2994      .7124      .6836      .6935   -10.0706  -999.2500  -999.2500  -999.2500
 1366.5000  1371.8613   169.4343    74.4236      .7223      .6986      .7102   -10.4838  -999.2500  -999.2500  -999.2500
 1367.0000  1340.6738   168.3748    72.2373      .7339      .7050      .7331   -10.9146  -999.2500  -999.2500  -999.2500
 1367.5000  1317.7285   169.1404    70.3054      .7481      .7092      .7602   -11.1527  -999.2500  -999.2500  -999.2500
 1368.0000  1293.9414   171.3379    71.5299      .7625      .7128      .7953   -11.3909  -999.2500  -999.2500  -999.2500
 1368.5000  1263.0957   174.4058    77.9690      .7749      .7155      .7962   -11.4645  -999.2500  -999.2500  -999.2500
