~VERSION INFORMATION
VERS.                             2.0:   CWLS Log ASCII Standard-VERSION 2.0
WRAP.                              NO:   One line per depth step
~Well Information Block
STRT.F                      1319.0000:   Top Depth
STOP.F                      7911.0000:   Bottom Depth
STEP.F                         .50000:   Depth Increment
NULL.                        -999.250:   Null Value
FLD .                    MU BLK A 167:   Field Name
WELL.       OCSG08096   001 ST00 BP00:   NAME
API .                    427124009800:   WELL API
EDF .F                        84.0000:   ELEV DRILL FLOOR
COMP.         UNION PACIFIC RESOURCES:   OPERATOR
BN  .                           A 167:   BLOCK
CTRY.                             USA:   COUNTRY NAME
CNTY.                        M I E AD:   COUNTY NAME
EKB .F                        85.0000:   ELEV KELLY BUSHING
TDD .F                       7913.000:   FINAL TD DRILLER
STAT.                           TEXAS:   STATE NAME
UWI .                    427124009800:   WELL API
DICO.               IHS : Digitizing Company
~PARAMETER INFORMATION (zones)
#MNEM.UNIT                       Value     Description
#=========                       =====     ===========
#ZONATION                          DIL:   ZONATION NAME
#ZONE                            RUN_2:   ZONE NAME
TOP .                       4520.0000:   TOP DEPTH
BOT .                       7911.0000:   BOTTOM DEPTH
RUN .                               2:   RUN NUMBER
LCCD.                             440:   LOGGING CONTRACTOR
SRVC.                    Schlumberger:   LOGGING CONT NAME
DICO.          QC Data Collectors Ltd:   DIG COMPANY NAME
LDAT.                      05/30/1988:   DATE LOGGED
ELD .F                        85.0000:   LOG DATUM ELEVATION
TDD .F                      7904.0000:   TOTAL DEPTH DRILLER
TDL .F                      7913.0000:   TOTAL DEPTH LOGGER
BOTL.F                      7911.0000:   BOTTOM DEPTH LOGGED
TOPL.F                      4520.0000:   TOP DEPTH LOGGED
CS1 .IN                       13.3750:   CASING SIZE 1
BS1 .IN                       12.2500:   BIT SIZE 1
DDB1.F                      7904.0000:   DEPTH DRILLED BIT 1
BHF .                              80:   FLUID CODE
DPT .                      Salt Water:   DRILLING FLUID TYPE
MUDD.                         13.3000:   FLUID DENSITY
MUDV.                         44.0000:   FLUID VISCOSITY
DFPH.                          9.6000:   FLUID PH
FL  .                         11.9000:   FLUID LOSS
RM  .OHMM                       .2330:   RM
RMT .DEGF                     75.0000:   RM TEMP
RMF .OHMM                       .1510:   RMF
RMFT.DEGF                     75.0000:   RMF TEMP
FSC .                               M:   RMF CODE
RMC .OHMM                       .4890:   RMC
RMCT.DEGF                     75.0000:   RMC TEMP
CMC .                               M:   RMC CODE
TMAX.DEGF                    182.0000:   MAX REC TEMP
TIMC.                         10.7500:   TIME SINCE CIRCLN
~PARAMETER INFORMATION (zones)
#MNEM.UNIT                       Value     Description
#=========                       =====     ===========
#ZONATION                          DIL:   ZONATION NAME
#ZONE                            RUN_1:   ZONE NAME
TOP .                       1319.0000:   TOP DEPTH
BOT .                       7911.5000:   BOTTOM DEPTH
RUN .                               1:   RUN NUMBER
LCCD.                             440:   LOGGING CONTRACTOR
SRVC.                    Schlumberger:   LOGGING CONT NAME
DICO.          QC Data Collectors Ltd:   DIG COMPANY NAME
LDAT.                      05/21/1988:   DATE LOGGED
ELD .F                        85.0000:   LOG DATUM ELEVATION
TDD .F                      4550.0000:   TOTAL DEPTH DRILLER
TDL .F                      4551.0000:   TOTAL DEPTH LOGGER
BOTL.F                      4549.0000:   BOTTOM DEPTH LOGGED
TOPL.F                      1394.0000:   TOP DEPTH LOGGED
CS1 .IN                       20.0000:   CASING SIZE 1
BS1 .IN                       17.5000:   BIT SIZE 1
DDB1.F                      4550.0000:   DEPTH DRILLED BIT 1
BHF .                              80:   FLUID CODE
DPT .                      Salt Water:   DRILLING FLUID TYPE
MUDD.                         10.0000:   FLUID DENSITY
MUDV.                         38.0000:   FLUID VISCOSITY
DFPH.                          8.4000:   FLUID PH
FL  .                            NULL:   FLUID LOSS
RM  .OHMM                       .3040:   RM
RMT .DEGF                     82.0000:   RM TEMP
RMF .OHMM                       .2310:   RMF
RMFT.DEGF                     82.0000:   RMF TEMP
FSC .                               M:   RMF CODE
RMC .OHMM                       .4210:   RMC
RMCT.DEGF                     82.0000:   RMC TEMP
CMC .                               M:   RMC CODE
TMAX.DEGF                    130.0000:   MAX REC TEMP
TIMC.                          5.0000:   TIME SINCE CIRCLN
~Curve Information Block
#MNEM.UNIT                    API CODE    No Description
#=========                    ========    == ===========
DEPT.F                   00 001 00 00:     1  DEPTH
DCAL.IN                              :     2  Differential Caliper
DT.US/F                              :     3  Sonic Transit Time
GR.GAPI                              :     4  Gamma Ray
ILD.OHMM                             :     5  Deep Induction Resistivity
ILM.OHMM                             :     6  Medium Induction Resistivity
SFL.OHMM                             :     7  Medium Resistivity
SP.MV                                :     8  Spontaneous Potential
~ASCII
# ...
 6142.0000     1.3551   118.5526    68.1345      .5188      .5114      .6437   -54.3963
 6142.5000     1.4278   118.9680    68.9503      .5082      .4996      .6413   -54.6967
 6143.0000     1.4839   120.0972    68.2917      .4977      .4873      .6334   -54.4991
 6143.5000     1.5322   121.8600    65.5160      .4874      .4763      .6219   -54.2459
 6144.0000     1.5623   123.8275    62.6907      .4784      .4665      .6107   -53.9085
 6144.5000     1.5831   126.2046    60.8101      .4697      .4598      .6067   -53.7994
 6145.0000     1.5928   129.2556    61.5010      .4645      .4580      .6034   -53.8278
 6145.5000     1.5294   129.2881    63.9090      .4624      .4595      .6040   -54.0735
 6146.0000     1.5053   124.1346    66.2068      .4629      .4654      .6047   -54.2056
 6146.5000     1.3198   121.3281    67.3422      .4673      .4756      .6057   -54.0031
 6147.0000     1.1730   119.2058    67.1075      .4724      .4893      .6073   -53.7141
 6147.5000     1.0477   117.1509    65.7710      .4848      .5040      .6114   -53.5927
 6148.0000      .8635   114.9861    64.1194      .4975      .5195      .6155   -53.7120
 6148.5000      .6343   113.8057    63.2213      .5141      .5341      .6230   -53.6987
 6149.0000      .5433   113.1447    63.8991      .5313      .5485      .6306   -53.5863
 6149.5000      .5432   112.5865    64.7559      .5451      .5555      .6391   -53.2403
 6150.0000      .6181   111.9336    64.4840      .5545      .5555      .6472   -52.8580
 6150.5000      .7489   111.6902    62.4945      .5580      .5442      .6514   -52.4937
 6151.0000      .9196   113.9948    63.0250      .5538      .5338      .6460   -52.2461
 6151.5000     1.0597   117.9949    65.4070      .5445      .5254      .6259   -52.2387
 6152.0000     1.1754   124.4418    67.2122      .5362      .5184      .6178   -52.3058
 6152.5000     1.2007   131.4480    67.8132      .5289      .5126      .6151   -52.5522
 6153.0000     1.1678   134.2969    67.3774      .5225      .5078      .6169   -52.8317
 6153.5000     1.0524   132.1196    66.7917      .5191      .5050      .6126   -53.2133
 6154.0000      .9290   127.6428    66.2706      .5157      .5038      .6091   -53.5659
 6154.5000      .8547   122.8538    65.7648      .5151      .5062      .6208   -53.8871
 6155.0000      .8706   119.3756    65.2207      .5156      .5092      .6342   -53.9615
 6155.5000      .9540   117.6465    64.6759      .5170      .5126      .6411   -53.8494
 6156.0000     1.0594   117.1465    64.0532      .5213      .5179      .6347   -53.6148
 6156.5000     1.0343   118.6316    63.3853      .5257      .5237      .6293   -53.7985
 6157.0000      .9633   118.9811    62.4493      .5268      .5308      .6277   -53.9830
 6157.5000      .8875   118.0372    61.2559      .5279      .5351      .6307   -54.1377
 6158.0000      .9203   117.3781    59.9064      .5266      .5358      .6289   -54.0859
 6158.5000      .9369   117.7527    58.8298      .5248      .5352      .6241   -54.0252
 6159.0000      .9379   118.4399    58.7921      .5277      .5344      .6115   -53.9993
 6159.5000      .8410   118.1134    60.6430      .5321      .5390      .6000   -53.9904
 6160.0000      .7398   116.7576    64.4265      .5365      .5446      .6008   -53.9895
 6160.5000      .6622   115.2008    68.2867      .5419      .5524      .6072   -54.0323
 6161.0000      .6582   114.0186    69.3416      .5488      .5560      .6267   -54.1047
 6161.5000      .6660   113.7548    70.2974      .5572      .5581      .6406   -54.2902
 6162.0000      .6442   113.7539    71.2147      .5664      .5618      .6496   -54.4988
 6162.5000      .5920   113.2520    71.7557      .5693      .5648      .6549   -54.7330
 6163.0000      .5053   112.3718    68.1630      .5709      .5664      .6600   -55.0107
 6163.5000      .3470   111.6553    65.8453      .5638      .5624      .6551   -55.3245
 6164.0000      .2125   111.4717    64.4902      .5554      .5564      .6452   -55.6536
 6164.5000      .1834   113.3207    65.4454      .5429      .5496      .6269   -55.5767
 6165.0000      .3475   116.2469    66.6401      .5348      .5424      .6240   -55.3852
 6165.5000      .5257   118.0061    67.5681      .5290      .5352      .6222   -55.1647
 6166.0000      .7047   117.9249    68.2867      .5254      .5308      .6237   -55.1635
 6166.5000      .7935   116.2870    68.1926      .5229      .5272      .6296   -55.4678
 6167.0000      .8494   115.1084    66.5658      .5208      .5260      .6384   -55.6198
 6167.5000      .8504   112.9561    64.4537      .5192      .5256      .6466   -55.5010
 6168.0000      .8773   111.2133    63.9715      .5180      .5253      .6548   -55.1815
 6168.5000      .9465   110.0659    63.6218      .5186      .5249      .6579   -55.1575
 6169.0000     1.0385   110.6340    63.0981      .5192      .5249      .6605   -55.1752
 6169.5000     1.1441   113.1633    61.7770      .5198      .5250      .6463   -55.0812
 6170.0000     1.2271   115.5229    60.3570      .5207      .5266      .6324   -54.7551
 6170.5000     1.2500   116.9137    59.8841      .5226      .5295      .6205   -54.2759
 6171.0000     1.1662   117.6403    61.3091      .5246      .5325      .6160   -53.9187
 6171.5000     1.0452   117.0260    62.5255      .5303      .5358      .6199   -53.7065
 6172.0000      .9531   115.8899    62.8529      .5361      .5403      .6293   -53.6603
 6172.5000      .9862   114.0597    62.2283      .5458      .5475      .6415   -53.9595
 6173.0000     1.0457   113.1384    60.7631      .5558      .5555      .6483   -53.9854
 6173.5000     1.0722   112.4991    58.8849      .5664      .5671      .6553   -54.0837
 6174.0000     1.0775   111.2932    57.2718      .5769      .5773      .6653   -54.4180
 6174.5000     1.0924   109.1783    58.5680      .5864      .5805      .6778   -54.8250
 6175.0000     1.1100   107.6926    61.3883      .5938      .5838      .6922   -55.1922
 6175.5000     1.1753   107.7476    63.2225      .5983      .5807      .6952   -55.2805
 6176.0000     1.2483   109.2632    63.4398      .5992      .5738      .6911   -55.2257
 6176.5000     1.3274   111.0023    61.9850      .5981      .5647      .6843   -55.1357
 6177.0000     1.4084   111.9624    60.0140      .5996      .5642      .6849   -55.0905
 6177.5000     1.4077   112.2804    58.2474      .6019      .5658      .6915   -55.0933
 6178.0000     1.3273   112.0378    57.3386      .6001      .5703      .6988   -55.2291
 6178.5000     1.1483   111.5011    55.9767      .5966      .5715      .7044   -55.5802
 6179.0000     1.0695   110.9835    54.8575      .5902      .5693      .7070   -55.7297
 6179.5000     1.0234   111.4755    55.3045      .5818      .5633      .7061   -55.3828
 6180.0000     1.0775   113.0310    56.5277      .5745      .5562      .7041   -55.1227
 6180.5000     1.1301   114.7838    57.6160      .5685      .5500      .6927   -55.4360
 6181.0000     1.1746   116.3899    56.4831      .5622      .5483      .6812   -55.5242
 6181.5000     1.1944   116.7979    54.0540      .5551      .5463      .6699   -55.4028
 6182.0000     1.1642   116.4586    51.7116      .5460      .5439      .6672   -55.1412
 6182.5000     1.1132   116.8475    51.8076      .5360      .5320      .6731   -55.0776
 6183.0000     1.0443   119.4005    53.3929      .5278      .5207      .6709   -55.4236
 6183.5000     1.0365   121.9698    55.4679      .5205      .5115      .6601   -55.6923
 6184.0000     1.0380   124.2670    59.1970      .5161      .5069      .6277   -55.8735
 6184.5000     1.0628   124.5392    63.0126      .5127      .5038      .6248   -55.8723
 6185.0000     1.0357   121.7102    65.2856      .5119      .5017      .6346   -55.8711
 6185.5000      .9479   118.8513    66.2452      .5114      .5000      .6433   -55.8801
 6186.0000      .7756   117.0635    66.7980      .5102      .4995      .6471   -55.9099
 6186.5000      .6550   116.6017    67.1753      .5089      .4996      .6423   -56.0305
 6187.0000      .5722   117.3494    67.1332      .5057      .4991      .6318   -56.1512
