~VERSION INFORMATION
VERS.                             2.0:   CWLS Log ASCII Standard-VERSION 2.0
WRAP.                              NO:   One line per depth step
~Well Information Block
STRT.F                      1319.0000:   Top Depth
STOP.F                      7911.0000:   Bottom Depth
STEP.F                         .50000:   Depth Increment
NULL.                        -999.250:   Null Value
FLD .                    MU BLK A 167:   Field Name
WELL.       OCSG08096   001 ST00 BP00:   NAME
API .                    427124009800:   WELL API
EDF .F                        84.0000:   ELEV DRILL FLOOR
COMP.         UNION PACIFIC RESOURCES:   OPERATOR
BN  .                           A 167:   BLOCK
CTRY.                             USA:   COUNTRY NAME
CNTY.                        M I E AD:   COUNTY NAME
EKB .F                        85.0000:   ELEV KELLY BUSHING
TDD .F                       7913.000:   FINAL TD DRILLER
STAT.                           TEXAS:   STATE NAME
UWI .                    427124009800:   WELL API
DICO.               IHS : Digitizing Company
~PARAMETER INFORMATION (zones)
#MNEM.UNIT                       Value     Description
#=========                       =====     ===========
#ZONATION                          DIL:   ZONATION NAME
#ZONE                            RUN_2:   ZONE NAME
TOP .                       4520.0000:   TOP DEPTH
BOT .                       7911.0000:   BOTTOM DEPTH
RUN .                               2:   RUN NUMBER
LCCD.                             440:   LOGGING CONTRACTOR
SRVC.                    Schlumberger:   LOGGING CONT NAME
DICO.          QC Data Collectors Ltd:   DIG COMPANY NAME
LDAT.                      05/30/1988:   DATE LOGGED
ELD .F                        85.0000:   LOG DATUM ELEVATION
TDD .F                      7904.0000:   TOTAL DEPTH DRILLER
TDL .F                      7913.0000:   TOTAL DEPTH LOGGER
BOTL.F                      7911.0000:   BOTTOM DEPTH LOGGED
TOPL.F                      4520.0000:   TOP DEPTH LOGGED
CS1 .IN                       13.3750:   CASING SIZE 1
BS1 .IN                       12.2500:   BIT SIZE 1
DDB1.F                      7904.0000:   DEPTH DRILLED BIT 1
BHF .                              80:   FLUID CODE
DPT .                      Salt Water:   DRILLING FLUID TYPE
MUDD.                         13.3000:   FLUID DENSITY
MUDV.                         44.0000:   FLUID VISCOSITY
DFPH.                          9.6000:   FLUID PH
FL  .                         11.9000:   FLUID LOSS
RM  .OHMM                       .2330:   RM
RMT .DEGF                     75.0000:   RM TEMP
RMF .OHMM                       .1510:   RMF
RMFT.DEGF                     75.0000:   RMF TEMP
FSC .                               M:   RMF CODE
RMC .OHMM                       .4890:   RMC
RMCT.DEGF                     75.0000:   RMC TEMP
CMC .                               M:   RMC CODE
TMAX.DEGF                    182.0000:   MAX REC TEMP
TIMC.                         10.7500:   TIME SINCE CIRCLN
~PARAMETER INFORMATION (zones)
#MNEM.UNIT                       Value     Description
#=========                       =====     ===========
#ZONATION                          DIL:   ZONATION NAME
#ZONE                            RUN_1:   ZONE NAME
TOP .                       1319.0000:   TOP DEPTH
BOT .                       7911.5000:   BOTTOM DEPTH
RUN .                               1:   RUN NUMBER
LCCD.                             440:   LOGGING CONTRACTOR
SRVC.                    Schlumberger:   LOGGING CONT NAME
DICO.          QC Data Collectors Ltd:   DIG COMPANY NAME
LDAT.                      05/21/1988:   DATE LOGGED
ELD .F                        85.0000:   LOG DATUM ELEVATION
TDD .F                      4550.0000:   TOTAL DEPTH DRILLER
TDL .F                      4551.0000:   TOTAL DEPTH LOGGER
BOTL.F                      4549.0000:   BOTTOM DEPTH LOGGED
TOPL.F                      1394.0000:   TOP DEPTH LOGGED
CS1 .IN                       20.0000:   CASING SIZE 1
BS1 .IN                       17.5000:   BIT SIZE 1
DDB1.F                      4550.0000:   DEPTH DRILLED BIT 1
BHF .                              80:   FLUID CODE
DPT .                      Salt Water:   DRILLING FLUID TYPE
MUDD.                         10.0000:   FLUID DENSITY
MUDV.                         38.0000:   FLUID VISCOSITY
DFPH.                          8.4000:   FLUID PH
FL  .                            NULL:   FLUID LOSS
RM  .OHMM                       .3040:   RM
RMT .DEGF                     82.0000:   RM TEMP
RMF .OHMM                       .2310:   RMF
RMFT.DEGF                     82.0000:   RMF TEMP
FSC .                               M:   RMF CODE
RMC .OHMM                       .4210:   RMC
RMCT.DEGF                     82.0000:   RMC TEMP
CMC .                               M:   RMC CODE
TMAX.DEGF                    130.0000:   MAX REC TEMP
TIMC.                          5.0000:   TIME SINCE CIRCLN
~Curve Information Block
#MNEM.UNIT                    API CODE    No Description
#=========                    ========    == ===========
DEPT.F                   00 001 00 00:     1  DEPTH
DCAL.IN                              :     2  Differential Caliper
DT.US/F                              :     3  Sonic Transit Time
GR.GAPI                              :     4  Gamma Ray
ILD.OHMM                             :     5  Deep Induction Resistivity
ILM.OHMM                             :     6  Medium Induction Resistivity
SFL.OHMM                             :     7  Medium Resistivity
SP.MV                                :     8  Spontaneous Potential
~ASCII
# ...
 2684.0000  -999.2500   159.5476    65.9868      .7365      .6522      .7280   -60.8113
 2684.5000  -999.2500   158.7068    66.4996      .7376      .6627      .7283   -60.6671
 2685.0000  -999.2500   157.5842    66.7932      .7447      .6732      .7398   -60.5587
 2685.5000  -999.2500   155.8516    66.9573      .7552      .6843      .7600   -60.4990
 2686.0000  -999.2500   152.9988    66.8770      .7757      .6966      .7861   -60.5288
 2686.5000  -999.2500   149.5913    65.5847      .8031      .7119      .8079   -60.5920
 2687.0000  -999.2500   147.7642    64.3866      .8229      .7279      .8209   -60.6631
 2687.5000  -999.2500   147.1230    63.5599      .8352      .7413      .8233   -60.6960
 2688.0000  -999.2500   148.5986    63.2285      .8354      .7461      .8202   -60.8031
 2688.5000  -999.2500   151.4226    63.5714      .8285      .7454      .8147   -60.8561
 2689.0000  -999.2500   154.3254    64.1926      .8205      .7408      .8057   -60.7302
 2689.5000  -999.2500   156.7715    64.2015      .8058      .7315      .7917   -60.6535
 2690.0000  -999.2500   158.6389    62.2337      .7893      .7172      .7763   -61.1091
 2690.5000  -999.2500   159.9148    61.0065      .7670      .7028      .7615   -61.2149
 2691.0000  -999.2500   160.8108    61.3313      .7494      .6905      .7453   -60.9522
 2691.5000  -999.2500   161.1611    62.0944      .7372      .6800      .7312   -61.0458
 2692.0000  -999.2500   160.9875    62.0424      .7315      .6742      .7235   -61.3568
 2692.5000  -999.2500   160.5010    61.7502      .7319      .6699      .7212   -61.4559
 2693.0000  -999.2500   160.2239    62.6304      .7352      .6658      .7279   -61.2762
 2693.5000  -999.2500   160.7644    64.5161      .7390      .6625      .7372   -61.0673
 2694.0000  -999.2500   161.3616    66.2555      .7431      .6593      .7482   -61.2988
 2694.5000  -999.2500   161.7976    66.7593      .7437      .6567      .7494   -61.4417
 2695.0000  -999.2500   162.1062    64.6002      .7428      .6561      .7487   -61.3676
 2695.5000  -999.2500   162.3115    61.0293      .7390      .6572      .7453   -61.2646
 2696.0000  -999.2500   162.1492    62.1116      .7352      .6583      .7413   -61.1772
 2696.5000  -999.2500   161.5930    64.5304      .7340      .6605      .7350   -61.0361
 2697.0000  -999.2500   160.6743    66.5619      .7332      .6652      .7287   -60.8903
 2697.5000  -999.2500   159.8936    68.3549      .7344      .6706      .7242   -60.8372
 2698.0000  -999.2500   159.6382    67.0974      .7372      .6765      .7221   -60.9276
 2698.5000  -999.2500   159.7212    64.2352      .7430      .6830      .7249   -60.9484
 2699.0000  -999.2500   159.7617    62.3010      .7502      .6894      .7330   -60.9041
 2699.5000  -999.2500   159.4790    63.2376      .7594      .6946      .7480   -60.7777
 2700.0000  -999.2500   157.1897    64.5142      .7770      .7024      .7702   -60.5882
 2700.5000  -999.2500   155.7063    64.8972      .7855      .7055      .7882   -60.7418
 2701.0000  -999.2500   153.9458    63.9825      .7910      .7112      .7996   -60.8568
 2701.5000  -999.2500   152.7051    62.9035      .7930      .7163      .8061   -60.8088
 2702.0000  -999.2500   152.7852    62.2324      .7930      .7216      .8060   -60.7417
 2702.5000  -999.2500   153.7227    61.0176      .7895      .7274      .8000   -60.7203
 2703.0000  -999.2500   154.8372    59.0816      .7821      .7317      .7908   -60.7047
 2703.5000  -999.2500   155.2363    59.2539      .7746      .7328      .7822   -60.7715
 2704.0000  -999.2500   155.0710    62.3092      .7727      .7329      .7808   -60.8439
 2704.5000  -999.2500   154.7615    63.9013      .7737      .7277      .7849   -60.9344
 2705.0000  -999.2500   154.6294    63.9227      .7738      .7211      .7845   -61.1545
 2705.5000  -999.2500   154.6948    62.7355      .7720      .7145      .7833   -61.2862
 2706.0000  -999.2500   155.0237    61.0710      .7661      .7092      .7804   -61.1412
 2706.5000  -999.2500   155.4553    61.3566      .7580      .7040      .7734   -60.8616
 2707.0000  -999.2500   156.1709    64.4485      .7499      .6962      .7662   -60.7336
 2707.5000  -999.2500   157.1973    67.2373      .7376      .6867      .7586   -60.7751
 2708.0000  -999.2500   158.6826    69.9047      .7283      .6727      .7508   -60.9260
 2708.5000  -999.2500   160.1365    71.3188      .7236      .6576      .7447   -60.9843
 2709.0000  -999.2500   161.7278    71.2609      .7200      .6508      .7366   -61.0356
 2709.5000  -999.2500   162.7976    68.7594      .7169      .6494      .7265   -61.1396
 2710.0000  -999.2500   163.1731    65.1760      .7135      .6490      .7144   -61.2216
 2710.5000  -999.2500   163.1284    63.9908      .7086      .6489      .7054   -61.3259
 2711.0000  -999.2500   162.5654    63.6976      .7019      .6487      .6989   -61.5478
 2711.5000  -999.2500   161.6531    62.9841      .6956      .6468      .6957   -62.2687
 2712.0000  -999.2500   160.8279    61.8456      .6913      .6470      .6965   -62.9460
 2712.5000  -999.2500   160.2148    63.2623      .6893      .6472      .7015   -61.4971
 2713.0000  -999.2500   159.8086    66.4713      .6886      .6468      .7119   -60.5220
 2713.5000  -999.2500   159.5142    70.9197      .6905      .6474      .7157   -61.2307
 2714.0000  -999.2500   159.3059    71.3982      .6937      .6516      .7111   -61.7523
 2714.5000  -999.2500   159.2097    69.1696      .6908      .6520      .7049   -61.8152
 2715.0000  -999.2500   159.2095    67.7560      .6899      .6519      .7016   -61.7252
 2715.5000  -999.2500   159.0674    69.9047      .6937      .6532      .7040   -61.6247
 2716.0000  -999.2500   158.7800    74.8154      .6956      .6591      .7085   -61.1897
 2716.5000  -999.2500   158.4495    76.5314      .6972      .6659      .7151   -60.5942
 2717.0000  -999.2500   158.1555    75.5726      .7037      .6743      .7228   -60.7010
 2717.5000  -999.2500   157.4353    74.4362      .7110      .6887      .7350   -61.0580
 2718.0000  -999.2500   156.0447    73.3119      .7184      .7033      .7519   -61.1441
 2718.5000  -999.2500   154.4402    72.2744      .7309      .7168      .7705   -61.0895
 2719.0000  -999.2500   153.0840    71.2675      .7460      .7215      .7882   -60.9415
 2719.5000  -999.2500   152.4937    69.5464      .7630      .7283      .8057   -60.8770
 2720.0000  -999.2500   152.9277    66.5803      .7689      .7325      .8109   -60.8496
 2720.5000  -999.2500   153.6814    64.5562      .7726      .7354      .8015   -60.8411
 2721.0000  -999.2500   154.3667    64.7341      .7675      .7334      .7894   -60.9373
 2721.5000  -999.2500   155.1001    68.1483      .7570      .7290      .7761   -61.0980
 2722.0000  -999.2500   155.9014    71.7898      .7482      .7263      .7665   -61.2118
 2722.5000  -999.2500   156.7468    73.3278      .7384      .7231      .7572   -61.1890
 2723.0000  -999.2500   157.6575    73.6407      .7306      .7161      .7482   -61.1616
 2723.5000  -999.2500   158.4287    73.8806      .7274      .7056      .7413   -61.1208
 2724.0000  -999.2500   158.6624    74.3224      .7227      .6966      .7349   -61.0818
 2724.5000  -999.2500   158.5964    75.1959      .7181      .6905      .7295   -61.0795
 2725.0000  -999.2500   158.4067    76.8035      .7167      .6872      .7270   -61.0886
 2725.5000  -999.2500   158.1770    78.1235      .7160      .6840      .7285   -61.0801
 2726.0000  -999.2500   157.9104    76.2941      .7124      .6844      .7323   -60.9695
 2726.5000  -999.2500   157.5859    73.6144      .7117      .6875      .7373   -60.6409
 2727.0000  -999.2500   157.2966    72.5245      .7115      .6900      .7394   -60.2930
 2727.5000  -999.2500   156.8950    71.7985      .7102      .6925      .7430   -60.1744
 2728.0000  -999.2500   156.4675    69.9504      .7137      .6950      .7473   -60.1590
 2728.5000  -999.2500   156.0063    66.4998      .7147      .6992      .7473   -60.2666
 2729.0000  -999.2500   155.6172    65.2207      .7109      .7052      .7451   -60.5240
