~VERSION INFORMATION
VERS.                             2.0:   CWLS Log ASCII Standard-VERSION 2.0
WRAP.                              NO:   One line per depth step
~Well Information Block
STRT.F                      1319.0000:   Top Depth
STOP.F                      7911.0000:   Bottom Depth
STEP.F                         .50000:   Depth Increment
NULL.                        -999.250:   Null Value
FLD .                    MU BLK A 167:   Field Name
WELL.       OCSG08096   001 ST00 BP00:   NAME
API .                    427124009800:   WELL API
EDF .F                        84.0000:   ELEV DRILL FLOOR
COMP.         UNION PACIFIC RESOURCES:   OPERATOR
BN  .                           A 167:   BLOCK
CTRY.                             USA:   COUNTRY NAME
CNTY.                        M I E AD:   COUNTY NAME
EKB .F                        85.0000:   ELEV KELLY BUSHING
TDD .F                       7913.000:   FINAL TD DRILLER
STAT.                           TEXAS:   STATE NAME
UWI .                    427124009800:   WELL API
DICO.               IHS : Digitizing Company
~PARAMETER INFORMATION (zones)
#MNEM.UNIT                       Value     Description
#=========                       =====     ===========
#ZONATION                          DIL:   ZONATION NAME
#ZONE                            RUN_2:   ZONE NAME
TOP .                       4520.0000:   TOP DEPTH
BOT .                       7911.0000:   BOTTOM DEPTH
RUN .                               2:   RUN NUMBER
LCCD.                             440:   LOGGING CONTRACTOR
SRVC.                    Schlumberger:   LOGGING CONT NAME
DICO.          QC Data Collectors Ltd:   DIG COMPANY NAME
LDAT.                      05/30/1988:   DATE LOGGED
ELD .F                        85.0000:   LOG DATUM ELEVATION
TDD .F                      7904.0000:   TOTAL DEPTH DRILLER
TDL .F                      7913.0000:   TOTAL DEPTH LOGGER
BOTL.F                      7911.0000:   BOTTOM DEPTH LOGGED
TOPL.F                      4520.0000:   TOP DEPTH LOGGED
CS1 .IN                       13.3750:   CASING SIZE 1
BS1 .IN                       12.2500:   BIT SIZE 1
DDB1.F                      7904.0000:   DEPTH DRILLED BIT 1
BHF .                              80:   FLUID CODE
DPT .                      Salt Water:   DRILLING FLUID TYPE
MUDD.                         13.3000:   FLUID DENSITY
MUDV.                         44.0000:   FLUID VISCOSITY
DFPH.                          9.6000:   FLUID PH
FL  .                         11.9000:   FLUID LOSS
RM  .OHMM                       .2330:   RM
RMT .DEGF                     75.0000:   RM TEMP
RMF .OHMM                       .1510:   RMF
RMFT.DEGF                     75.0000:   RMF TEMP
FSC .                               M:   RMF CODE
RMC .OHMM                       .4890:   RMC
RMCT.DEGF                     75.0000:   RMC TEMP
CMC .                               M:   RMC CODE
TMAX.DEGF                    182.0000:   MAX REC TEMP
TIMC.                         10.7500:   TIME SINCE CIRCLN
~PARAMETER INFORMATION (zones)
#MNEM.UNIT                       Value     Description
#=========                       =====     ===========
#ZONATION                          DIL:   ZONATION NAME
#ZONE                            RUN_1:   ZONE NAME
TOP .                       1319.0000:   TOP DEPTH
BOT .                       7911.5000:   BOTTOM DEPTH
RUN .                               1:   RUN NUMBER
LCCD.                             440:   LOGGING CONTRACTOR
SRVC.                    Schlumberger:   LOGGING CONT NAME
DICO.          QC Data Collectors Ltd:   DIG COMPANY NAME
LDAT.                      05/21/1988:   DATE LOGGED
ELD .F                        85.0000:   LOG DATUM ELEVATION
TDD .F                      4550.0000:   TOTAL DEPTH DRILLER
TDL .F                      4551.0000:   TOTAL DEPTH LOGGER
BOTL.F                      4549.0000:   BOTTOM DEPTH LOGGED
TOPL.F                      1394.0000:   TOP DEPTH LOGGED
CS1 .IN                       20.0000:   CASING SIZE 1
BS1 .IN                       17.5000:   BIT SIZE 1
DDB1.F                      4550.0000:   DEPTH DRILLED BIT 1
BHF .                              80:   FLUID CODE
DPT .                      Salt Water:   DRILLING FLUID TYPE
MUDD.                         10.0000:   FLUID DENSITY
MUDV.                         38.0000:   FLUID VISCOSITY
DFPH.                          8.4000:   FLUID PH
FL  .                            NULL:   FLUID LOSS
RM  .OHMM                       .3040:   RM
RMT .DEGF                     82.0000:   RM TEMP
RMF .OHMM                       .2310:   RMF
RMFT.DEGF                     82.0000:   RMF TEMP
FSC .                               M:   RMF CODE
RMC .OHMM                       .4210:   RMC
RMCT.DEGF                     82.0000:   RMC TEMP
CMC .                               M:   RMC CODE
TMAX.DEGF                    130.0000:   MAX REC TEMP
TIMC.                          5.0000:   TIME SINCE CIRCLN
~Curve Information Block
#MNEM.UNIT                    API CODE    No Description
#=========                    ========    == ===========
DEPT.F                   00 001 00 00:     1  DEPTH
DCAL.IN                              :     2  Differential Caliper
DT.US/F                              :     3  Sonic Transit Time
GR.GAPI                              :     4  Gamma Ray
ILD.OHMM                             :     5  Deep Induction Resistivity
ILM.OHMM                             :     6  Medium Induction Resistivity
SFL.OHMM                             :     7  Medium Resistivity
SP.MV                                :     8  Spontaneous Potential
~ASCII
# ...
 7006.5000     1.5233   114.2806    57.7421      .4288      .4377      .5982   -49.4996
 7007.0000     1.5492   115.2080    59.3847      .4270      .4345      .5943   -49.6111
 7007.5000     1.5486   115.8943    59.4594      .4252      .4314      .5874   -49.4999
 7008.0000     1.4875   116.2343    57.8304      .4234      .4300      .5784   -48.7943
 7008.5000     1.4017   115.8455    57.2828      .4236      .4300      .5818   -48.3307
 7009.0000     1.3039   115.5724    58.3394      .4242      .4300      .5875   -48.5183
 7009.5000     1.2255   115.2206    61.4854      .4248      .4312      .5906   -48.8503
 7010.0000     1.1598   114.7137    64.3153      .4256      .4327      .5930   -49.3593
 7010.5000     1.1749   113.6919    65.3333      .4264      .4342      .5953   -49.7315
 7011.0000     1.2339   112.5532    62.2321      .4277      .4379      .5975   -49.7794
 7011.5000     1.2177   112.2507    59.5726      .4304      .4416      .5933   -49.8667
 7012.0000     1.2015   112.1776    60.0767      .4332      .4457      .5880   -50.1131
 7012.5000     1.1596   112.8069    63.7254      .4360      .4502      .5859   -50.3549
 7013.0000     1.1172   113.3494    67.4189      .4389      .4544      .5850   -50.3458
 7013.5000     1.0956   112.8481    69.4064      .4419      .4547      .5852   -49.9821
 7014.0000     1.0837   112.3475    66.6226      .4449      .4550      .5882   -49.5845
 7014.5000     1.0859   111.4771    62.3466      .4479      .4555      .5912   -49.4493
 7015.0000     1.1020   110.6165    59.1881      .4510      .4565      .5959   -49.3561
 7015.5000     1.1141   109.8665    58.2006      .4541      .4575      .6011   -49.9143
 7016.0000     1.0827   109.5491    58.8036      .4573      .4609      .6056   -50.5540
 7016.5000     1.0513   109.4718    60.1102      .4604      .4649      .6099   -51.2375
 7017.0000     1.0240   109.1014    61.4045      .4633      .4686      .6134   -51.2283
 7017.5000      .9979   108.6484    62.3129      .4662      .4718      .6165   -51.2105
 7018.0000     1.0193   107.5623    62.7673      .4692      .4749      .6167   -51.1846
 7018.5000     1.0521   106.6691    62.8475      .4722      .4787      .6150   -51.2039
 7019.0000     1.0731   106.4178    62.9706      .4756      .4827      .6152   -51.5001
 7019.5000     1.0760   107.0404    63.5674      .4797      .4867      .6175   -51.7390
 7020.0000     1.0781   107.3113    64.0825      .4839      .4905      .6152   -51.8533
 7020.5000     1.0433   107.3954    64.4266      .4885      .4944      .6107   -51.9539
 7021.0000     1.0085   107.6841    63.3820      .4932      .4982      .6108   -51.8208
 7021.5000      .9479   107.2015    58.6480      .5007      .5020      .6118   -51.6878
 7022.0000      .8752   106.5504    54.6956      .5108      .5059      .6220   -51.4886
 7022.5000      .8929   105.9104    53.2446      .5140      .5098      .6324   -51.2736
 7023.0000      .9370   105.6013    53.4760      .5029      .5056      .6357   -51.0856
 7023.5000      .9726   105.8185    55.1486      .4906      .5004      .6337   -50.9018
 7024.0000     1.0083   106.7147    57.0103      .4792      .4931      .6208   -50.9421
 7024.5000     1.0314   108.9646    58.8720      .4689      .4850      .6081   -51.0320
 7025.0000     1.0458   111.5520    60.0854      .4610      .4776      .5956   -50.9998
 7025.5000     1.0867   113.4669    60.1190      .4533      .4718      .5861   -50.7889
 7026.0000     1.0733   114.7993    57.4608      .4465      .4661      .5859   -50.5496
 7026.5000      .9690   113.2231    55.0590      .4402      .4619      .5891   -50.2933
 7027.0000      .9227   111.8569    53.1973      .4366      .4575      .6007   -50.6411
 7027.5000      .9985   111.1007    52.5594      .4378      .4520      .6053   -51.2534
 7028.0000     1.0919   111.3951    53.7361      .4421      .4481      .6033   -51.9851
 7028.5000     1.2162   111.6857    55.4000      .4509      .4458      .6039   -52.7280
 7029.0000     1.2215   110.9865    57.4061      .4591      .4450      .6058   -52.9036
 7029.5000     1.2391   109.8083    59.3798      .4644      .4478      .6140   -52.9029
 7030.0000     1.2709   108.5271    60.5972      .4698      .4519      .6305   -52.8754
 7030.5000     1.2205   107.2772    59.5864      .4730      .4575      .6283   -52.9664
 7031.0000     1.0801   106.3773    57.7831      .4743      .4629      .6257   -53.3826
 7031.5000      .8935   105.8667    56.6382      .4735      .4673      .6353   -53.4359
 7032.0000      .8456   106.3922    56.2555      .4745      .4671      .6475   -53.0062
 7032.5000     1.0471   109.1171    56.2432      .4743      .4603      .6636   -52.3796
 7033.0000     1.3160   112.3669    56.5704      .4707      .4481      .6646   -51.8831
 7033.5000     1.5856   114.0194    57.1547      .4650      .4429      .6469   -51.4944
 7034.0000     1.7823   113.8656    58.4501      .4580      .4424      .6211   -51.5122
 7034.5000     1.7755   113.2906    59.4781      .4523      .4445      .6320   -51.6157
 7035.0000     1.6144   112.5607    60.1280      .4477      .4479      .6420   -51.6904
 7035.5000     1.6062   112.0957    60.4195      .4464      .4490      .6500   -51.8528
 7036.0000     1.6769   111.7454    60.5408      .4471      .4485      .6558   -52.1139
 7036.5000     1.7171   112.0776    59.9721      .4482      .4489      .6568   -52.3073
 7037.0000     1.6786   112.4364    59.2242      .4507      .4501      .6573   -52.4022
 7037.5000     1.5092   112.3563    58.5870      .4533      .4519      .6561   -52.4966
 7038.0000     1.4232   112.3909    57.9760      .4559      .4543      .6547   -52.5880
 7038.5000     1.3874   112.5586    58.3394      .4585      .4557      .6508   -52.6742
 7039.0000     1.3963   113.2869    61.3137      .4610      .4564      .6465   -52.7254
 7039.5000     1.4191   113.9229    63.6060      .4619      .4569      .6395   -52.7523
 7040.0000     1.4307   114.2903    65.1342      .4629      .4569      .6346   -52.6406
 7040.5000     1.4214   113.8369    65.4303      .4639      .4568      .6317   -52.5289
 7041.0000     1.4266   113.1244    63.9793      .4648      .4568      .6339   -52.4536
 7041.5000     1.4562   112.3832    61.7219      .4657      .4568      .6376   -52.3864
 7042.0000     1.5399   111.8920    59.5216      .4667      .4567      .6424   -52.5429
 7042.5000     1.6313   112.2269    57.9511      .4677      .4556      .6478   -52.7688
 7043.0000     1.7224   112.4993    60.2982      .4679      .4544      .6528   -53.0021
 7043.5000     1.7517   112.4865    62.0628      .4662      .4520      .6575   -53.4119
 7044.0000     1.7639   112.5132    61.1021      .4645      .4489      .6610   -53.6619
 7044.5000     1.6995   112.5553    58.1104      .4611      .4474      .6596   -53.0529
 7045.0000     1.6345   112.6599    58.2772      .4571      .4477      .6582   -52.4835
 7045.5000     1.5587   112.8190    60.0841      .4531      .4480      .6543   -52.2300
 7046.0000     1.5024   112.7939    62.0248      .4537      .4501      .6487   -52.9446
 7046.5000     1.4708   112.1982    61.3908      .4544      .4521      .6476   -53.7659
 7047.0000     1.3378   111.4082    61.3376      .4583      .4528      .6503   -54.5238
 7047.5000     1.1923   110.9026    61.9035      .4632      .4527      .6547   -54.7920
 7048.0000     1.1410   110.7343    62.7050      .4675      .4526      .6538   -55.2829
 7048.5000     1.1075   110.5690    60.4600      .4713      .4524      .6444   -55.9114
 7049.0000     1.0942   109.8376    58.1851      .4735      .4504      .6462   -56.7365
 7049.5000     1.1217   108.7222    56.7751      .4688      .4474      .6534   -57.5796
 7050.0000     1.1919   107.2510    56.4019      .4615      .4404      .6570   -58.9240
 7050.5000     1.3415   106.1251    56.4472      .4498      .4306      .6560   -58.9517
 7051.0000     1.4998   106.0031    56.9525      .4384      .4206      .6427   -59.0643
 7051.5000     1.5863   106.2097    58.1577      .4280      .4119      .6322   -59.3704
