~VERSION INFORMATION
VERS.                             2.0:   CWLS Log ASCII Standard-VERSION 2.0
WRAP.                              NO:   One line per depth step
~Well Information Block
STRT.F                      1302.0000:   Top Depth
STOP.F                     14644.0000:   Bottom Depth
STEP.F                         .50000:   Depth Increment
NULL.                        -999.250:   Null Value
FLD .                    MU BLK A 152:   Field Name
WELL.       OCSG04991   001 ST00 BP00:   NAME
API .                    427124006100:   WELL API
EDF .F                        94.0000:   ELEV DRILL FLOOR
COMP.            TRANSCO EXPL PROD CO:   OPERATOR
BN  .                           A 152:   BLOCK
CTRY.                             USA:   COUNTRY NAME
CNTY.                        M I E AD:   COUNTY NAME
EKB .F                        95.0000:   ELEV KELLY BUSHING
TDD .F                      14647.000:   FINAL TD DRILLER
STAT.                           TEXAS:   STATE NAME
UWI .                    427124006100:   WELL API
DICO.               IHS : Digitizing Company
~PARAMETER INFORMATION (zones)
#MNEM.UNIT                       Value     Description
#=========                       =====     ===========
#ZONATION                          DIL:   ZONATION NAME
#ZONE                            RUN_1:   ZONE NAME
TOP .                       1302.0000:   TOP DEPTH
BOT .                      14644.5000:   BOTTOM DEPTH
RUN .                               1:   RUN NUMBER
LCCD.                             440:   LOGGING CONTRACTOR
SRVC.                    Schlumberger:   LOGGING CONT NAME
DICO.          QC Data Collectors Ltd:   DIG COMPANY NAME
LDAT.                      11/20/1982:   DATE LOGGED
ELD .F                        95.0000:   LOG DATUM ELEVATION
TDD .F                      4095.0000:   TOTAL DEPTH DRILLER
TDL .F                      4095.0000:   TOTAL DEPTH LOGGER
BOTL.F                      4092.0000:   BOTTOM DEPTH LOGGED
TOPL.F                      1334.0000:   TOP DEPTH LOGGED
CS1 .IN                       20.0000:   CASING SIZE 1
BS1 .IN                       12.2500:   BIT SIZE 1
DDB1.F                      4095.0000:   DEPTH DRILLED BIT 1
BHF .                              99:   FLUID CODE
DPT .                   Miscellaneous:   DRILLING FLUID TYPE
MUDD.                          9.4000:   FLUID DENSITY
MUDV.                         43.0000:   FLUID VISCOSITY
DFPH.                         11.2000:   FLUID PH
RM  .OHMM                       .2800:   RM
RMT .DEGF                     70.0000:   RM TEMP
RMF .OHMM                       .2300:   RMF
RMFT.DEGF                     70.0000:   RMF TEMP
FSC .                               M:   RMF CODE
RMC .OHMM                       .4000:   RMC
RMCT.DEGF                     70.0000:   RMC TEMP
CMC .                               M:   RMC CODE
TMAX.DEGF                    178.0000:   MAX REC TEMP
TIMC.                          8.0000:   TIME SINCE CIRCLN
~PARAMETER INFORMATION (zones)
#MNEM.UNIT                       Value     Description
#=========                       =====     ===========
#ZONATION                          FDC:   ZONATION NAME
#ZONE                            RUN_3:   ZONE NAME
TOP .                       8480.0000:   TOP DEPTH
BOT .                      13304.0000:   BOTTOM DEPTH
RUN .                               3:   RUN NUMBER
LCCD.                             440:   LOGGING CONTRACTOR
SRVC.                    Schlumberger:   LOGGING CONT NAME
DICO.          QC Data Collectors Ltd:   DIG COMPANY NAME
LDAT.                      01/30/1983:   DATE LOGGED
ELD .F                        95.0000:   LOG DATUM ELEVATION
TDD .F                     13308.0000:   TOTAL DEPTH DRILLER
TDL .F                     13305.0000:   TOTAL DEPTH LOGGER
BOTL.F                     13304.0000:   BOTTOM DEPTH LOGGED
TOPL.F                      8480.0000:   TOP DEPTH LOGGED
CS1 .IN                       11.7500:   CASING SIZE 1
BS1 .IN                        9.8750:   BIT SIZE 1
DDB1.F                     13308.0000:   DEPTH DRILLED BIT 1
BHF .                              99:   FLUID CODE
DPT .                   Miscellaneous:   DRILLING FLUID TYPE
MUDD.                         15.6000:   FLUID DENSITY
MUDV.                         55.0000:   FLUID VISCOSITY
DFPH.                         10.7000:   FLUID PH
FL  .                          3.6000:   FLUID LOSS
RM  .OHMM                       .8600:   RM
RMT .DEGF                     70.0000:   RM TEMP
RMF .OHMM                       .4200:   RMF
RMFT.DEGF                     70.0000:   RMF TEMP
FSC .                               M:   RMF CODE
RMC .OHMM                      1.6700:   RMC
RMCT.DEGF                     70.0000:   RMC TEMP
CMC .                               M:   RMC CODE
TMAX.DEGF                    260.0000:   MAX REC TEMP
TIMC.                          8.5000:   TIME SINCE CIRCLN
~PARAMETER INFORMATION (zones)
#MNEM.UNIT                       Value     Description
#=========                       =====     ===========
#ZONATION                          FDC:   ZONATION NAME
#ZONE                            RUN_4:   ZONE NAME
TOP .                      12060.0000:   TOP DEPTH
BOT .                      14644.0000:   BOTTOM DEPTH
RUN .                               4:   RUN NUMBER
LCCD.                             440:   LOGGING CONTRACTOR
SRVC.                    Schlumberger:   LOGGING CONT NAME
DICO.          QC Data Collectors Ltd:   DIG COMPANY NAME
LDAT.                      02/16/1983:   DATE LOGGED
ELD .F                        95.0000:   LOG DATUM ELEVATION
TDD .F                     14641.0000:   TOTAL DEPTH DRILLER
TDL .F                     14647.0000:   TOTAL DEPTH LOGGER
BOTL.F                     14644.0000:   BOTTOM DEPTH LOGGED
TOPL.F                     12060.0000:   TOP DEPTH LOGGED
CS1 .IN                       11.7500:   CASING SIZE 1
BS1 .IN                        9.8750:   BIT SIZE 1
DDB1.F                     14641.0000:   DEPTH DRILLED BIT 1
BHF .                              99:   FLUID CODE
DPT .                   Miscellaneous:   DRILLING FLUID TYPE
MUDD.                         15.6000:   FLUID DENSITY
MUDV.                         55.0000:   FLUID VISCOSITY
DFPH.                         11.5000:   FLUID PH
FL  .                          3.2000:   FLUID LOSS
RM  .OHMM                       .6900:   RM
RMT .DEGF                     75.0000:   RM TEMP
RMF .OHMM                       .4400:   RMF
RMFT.DEGF                     75.0000:   RMF TEMP
FSC .                               M:   RMF CODE
RMC .OHMM                       .9400:   RMC
RMCT.DEGF                     75.0000:   RMC TEMP
CMC .                               M:   RMC CODE
TMAX.DEGF                    284.0000:   MAX REC TEMP
TIMC.                         13.0000:   TIME SINCE CIRCLN
~PARAMETER INFORMATION (zones)
#MNEM.UNIT                       Value     Description
#=========                       =====     ===========
#ZONATION                          FDC:   ZONATION NAME
#ZONE                            RUN_2:   ZONE NAME
TOP .                       3894.0000:   TOP DEPTH
BOT .                      14644.5000:   BOTTOM DEPTH
RUN .                               2:   RUN NUMBER
LCCD.                             440:   LOGGING CONTRACTOR
SRVC.                    Schlumberger:   LOGGING CONT NAME
DICO.          QC Data Collectors Ltd:   DIG COMPANY NAME
LDAT.                      12/10/1982:   DATE LOGGED
ELD .F                        95.0000:   LOG DATUM ELEVATION
TDD .F                      8594.0000:   TOTAL DEPTH DRILLER
TDL .F                      8592.0000:   TOTAL DEPTH LOGGER
BOTL.F                      8594.0000:   BOTTOM DEPTH LOGGED
TOPL.F                      4037.0000:   TOP DEPTH LOGGED
CS1 .IN                       16.0000:   CASING SIZE 1
BS1 .IN                       14.7500:   BIT SIZE 1
DDB1.F                      8594.0000:   DEPTH DRILLED BIT 1
BHF .                              99:   FLUID CODE
DPT .                   Miscellaneous:   DRILLING FLUID TYPE
MUDD.                         13.1000:   FLUID DENSITY
MUDV.                         45.0000:   FLUID VISCOSITY
DFPH.                         11.5000:   FLUID PH
FL  .                          3.0000:   FLUID LOSS
RM  .OHMM                       .7500:   RM
RMT .DEGF                     75.0000:   RM TEMP
RMF .OHMM                       .5500:   RMF
RMFT.DEGF                     75.0000:   RMF TEMP
FSC .                               M:   RMF CODE
RMC .OHMM                       .8000:   RMC
RMCT.DEGF                     75.0000:   RMC TEMP
CMC .                               M:   RMC CODE
TMAX.DEGF                    195.0000:   MAX REC TEMP
TIMC.                          7.0000:   TIME SINCE CIRCLN
~Curve Information Block
#MNEM.UNIT                    API CODE    No Description
#=========                    ========    == ===========
DEPT.F                   00 001 00 00:     1  DEPTH
CILD.MMHO                            :     2  Deep Induction Conductivity
DT.US/F                              :     3  Sonic Transit Time
GR.GAPI                              :     4  Gamma Ray
ILD.OHMM                             :     5  Deep Induction Resistivity
ILM.OHMM                             :     6  Medium Induction Resistivity
SFL.OHMM                             :     7  Medium Resistivity
SP.MV                                :     8  Spontaneous Potential
CALI.IN                              :     9  Caliper
GR.GAPI                              :    10  Gamma Ray
RHOB.G/C3                            :    11  Bulk Density
~ASCII
# ...
11050.5000  2408.3086   127.5454  -999.2500      .4071      .4424      .5607     9.7742    21.1763    64.6238     2.3471
11051.0000  2386.7500   127.4464  -999.2500      .4077      .4446      .5532     9.8922    21.1204    64.8097     2.3588
11051.5000  2386.5352   127.3535  -999.2500      .4075      .4438      .5475    10.0103    20.9384    66.4976     2.3462
11052.0000  2402.0000   127.7745  -999.2500      .4061      .4403      .5388    10.0383    20.6869    68.5964     2.3314
11052.5000  2424.6367   128.4888  -999.2500      .4016      .4366      .5270     9.9256    20.4579    69.3865     2.3184
11053.0000  2448.3906   129.4224  -999.2500      .3970      .4310      .5135     9.7794    20.2840    68.1854     2.3201
11053.5000  2474.5938   129.8542  -999.2500      .3923      .4255      .4993     9.5481    20.3057    66.7227     2.3235
11054.0000  2500.8438   129.8276  -999.2500      .3876      .4211      .5037     9.3256    20.3325    65.9471     2.3272
11054.5000  2521.6211   129.1108  -999.2500      .3861      .4195      .5084     9.1287    20.3563    67.1116     2.3323
11055.0000  2540.7344   128.8062  -999.2500      .3854      .4179      .5186     9.1423    20.3784    67.8004     2.3371
11055.5000  2536.2109   128.8906  -999.2500      .3856      .4180      .5291     9.4412    20.3698    67.5029     2.3416
11056.0000  2518.7344   128.8845  -999.2500      .3869      .4214      .5377    10.2349    20.1570    66.5269     2.3404
11056.5000  2485.2031   128.6489  -999.2500      .3883      .4248      .5454    10.6589    19.9883    65.5485     2.3404
11057.0000  2460.3945   128.2249  -999.2500      .3898      .4274      .5529    10.1310    19.9172    64.9897     2.3491
11057.5000  2450.8125   127.7349  -999.2500      .3912      .4292      .5540     9.7221    19.8623    64.8408     2.3596
11058.0000  2451.3398   127.6160  -999.2500      .3920      .4311      .5551     9.4521    19.8846    64.6171     2.3704
11058.5000  2452.1055   127.5723  -999.2500      .3917      .4309      .5455     9.3463    19.9069    64.3424     2.3614
11059.0000  2454.1367   127.6433  -999.2500      .3913      .4300      .5287     9.1090    19.9062    63.9303     2.3517
11059.5000  2456.9453   127.8479  -999.2500      .3914      .4291      .5093     9.0471    19.8621    63.4918     2.3420
11060.0000  2466.2109   128.1130  -999.2500      .3919      .4273      .5046     9.3192    19.8164    63.2854     2.3348
11060.5000  2476.5977   128.3057  -999.2500      .3924      .4253      .5037    12.5952    19.7582    63.8386     2.3376
11061.0000  2489.7461   128.3379  -999.2500      .3934      .4254      .5135    10.4136    19.7000    65.1252     2.3505
11061.5000  2502.8984   128.3115  -999.2500      .3944      .4288      .5287     5.1276    19.6419    65.0836     2.3628
11062.0000  2485.8359   127.6359  -999.2500      .3969      .4335      .5477     2.5631    19.6190    63.8605     2.3657
11062.5000  2457.5352   126.7559  -999.2500      .4005      .4387      .5771     2.3461    19.5998    62.6350     2.3568
11063.0000  2419.3047   125.4679  -999.2500      .4043      .4488      .6263      .7717    19.5818    62.3032     2.3485
11063.5000  2379.0273   124.4022  -999.2500      .4132      .4598      .6804     1.7260    19.5814    62.3121     2.3565
11064.0000  2327.2109   123.5553  -999.2500      .4222      .4730      .7176     6.8477    19.5810    62.9603     2.3667
11064.5000  2271.7773   122.9993  -999.2500      .4313      .4843      .7157     8.9713    19.5806    63.2319     2.3752
11065.0000  2222.3086   123.1154  -999.2500      .4401      .4884      .7005     9.3591    19.5801    62.0161     2.3637
11065.5000  2175.8672   123.8094  -999.2500      .4488      .4906      .6757    10.3532    19.5764    59.2715     2.3561
11066.0000  2136.3711   124.5940  -999.2500      .4568      .4917      .6420    11.9091    19.5727    57.0845     2.3526
11066.5000  2102.9336   124.9178  -999.2500      .4650      .4941      .6118     1.6197    19.5689    55.4799     2.3566
11067.0000  2080.4219   124.5745  -999.2500      .4703      .4967      .5979     2.1415    19.5652    56.5488     2.3583
11067.5000  2071.0117   123.9109  -999.2500      .4749      .5040      .6057     5.2291    19.5597    57.6178     2.3598
11068.0000  2059.1328   123.0505  -999.2500      .4779      .5113      .6333     7.1117    19.5527    58.1684     2.3626
11068.5000  2043.6387   122.1963  -999.2500      .4813      .5167      .6602     7.5882    19.5181    58.1016     2.3840
11069.0000  2027.0176   121.7919  -999.2500      .4848      .5221      .6730     8.3094    19.4053    58.3505     2.3967
11069.5000  2007.0742   121.6122  -999.2500      .4857      .5267      .6683     9.0354    19.3038    58.8568     2.4082
11070.0000  1987.8379   121.7906  -999.2500      .4864      .5298      .6594    10.2639    19.2023    59.5112     2.3996
11070.5000  1995.1094   122.3772  -999.2500      .4863      .5274      .6489    12.5542    19.1563    60.4921     2.3951
11071.0000  2007.7578   123.0359  -999.2500      .4861      .5147      .6266    15.3421    19.1161    60.7728     2.3916
11071.5000  2029.7559   123.7924  -999.2500      .4846      .5070      .6003    10.2010    19.0854    60.2108     2.3827
11072.0000  2051.2656   124.2258  -999.2500      .4824      .5109      .5735     -.0570    19.0712    58.8703     2.3666
11072.5000  2062.0195   124.1700  -999.2500      .4788      .5157      .5615     -.3517    19.0569    57.7352     2.3532
11073.0000  2072.4531   123.2473  -999.2500      .4749      .5203      .5641     2.1173    19.0519    56.6467     2.3447
11073.5000  2077.1719   122.2562  -999.2500      .4711      .5197      .5880     4.3883    19.0521    57.7206     2.3412
11074.0000  2081.8906   121.4967  -999.2500      .4673      .5191      .6098     6.2703    19.0524    59.2482     2.3444
11074.5000  2087.2656   122.2195  -999.2500      .4637      .5086      .6047     7.9566    19.0353    60.1657     2.3541
11075.0000  2092.7422   123.6714  -999.2500      .4601      .4948      .5799     9.3832    19.0070    60.1608     2.3638
11075.5000  2109.5586   124.9424  -999.2500      .4588      .4837      .5596    10.4330    18.9789    60.2023     2.3611
11076.0000  2131.2852   125.5558  -999.2500      .4569      .4760      .5410    13.3514    18.9404    60.9043     2.3490
11076.5000  2194.4414   125.7018  -999.2500      .4507      .4685      .5257    13.9264    18.8896    61.2921     2.3378
11077.0000  2248.2148   125.7563  -999.2500      .4435      .4648      .5115     8.4229    18.8388    60.9508     2.3310
11077.5000  2300.7148   125.9762  -999.2500      .4341      .4617      .5028    -3.7147    18.7635    61.3911     2.3274
11078.0000  2336.5000   126.6215  -999.2500      .4259      .4581      .4966    -1.4244    18.6864    61.7272     2.3259
11078.5000  2371.6680   126.9918  -999.2500      .4196      .4535      .4892     4.1032    18.5903    61.8718     2.3219
11079.0000  2386.8008   127.2567  -999.2500      .4157      .4489      .4939     7.8866    18.4941    61.9629     2.3156
11079.5000  2401.9297   127.4171  -999.2500      .4138      .4479      .5135     8.8687    18.4015    62.6204     2.3203
11080.0000  2402.6484   127.0779  -999.2500      .4131      .4491      .5356     8.9351    18.3225    63.5585     2.3335
11080.5000  2400.3633   126.7504  -999.2500      .4150      .4503      .5431     9.1429    18.2554    64.0819     2.3488
11081.0000  2389.4141   126.4608  -999.2500      .4169      .4520      .5459    10.8582    18.2230    63.1536     2.3599
11081.5000  2378.3672   126.2666  -999.2500      .4189      .4541      .5492    13.8587    18.2046    62.3928     2.3569
11082.0000  2365.9492   126.1914  -999.2500      .4210      .4562      .5526    13.5833    18.1982    63.4129     2.3515
11082.5000  2353.5352   126.1117  -999.2500      .4232      .4582      .5562     7.3986    18.1902    64.4623     2.3586
11083.0000  2340.1641   126.0096  -999.2500      .4249      .4602      .5618    -5.0773    18.1726    65.6584     2.3653
11083.5000  2326.2813   125.9076  -999.2500      .4262      .4622      .5718    -1.5210    18.0834    62.2216     2.3634
