~VERSION INFORMATION
VERS.                             2.0:   CWLS Log ASCII Standard-VERSION 2.0
WRAP.                              NO:   One line per depth step
~Well Information Block
STRT.F                      1319.0000:   Top Depth
STOP.F                      7911.0000:   Bottom Depth
STEP.F                         .50000:   Depth Increment
NULL.                        -999.250:   Null Value
FLD .                    MU BLK A 167:   Field Name
WELL.       OCSG08096   001 ST00 BP00:   NAME
API .                    427124009800:   WELL API
EDF .F                        84.0000:   ELEV DRILL FLOOR
COMP.         UNION PACIFIC RESOURCES:   OPERATOR
BN  .                           A 167:   BLOCK
CTRY.                             USA:   COUNTRY NAME
CNTY.                        M I E AD:   COUNTY NAME
EKB .F                        85.0000:   ELEV KELLY BUSHING
TDD .F                       7913.000:   FINAL TD DRILLER
STAT.                           TEXAS:   STATE NAME
UWI .                    427124009800:   WELL API
DICO.               IHS : Digitizing Company
~PARAMETER INFORMATION (zones)
#MNEM.UNIT                       Value     Description
#=========                       =====     ===========
#ZONATION                          DIL:   ZONATION NAME
#ZONE                            RUN_2:   ZONE NAME
TOP .                       4520.0000:   TOP DEPTH
BOT .                       7911.0000:   BOTTOM DEPTH
RUN .                               2:   RUN NUMBER
LCCD.                             440:   LOGGING CONTRACTOR
SRVC.                    Schlumberger:   LOGGING CONT NAME
DICO.          QC Data Collectors Ltd:   DIG COMPANY NAME
LDAT.                      05/30/1988:   DATE LOGGED
ELD .F                        85.0000:   LOG DATUM ELEVATION
TDD .F                      7904.0000:   TOTAL DEPTH DRILLER
TDL .F                      7913.0000:   TOTAL DEPTH LOGGER
BOTL.F                      7911.0000:   BOTTOM DEPTH LOGGED
TOPL.F                      4520.0000:   TOP DEPTH LOGGED
CS1 .IN                       13.3750:   CASING SIZE 1
BS1 .IN                       12.2500:   BIT SIZE 1
DDB1.F                      7904.0000:   DEPTH DRILLED BIT 1
BHF .                              80:   FLUID CODE
DPT .                      Salt Water:   DRILLING FLUID TYPE
MUDD.                         13.3000:   FLUID DENSITY
MUDV.                         44.0000:   FLUID VISCOSITY
DFPH.                          9.6000:   FLUID PH
FL  .                         11.9000:   FLUID LOSS
RM  .OHMM                       .2330:   RM
RMT .DEGF                     75.0000:   RM TEMP
RMF .OHMM                       .1510:   RMF
RMFT.DEGF                     75.0000:   RMF TEMP
FSC .                               M:   RMF CODE
RMC .OHMM                       .4890:   RMC
RMCT.DEGF                     75.0000:   RMC TEMP
CMC .                               M:   RMC CODE
TMAX.DEGF                    182.0000:   MAX REC TEMP
TIMC.                         10.7500:   TIME SINCE CIRCLN
~PARAMETER INFORMATION (zones)
#MNEM.UNIT                       Value     Description
#=========                       =====     ===========
#ZONATION                          DIL:   ZONATION NAME
#ZONE                            RUN_1:   ZONE NAME
TOP .                       1319.0000:   TOP DEPTH
BOT .                       7911.5000:   BOTTOM DEPTH
RUN .                               1:   RUN NUMBER
LCCD.                             440:   LOGGING CONTRACTOR
SRVC.                    Schlumberger:   LOGGING CONT NAME
DICO.          QC Data Collectors Ltd:   DIG COMPANY NAME
LDAT.                      05/21/1988:   DATE LOGGED
ELD .F                        85.0000:   LOG DATUM ELEVATION
TDD .F                      4550.0000:   TOTAL DEPTH DRILLER
TDL .F                      4551.0000:   TOTAL DEPTH LOGGER
BOTL.F                      4549.0000:   BOTTOM DEPTH LOGGED
TOPL.F                      1394.0000:   TOP DEPTH LOGGED
CS1 .IN                       20.0000:   CASING SIZE 1
BS1 .IN                       17.5000:   BIT SIZE 1
DDB1.F                      4550.0000:   DEPTH DRILLED BIT 1
BHF .                              80:   FLUID CODE
DPT .                      Salt Water:   DRILLING FLUID TYPE
MUDD.                         10.0000:   FLUID DENSITY
MUDV.                         38.0000:   FLUID VISCOSITY
DFPH.                          8.4000:   FLUID PH
FL  .                            NULL:   FLUID LOSS
RM  .OHMM                       .3040:   RM
RMT .DEGF                     82.0000:   RM TEMP
RMF .OHMM                       .2310:   RMF
RMFT.DEGF                     82.0000:   RMF TEMP
FSC .                               M:   RMF CODE
RMC .OHMM                       .4210:   RMC
RMCT.DEGF                     82.0000:   RMC TEMP
CMC .                               M:   RMC CODE
TMAX.DEGF                    130.0000:   MAX REC TEMP
TIMC.                          5.0000:   TIME SINCE CIRCLN
~Curve Information Block
#MNEM.UNIT                    API CODE    No Description
#=========                    ========    == ===========
DEPT.F                   00 001 00 00:     1  DEPTH
DCAL.IN                              :     2  Differential Caliper
DT.US/F                              :     3  Sonic Transit Time
GR.GAPI                              :     4  Gamma Ray
ILD.OHMM                             :     5  Deep Induction Resistivity
ILM.OHMM                             :     6  Medium Induction Resistivity
SFL.OHMM                             :     7  Medium Resistivity
SP.MV                                :     8  Spontaneous Potential
~ASCII
# ...
 3139.0000  -999.2500   154.0435    74.8302      .6982      .6468      .7708   -62.5096
 3139.5000  -999.2500   155.5520    76.6522      .6989      .6441      .7565   -61.9579
 3140.0000  -999.2500   157.1741    78.0063      .7006      .6439      .7448   -61.6165
 3140.5000  -999.2500   158.1655    74.4150      .7016      .6438      .7375   -61.9096
 3141.0000  -999.2500   158.1128    69.9319      .7021      .6436      .7356   -62.0430
 3141.5000  -999.2500   156.5479    67.7972      .7026      .6457      .7386   -61.9507
 3142.0000  -999.2500   154.8181    68.1666      .7074      .6513      .7424   -62.1413
 3142.5000  -999.2500   152.8591    68.7821      .7154      .6575      .7453   -62.4672
 3143.0000  -999.2500   150.1604    68.4882      .7277      .6622      .7482   -62.3517
 3143.5000  -999.2500   147.6360    67.2871      .7404      .6705      .7525   -61.5039
 3144.0000  -999.2500   146.4512    68.4817      .7550      .6809      .7596   -61.2006
 3144.5000  -999.2500   146.8889    70.2238      .7730      .6987      .7767   -61.6805
 3145.0000  -999.2500   146.5378    69.2031      .7974      .7212      .8001   -61.7231
 3145.5000  -999.2500   145.6572    66.5221      .8132      .7430      .8259   -61.4514
 3146.0000  -999.2500   144.9705    65.3615      .8339      .7584      .8499   -61.1375
 3146.5000  -999.2500   144.3689    66.3331      .8484      .7660      .8682   -61.3933
 3147.0000  -999.2500   143.8279    65.6681      .8473      .7591      .8799   -61.7971
 3147.5000  -999.2500   144.4221    63.7883      .8355      .7432      .8751   -61.9775
 3148.0000  -999.2500   146.2734    64.4094      .8130      .7250      .8416   -61.8246
 3148.5000  -999.2500   148.4207    67.9747      .7866      .7046      .8024   -61.0872
 3149.0000  -999.2500   150.6228    71.6337      .7674      .6871      .7698   -60.8025
 3149.5000  -999.2500   152.7864    71.1168      .7469      .6752      .7436   -61.1346
 3150.0000  -999.2500   154.2285    68.6416      .7275      .6654      .7250   -61.8448
 3150.5000  -999.2500   154.0403    68.1030      .7161      .6590      .7147   -61.4791
 3151.0000  -999.2500   152.3437    71.2816      .7065      .6563      .7152   -61.7444
 3151.5000  -999.2500   150.6892    72.8428      .6977      .6579      .7322   -62.4565
 3152.0000  -999.2500   150.2769    73.5942      .6953      .6585      .7567   -62.8120
 3152.5000  -999.2500   151.0786    72.6302      .6948      .6580      .7716   -62.2563
 3153.0000  -999.2500   151.6909    71.1013      .6971      .6561      .7768   -61.9130
 3153.5000  -999.2500   151.9231    70.3647      .7022      .6543      .7734   -62.1998
 3154.0000  -999.2500   151.8213    68.9576      .7073      .6542      .7644   -61.7611
 3154.5000  -999.2500   151.4172    65.7549      .7079      .6551      .7547   -61.2368
 3155.0000  -999.2500   150.9500    64.6304      .7126      .6552      .7473   -61.5482
 3155.5000  -999.2500   151.0178    64.8582      .7139      .6556      .7399   -62.0886
 3156.0000  -999.2500   151.5806    65.9990      .7160      .6574      .7342   -62.1817
 3156.5000  -999.2500   152.3955    67.5409      .7169      .6613      .7296   -62.2173
 3157.0000  -999.2500   152.8240    68.5902      .7151      .6643      .7256   -62.1832
 3157.5000  -999.2500   152.8416    67.7275      .7138      .6641      .7269   -62.0027
 3158.0000  -999.2500   151.5054    66.4365      .7187      .6665      .7390   -61.4624
 3158.5000  -999.2500   149.5649    65.0999      .7251      .6735      .7566   -61.1363
 3159.0000  -999.2500   147.5620    63.3491      .7361      .6798      .7771   -61.7899
 3159.5000  -999.2500   146.5122    61.8128      .7500      .6845      .7911   -62.2244
 3160.0000  -999.2500   146.3132    61.6904      .7656      .6885      .7952   -61.9043
 3160.5000  -999.2500   147.0122    62.8130      .7703      .6881      .7947   -61.1513
 3161.0000  -999.2500   147.8420    63.3909      .7701      .6871      .7906   -61.2935
 3161.5000  -999.2500   149.0579    63.1964      .7649      .6844      .7834   -61.9105
 3162.0000  -999.2500   150.6892    62.2491      .7540      .6809      .7753   -62.3358
 3162.5000  -999.2500   152.5808    60.5386      .7411      .6753      .7664   -62.1274
 3163.0000  -999.2500   154.4170    58.7841      .7260      .6682      .7561   -61.1724
 3163.5000  -999.2500   157.7249    60.4041      .7119      .6596      .7435   -61.1407
 3164.0000  -999.2500   159.7661    64.4052      .6977      .6460      .7304   -61.5467
 3164.5000  -999.2500   160.9731    68.7147      .6835      .6326      .7172   -61.8902
 3165.0000  -999.2500   161.2290    69.9054      .6679      .6178      .7023   -62.5649
 3165.5000  -999.2500   161.1353    66.8468      .6509      .6091      .6925   -62.7156
 3166.0000  -999.2500   160.8674    64.9740      .6345      .6039      .6903   -62.2885
 3166.5000  -999.2500   160.4255    65.8218      .6228      .5999      .6895   -61.2263
 3167.0000  -999.2500   159.8523    68.1334      .6164      .5968      .6897   -61.4230
 3167.5000  -999.2500   159.3064    70.9011      .6136      .5978      .6899   -62.0638
 3168.0000  -999.2500   158.6487    72.7483      .6132      .6019      .6900   -62.5027
 3168.5000  -999.2500   157.6616    72.9211      .6166      .6040      .6912   -62.1655
 3169.0000  -999.2500   156.4639    71.4447      .6258      .6080      .6930   -61.2464
 3169.5000  -999.2500   154.9937    71.8530      .6336      .6128      .6957   -61.4921
 3170.0000  -999.2500   153.1248    73.1238      .6451      .6194      .7003   -62.2436
 3170.5000  -999.2500   151.3342    73.2546      .6559      .6289      .7084   -62.0673
 3171.0000  -999.2500   150.7222    72.5261      .6678      .6381      .7216   -61.3152
 3171.5000  -999.2500   150.8066    69.9083      .6806      .6447      .7321   -60.5989
 3172.0000  -999.2500   151.2061    66.4131      .6929      .6493      .7382   -60.7376
 3172.5000  -999.2500   151.9429    64.3921      .7008      .6474      .7367   -61.6384
 3173.0000  -999.2500   153.1323    63.6487      .7038      .6438      .7311   -62.2595
 3173.5000  -999.2500   154.2429    63.5651      .7030      .6409      .7267   -61.4828
 3174.0000  -999.2500   155.0054    64.2644      .6989      .6388      .7215   -60.7064
 3174.5000  -999.2500   154.7571    65.7350      .6940      .6375      .7144   -60.5739
 3175.0000  -999.2500   153.7458    67.8967      .6904      .6370      .7084   -61.0878
 3175.5000  -999.2500   152.7029    68.9192      .6940      .6421      .7057   -61.5895
 3176.0000  -999.2500   152.3208    66.3560      .7036      .6476      .7101   -61.7591
 3176.5000  -999.2500   152.2725    62.0650      .7126      .6521      .7254   -62.0366
 3177.0000  -999.2500   152.4038    60.8187      .7200      .6564      .7341   -62.1682
 3177.5000  -999.2500   152.7063    61.7018      .7240      .6557      .7302   -61.7220
 3178.0000  -999.2500   153.0007    63.1632      .7213      .6513      .7214   -60.8926
 3178.5000  -999.2500   153.3970    63.8207      .7113      .6447      .7092   -61.4327
 3179.0000  -999.2500   153.8767    64.2533      .7013      .6368      .6924   -62.2352
 3179.5000  -999.2500   154.4153    64.5502      .6919      .6302      .6801   -62.1547
 3180.0000  -999.2500   154.9958    63.4445      .6834      .6278      .6721   -60.7125
 3180.5000  -999.2500   155.6213    61.8227      .6782      .6264      .6676   -59.9750
 3181.0000  -999.2500   156.1189    61.0806      .6732      .6242      .6669   -60.7032
 3181.5000  -999.2500   156.4839    61.0262      .6709      .6212      .6697   -61.2830
 3182.0000  -999.2500   156.7456    62.0699      .6677      .6143      .6726   -60.6521
 3182.5000  -999.2500   156.7139    64.1337      .6663      .6108      .6725   -60.5960
 3183.0000  -999.2500   156.5027    66.3771      .6650      .6056      .6712   -61.2400
 3183.5000  -999.2500   156.2014    66.7000      .6657      .6030      .6693   -60.8495
 3184.0000  -999.2500   155.8140    65.9545      .6656      .6019      .6655   -60.6505
