~VERSION INFORMATION
VERS.                             2.0:   CWLS Log ASCII Standard-VERSION 2.0
WRAP.                              NO:   One line per depth step
~Well Information Block
STRT.F                      3732.0000:   Top Depth
STOP.F                      8303.0000:   Bottom Depth
STEP.F                         .50000:   Depth Increment
NULL.                        -999.250:   Null Value
FLD .                      BA BLK 415:   Field Name
WELL.       OCSG11271   001 ST00 BP00:   NAME
API .                  42704402170000:   WELL API
EDF .F                       100.0000:   ELEV DRILL FLOOR
COMP.                     APACHE CORP:   OPERATOR
BN  .                             415:   BLOCK
CTRY.                             USA:   COUNTRY NAME
CNTY.                        BRAZOS L:   COUNTY NAME
EGL .F                       -78.0000:   ELEV GROUND LEVEL
EKB .F                       101.0000:   ELEV KELLY BUSHING
TDD .F                       8311.000:   FINAL TD DRILLER
STAT.                           TEXAS:   STATE NAME
UWI .                  42704402170000:   WELL API
DICO.               IHS : Digitizing Company
~PARAMETER INFORMATION (zones)
#MNEM.UNIT                       Value     Description
#=========                       =====     ===========
#ZONATION                          CNL:   ZONATION NAME
#ZONE                            RUN_1:   ZONE NAME
TOP .                       5274.0000:   TOP DEPTH
BOT .                       8300.5000:   BOTTOM DEPTH
RUN .                               1:   RUN NUMBER
LCCD.                              99:   LOGGING CONTRACTOR
DICO.          QC Data Collectors Ltd:   DIG COMPANY NAME
LDAT.                      08/26/1990:   DATE LOGGED
ELD .F                       101.0000:   LOG DATUM ELEVATION
TDD .F                      8311.0000:   TOTAL DEPTH DRILLER
TDL .F                      8306.0000:   TOTAL DEPTH LOGGER
BOTL.F                      8303.0000:   BOTTOM DEPTH LOGGED
TOPL.F                      5257.0000:   TOP DEPTH LOGGED
CS1 .IN                       10.7500:   CASING SIZE 1
BS1 .IN                        9.8750:   BIT SIZE 1
DDB1.F                      8311.0000:   DEPTH DRILLED BIT 1
BHF .                              99:   FLUID CODE
DPT .                   Miscellaneous:   DRILLING FLUID TYPE
MUDD.                         10.0000:   FLUID DENSITY
MUDV.                         43.0000:   FLUID VISCOSITY
DFPH.                          8.1000:   FLUID PH
FL  .                          3.2000:   FLUID LOSS
RM  .OHMM                       .8800:   RM
RMT .DEGF                     75.0000:   RM TEMP
RMF .OHMM                       .7000:   RMF
RMFT.DEGF                     75.0000:   RMF TEMP
FSC .                               C:   RMF CODE
RMC .OHMM                       .9600:   RMC
RMCT.DEGF                     75.0000:   RMC TEMP
CMC .                               C:   RMC CODE
TMAX.DEGF                    166.0000:   MAX REC TEMP
TIMC.                         10.0000:   TIME SINCE CIRCLN
~PARAMETER INFORMATION (zones)
#MNEM.UNIT                       Value     Description
#=========                       =====     ===========
#ZONATION                          DIL:   ZONATION NAME
#ZONE                            RUN_1:   ZONE NAME
TOP .                       3732.0000:   TOP DEPTH
BOT .                       8303.5000:   BOTTOM DEPTH
RUN .                               1:   RUN NUMBER
LCCD.                              99:   LOGGING CONTRACTOR
DICO.          QC Data Collectors Ltd:   DIG COMPANY NAME
LDAT.                      08/26/1990:   DATE LOGGED
ELD .F                       101.0000:   LOG DATUM ELEVATION
TDD .F                      8311.0000:   TOTAL DEPTH DRILLER
TDL .F                      8306.0000:   TOTAL DEPTH LOGGER
BOTL.F                      8303.0000:   BOTTOM DEPTH LOGGED
TOPL.F                      3786.0000:   TOP DEPTH LOGGED
CS1 .IN                       10.7500:   CASING SIZE 1
BS1 .IN                        9.8750:   BIT SIZE 1
DDB1.F                      8311.0000:   DEPTH DRILLED BIT 1
BHF .                              99:   FLUID CODE
DPT .                   Miscellaneous:   DRILLING FLUID TYPE
MUDD.                         10.0000:   FLUID DENSITY
MUDV.                         43.0000:   FLUID VISCOSITY
DFPH.                          8.1000:   FLUID PH
FL  .                          3.2000:   FLUID LOSS
RM  .OHMM                       .8800:   RM
RMT .DEGF                     75.0000:   RM TEMP
RMF .OHMM                       .7000:   RMF
RMFT.DEGF                     75.0000:   RMF TEMP
FSC .                               C:   RMF CODE
RMC .OHMM                       .9600:   RMC
RMCT.DEGF                     75.0000:   RMC TEMP
CMC .                               C:   RMC CODE
TMAX.DEGF                    166.0000:   MAX REC TEMP
TIMC.                          6.0000:   TIME SINCE CIRCLN
~PARAMETER INFORMATION (zones)
#MNEM.UNIT                       Value     Description
#=========                       =====     ===========
#ZONATION                          FDC:   ZONATION NAME
#ZONE                            RUN_1:   ZONE NAME
TOP .                       5263.0000:   TOP DEPTH
BOT .                       8303.5000:   BOTTOM DEPTH
RUN .                               1:   RUN NUMBER
LCCD.                              99:   LOGGING CONTRACTOR
DICO.          QC Data Collectors Ltd:   DIG COMPANY NAME
LDAT.                      08/26/1990:   DATE LOGGED
ELD .F                       101.0000:   LOG DATUM ELEVATION
TDD .F                      8311.0000:   TOTAL DEPTH DRILLER
TDL .F                      8306.0000:   TOTAL DEPTH LOGGER
BOTL.F                      8303.0000:   BOTTOM DEPTH LOGGED
TOPL.F                      5257.0000:   TOP DEPTH LOGGED
CS1 .IN                       10.7500:   CASING SIZE 1
BS1 .IN                        9.8750:   BIT SIZE 1
DDB1.F                      8311.0000:   DEPTH DRILLED BIT 1
BHF .                              99:   FLUID CODE
DPT .                   Miscellaneous:   DRILLING FLUID TYPE
MUDD.                         10.0000:   FLUID DENSITY
MUDV.                         43.0000:   FLUID VISCOSITY
DFPH.                          8.1000:   FLUID PH
FL  .                          3.2000:   FLUID LOSS
RM  .OHMM                       .8800:   RM
RMT .DEGF                     75.0000:   RM TEMP
RMF .OHMM                       .7000:   RMF
RMFT.DEGF                     75.0000:   RMF TEMP
FSC .                               C:   RMF CODE
RMC .OHMM                       .9600:   RMC
RMCT.DEGF                     75.0000:   RMC TEMP
CMC .                               C:   RMC CODE
TMAX.DEGF                    166.0000:   MAX REC TEMP
TIMC.                         10.0000:   TIME SINCE CIRCLN
~Curve Information Block
#MNEM.UNIT                    API CODE    No Description
#=========                    ========    == ===========
DEPT.F                   00 001 00 00:     1  DEPTH
NPHI.%                               :     2  Neutron Porosity
CALI.IN                              :     3  Caliper
DT.US/F                              :     4  Sonic Transit Time
GR.GAPI                              :     5  Gamma Ray
ILD.OHMM                             :     6  Deep Induction Resistivity
ILM.OHMM                             :     7  Medium Induction Resistivity
RFOC.OHMM                            :     8  Medium Resistivity
SP.MV                                :     9  Spontaneous Potential
CALI.IN                              :    10  Caliper
DPHI.%                               :    11  Porosity
DRHO.G/C3                            :    12  Bulk Density Correction
GR.GAPI                              :    13  Gamma Ray
RHOB.G/C3                            :    14  Bulk Density
~ASCII
# ...
 4980.0000  -999.2500  -999.2500   121.4166    41.0848      .3649      .4024      .8510   -96.8306  -999.2500    40.8422  -999.2500  -999.2500  -999.2500
 4980.5000  -999.2500  -999.2500   122.2484    38.4866      .3620      .4043      .8509   -98.6283  -999.2500    41.6708  -999.2500  -999.2500  -999.2500
 4981.0000  -999.2500  -999.2500   123.4045    37.0877      .3589      .4010      .8711  -101.3503  -999.2500    42.4293  -999.2500  -999.2500  -999.2500
 4981.5000  -999.2500  -999.2500   124.1912    36.1008      .3542      .3978      .9061  -103.6260  -999.2500    42.8558  -999.2500  -999.2500  -999.2500
 4982.0000  -999.2500  -999.2500   124.5061    35.5551      .3495      .3892      .9071  -104.6412  -999.2500    42.8479  -999.2500  -999.2500  -999.2500
 4982.5000  -999.2500  -999.2500   124.3297    35.7880      .3435      .3779      .8895  -105.1421  -999.2500    42.4974  -999.2500  -999.2500  -999.2500
 4983.0000  -999.2500  -999.2500   123.4875    37.2859      .3350      .3649      .8416  -105.2788  -999.2500    42.0602  -999.2500  -999.2500  -999.2500
 4983.5000  -999.2500  -999.2500   122.6696    39.1996      .3247      .3508      .8001  -105.3763  -999.2500    41.4172  -999.2500  -999.2500  -999.2500
 4984.0000  -999.2500  -999.2500   121.9248    39.8821      .3089      .3404      .7776  -105.4868  -999.2500    40.8990  -999.2500  -999.2500  -999.2500
 4984.5000  -999.2500  -999.2500   121.1819    38.6065      .2855      .3322      .7605  -106.0677  -999.2500    40.5140  -999.2500  -999.2500  -999.2500
 4985.0000  -999.2500  -999.2500   120.5313    36.1230      .2678      .3183      .7507  -106.9595  -999.2500    40.1651  -999.2500  -999.2500  -999.2500
 4985.5000  -999.2500  -999.2500   119.9111    33.4166      .2534      .3058      .7470  -107.6820  -999.2500    39.8516  -999.2500  -999.2500  -999.2500
 4986.0000  -999.2500  -999.2500   119.4508    30.4729      .2530      .2996      .7466  -107.7295  -999.2500    39.6786  -999.2500  -999.2500  -999.2500
 4986.5000  -999.2500  -999.2500   119.2992    28.5109      .2555      .2968      .7527  -107.5034  -999.2500    39.5421  -999.2500  -999.2500  -999.2500
 4987.0000  -999.2500  -999.2500   119.4110    27.4177      .2658      .2983      .7737  -106.8787  -999.2500    39.3903  -999.2500  -999.2500  -999.2500
 4987.5000  -999.2500  -999.2500   118.5970    28.3336      .2881      .3083      .7994  -105.9875  -999.2500    39.1260  -999.2500  -999.2500  -999.2500
 4988.0000  -999.2500  -999.2500   116.6328    30.5042      .3300      .3427      .8258  -103.8274  -999.2500    38.2107  -999.2500  -999.2500  -999.2500
 4988.5000  -999.2500  -999.2500   114.2003    32.8951      .3780      .3952      .8140   -98.3416  -999.2500    35.8188  -999.2500  -999.2500  -999.2500
 4989.0000  -999.2500  -999.2500   108.8541    36.3290      .4331      .4638      .7745   -92.0944  -999.2500    32.4799  -999.2500  -999.2500  -999.2500
 4989.5000  -999.2500  -999.2500   101.6614    42.1277      .4977      .5452      .7588   -80.3247  -999.2500    28.8855  -999.2500  -999.2500  -999.2500
 4990.0000  -999.2500  -999.2500    96.7416    47.2016      .5738      .6441      .7717   -69.7180  -999.2500    25.5962  -999.2500  -999.2500  -999.2500
 4990.5000  -999.2500  -999.2500    96.2001    51.7332      .6824      .7144      .8279   -60.6602  -999.2500    26.0057  -999.2500  -999.2500  -999.2500
 4991.0000  -999.2500  -999.2500   102.6500    54.0329      .8217      .7930      .8475   -54.5903  -999.2500    30.3958  -999.2500  -999.2500  -999.2500
 4991.5000  -999.2500  -999.2500   109.7225    55.8306      .9248      .8227      .8570   -50.3794  -999.2500    34.5432  -999.2500  -999.2500  -999.2500
 4992.0000  -999.2500  -999.2500   111.9209    57.2504      .9895      .8172      .8598   -49.2498  -999.2500    35.8096  -999.2500  -999.2500  -999.2500
 4992.5000  -999.2500  -999.2500   112.1550    58.3715     1.0303      .8037      .8964   -48.3646  -999.2500    34.3150  -999.2500  -999.2500  -999.2500
 4993.0000  -999.2500  -999.2500   110.4026    60.7885     1.0120      .7730      .9434   -47.3510  -999.2500    33.4390  -999.2500  -999.2500  -999.2500
 4993.5000  -999.2500  -999.2500   112.5002    63.2394      .9542      .7391      .9179   -46.6091  -999.2500    36.3222  -999.2500  -999.2500  -999.2500
 4994.0000  -999.2500  -999.2500   119.2196    64.6672      .8758      .7082      .8625   -45.7536  -999.2500    40.2062  -999.2500  -999.2500  -999.2500
 4994.5000  -999.2500  -999.2500   125.2589    65.0881      .8145      .6854      .8093   -45.8902  -999.2500    43.9050  -999.2500  -999.2500  -999.2500
 4995.0000  -999.2500  -999.2500   126.7119    64.9877      .7619      .6634      .7688   -48.1553  -999.2500    44.5467  -999.2500  -999.2500  -999.2500
 4995.5000  -999.2500  -999.2500   123.1089    63.8834      .7152      .6438      .7766   -53.1145  -999.2500    42.0556  -999.2500  -999.2500  -999.2500
 4996.0000  -999.2500  -999.2500   118.2859    58.4706      .6841      .6271      .8322   -58.0684  -999.2500    38.8602  -999.2500  -999.2500  -999.2500
 4996.5000  -999.2500  -999.2500   115.2244    54.6951      .6553      .6109      .8913   -62.4996  -999.2500    36.8230  -999.2500  -999.2500  -999.2500
 4997.0000  -999.2500  -999.2500   113.8231    52.0383      .6307      .5966      .9272   -65.0640  -999.2500    35.6812  -999.2500  -999.2500  -999.2500
 4997.5000  -999.2500  -999.2500   113.7897    49.7321      .6089      .5836      .9359   -68.5942  -999.2500    36.0522  -999.2500  -999.2500  -999.2500
 4998.0000  -999.2500  -999.2500   115.1067    48.5353      .5951      .5741      .9316   -72.6748  -999.2500    36.8876  -999.2500  -999.2500  -999.2500
 4998.5000  -999.2500  -999.2500   116.2549    48.9799      .5855      .5649      .9262   -75.1156  -999.2500    37.4803  -999.2500  -999.2500  -999.2500
 4999.0000  -999.2500  -999.2500   116.0659    52.2103      .5805      .5614      .9114   -74.0566  -999.2500    37.6008  -999.2500  -999.2500  -999.2500
 4999.5000  -999.2500  -999.2500   114.5508    58.7834      .5799      .5658      .8648   -69.7076  -999.2500    36.5752  -999.2500  -999.2500  -999.2500
 5000.0000  -999.2500  -999.2500   112.1301    66.6993      .5833      .5767      .8223   -57.9850  -999.2500    34.8862  -999.2500  -999.2500  -999.2500
 5000.5000  -999.2500  -999.2500   110.9642    70.7056      .5973      .5925      .7870   -51.3546  -999.2500    34.3342  -999.2500  -999.2500  -999.2500
 5001.0000  -999.2500  -999.2500   112.0974    71.9720      .6158      .6128      .7690   -47.6847  -999.2500    35.4432  -999.2500  -999.2500  -999.2500
 5001.5000  -999.2500  -999.2500   114.8883    71.8267      .6431      .6418      .7552   -46.7448  -999.2500    37.0435  -999.2500  -999.2500  -999.2500
 5002.0000  -999.2500  -999.2500   116.0691    69.4319      .6723      .6713      .7403   -48.6611  -999.2500    37.5482  -999.2500  -999.2500  -999.2500
 5002.5000  -999.2500  -999.2500   110.3188    63.6644      .6985      .6889      .7207   -52.7495  -999.2500    34.3241  -999.2500  -999.2500  -999.2500
 5003.0000  -999.2500  -999.2500   105.0198    58.6635      .7101      .6830      .7673   -56.6735  -999.2500    31.2122  -999.2500  -999.2500  -999.2500
 5003.5000  -999.2500  -999.2500   101.0729    52.8179      .6769      .6578      .9013   -63.3561  -999.2500    28.9990  -999.2500  -999.2500  -999.2500
 5004.0000  -999.2500  -999.2500   100.0502    47.9760      .6386      .6228     1.0391   -72.2211  -999.2500    27.8917  -999.2500  -999.2500  -999.2500
 5004.5000  -999.2500  -999.2500   105.3127    46.1623      .6008      .5897     1.0750   -80.7419  -999.2500    31.6765  -999.2500  -999.2500  -999.2500
 5005.0000  -999.2500  -999.2500   112.9083    45.9411      .5676      .5563      .9076   -86.9083  -999.2500    34.1285  -999.2500  -999.2500  -999.2500
 5005.5000  -999.2500  -999.2500   119.0679    45.8328      .5396      .5300      .8395   -88.9941  -999.2500    39.6793  -999.2500  -999.2500  -999.2500
