~VERSION INFORMATION
VERS.                             2.0:   CWLS Log ASCII Standard-VERSION 2.0
WRAP.                              NO:   One line per depth step
~Well Information Block
STRT.F                      6412.0000:   Top Depth
STOP.F                      9744.0000:   Bottom Depth
STEP.F                         .50000:   Depth Increment
NULL.                        -999.250:   Null Value
FLD .                      GA BLK 273:   Field Name
WELL.       OCSG09037   005 ST00 BP00:   NAME
API .                  42706403310000:   WELL API
EDF .F                        93.0000:   ELEV DRILL FLOOR
COMP.       SEAGULL ENERGY E AND P IN:   OPERATOR
BN  .                             273:   BLOCK
CTRY.                             USA:   COUNTRY NAME
CNTY.                              GA:   COUNTY
CNTY.                        GLVSTN L:   COUNTY NAME
EGL .F                       -63.0000:   ELEV GROUND LEVEL
EKB .F                        94.0000:   ELEV KELLY BUSHING
TDD .F                       9756.000:   FINAL TD DRILLER
STAT.                           TEXAS:   STATE NAME
UWI .                  42706403310000:   WELL API
DICO.               IHS : Digitizing Company
~PARAMETER INFORMATION (zones)
#MNEM.UNIT                       Value     Description
#=========                       =====     ===========
#ZONATION                          DIL:   ZONATION NAME
#ZONE                            RUN_1:   ZONE NAME
TOP .                       6412.0000:   TOP DEPTH
BOT .                       9744.5000:   BOTTOM DEPTH
RUN .                               1:   RUN NUMBER
LCCD.                             440:   LOGGING CONTRACTOR
SRVC.                    Schlumberger:   LOGGING CONT NAME
DICO.          QC Data Collectors Ltd:   DIG COMPANY NAME
LDAT.                      03/03/1993:   DATE LOGGED
ELD .F                        94.0000:   LOG DATUM ELEVATION
TDD .F                      9756.0000:   TOTAL DEPTH DRILLER
TDL .F                      9750.0000:   TOTAL DEPTH LOGGER
BOTL.F                      9744.0000:   BOTTOM DEPTH LOGGED
TOPL.F                      6543.0000:   TOP DEPTH LOGGED
CS1 .IN                        7.6250:   CASING SIZE 1
BS1 .IN                        6.5000:   BIT SIZE 1
DDB1.F                      9756.0000:   DEPTH DRILLED BIT 1
BHF .                              99:   FLUID CODE
DPT .                   Miscellaneous:   DRILLING FLUID TYPE
MUDD.                         11.7000:   FLUID DENSITY
MUDV.                         46.0000:   FLUID VISCOSITY
DFPH.                          6.5000:   FLUID PH
FL  .                          9.6500:   FLUID LOSS
RM  .OHMM                      1.3200:   RM
RMT .DEGF                     64.0000:   RM TEMP
RMF .OHMM                      1.1100:   RMF
RMFT.DEGF                     70.0000:   RMF TEMP
FSC .                               M:   RMF CODE
RMC .OHMM                      1.6200:   RMC
RMCT.DEGF                     65.0000:   RMC TEMP
CMC .                               M:   RMC CODE
TMAX.DEGF                    186.0000:   MAX REC TEMP
TIMC.                          6.5000:   TIME SINCE CIRCLN
~Curve Information Block
#MNEM.UNIT                    API CODE    No Description
#=========                    ========    == ===========
DEPT.F                   00 001 00 00:     1  DEPTH
DTL.US/F                             :     2  Sonic Transit Time (Slowness)
GR.GAPI                              :     3  Gamma Ray
ILD.OHMM                             :     4  Deep Induction Resistivity
ILM.OHMM                             :     5  Medium Induction Resistivity
SFL.OHMM                             :     6  Medium Resistivity
SP.MV                                :     7  Spontaneous Potential
~ASCII
# ...
 7764.0000   123.6000    93.1486      .5994      .5973      .5945   -41.4442
 7764.5000   124.5000    93.3135      .5945      .5923      .6083   -41.1965
 7765.0000   125.7000    97.8435      .5878      .5878      .6330   -41.4487
 7765.5000   125.7000    98.1733      .5818      .5830      .6338   -41.9510
 7766.0000   126.2999    96.9130      .5778      .5777      .6067   -41.4532
 7766.5000   126.7000    94.6844      .5747      .5724      .5836   -41.9554
 7767.0000   127.1000    95.8140      .5723      .5680      .5846   -41.7078
 7767.5000   127.2000    96.9095      .5697      .5655      .5956   -41.7100
 7768.0000   127.2000    96.6017      .5681      .5647      .5958   -41.7123
 7768.5000   127.1000    95.8267      .5684      .5654      .5850   -41.7145
 7769.0000   127.2000   100.6083      .5702      .5672      .5913   -41.7167
 7769.5000   126.1000   100.9198      .5727      .5701      .6030   -41.2191
 7770.0000   126.4000    98.2568      .5752      .5741      .6146   -40.4713
 7770.5000   126.5000    96.3081      .5778      .5784      .6158   -40.4736
 7771.0000   125.9999    92.8639      .5796      .5822      .6224   -40.2258
 7771.5000   126.0000    92.0538      .5810      .5844      .6245   -40.2281
 7772.0000   126.2999    88.7262      .5813      .5844      .6184   -40.2303
 7772.5000   126.2999    87.6176      .5809      .5824      .6054   -40.2326
 7773.0000   126.1000    87.0900      .5796      .5789      .6005   -40.2349
 7773.5000   126.7999    83.7922      .5772      .5749      .5970   -39.9871
 7774.0000   126.7999    83.9783      .5746      .5708      .5972   -40.4894
 7774.5000   128.0000    84.4725      .5724      .5671      .5965   -40.9916
 7775.0000   128.0000    82.1833      .5709      .5642      .5895   -40.2438
 7775.5000   128.0000    80.9625      .5691      .5624      .5831   -40.2462
 7776.0000   128.2000    80.9957      .5671      .5614      .5894   -39.7484
 7776.5000   127.8999    83.6147      .5639      .5604      .5970   -40.2507
 7777.0000   128.0999    87.0671      .5607      .5583      .5913   -40.7529
 7777.5000   128.9998    87.6929      .5600      .5548      .5731   -40.7552
 7778.0000   128.7998    88.6823      .5608      .5506      .5630   -40.2574
 7778.5000   129.7998    85.8456      .5643      .5480      .5456   -40.5097
 7779.0000   129.0999    82.8971      .5724      .5498      .5261   -41.0120
 7779.5000   128.0999    85.6155      .5841      .5586      .5557   -41.7642
 7780.0000   128.0999    87.6379      .5980      .5758      .6061   -42.2665
 7780.5000   125.6000    95.2664      .6175      .6017      .6625   -42.2687
 7781.0000   122.5000    93.1879      .6414      .6349      .6664   -43.7709
 7781.5000   120.6000    91.2823      .6675      .6727      .6877   -43.0232
 7782.0000   116.2999    82.8296      .6925      .7104      .7765   -43.2755
 7782.5000   116.7000    83.8511      .7138      .7415      .8737   -44.0277
 7783.0000   116.8999    87.4054      .7299      .7596      .8841   -43.5300
 7783.5000   117.5000    96.3091      .7412      .7627      .8141   -44.0323
 7784.0000   120.2000    99.6311      .7459      .7545      .7621   -42.5345
 7784.5000   120.2999   105.5670      .7414      .7412      .7711   -42.0368
 7785.0000   118.9000   104.3605      .7295      .7274      .7527   -41.7891
 7785.5000   119.6000   105.2899      .7183      .7150      .7238   -42.0413
 7786.0000   118.9000    97.4617      .7090      .7041      .7002   -42.2935
 7786.5000   119.1000    96.8544      .6995      .6948      .7021   -43.2958
 7787.0000   120.2000    94.9080      .6903      .6871      .6981   -43.5481
 7787.5000   120.0000    96.3055      .6817      .6802      .7041   -43.8004
 7788.0000   120.4000    95.9758      .6723      .6734      .7014   -43.8026
 7788.5000   121.6000    99.7333      .6639      .6657      .7026   -43.5549
 7789.0000   122.7999   100.3716      .6572      .6569      .6860   -44.0571
 7789.5000   123.3999   102.6685      .6518      .6477      .6691   -43.0593
 7790.0000   123.5000    95.4395      .6475      .6396      .6467   -42.3116
 7790.5000   122.7000    98.0663      .6440      .6338      .6337   -42.0639
 7791.0000   122.6000    95.6045      .6422      .6313      .6367   -42.3162
 7791.5000   123.7000    99.5499      .6429      .6322      .6437   -42.3184
 7792.0000   123.2000    96.9231      .6456      .6365      .6383   -42.3207
 7792.5000   124.2999    97.9124      .6492      .6434      .6567   -41.8229
 7793.0000   123.6000    95.7566      .6545      .6516      .6875   -42.3252
 7793.5000   122.0000    98.0862      .6603      .6595      .7070   -42.0775
 7794.0000   120.9999    96.5176      .6660      .6659      .6954   -42.3297
 7794.5000   120.7000    94.2333      .6731      .6707      .6915   -41.8320
 7795.0000   120.7999    92.0024      .6782      .6744      .6957   -42.0842
 7795.5000   120.4000    89.9436      .6817      .6780      .6952   -42.0865
 7796.0000   120.6000    90.7169      .6840      .6816      .7045   -41.8387
 7796.5000   120.2000    85.0333      .6857      .6846      .7199   -41.8410
 7797.0000   119.2999    82.7070      .6857      .6860      .7148   -41.5933
 7797.5000   118.5000    82.2537      .6868      .6853      .7055   -41.5955
 7798.0000   119.2999    83.0781      .6885      .6829      .6970   -40.8478
 7798.5000   120.0000    81.1213      .6883      .6803      .6876   -41.1000
 7799.0000   121.0000    80.1417      .6887      .6791      .6668   -40.8522
 7799.5000   120.7999    81.5062      .6889      .6799      .6809   -41.1046
 7800.0000   121.2999    85.7699      .6897      .6821      .7041   -41.1068
 7800.5000   119.7000    87.3901      .6952      .6851      .7107   -41.3591
 7801.0000   118.2999    87.5095      .7062      .6901      .6658   -41.6113
 7801.5000   117.7999    87.1719      .7206      .7002      .6334   -40.8636
 7802.0000   117.0000    86.3761      .7338      .7182      .6640   -41.3658
 7802.5000   115.2000    86.2112      .7433      .7431      .7746   -41.8681
 7803.0000   112.8999    83.1912      .7542      .7687      .8671   -42.1204
 7803.5000   112.0000    78.7393      .7745      .7885      .8649   -41.8726
 7804.0000   114.6000    80.6349      .8122      .8034      .7615   -41.8749
 7804.5000   113.8999    83.3525      .8649      .8248      .6705   -41.8771
 7805.0000   112.7000    88.0929      .9113      .8674      .6894   -42.1294
 7805.5000   106.5000    83.2294      .9363      .9388      .9165   -42.1317
 7806.0000    97.7000    75.8096      .9469     1.0276     1.2982   -42.3839
 7806.5000    92.1000    71.2795      .9497     1.0959     1.7411   -43.3862
 7807.0000    95.7000    76.0613      .9553     1.1006     1.7102   -43.8884
 7807.5000   102.2999    84.2904      .9581     1.0403     1.2431   -44.1407
 7808.0000   108.1000    94.6094      .9429      .9549      .8374   -43.6429
 7808.5000   113.2999    96.0140      .9080      .8798      .7251   -43.1451
 7809.0000   115.3999    98.3375      .8638      .8278      .7365   -42.8975
 7809.5000   115.2000    97.2296      .8222      .7972      .7394   -42.3997
 7810.0000   115.7000    95.4951      .7961      .7817      .7325   -42.4020
 7810.5000   115.8999    93.7769      .7807      .7748      .7423   -42.9042
 7811.0000   115.5000    92.4347      .7721      .7719      .7700   -42.1565
 7811.5000   115.7000    95.0559      .7672      .7702      .7962   -42.4088
 7812.0000   115.6000    99.0826      .7658      .7682      .7899   -41.4109
 7812.5000   114.9000   100.2368      .7653      .7662      .7717   -41.1633
 7813.0000   115.2000    97.7063      .7643      .7653      .7457   -41.4155
 7813.5000   115.7999    95.5627      .7625      .7658      .7794   -40.9178
 7814.0000   114.8999    89.4254      .7572      .7660      .8383   -41.1700
 7814.5000   115.5000    90.1387      .7539      .7637      .8356   -41.1723
 7815.0000   116.3999    93.0964      .7533      .7584      .7836   -41.4246
 7815.5000   116.6000   101.7070      .7544      .7520      .7136   -41.4268
