~VERSION INFORMATION
VERS.                             2.0:   CWLS Log ASCII Standard-VERSION 2.0
WRAP.                              NO:   One line per depth step
~Well Information Block
STRT.F                      3732.0000:   Top Depth
STOP.F                      8303.0000:   Bottom Depth
STEP.F                         .50000:   Depth Increment
NULL.                        -999.250:   Null Value
FLD .                      BA BLK 415:   Field Name
WELL.       OCSG11271   001 ST00 BP00:   NAME
API .                  42704402170000:   WELL API
EDF .F                       100.0000:   ELEV DRILL FLOOR
COMP.                     APACHE CORP:   OPERATOR
BN  .                             415:   BLOCK
CTRY.                             USA:   COUNTRY NAME
CNTY.                        BRAZOS L:   COUNTY NAME
EGL .F                       -78.0000:   ELEV GROUND LEVEL
EKB .F                       101.0000:   ELEV KELLY BUSHING
TDD .F                       8311.000:   FINAL TD DRILLER
STAT.                           TEXAS:   STATE NAME
UWI .                  42704402170000:   WELL API
DICO.               IHS : Digitizing Company
~PARAMETER INFORMATION (zones)
#MNEM.UNIT                       Value     Description
#=========                       =====     ===========
#ZONATION                          CNL:   ZONATION NAME
#ZONE                            RUN_1:   ZONE NAME
TOP .                       5274.0000:   TOP DEPTH
BOT .                       8300.5000:   BOTTOM DEPTH
RUN .                               1:   RUN NUMBER
LCCD.                              99:   LOGGING CONTRACTOR
DICO.          QC Data Collectors Ltd:   DIG COMPANY NAME
LDAT.                      08/26/1990:   DATE LOGGED
ELD .F                       101.0000:   LOG DATUM ELEVATION
TDD .F                      8311.0000:   TOTAL DEPTH DRILLER
TDL .F                      8306.0000:   TOTAL DEPTH LOGGER
BOTL.F                      8303.0000:   BOTTOM DEPTH LOGGED
TOPL.F                      5257.0000:   TOP DEPTH LOGGED
CS1 .IN                       10.7500:   CASING SIZE 1
BS1 .IN                        9.8750:   BIT SIZE 1
DDB1.F                      8311.0000:   DEPTH DRILLED BIT 1
BHF .                              99:   FLUID CODE
DPT .                   Miscellaneous:   DRILLING FLUID TYPE
MUDD.                         10.0000:   FLUID DENSITY
MUDV.                         43.0000:   FLUID VISCOSITY
DFPH.                          8.1000:   FLUID PH
FL  .                          3.2000:   FLUID LOSS
RM  .OHMM                       .8800:   RM
RMT .DEGF                     75.0000:   RM TEMP
RMF .OHMM                       .7000:   RMF
RMFT.DEGF                     75.0000:   RMF TEMP
FSC .                               C:   RMF CODE
RMC .OHMM                       .9600:   RMC
RMCT.DEGF                     75.0000:   RMC TEMP
CMC .                               C:   RMC CODE
TMAX.DEGF                    166.0000:   MAX REC TEMP
TIMC.                         10.0000:   TIME SINCE CIRCLN
~PARAMETER INFORMATION (zones)
#MNEM.UNIT                       Value     Description
#=========                       =====     ===========
#ZONATION                          DIL:   ZONATION NAME
#ZONE                            RUN_1:   ZONE NAME
TOP .                       3732.0000:   TOP DEPTH
BOT .                       8303.5000:   BOTTOM DEPTH
RUN .                               1:   RUN NUMBER
LCCD.                              99:   LOGGING CONTRACTOR
DICO.          QC Data Collectors Ltd:   DIG COMPANY NAME
LDAT.                      08/26/1990:   DATE LOGGED
ELD .F                       101.0000:   LOG DATUM ELEVATION
TDD .F                      8311.0000:   TOTAL DEPTH DRILLER
TDL .F                      8306.0000:   TOTAL DEPTH LOGGER
BOTL.F                      8303.0000:   BOTTOM DEPTH LOGGED
TOPL.F                      3786.0000:   TOP DEPTH LOGGED
CS1 .IN                       10.7500:   CASING SIZE 1
BS1 .IN                        9.8750:   BIT SIZE 1
DDB1.F                      8311.0000:   DEPTH DRILLED BIT 1
BHF .                              99:   FLUID CODE
DPT .                   Miscellaneous:   DRILLING FLUID TYPE
MUDD.                         10.0000:   FLUID DENSITY
MUDV.                         43.0000:   FLUID VISCOSITY
DFPH.                          8.1000:   FLUID PH
FL  .                          3.2000:   FLUID LOSS
RM  .OHMM                       .8800:   RM
RMT .DEGF                     75.0000:   RM TEMP
RMF .OHMM                       .7000:   RMF
RMFT.DEGF                     75.0000:   RMF TEMP
FSC .                               C:   RMF CODE
RMC .OHMM                       .9600:   RMC
RMCT.DEGF                     75.0000:   RMC TEMP
CMC .                               C:   RMC CODE
TMAX.DEGF                    166.0000:   MAX REC TEMP
TIMC.                          6.0000:   TIME SINCE CIRCLN
~PARAMETER INFORMATION (zones)
#MNEM.UNIT                       Value     Description
#=========                       =====     ===========
#ZONATION                          FDC:   ZONATION NAME
#ZONE                            RUN_1:   ZONE NAME
TOP .                       5263.0000:   TOP DEPTH
BOT .                       8303.5000:   BOTTOM DEPTH
RUN .                               1:   RUN NUMBER
LCCD.                              99:   LOGGING CONTRACTOR
DICO.          QC Data Collectors Ltd:   DIG COMPANY NAME
LDAT.                      08/26/1990:   DATE LOGGED
ELD .F                       101.0000:   LOG DATUM ELEVATION
TDD .F                      8311.0000:   TOTAL DEPTH DRILLER
TDL .F                      8306.0000:   TOTAL DEPTH LOGGER
BOTL.F                      8303.0000:   BOTTOM DEPTH LOGGED
TOPL.F                      5257.0000:   TOP DEPTH LOGGED
CS1 .IN                       10.7500:   CASING SIZE 1
BS1 .IN                        9.8750:   BIT SIZE 1
DDB1.F                      8311.0000:   DEPTH DRILLED BIT 1
BHF .                              99:   FLUID CODE
DPT .                   Miscellaneous:   DRILLING FLUID TYPE
MUDD.                         10.0000:   FLUID DENSITY
MUDV.                         43.0000:   FLUID VISCOSITY
DFPH.                          8.1000:   FLUID PH
FL  .                          3.2000:   FLUID LOSS
RM  .OHMM                       .8800:   RM
RMT .DEGF                     75.0000:   RM TEMP
RMF .OHMM                       .7000:   RMF
RMFT.DEGF                     75.0000:   RMF TEMP
FSC .                               C:   RMF CODE
RMC .OHMM                       .9600:   RMC
RMCT.DEGF                     75.0000:   RMC TEMP
CMC .                               C:   RMC CODE
TMAX.DEGF                    166.0000:   MAX REC TEMP
TIMC.                         10.0000:   TIME SINCE CIRCLN
~Curve Information Block
#MNEM.UNIT                    API CODE    No Description
#=========                    ========    == ===========
DEPT.F                   00 001 00 00:     1  DEPTH
NPHI.%                               :     2  Neutron Porosity
CALI.IN                              :     3  Caliper
DT.US/F                              :     4  Sonic Transit Time
GR.GAPI                              :     5  Gamma Ray
ILD.OHMM                             :     6  Deep Induction Resistivity
ILM.OHMM                             :     7  Medium Induction Resistivity
RFOC.OHMM                            :     8  Medium Resistivity
SP.MV                                :     9  Spontaneous Potential
CALI.IN                              :    10  Caliper
DPHI.%                               :    11  Porosity
DRHO.G/C3                            :    12  Bulk Density Correction
GR.GAPI                              :    13  Gamma Ray
RHOB.G/C3                            :    14  Bulk Density
~ASCII
# ...
 8282.0000    36.4890    12.3641    50.1616  -999.2500      .7692      .7722      .7896   -41.7114    12.1522  -999.2500      .0671   108.6658     2.3344
 8282.5000    36.9144    12.2150  -999.2500  -999.2500      .7582      .7652      .7837   -41.8252    12.1842  -999.2500      .0628   108.0618     2.3377
 8283.0000    36.9106    12.0987  -999.2500  -999.2500      .7444      .7589      .7775   -41.9449    12.2491  -999.2500      .0636   109.8331     2.3400
 8283.5000    36.7559    12.0622  -999.2500  -999.2500      .7494      .7568      .7736   -42.0691    12.0036  -999.2500      .0675   110.1583     2.3408
 8284.0000    36.7471    12.0789  -999.2500  -999.2500      .7566      .7547      .7766   -42.1319    11.8874  -999.2500      .0708   110.4281     2.3348
 8284.5000    36.8415    12.0592  -999.2500  -999.2500      .7690      .7586      .7847   -42.1725    11.8187  -999.2500      .0821   110.8939     2.3215
 8285.0000    37.0323    11.9511  -999.2500  -999.2500      .7784      .7637      .7940   -42.1538    11.7864  -999.2500      .0966   111.6654     2.3139
 8285.5000    37.2153    11.8329  -999.2500  -999.2500      .7869      .7707      .8040   -42.1064    11.8429  -999.2500      .1110   111.9672     2.3132
 8286.0000    37.2852    11.7597  -999.2500  -999.2500      .7908      .7789      .8113   -41.9855    11.9570  -999.2500      .1126   111.7035     2.3261
 8286.5000    36.9875    11.7131  -999.2500  -999.2500      .7938      .7843      .8166   -41.8582    12.0495  -999.2500      .0794   113.0754     2.3414
 8287.0000    36.4014    11.7021  -999.2500  -999.2500      .7911      .7860      .8116   -41.7111    12.0828  -999.2500      .0672   117.4021     2.3521
 8287.5000    35.9537    11.8159  -999.2500  -999.2500      .7882      .7871      .8052   -41.5665    12.0486  -999.2500      .0595   118.0276     2.3569
 8288.0000    35.7649    11.8498  -999.2500  -999.2500      .7895      .7879      .7998   -41.4852    11.8730  -999.2500      .0679   114.8218     2.3577
 8288.5000    36.3066    11.9189  -999.2500  -999.2500      .7907      .7897      .7990   -41.4094    11.6648  -999.2500      .0764   112.1216     2.3507
 8289.0000    36.8376    11.8969  -999.2500  -999.2500      .8034      .7948      .8030   -41.4127    11.5432  -999.2500      .0932   111.4113     2.3387
 8289.5000    37.0379    11.8009  -999.2500  -999.2500      .8179      .8054      .8149   -41.4243    11.4582  -999.2500      .1045   111.5637     2.3333
 8290.0000    37.2013    11.6619  -999.2500  -999.2500      .8313      .8162      .8325   -41.6028    11.3985  -999.2500      .0877   113.2189     2.3350
 8290.5000    36.9399    11.5231  -999.2500  -999.2500      .8418      .8273      .8459   -41.7813    11.3552  -999.2500      .0755   203.3298     2.3424
 8291.0000    36.7014    11.3840  -999.2500  -999.2500      .8524      .8365      .8554   -41.7736    11.3393  -999.2500      .0698   210.0127     2.3505
 8291.5000    36.5252    11.3089  -999.2500  -999.2500      .8565      .8454      .8638   -41.6710    11.3558  -999.2500      .0666   209.8464     2.3498
 8292.0000    36.5718    11.2605  -999.2500  -999.2500      .8580      .8511      .8657   -41.5682    11.3869  -999.2500      .0644   209.9182     2.3445
 8292.5000    36.6714    11.2721  -999.2500  -999.2500      .8595      .8526      .8675   -41.4920    11.4309  -999.2500      .0648   209.8882     2.3343
 8293.0000    36.6603    11.3139  -999.2500  -999.2500      .8571      .8542      .8666   -41.4185    11.4832  -999.2500      .0725   209.8813     2.3305
 8293.5000    36.3269    11.3435  -999.2500  -999.2500      .8524      .8532      .8630   -41.3674    11.5395  -999.2500      .0866   209.7598     2.3270
 8294.0000    35.6976    11.3522  -999.2500  -999.2500      .8472      .8491      .8556   -41.4139    11.5894  -999.2500      .0976   309.8784     2.3209
 8294.5000    35.0421    11.3664  -999.2500  -999.2500      .8398      .8447      .8446   -41.4977    11.6482  -999.2500      .1039   310.0332     2.3171
 8295.0000    34.6069    11.4055  -999.2500  -999.2500      .8337      .8366      .8304   -41.6899    11.7078  -999.2500      .1135   310.0801     2.3164
 8295.5000    34.7650    11.4586  -999.2500  -999.2500      .8294      .8273      .8228   -41.8550    11.7720  -999.2500      .1149   310.1299     2.3176
 8296.0000    34.8828    11.5799  -999.2500  -999.2500      .8189      .8141      .8246   -41.9919    11.4547  -999.2500      .1002   310.2119     2.3205
 8296.5000    33.5267    11.7374  -999.2500  -999.2500      .8087      .8037      .8375   -42.0059    11.2074  -999.2500      .0891   310.3418     2.3248
 8297.0000    11.3967    11.6066  -999.2500  -999.2500      .8010      .7953      .8622   -41.9356    11.2295  -999.2500      .0837   310.4717     2.3280
 8297.5000     1.8766    11.2592  -999.2500  -999.2500      .7973      .7938      .8630   -41.7911    11.5209  -999.2500      .0820   310.5688     2.3272
 8298.0000     2.5197    10.9963  -999.2500  -999.2500      .7947      .7951      .8502   -41.4771    11.8107  -999.2500      .0802   310.1270     2.3232
 8298.5000    23.8811    11.0800  -999.2500  -999.2500      .7963      .7977      .8324   -41.1378    12.0083  -999.2500      .0790   209.7908     2.3240
 8299.0000    48.8760    11.3931  -999.2500  -999.2500      .7979      .8017      .8143   -40.9592    12.2319  -999.2500      .0816   209.6311     2.3288
 8299.5000    49.8931    11.7172  -999.2500  -999.2500      .7993      .8052      .8052   -40.8138    12.3607  -999.2500      .0889  -999.2500     2.3281
 8300.0000    50.0070    11.9927  -999.2500  -999.2500      .8005      .8065      .7970   -40.8186    12.5242  -999.2500      .0924  -999.2500     2.3176
 8300.5000  -999.2500    12.2238  -999.2500  -999.2500      .8016      .8077      .7955  -129.4751    12.6149  -999.2500      .0893  -999.2500     2.3098
 8301.0000  -999.2500    12.3933  -999.2500  -999.2500      .7992      .8048      .7941  -999.2500    12.6388  -999.2500      .0850  -999.2500     2.3054
 8301.5000  -999.2500    12.5035  -999.2500  -999.2500      .7967      .8020      .7915  -999.2500    12.6193  -999.2500      .0812  -999.2500     2.3046
 8302.0000  -999.2500    12.5723  -999.2500  -999.2500      .7941      .7990      .7888  -999.2500    12.6098  -999.2500      .0789  -999.2500     2.3063
 8302.5000  -999.2500    12.6005  -999.2500  -999.2500      .7916      .7961      .7864  -999.2500    12.6021  -999.2500      .0775  -999.2500     2.3072
 8303.0000  -999.2500    12.6082  -999.2500  -999.2500      .7892      .7952      .7843  -999.2500    12.6062  -999.2500      .0805  -999.2500     2.3076
