~VERSION INFORMATION
VERS.                             2.0:   CWLS Log ASCII Standard-VERSION 2.0
WRAP.                              NO:   One line per depth step
~Well Information Block
STRT.F                      6412.0000:   Top Depth
STOP.F                      9744.0000:   Bottom Depth
STEP.F                         .50000:   Depth Increment
NULL.                        -999.250:   Null Value
FLD .                      GA BLK 273:   Field Name
WELL.       OCSG09037   005 ST00 BP00:   NAME
API .                  42706403310000:   WELL API
EDF .F                        93.0000:   ELEV DRILL FLOOR
COMP.       SEAGULL ENERGY E AND P IN:   OPERATOR
BN  .                             273:   BLOCK
CTRY.                             USA:   COUNTRY NAME
CNTY.                              GA:   COUNTY
CNTY.                        GLVSTN L:   COUNTY NAME
EGL .F                       -63.0000:   ELEV GROUND LEVEL
EKB .F                        94.0000:   ELEV KELLY BUSHING
TDD .F                       9756.000:   FINAL TD DRILLER
STAT.                           TEXAS:   STATE NAME
UWI .                  42706403310000:   WELL API
DICO.               IHS : Digitizing Company
~PARAMETER INFORMATION (zones)
#MNEM.UNIT                       Value     Description
#=========                       =====     ===========
#ZONATION                          DIL:   ZONATION NAME
#ZONE                            RUN_1:   ZONE NAME
TOP .                       6412.0000:   TOP DEPTH
BOT .                       9744.5000:   BOTTOM DEPTH
RUN .                               1:   RUN NUMBER
LCCD.                             440:   LOGGING CONTRACTOR
SRVC.                    Schlumberger:   LOGGING CONT NAME
DICO.          QC Data Collectors Ltd:   DIG COMPANY NAME
LDAT.                      03/03/1993:   DATE LOGGED
ELD .F                        94.0000:   LOG DATUM ELEVATION
TDD .F                      9756.0000:   TOTAL DEPTH DRILLER
TDL .F                      9750.0000:   TOTAL DEPTH LOGGER
BOTL.F                      9744.0000:   BOTTOM DEPTH LOGGED
TOPL.F                      6543.0000:   TOP DEPTH LOGGED
CS1 .IN                        7.6250:   CASING SIZE 1
BS1 .IN                        6.5000:   BIT SIZE 1
DDB1.F                      9756.0000:   DEPTH DRILLED BIT 1
BHF .                              99:   FLUID CODE
DPT .                   Miscellaneous:   DRILLING FLUID TYPE
MUDD.                         11.7000:   FLUID DENSITY
MUDV.                         46.0000:   FLUID VISCOSITY
DFPH.                          6.5000:   FLUID PH
FL  .                          9.6500:   FLUID LOSS
RM  .OHMM                      1.3200:   RM
RMT .DEGF                     64.0000:   RM TEMP
RMF .OHMM                      1.1100:   RMF
RMFT.DEGF                     70.0000:   RMF TEMP
FSC .                               M:   RMF CODE
RMC .OHMM                      1.6200:   RMC
RMCT.DEGF                     65.0000:   RMC TEMP
CMC .                               M:   RMC CODE
TMAX.DEGF                    186.0000:   MAX REC TEMP
TIMC.                          6.5000:   TIME SINCE CIRCLN
~Curve Information Block
#MNEM.UNIT                    API CODE    No Description
#=========                    ========    == ===========
DEPT.F                   00 001 00 00:     1  DEPTH
DTL.US/F                             :     2  Sonic Transit Time (Slowness)
GR.GAPI                              :     3  Gamma Ray
ILD.OHMM                             :     4  Deep Induction Resistivity
ILM.OHMM                             :     5  Medium Induction Resistivity
SFL.OHMM                             :     6  Medium Resistivity
SP.MV                                :     7  Spontaneous Potential
~ASCII
# ...
 7348.0000   120.0000   107.3450      .6940      .6864      .6766   -43.5653
 7348.5000   119.8999   106.4510      .6982      .6861      .6408   -43.3175
 7349.0000   120.1000   104.4725      .7007      .6865      .6243   -43.5698
 7349.5000   119.0000   101.3397      .7016      .6888      .6832   -43.5720
 7350.0000   118.6000    99.3868      .7007      .6924      .7160   -43.5743
 7350.5000   118.0000    96.0891      .7018      .6957      .7113   -43.0766
 7351.0000   118.1000    94.2129      .7049      .6976      .6932   -43.5789
 7351.5000   117.8999    89.8047      .7098      .6985      .6847   -43.8311
 7352.0000   118.3999    86.9653      .7134      .7002      .6923   -44.0834
 7352.5000   118.4000    87.6342      .7173      .7043      .7012   -44.3356
 7353.0000   117.2999    92.3716      .7203      .7107      .7420   -44.0879
 7353.5000   116.2999    97.8274      .7204      .7176      .7507   -44.8401
 7354.0000   115.7999    99.6493      .7212      .7223      .7380   -44.3424
 7354.5000   115.0000    96.2308      .7233      .7231      .7090   -44.8446
 7355.0000   115.2999    94.1093      .7238      .7202      .6927   -44.5969
 7355.5000   116.2999    90.7957      .7197      .7148      .7171   -44.5992
 7356.0000   116.9000    96.0719      .7137      .7076      .7264   -44.1014
 7356.5000   117.3999    98.5452      .7086      .6992      .6898   -43.3537
 7357.0000   118.1000   103.8823      .7038      .6907      .6455   -43.3560
 7357.5000   118.7000    99.0405      .7017      .6837      .6475   -43.1082
 7358.0000   119.1000    99.5352      .7002      .6798      .6712   -42.8604
 7358.5000   120.2000    98.4995      .7004      .6802      .6600   -42.8627
 7359.0000   121.2000   100.0437      .7021      .6847      .6727   -43.3650
 7359.5000   121.2000    97.0554      .7052      .6923      .7262   -43.3672
 7360.0000   120.6000    88.0386      .7077      .7009      .7647   -44.1195
 7360.5000   119.3999    91.1714      .7095      .7074      .7583   -43.8718
 7361.0000   118.8999    93.6650      .7129      .7096      .7329   -44.1240
 7361.5000   117.7999   104.1638      .7168      .7074      .6888   -44.1263
 7362.0000   117.6000    99.2173      .7193      .7035      .6541   -43.6285
 7362.5000   117.2000    99.0304      .7220      .7014      .6547   -43.3808
 7363.0000   117.2000    95.9019      .7243      .7033      .7058   -42.8831
 7363.5000   116.2999   101.1781      .7229      .7092      .7213   -43.1353
 7364.0000   114.8999    96.2535      .7239      .7167      .7304   -43.1376
 7364.5000   115.5000    96.7252      .7262      .7228      .7460   -43.1398
 7365.0000   115.0000    92.2733      .7289      .7256      .7475   -42.8920
 7365.5000   116.2999    95.5710      .7332      .7254      .7297   -42.8943
 7366.0000   117.2000    92.4647      .7344      .7237      .7013   -42.6466
 7366.5000   117.2999    93.1034      .7352      .7225      .7094   -42.8989
 7367.0000   117.2999    95.5767      .7351      .7227      .7051   -42.9011
 7367.5000   117.2999    92.2833      .7343      .7242      .7290   -42.9034
 7368.0000   117.2000    94.9424      .7355      .7260      .7442   -43.4056
 7368.5000   117.0000    91.7892      .7382      .7277      .7496   -42.9078
 7369.0000   116.2000    97.2665      .7406      .7293      .6938   -43.4102
 7369.5000   114.8999    92.4702      .7450      .7316      .7173   -43.4124
 7370.0000   113.7999    95.1288      .7492      .7353      .7557   -43.1646
 7370.5000   113.9999    92.1609      .7498      .7400      .7481   -43.4169
 7371.0000   114.2999    95.4084      .7502      .7444      .7549   -42.6692
 7371.5000   114.5000    91.4512      .7525      .7472      .7416   -43.1714
 7372.0000   116.2999    92.9352      .7540      .7480      .7429   -42.9237
 7372.5000   116.1000    89.2076      .7549      .7475      .7359   -43.4260
 7373.0000   116.2000    88.0535      .7572      .7466      .7381   -43.4282
 7373.5000   115.7000    86.8394      .7583      .7463      .7480   -43.4305
 7374.0000   116.2000    88.1584      .7587      .7474      .7261   -43.6827
 7374.5000   116.2000    89.9722      .7603      .7497      .7263   -43.9350
 7375.0000   115.7000    92.0106      .7606      .7527      .7678   -44.1873
 7375.5000   114.7999    95.2418      .7616      .7554      .7544   -44.1895
 7376.0000   114.7999    95.0770      .7624      .7566      .7582   -43.6917
 7376.5000   114.0000    92.1090      .7637      .7563      .7317   -43.1940
 7377.0000   115.5000    86.8992      .7660      .7554      .7260   -42.6963
 7377.5000   117.0000    84.7756      .7661      .7554      .7150   -42.6985
 7378.0000   116.6000    84.7563      .7651      .7565      .7351   -43.2008
 7378.5000   116.0000    86.4052      .7642      .7581      .7660   -43.4530
 7379.0000   115.8999    90.3003      .7638      .7590      .7487   -43.2053
 7379.5000   115.2000    94.6066      .7648      .7587      .7311   -43.4576
 7380.0000   114.5000    92.6281      .7657      .7580      .7378   -43.7098
 7380.5000   114.6000    92.7716      .7663      .7578      .7473   -43.9620
 7381.0000   114.5000    86.1761      .7662      .7587      .7382   -43.9644
 7381.5000   115.1000    88.3197      .7668      .7605      .7410   -43.7166
 7382.0000   114.7999    84.5536      .7683      .7626      .7673   -43.9689
 7382.5000   114.2000    90.9619      .7703      .7647      .7658   -43.7211
 7383.0000   113.4000    88.9833      .7736      .7670      .7380   -43.4734
 7383.5000   112.6000    88.3247      .7793      .7704      .7416   -44.2256
 7384.0000   112.0000    86.2032      .7870      .7765      .7446   -43.9778
 7384.5000   113.1000    81.0767      .7918      .7856      .7913   -43.9801
 7385.0000   113.8999    81.7354      .7973      .7968      .7962   -43.7324
 7385.5000   113.0000    83.0343      .8026      .8076      .8309   -43.4846
 7386.0000   111.7000    91.2937      .8054      .8154      .7940   -43.9869
 7386.5000   111.1000    97.5509      .8080      .8181      .7968   -43.4892
 7387.0000   110.6000    97.5494      .8092      .8158      .7993   -43.4915
 7387.5000   110.5000    94.7465      .8069      .8097      .7902   -43.2437
 7388.0000   111.7999    92.4412      .8015      .8018      .7827   -43.4960
 7388.5000   113.2999    91.8031      .7956      .7936      .7996   -43.9982
 7389.0000   112.7999    92.7925      .7879      .7851      .8106   -44.5005
 7389.5000   113.1000    90.5068      .7771      .7761      .8030   -44.5027
 7390.0000   113.2999    90.6294      .7690      .7666      .7450   -44.2550
 7390.5000   114.1000    97.5546      .7642      .7575      .7086   -43.2573
 7391.0000   115.5000   102.5208      .7562      .7501      .7172   -43.0095
 7391.5000   116.7000    99.0045      .7482      .7442      .7502   -43.2618
 7392.0000   116.8999    94.3668      .7410      .7388      .7682   -43.2640
 7392.5000   115.5000    93.3774      .7346      .7329      .7234   -43.7663
 7393.0000   115.2999    96.0704      .7307      .7263      .7148   -43.0186
 7393.5000   115.3999    97.5754      .7287      .7199      .7061   -43.0208
 7394.0000   115.7999    96.5643      .7272      .7153      .6914   -43.0231
 7394.5000   116.3999   100.6809      .7268      .7136      .6889   -43.0253
 7395.0000   116.5000   102.8245      .7294      .7156      .7023   -43.2776
 7395.5000   116.6000   103.3408      .7295      .7205      .7311   -43.0298
 7396.0000   115.7000    99.0801      .7283      .7263      .7458   -43.2820
 7396.5000   115.2999    92.9408      .7289      .7300      .7660   -43.2843
 7397.0000   115.8999    94.9193      .7278      .7293      .7495   -43.0366
 7397.5000   116.2000    98.0726      .7267      .7237      .7357   -43.0389
 7398.0000   116.6000    99.7601      .7273      .7153      .7140   -43.2911
 7398.5000   117.2999    95.0825      .7269      .7074      .6701   -42.2934
 7399.0000   118.3999    98.8749      .7269      .7038      .6468   -42.2957
 7399.5000   119.2999   100.0940      .7269      .7058      .6948   -42.0479
