~VERSION INFORMATION
VERS.                             2.0:   CWLS Log ASCII Standard-VERSION 2.0
WRAP.                              NO:   One line per depth step
~Well Information Block
STRT.F                      4470.0000:   Top Depth
STOP.F                     11800.5000:   Bottom Depth
STEP.F                         .50000:   Depth Increment
NULL.                        -999.250:   Null Value
FLD .                      GA BLK 315:   Field Name
WELL.       OCSG14835   001 ST00 BP00:   NAME
API .                  42706403880000:   WELL API
LOC .       993' FSL & 3018' FEL OF B:   AREA NAME
CTRY.                             USA:   COUNTRY
EGL .FT                      -66.0000:   GROUND LEVEL
EKB .FT                        0.0000:   KB ELEVATION
COMP.              APACHE CORPORATION:   OPERATOR
DREF.                             MSL:   PERM DATUM
COUN.                        OFFSHORE:   RIG NAME
STAT.                              TX:   STATE
CNTY.                        OFFSHORE:   COUNTY
DIGS.                   QC Data, Inc.:   DIG COMPANY NAME
EREF.FT                        0.0000:   ELEV DEPTH REFERENCE
UWI .                  42706403880000:   WELL API
DICO.               IHS : Digitizing Company
~PARAMETER INFORMATION (zones)
#MNEM.UNIT                       Value     Description
#=========                       =====     ===========
#ZONATION                        ZONES:   ZONATION NAME
#ZONE                             LAS1:   ZONE NAME
TOP .                       4470.0000:   TOP DEPTH
BOT .                      11816.0000:   BOTTOM DEPTH
SRVC.                   WESTERN ATLAS:   LOGGING CONTRACTOR
DATE.                         10AUG96:   RUN DATE
RW  .OHMM                      0.0000:   RW
RWT .DEGF                      0.0000:   RW TEMP
RUN .                               1:   LOG RUN
TDL .FT                     9298.0000:   FINAL TD LOGGER
TDD .FT                     9300.0000:   FINAL TD DRILLER
BOTL.FT                     9296.0000:   BOTTOM DEPTH LOGGED
TOPL.FT                     4478.0000:   TOP DEPTH LOGGED
CSGL.FT                     4494.0000:   CASING DEPTH LOGGER
CSGD.FT                     4488.0000:   CASING DEPTH DRILLER
CSGS.IN                       13.3750:   CASING SIZE
CSGW.                          0.0000:   CASING WEIGHT
BS  .IN                       12.2500:   BIT SIZE
MUD .                             MUD:   MUD TYPE
MUDD.                         14.2000:   MUD WEIGHT
MUDV.                         41.0000:   MUD VISCOSITY
FL  .                          4.4000:   FLUID LOSS
PH  .                          8.5000:   MUD PH
MUDS.                             PIT:   MUD SOURCE
RM  .OHMM                      1.3000:   RM
RMT .DEGF                     80.0000:   RM TEMP
RMF .OHMM                      0.5400:   RMF
RMFT.DEGF                     80.0000:   RMF TEMP
RMC .OHMM                      2.5000:   RMC
RMCT.DEGF                     80.0000:   RMC TEMP
MMFS.                            MEAS:   RMF SOURCE
MCFS.                            MEAS:   RMC SOURCE
RMBH.OHMM                      0.5500:   RM BH
BHT .DEGF                    182.0000:   BH TEMP
TMAX.DEGF                    182.0000:   MAX REC TEMP
SON .                          180318:   SERVICE ORDER NUM
ELMF.FT                       92.0000:   ABOVE PERM DATUM
LMF .                              DF:   LOGS MEAS FROM
DMF .                              DF:   DRILL MEAS FROM
TIMC.                            0600:   TIME SINCE CIRCLN
UNIT.8940                        8079:   UNIT NO.
BASE.                        PEARLAND:   LOG UNIT HOME BASE
ENG .                          SUTTON:   ENGINEER
WIT .                            DILL:   WITNESS
~PARAMETER INFORMATION (zones)
#MNEM.UNIT                       Value     Description
#=========                       =====     ===========
#ZONATION                        ZONES:   ZONATION NAME
#ZONE                             LAS2:   ZONE NAME
TOP .                       4470.0000:   TOP DEPTH
BOT .                      11816.0000:   BOTTOM DEPTH
SRVC.                   WESTERN ATLAS:   LOGGING CONTRACTOR
DATE.                         21AUG96:   RUN DATE
RW  .OHMM                      0.0000:   RW
RWT .DEGF                      0.0000:   RW TEMP
RUN .                               2:   LOG RUN
TDL .FT                    11503.0000:   FINAL TD LOGGER
TDD .FT                    11500.0000:   FINAL TD DRILLER
BOTL.FT                    11495.0000:   BOTTOM DEPTH LOGGED
TOPL.FT                     9240.0000:   TOP DEPTH LOGGED
CSGL.FT                     9240.0000:   CASING DEPTH LOGGER
CSGD.FT                     9250.0000:   CASING DEPTH DRILLER
CSGS.IN                        9.6250:   CASING SIZE
CSGW.                          0.0000:   CASING WEIGHT
BS  .IN                        8.5000:   BIT SIZE
MUD .                     DESCO LO-PH:   MUD TYPE
MUDD.                         16.4000:   MUD WEIGHT
MUDV.                         50.0000:   MUD VISCOSITY
FL  .                          2.8000:   FLUID LOSS
PH  .                          8.5000:   MUD PH
MUDS.                             PIT:   MUD SOURCE
RM  .OHMM                      1.0000:   RM
RMT .DEGF                     80.0000:   RM TEMP
RMF .OHMM                      0.4500:   RMF
RMFT.DEGF                     80.0000:   RMF TEMP
RMC .OHMM                      3.0000:   RMC
RMCT.DEGF                     80.0000:   RMC TEMP
MMFS.                            MEAS:   RMF SOURCE
MCFS.                            MEAS:   RMC SOURCE
RMBH.OHMM                      0.3870:   RM BH
BHT .DEGF                    230.0000:   BH TEMP
TMAX.DEGF                    230.0000:   MAX REC TEMP
SON .                          180319:   SERVICE ORDER NUM
ELMF.FT                       92.0000:   ABOVE PERM DATUM
LMF .                              DF:   LOGS MEAS FROM
DMF .                              DF:   DRILL MEAS FROM
TIMC.                            0700:   TIME SINCE CIRCLN
UNIT.8940                        8089:   UNIT NO.
BASE.                        PEARLAND:   LOG UNIT HOME BASE
ENG .                    SUTTON/DAVIS:   ENGINEER
WIT .                      MR.CAMBELL:   WITNESS
~PARAMETER INFORMATION (zones)
#MNEM.UNIT                       Value     Description
#=========                       =====     ===========
#ZONATION                        ZONES:   ZONATION NAME
#ZONE                             LAS3:   ZONE NAME
TOP .                       4470.0000:   TOP DEPTH
BOT .                      11816.0000:   BOTTOM DEPTH
SRVC.                   WESTERN ATLAS:   LOGGING CONTRACTOR
DATE.                         23AUG96:   RUN DATE
RW  .OHMM                      0.0000:   RW
RWT .DEGF                      0.0000:   RW TEMP
RUN .                               3:   LOG RUN
TDL .FT                    11800.0000:   FINAL TD LOGGER
TDD .FT                    11800.0000:   FINAL TD DRILLER
BOTL.FT                    11791.0000:   BOTTOM DEPTH LOGGED
TOPL.FT                     9240.0000:   TOP DEPTH LOGGED
CSGL.FT                     9240.0000:   CASING DEPTH LOGGER
CSGD.FT                     9250.0000:   CASING DEPTH DRILLER
CSGS.IN                        9.6250:   CASING SIZE
CSGW.                          0.0000:   CASING WEIGHT
BS  .IN                        8.5000:   BIT SIZE
MUD .                     DESCO LO-PH:   MUD TYPE
MUDD.                         16.4000:   MUD WEIGHT
MUDV.                         50.0000:   MUD VISCOSITY
FL  .                          2.8000:   FLUID LOSS
PH  .                          8.5000:   MUD PH
MUDS.                             PIT:   MUD SOURCE
RM  .OHMM                      1.0000:   RM
RMT .DEGF                     80.0000:   RM TEMP
RMF .OHMM                      0.4500:   RMF
RMFT.DEGF                     80.0000:   RMF TEMP
RMC .OHMM                      3.0000:   RMC
RMCT.DEGF                     80.0000:   RMC TEMP
MMFS.                            MEAS:   RMF SOURCE
MCFS.                            MEAS:   RMC SOURCE
RMBH.OHMM                      0.3870:   RM BH
BHT .DEGF                    232.0000:   BH TEMP
TMAX.DEGF                    232.0000:   MAX REC TEMP
SON .                          180319:   SERVICE ORDER NUM
ELMF.FT                       92.0000:   ABOVE PERM DATUM
LMF .                              DF:   LOGS MEAS FROM
DMF .                              DF:   DRILL MEAS FROM
TIMC.                            0700:   TIME SINCE CIRCLN
UNIT.8940                        8089:   UNIT NO.
BASE.                        PEARLAND:   LOG UNIT HOME BASE
ENG .                    SUTTON/DAVIS:   ENGINEER
WIT .                      BOB SHELBY:   WITNESS
~Curve Information Block
#MNEM.UNIT                    API CODE    No Description
#=========                    ========    == ===========
DEPT.F                   00 001 00 00:     1  DEPTH
CALX.IN                              :     2  Caliper
CNCF.%                               :     3  Field Normalized CNC
DT.US/F                              :     4  Sonic Transit Time
GR.GAPI                              :     5  Gamma Ray
M2R1.OHMM                            :     6  Array Resistivity Curve
M2R2.OHMM                            :     7  Array Resistivity Curve
M2R3.OHMM                            :     8  Array Resistivity Curve
M2R6.OHMM                            :     9  Array Resistivity Curve
M2R9.OHMM                            :    10  Array Resistivity Curve
M2RX.OHMM                            :    11  Array Resistivity Curve
PORZ.%                               :    12  PORZ
RFOC.OHMM                            :    13  Medium Resistivity
RILD.OHMM                            :    14  Deep Resistivity
RILM.OHMM                            :    15  Medium Resistivity
RWAA.OHMM                            :    16  RWAA
RWAZ.OHMM                            :    17  RWAZ
SP.MV                                :    18  Spontaneous Potential
TEN.LB                               :    19  TEN
ZCOR.G/CC                            :    20  Density Correction
~ASCII
# ...
10075.5000  -999.2500  -999.2500   122.1000    70.4150      .6550      .6180      .5890      .5820      .5780      .5800  -999.2500  -999.2500  -999.2500  -999.2500      .1250  -999.2500    -2.3530   -16.3470  -999.2500
10076.0000  -999.2500  -999.2500   122.2770    69.4860      .6580      .6210      .5920      .5840      .5800      .5810  -999.2500  -999.2500  -999.2500  -999.2500      .1260  -999.2500    -2.5300   -13.5290  -999.2500
10076.5000  -999.2500  -999.2500   123.0040    70.1560      .6530      .6180      .5900      .5820      .5780      .5780  -999.2500  -999.2500  -999.2500  -999.2500      .1280  -999.2500    -2.1290   -10.8840  -999.2500
10077.0000  -999.2500  -999.2500   123.3940    71.3170      .6410      .6080      .5810      .5740      .5690      .5700  -999.2500  -999.2500  -999.2500  -999.2500      .1280  -999.2500    -1.5760    -9.0560  -999.2500
10077.5000  -999.2500  -999.2500   124.0480    71.1660      .6290      .5980      .5730      .5660      .5610      .5610  -999.2500  -999.2500  -999.2500  -999.2500      .1280  -999.2500    -1.4040    -9.8600  -999.2500
10078.0000  -999.2500  -999.2500   124.9730    70.4780      .6270      .5960      .5720      .5640      .5600      .5600  -999.2500  -999.2500  -999.2500  -999.2500      .1320  -999.2500    -1.5430   -14.0330  -999.2500
10078.5000  -999.2500  -999.2500   125.5480    70.4310      .6350      .6020      .5780      .5700      .5650      .5650  -999.2500  -999.2500  -999.2500  -999.2500      .1350  -999.2500    -1.6320   -17.4680  -999.2500
10079.0000  -999.2500  -999.2500   125.4820    70.4140      .6450      .6100      .5840      .5760      .5700      .5710  -999.2500  -999.2500  -999.2500  -999.2500      .1360  -999.2500    -1.4740   -17.0870  -999.2500
10079.5000  -999.2500  -999.2500   125.6120    71.0020      .6490      .6110      .5840      .5760      .5710      .5710  -999.2500  -999.2500  -999.2500  -999.2500      .1370  -999.2500    -1.3880   -13.7170  -999.2500
10080.0000  -999.2500  -999.2500   125.5820    73.0810      .6410      .6030      .5770      .5690      .5640      .5640  -999.2500  -999.2500  -999.2500  -999.2500      .1350  -999.2500    -1.6620    -9.0270  -999.2500
10080.5000  -999.2500  -999.2500   125.5610    74.9010      .6250      .5880      .5620      .5550      .5500      .5510  -999.2500  -999.2500  -999.2500  -999.2500      .1320  -999.2500    -1.9620    -7.1390  -999.2500
10081.0000  -999.2500  -999.2500   126.3600    75.0030      .6090      .5720      .5480      .5410      .5370      .5370  -999.2500  -999.2500  -999.2500  -999.2500      .1320  -999.2500    -1.9640   -11.8500  -999.2500
10081.5000  -999.2500  -999.2500   127.1360    74.0910      .6000      .5620      .5390      .5320      .5280      .5280  -999.2500  -999.2500  -999.2500  -999.2500      .1330  -999.2500    -1.8430   -19.1270  -999.2500
10082.0000  -999.2500  -999.2500   127.0480    73.6620      .5960      .5560      .5340      .5260      .5220      .5220  -999.2500  -999.2500  -999.2500  -999.2500      .1310  -999.2500    -1.8750   -20.9960  -999.2500
10082.5000  -999.2500  -999.2500   127.4780    74.4110      .5890      .5500      .5280      .5200      .5160      .5150  -999.2500  -999.2500  -999.2500  -999.2500      .1310  -999.2500    -2.0080   -18.6050  -999.2500
10083.0000  -999.2500  -999.2500   129.1530    75.1240      .5770      .5400      .5190      .5110      .5070      .5060  -999.2500  -999.2500  -999.2500  -999.2500      .1350  -999.2500    -2.0530   -18.8530  -999.2500
10083.5000  -999.2500  -999.2500   130.3990    73.9030      .5630      .5290      .5100      .5030      .4990      .4980  -999.2500  -999.2500  -999.2500  -999.2500      .1380  -999.2500    -1.9050   -22.1370  -999.2500
10084.0000  -999.2500  -999.2500   131.4900    71.9750      .5520      .5210      .5040      .4980      .4950      .4950  -999.2500  -999.2500  -999.2500  -999.2500      .1410  -999.2500    -1.7130   -24.1010  -999.2500
10084.5000  -999.2500  -999.2500   131.8140    72.4620      .5480      .5170      .5010      .4970      .4950      .4950  -999.2500  -999.2500  -999.2500  -999.2500      .1420  -999.2500    -1.8140   -22.5850  -999.2500
10085.0000  -999.2500  -999.2500   130.2660    75.0830      .5470      .5160      .5010      .4970      .4960      .4960  -999.2500  -999.2500  -999.2500  -999.2500      .1370  -999.2500    -2.2800   -19.2150  -999.2500
10085.5000  -999.2500  -999.2500   128.8100    76.6740      .5500      .5200      .5040      .5010      .4990      .5000  -999.2500  -999.2500  -999.2500  -999.2500      .1320  -999.2500    -2.5830   -17.3720  -999.2500
10086.0000  -999.2500  -999.2500   128.0980    76.2650      .5570      .5280      .5110      .5080      .5060      .5070  -999.2500  -999.2500  -999.2500  -999.2500      .1310  -999.2500    -2.3850   -18.5680  -999.2500
10086.5000  -999.2500  -999.2500   127.1810    74.8870      .5630      .5350      .5170      .5130      .5110      .5120  -999.2500  -999.2500  -999.2500  -999.2500      .1290  -999.2500    -2.1520   -19.2250  -999.2500
10087.0000  -999.2500  -999.2500   126.8920    73.5640      .5680      .5400      .5210      .5150      .5130      .5140  -999.2500  -999.2500  -999.2500  -999.2500      .1280  -999.2500    -2.4110   -16.5650  -999.2500
10087.5000  -999.2500  -999.2500   127.2380    72.4210      .5760      .5490      .5280      .5220      .5190      .5200  -999.2500  -999.2500  -999.2500  -999.2500      .1310  -999.2500    -2.9450   -12.8330  -999.2500
10088.0000  -999.2500  -999.2500   126.9510    70.8490      .5880      .5620      .5410      .5340      .5300      .5320  -999.2500  -999.2500  -999.2500  -999.2500      .1330  -999.2500    -3.1710   -11.7490  -999.2500
10088.5000  -999.2500  -999.2500   127.2080    69.9080      .5980      .5760      .5540      .5460      .5430      .5440  -999.2500  -999.2500  -999.2500  -999.2500      .1370  -999.2500    -2.8770   -13.6760  -999.2500
10089.0000  -999.2500  -999.2500   128.7020    70.8660      .6000      .5810      .5600      .5510      .5470      .5480  -999.2500  -999.2500  -999.2500  -999.2500      .1440  -999.2500    -2.3700   -15.2900  -999.2500
10089.5000  -999.2500  -999.2500   129.8120    72.2250      .5880      .5720      .5540      .5440      .5400      .5400  -999.2500  -999.2500  -999.2500  -999.2500      .1470  -999.2500    -2.1270   -15.0250  -999.2500
10090.0000  -999.2500  -999.2500   130.3250    72.5950      .5690      .5560      .5390      .5300      .5250      .5240  -999.2500  -999.2500  -999.2500  -999.2500      .1450  -999.2500    -2.4140   -14.4920  -999.2500
10090.5000  -999.2500  -999.2500   129.9720    72.9910      .5550      .5430      .5270      .5200      .5160      .5140  -999.2500  -999.2500  -999.2500  -999.2500      .1410  -999.2500    -3.0420   -14.1350  -999.2500
10091.0000  -999.2500  -999.2500   128.3830    74.1190      .5520      .5400      .5240      .5200      .5160      .5150  -999.2500  -999.2500  -999.2500  -999.2500      .1340  -999.2500    -3.4980   -14.3810  -999.2500
10091.5000  -999.2500  -999.2500   126.8500    75.0860      .5550      .5420      .5250      .5220      .5200      .5200  -999.2500  -999.2500  -999.2500  -999.2500      .1300  -999.2500    -3.8250   -16.3080  -999.2500
10092.0000  -999.2500  -999.2500   126.4150    74.5010      .5590      .5420      .5240      .5220      .5200      .5210  -999.2500  -999.2500  -999.2500  -999.2500      .1280  -999.2500    -4.2930   -18.5720  -999.2500
10092.5000  -999.2500  -999.2500   126.2190    72.2120      .5600      .5380      .5200      .5170      .5160      .5170  -999.2500  -999.2500  -999.2500  -999.2500      .1260  -999.2500    -4.5220   -18.3460  -999.2500
10093.0000  -999.2500  -999.2500   125.8010    70.8380      .5590      .5340      .5150      .5100      .5090      .5100  -999.2500  -999.2500  -999.2500  -999.2500      .1230  -999.2500    -4.0660   -16.7050  -999.2500
10093.5000  -999.2500  -999.2500   125.4510    72.3690      .5570      .5300      .5100      .5040      .5020      .5030  -999.2500  -999.2500  -999.2500  -999.2500      .1200  -999.2500    -3.0680   -15.9510  -999.2500
