~VERSION INFORMATION
VERS.                             2.0:   CWLS Log ASCII Standard-VERSION 2.0
WRAP.                              NO:   One line per depth step
~Well Information Block
STRT.F                      3732.0000:   Top Depth
STOP.F                      8303.0000:   Bottom Depth
STEP.F                         .50000:   Depth Increment
NULL.                        -999.250:   Null Value
FLD .                      BA BLK 415:   Field Name
WELL.       OCSG11271   001 ST00 BP00:   NAME
API .                  42704402170000:   WELL API
EDF .F                       100.0000:   ELEV DRILL FLOOR
COMP.                     APACHE CORP:   OPERATOR
BN  .                             415:   BLOCK
CTRY.                             USA:   COUNTRY NAME
CNTY.                        BRAZOS L:   COUNTY NAME
EGL .F                       -78.0000:   ELEV GROUND LEVEL
EKB .F                       101.0000:   ELEV KELLY BUSHING
TDD .F                       8311.000:   FINAL TD DRILLER
STAT.                           TEXAS:   STATE NAME
UWI .                  42704402170000:   WELL API
DICO.               IHS : Digitizing Company
~PARAMETER INFORMATION (zones)
#MNEM.UNIT                       Value     Description
#=========                       =====     ===========
#ZONATION                          CNL:   ZONATION NAME
#ZONE                            RUN_1:   ZONE NAME
TOP .                       5274.0000:   TOP DEPTH
BOT .                       8300.5000:   BOTTOM DEPTH
RUN .                               1:   RUN NUMBER
LCCD.                              99:   LOGGING CONTRACTOR
DICO.          QC Data Collectors Ltd:   DIG COMPANY NAME
LDAT.                      08/26/1990:   DATE LOGGED
ELD .F                       101.0000:   LOG DATUM ELEVATION
TDD .F                      8311.0000:   TOTAL DEPTH DRILLER
TDL .F                      8306.0000:   TOTAL DEPTH LOGGER
BOTL.F                      8303.0000:   BOTTOM DEPTH LOGGED
TOPL.F                      5257.0000:   TOP DEPTH LOGGED
CS1 .IN                       10.7500:   CASING SIZE 1
BS1 .IN                        9.8750:   BIT SIZE 1
DDB1.F                      8311.0000:   DEPTH DRILLED BIT 1
BHF .                              99:   FLUID CODE
DPT .                   Miscellaneous:   DRILLING FLUID TYPE
MUDD.                         10.0000:   FLUID DENSITY
MUDV.                         43.0000:   FLUID VISCOSITY
DFPH.                          8.1000:   FLUID PH
FL  .                          3.2000:   FLUID LOSS
RM  .OHMM                       .8800:   RM
RMT .DEGF                     75.0000:   RM TEMP
RMF .OHMM                       .7000:   RMF
RMFT.DEGF                     75.0000:   RMF TEMP
FSC .                               C:   RMF CODE
RMC .OHMM                       .9600:   RMC
RMCT.DEGF                     75.0000:   RMC TEMP
CMC .                               C:   RMC CODE
TMAX.DEGF                    166.0000:   MAX REC TEMP
TIMC.                         10.0000:   TIME SINCE CIRCLN
~PARAMETER INFORMATION (zones)
#MNEM.UNIT                       Value     Description
#=========                       =====     ===========
#ZONATION                          DIL:   ZONATION NAME
#ZONE                            RUN_1:   ZONE NAME
TOP .                       3732.0000:   TOP DEPTH
BOT .                       8303.5000:   BOTTOM DEPTH
RUN .                               1:   RUN NUMBER
LCCD.                              99:   LOGGING CONTRACTOR
DICO.          QC Data Collectors Ltd:   DIG COMPANY NAME
LDAT.                      08/26/1990:   DATE LOGGED
ELD .F                       101.0000:   LOG DATUM ELEVATION
TDD .F                      8311.0000:   TOTAL DEPTH DRILLER
TDL .F                      8306.0000:   TOTAL DEPTH LOGGER
BOTL.F                      8303.0000:   BOTTOM DEPTH LOGGED
TOPL.F                      3786.0000:   TOP DEPTH LOGGED
CS1 .IN                       10.7500:   CASING SIZE 1
BS1 .IN                        9.8750:   BIT SIZE 1
DDB1.F                      8311.0000:   DEPTH DRILLED BIT 1
BHF .                              99:   FLUID CODE
DPT .                   Miscellaneous:   DRILLING FLUID TYPE
MUDD.                         10.0000:   FLUID DENSITY
MUDV.                         43.0000:   FLUID VISCOSITY
DFPH.                          8.1000:   FLUID PH
FL  .                          3.2000:   FLUID LOSS
RM  .OHMM                       .8800:   RM
RMT .DEGF                     75.0000:   RM TEMP
RMF .OHMM                       .7000:   RMF
RMFT.DEGF                     75.0000:   RMF TEMP
FSC .                               C:   RMF CODE
RMC .OHMM                       .9600:   RMC
RMCT.DEGF                     75.0000:   RMC TEMP
CMC .                               C:   RMC CODE
TMAX.DEGF                    166.0000:   MAX REC TEMP
TIMC.                          6.0000:   TIME SINCE CIRCLN
~PARAMETER INFORMATION (zones)
#MNEM.UNIT                       Value     Description
#=========                       =====     ===========
#ZONATION                          FDC:   ZONATION NAME
#ZONE                            RUN_1:   ZONE NAME
TOP .                       5263.0000:   TOP DEPTH
BOT .                       8303.5000:   BOTTOM DEPTH
RUN .                               1:   RUN NUMBER
LCCD.                              99:   LOGGING CONTRACTOR
DICO.          QC Data Collectors Ltd:   DIG COMPANY NAME
LDAT.                      08/26/1990:   DATE LOGGED
ELD .F                       101.0000:   LOG DATUM ELEVATION
TDD .F                      8311.0000:   TOTAL DEPTH DRILLER
TDL .F                      8306.0000:   TOTAL DEPTH LOGGER
BOTL.F                      8303.0000:   BOTTOM DEPTH LOGGED
TOPL.F                      5257.0000:   TOP DEPTH LOGGED
CS1 .IN                       10.7500:   CASING SIZE 1
BS1 .IN                        9.8750:   BIT SIZE 1
DDB1.F                      8311.0000:   DEPTH DRILLED BIT 1
BHF .                              99:   FLUID CODE
DPT .                   Miscellaneous:   DRILLING FLUID TYPE
MUDD.                         10.0000:   FLUID DENSITY
MUDV.                         43.0000:   FLUID VISCOSITY
DFPH.                          8.1000:   FLUID PH
FL  .                          3.2000:   FLUID LOSS
RM  .OHMM                       .8800:   RM
RMT .DEGF                     75.0000:   RM TEMP
RMF .OHMM                       .7000:   RMF
RMFT.DEGF                     75.0000:   RMF TEMP
FSC .                               C:   RMF CODE
RMC .OHMM                       .9600:   RMC
RMCT.DEGF                     75.0000:   RMC TEMP
CMC .                               C:   RMC CODE
TMAX.DEGF                    166.0000:   MAX REC TEMP
TIMC.                         10.0000:   TIME SINCE CIRCLN
~Curve Information Block
#MNEM.UNIT                    API CODE    No Description
#=========                    ========    == ===========
DEPT.F                   00 001 00 00:     1  DEPTH
NPHI.%                               :     2  Neutron Porosity
CALI.IN                              :     3  Caliper
DT.US/F                              :     4  Sonic Transit Time
GR.GAPI                              :     5  Gamma Ray
ILD.OHMM                             :     6  Deep Induction Resistivity
ILM.OHMM                             :     7  Medium Induction Resistivity
RFOC.OHMM                            :     8  Medium Resistivity
SP.MV                                :     9  Spontaneous Potential
CALI.IN                              :    10  Caliper
DPHI.%                               :    11  Porosity
DRHO.G/C3                            :    12  Bulk Density Correction
GR.GAPI                              :    13  Gamma Ray
RHOB.G/C3                            :    14  Bulk Density
~ASCII
# ...
 5578.0000    30.7135  -999.2500   119.7507    37.0922      .2795      .2773      .6683  -109.6744    10.0820  -999.2500     -.0075    44.7610     2.1128
 5578.5000    30.3395  -999.2500   119.2467    39.2599      .2759      .2727      .6753  -109.7617    10.0858  -999.2500     -.0051    46.1497     2.1147
 5579.0000    30.6567  -999.2500   118.6145    43.1962      .2727      .2685      .6832  -109.7921    10.0885  -999.2500      .0078    47.9321     2.1138
 5579.5000    31.3422  -999.2500   118.0504    45.2542      .2698      .2654      .6976  -109.8218    10.0929  -999.2500      .0172    49.5193     2.1131
 5580.0000    31.8484  -999.2500   117.8010    46.2475      .2699      .2686      .7099  -109.9816    10.0990  -999.2500      .0149    50.2545     2.1126
 5580.5000    32.1977  -999.2500   117.7856    46.1478      .2709      .2755      .6938  -109.8665    10.1000  -999.2500      .0117    50.5681     2.1125
 5581.0000    32.4921  -999.2500   117.5084    45.7863      .2830      .2926      .6542  -109.0188    10.0990  -999.2500      .0080    51.0675     2.1194
 5581.5000    33.0669  -999.2500   117.0286    46.6036      .3122      .3205      .6169  -107.6433    10.1088  -999.2500      .0072    52.4996     2.1410
 5582.0000    34.7949  -999.2500   116.3977    48.8831      .3439      .3530      .5938  -101.3964    10.1245  -999.2500      .0089    56.6741     2.1759
 5582.5000    36.6318  -999.2500   116.0542    53.4263      .3766      .3887      .5866   -84.3802    10.1451  -999.2500      .0199    63.6220     2.2109
 5583.0000    37.9374  -999.2500   115.8911    65.1542      .4151      .4388      .6089   -66.6398    10.1661  -999.2500      .0267    75.0168     2.2454
 5583.5000    38.6882  -999.2500   116.4880    72.3025      .4631      .4796      .6421   -56.6624    10.1867  -999.2500      .0258    84.2479     2.2655
 5584.0000    39.0906  -999.2500   117.5261    75.7959      .5110      .5170      .6743   -52.3263    10.2038  -999.2500      .0277    85.6865     2.2620
 5584.5000    36.8708  -999.2500   118.5656    72.9434      .5374      .5281      .6820   -52.6298    10.2163  -999.2500      .0451    80.3458     2.2356
 5585.0000    34.2230  -999.2500   119.3022    67.5769      .5073      .5083      .6839   -58.6735    10.2125  -999.2500      .0512    70.8761     2.1981
 5585.5000    33.1791  -999.2500   119.7174    59.8399      .4619      .4663      .7292   -72.3344    10.1894  -999.2500      .0261    60.0624     2.1481
 5586.0000    32.7274  -999.2500   119.9542    49.6880      .4321      .4312      .8290   -91.4138    10.1679  -999.2500      .0127    53.5789     2.1282
 5586.5000    32.4330  -999.2500   120.1355    47.2477      .4148      .4077      .8060   -96.6604    10.1685  -999.2500      .0050    51.9781     2.1182
 5587.0000    32.4046  -999.2500   120.2493    46.8202      .4006      .3938      .7594   -97.4575    10.1958  -999.2500      .0014    52.1993     2.1328
 5587.5000    32.7398  -999.2500   119.4788    47.3402      .3936      .3947      .7349   -93.8469    10.2521  -999.2500      .0010    54.8113     2.1493
 5588.0000    33.4390  -999.2500   118.1079    51.3057      .4087      .4155      .7389   -86.9957    10.3105  -999.2500      .0074    62.0757     2.2193
 5588.5000    35.6513  -999.2500   116.2161    64.3831      .4439      .4475      .7440   -74.2830    10.3651  -999.2500      .0159    70.5024     2.2536
 5589.0000    37.1789  -999.2500   114.1476    77.0646      .4900      .4883      .7420   -61.7527    10.4090  -999.2500      .0250    77.3311     2.2771
 5589.5000    38.0324  -999.2500   113.0017    79.4462      .5328      .5328      .7309   -56.2977    10.4299  -999.2500      .0315    80.9867     2.2825
 5590.0000    37.8144  -999.2500   112.5327    78.7806      .5729      .5814      .7305   -54.1868    10.4387  -999.2500      .0352    83.9314     2.2782
 5590.5000    37.5184  -999.2500   112.3140    79.2485      .6161      .6217      .7677   -53.7695    10.4546  -999.2500      .0400    84.5149     2.2749
 5591.0000    38.2051  -999.2500   111.7511    79.5530      .6625      .6512      .8117   -51.3299    10.4779  -999.2500      .0417    84.9380     2.2926
 5591.5000    40.6048  -999.2500   111.6792    82.1938      .6882      .6756      .8267   -48.5060    10.4968  -999.2500      .0407    86.2742     2.3063
 5592.0000    41.7185  -999.2500   114.8250    85.2288      .7080      .6973      .8066   -45.6274    10.4718  -999.2500      .0462    91.6161     2.3067
 5592.5000    41.6219  -999.2500   119.7566    90.5847      .7183      .6981      .7764   -43.1630    10.4003  -999.2500      .0703    94.0900     2.2708
 5593.0000    38.8971  -999.2500   122.4094    90.4181      .7160      .6897      .7423   -42.1314    10.3520  -999.2500      .0966    93.0042     2.2456
 5593.5000    37.8333  -999.2500   123.5560    84.6504      .7050      .6720      .7280   -45.7733    10.3070  -999.2500      .0945    89.9635     2.2364
 5594.0000    39.1243  -999.2500   123.0933    81.4319      .6840      .6543      .7918   -48.7535    10.2859  -999.2500      .0637    88.2329     2.2331
 5594.5000    40.3300  -999.2500   122.0577    82.6680      .6665      .6365      .8145   -50.7893    10.2760  -999.2500      .0454    87.2185     2.2399
 5595.0000    40.9417  -999.2500   121.7090    85.7888      .6519      .6196      .7567   -51.5435    10.2725  -999.2500      .0407    86.4318     2.2455
 5595.5000    40.0264  -999.2500   121.8842    83.5980      .6381      .6060      .7115   -51.9974    10.2863  -999.2500      .0401    85.9181     2.2360
 5596.0000    39.8162  -999.2500   122.3167    81.1597      .6259      .5937      .7329   -52.7867    10.3110  -999.2500      .0422    86.8994     2.2248
 5596.5000    43.5143  -999.2500   122.8396    81.4410      .6222      .5832      .7505   -51.4940    10.3276  -999.2500      .0419    90.2255     2.2356
 5597.0000    44.0575  -999.2500   123.7627    86.2188      .6233      .5765      .7286   -48.3809    10.3335  -999.2500      .0398    93.9952     2.2482
 5597.5000    44.2308  -999.2500   126.6285    91.2465      .6267      .5747      .6983   -45.7186    10.3178  -999.2500      .0338    95.3560     2.2453
 5598.0000    44.0168  -999.2500   131.0686    93.7760      .6400      .5772      .6881   -44.9214    10.2767  -999.2500      .0305    97.1604     2.2334
 5598.5000    43.2115  -999.2500   134.0210    93.2836      .6484      .5754      .6791   -46.8179    10.2207  -999.2500      .0318   100.0221     2.2230
 5599.0000    41.1414  -999.2500   135.8420    89.0477      .6492      .5654      .6444   -50.9417    10.1682  -999.2500      .0475   101.6384     2.2135
 5599.5000    39.4324  -999.2500   137.0571    81.5295      .6294      .5501      .6241   -59.9865    10.1201  -999.2500      .0708   100.6396     2.1789
 5600.0000    37.9492  -999.2500   136.4946    74.0270      .5957      .5207      .6457   -67.8641    10.0864  -999.2500      .0834    90.9572     2.1344
 5600.5000    36.6410  -999.2500   133.3201    64.9667      .5549      .4885      .7594   -77.1798    10.0727  -999.2500      .0679    76.6357     2.0985
 5601.0000    34.5207  -999.2500   129.8735    53.9941      .5074      .4540      .8708   -87.4333    10.0610  -999.2500      .0274    62.2106     2.0855
 5601.5000    32.2923  -999.2500   126.6155    45.9133      .4375      .4073      .8657   -95.1964    10.0522  -999.2500      .0164    53.1041     2.0813
 5602.0000    31.9770  -999.2500   124.0162    43.0438      .3916      .3648      .8177  -102.3655    10.0421  -999.2500      .0092    51.0753     2.0818
 5602.5000    31.7215  -999.2500   121.9440    41.9888      .3504      .3346      .7583  -105.6140    10.0283  -999.2500      .0058    50.3682     2.0855
 5603.0000    31.8719  -999.2500   120.9614    41.0529      .3136      .3102      .7094  -107.2422    10.0240  -999.2500      .0044    50.8787     2.0884
 5603.5000    32.3573  -999.2500   120.1626    40.6971      .2857      .2925      .6718  -107.9709    10.0208  -999.2500      .0037    52.2532     2.0875
