~VERSION INFORMATION
VERS.                             2.0:   CWLS Log ASCII Standard-VERSION 2.0
WRAP.                              NO:   One line per depth step
~Well Information Block
STRT.F                      3732.0000:   Top Depth
STOP.F                      8303.0000:   Bottom Depth
STEP.F                         .50000:   Depth Increment
NULL.                        -999.250:   Null Value
FLD .                      BA BLK 415:   Field Name
WELL.       OCSG11271   001 ST00 BP00:   NAME
API .                  42704402170000:   WELL API
EDF .F                       100.0000:   ELEV DRILL FLOOR
COMP.                     APACHE CORP:   OPERATOR
BN  .                             415:   BLOCK
CTRY.                             USA:   COUNTRY NAME
CNTY.                        BRAZOS L:   COUNTY NAME
EGL .F                       -78.0000:   ELEV GROUND LEVEL
EKB .F                       101.0000:   ELEV KELLY BUSHING
TDD .F                       8311.000:   FINAL TD DRILLER
STAT.                           TEXAS:   STATE NAME
UWI .                  42704402170000:   WELL API
DICO.               IHS : Digitizing Company
~PARAMETER INFORMATION (zones)
#MNEM.UNIT                       Value     Description
#=========                       =====     ===========
#ZONATION                          CNL:   ZONATION NAME
#ZONE                            RUN_1:   ZONE NAME
TOP .                       5274.0000:   TOP DEPTH
BOT .                       8300.5000:   BOTTOM DEPTH
RUN .                               1:   RUN NUMBER
LCCD.                              99:   LOGGING CONTRACTOR
DICO.          QC Data Collectors Ltd:   DIG COMPANY NAME
LDAT.                      08/26/1990:   DATE LOGGED
ELD .F                       101.0000:   LOG DATUM ELEVATION
TDD .F                      8311.0000:   TOTAL DEPTH DRILLER
TDL .F                      8306.0000:   TOTAL DEPTH LOGGER
BOTL.F                      8303.0000:   BOTTOM DEPTH LOGGED
TOPL.F                      5257.0000:   TOP DEPTH LOGGED
CS1 .IN                       10.7500:   CASING SIZE 1
BS1 .IN                        9.8750:   BIT SIZE 1
DDB1.F                      8311.0000:   DEPTH DRILLED BIT 1
BHF .                              99:   FLUID CODE
DPT .                   Miscellaneous:   DRILLING FLUID TYPE
MUDD.                         10.0000:   FLUID DENSITY
MUDV.                         43.0000:   FLUID VISCOSITY
DFPH.                          8.1000:   FLUID PH
FL  .                          3.2000:   FLUID LOSS
RM  .OHMM                       .8800:   RM
RMT .DEGF                     75.0000:   RM TEMP
RMF .OHMM                       .7000:   RMF
RMFT.DEGF                     75.0000:   RMF TEMP
FSC .                               C:   RMF CODE
RMC .OHMM                       .9600:   RMC
RMCT.DEGF                     75.0000:   RMC TEMP
CMC .                               C:   RMC CODE
TMAX.DEGF                    166.0000:   MAX REC TEMP
TIMC.                         10.0000:   TIME SINCE CIRCLN
~PARAMETER INFORMATION (zones)
#MNEM.UNIT                       Value     Description
#=========                       =====     ===========
#ZONATION                          DIL:   ZONATION NAME
#ZONE                            RUN_1:   ZONE NAME
TOP .                       3732.0000:   TOP DEPTH
BOT .                       8303.5000:   BOTTOM DEPTH
RUN .                               1:   RUN NUMBER
LCCD.                              99:   LOGGING CONTRACTOR
DICO.          QC Data Collectors Ltd:   DIG COMPANY NAME
LDAT.                      08/26/1990:   DATE LOGGED
ELD .F                       101.0000:   LOG DATUM ELEVATION
TDD .F                      8311.0000:   TOTAL DEPTH DRILLER
TDL .F                      8306.0000:   TOTAL DEPTH LOGGER
BOTL.F                      8303.0000:   BOTTOM DEPTH LOGGED
TOPL.F                      3786.0000:   TOP DEPTH LOGGED
CS1 .IN                       10.7500:   CASING SIZE 1
BS1 .IN                        9.8750:   BIT SIZE 1
DDB1.F                      8311.0000:   DEPTH DRILLED BIT 1
BHF .                              99:   FLUID CODE
DPT .                   Miscellaneous:   DRILLING FLUID TYPE
MUDD.                         10.0000:   FLUID DENSITY
MUDV.                         43.0000:   FLUID VISCOSITY
DFPH.                          8.1000:   FLUID PH
FL  .                          3.2000:   FLUID LOSS
RM  .OHMM                       .8800:   RM
RMT .DEGF                     75.0000:   RM TEMP
RMF .OHMM                       .7000:   RMF
RMFT.DEGF                     75.0000:   RMF TEMP
FSC .                               C:   RMF CODE
RMC .OHMM                       .9600:   RMC
RMCT.DEGF                     75.0000:   RMC TEMP
CMC .                               C:   RMC CODE
TMAX.DEGF                    166.0000:   MAX REC TEMP
TIMC.                          6.0000:   TIME SINCE CIRCLN
~PARAMETER INFORMATION (zones)
#MNEM.UNIT                       Value     Description
#=========                       =====     ===========
#ZONATION                          FDC:   ZONATION NAME
#ZONE                            RUN_1:   ZONE NAME
TOP .                       5263.0000:   TOP DEPTH
BOT .                       8303.5000:   BOTTOM DEPTH
RUN .                               1:   RUN NUMBER
LCCD.                              99:   LOGGING CONTRACTOR
DICO.          QC Data Collectors Ltd:   DIG COMPANY NAME
LDAT.                      08/26/1990:   DATE LOGGED
ELD .F                       101.0000:   LOG DATUM ELEVATION
TDD .F                      8311.0000:   TOTAL DEPTH DRILLER
TDL .F                      8306.0000:   TOTAL DEPTH LOGGER
BOTL.F                      8303.0000:   BOTTOM DEPTH LOGGED
TOPL.F                      5257.0000:   TOP DEPTH LOGGED
CS1 .IN                       10.7500:   CASING SIZE 1
BS1 .IN                        9.8750:   BIT SIZE 1
DDB1.F                      8311.0000:   DEPTH DRILLED BIT 1
BHF .                              99:   FLUID CODE
DPT .                   Miscellaneous:   DRILLING FLUID TYPE
MUDD.                         10.0000:   FLUID DENSITY
MUDV.                         43.0000:   FLUID VISCOSITY
DFPH.                          8.1000:   FLUID PH
FL  .                          3.2000:   FLUID LOSS
RM  .OHMM                       .8800:   RM
RMT .DEGF                     75.0000:   RM TEMP
RMF .OHMM                       .7000:   RMF
RMFT.DEGF                     75.0000:   RMF TEMP
FSC .                               C:   RMF CODE
RMC .OHMM                       .9600:   RMC
RMCT.DEGF                     75.0000:   RMC TEMP
CMC .                               C:   RMC CODE
TMAX.DEGF                    166.0000:   MAX REC TEMP
TIMC.                         10.0000:   TIME SINCE CIRCLN
~Curve Information Block
#MNEM.UNIT                    API CODE    No Description
#=========                    ========    == ===========
DEPT.F                   00 001 00 00:     1  DEPTH
NPHI.%                               :     2  Neutron Porosity
CALI.IN                              :     3  Caliper
DT.US/F                              :     4  Sonic Transit Time
GR.GAPI                              :     5  Gamma Ray
ILD.OHMM                             :     6  Deep Induction Resistivity
ILM.OHMM                             :     7  Medium Induction Resistivity
RFOC.OHMM                            :     8  Medium Resistivity
SP.MV                                :     9  Spontaneous Potential
CALI.IN                              :    10  Caliper
DPHI.%                               :    11  Porosity
DRHO.G/C3                            :    12  Bulk Density Correction
GR.GAPI                              :    13  Gamma Ray
RHOB.G/C3                            :    14  Bulk Density
~ASCII
# ...
 3784.0000  -999.2500  -999.2500  -999.2500    20.7645  -999.2500  -999.2500  -999.2500  -999.2500  -999.2500  -999.2500  -999.2500  -999.2500  -999.2500
 3784.5000  -999.2500  -999.2500  -999.2500    19.7468  -999.2500  -999.2500  -999.2500  -999.2500  -999.2500  -999.2500  -999.2500  -999.2500  -999.2500
 3785.0000  -999.2500  -999.2500  -999.2500    21.9492  -999.2500  -999.2500  -999.2500  -999.2500  -999.2500  -999.2500  -999.2500  -999.2500  -999.2500
 3785.5000  -999.2500  -999.2500  -999.2500    24.2653  -999.2500  -999.2500  -999.2500  -999.2500  -999.2500  -999.2500  -999.2500  -999.2500  -999.2500
 3786.0000  -999.2500  -999.2500   183.9673    25.0573     3.2539     3.7073      .6009   -93.7987  -999.2500    79.3689  -999.2500  -999.2500  -999.2500
 3786.5000  -999.2500  -999.2500   185.2856    24.7160     1.8223     1.2171      .6992   -91.5343  -999.2500    80.7410  -999.2500  -999.2500  -999.2500
 3787.0000  -999.2500  -999.2500   185.6841    25.0205      .6240      .5459      .7195   -89.9399  -999.2500    81.0248  -999.2500  -999.2500  -999.2500
 3787.5000  -999.2500  -999.2500   184.3096    27.7893      .4178      .4431      .7211   -88.2637  -999.2500    80.7122  -999.2500  -999.2500  -999.2500
 3788.0000  -999.2500  -999.2500   181.1113    29.8756      .3642      .4171      .7185   -86.0044  -999.2500    78.9799  -999.2500  -999.2500  -999.2500
 3788.5000  -999.2500  -999.2500   178.4160    31.0040      .3522      .4113      .7124   -83.4891  -999.2500    75.7620  -999.2500  -999.2500  -999.2500
 3789.0000  -999.2500  -999.2500   175.2583    32.1206      .3729      .4243      .7094   -80.9855  -999.2500    73.8914  -999.2500  -999.2500  -999.2500
 3789.5000  -999.2500  -999.2500   168.9453    33.6779      .3940      .4490      .7079   -77.9723  -999.2500    69.8497  -999.2500  -999.2500  -999.2500
 3790.0000  -999.2500  -999.2500   160.8921    36.0372      .4162      .4819      .6999   -74.5951  -999.2500    63.6646  -999.2500  -999.2500  -999.2500
 3790.5000  -999.2500  -999.2500   154.3726    41.1771      .4397      .5140      .6883   -71.6261  -999.2500    59.9676  -999.2500  -999.2500  -999.2500
 3791.0000  -999.2500  -999.2500   149.0762    46.9383      .4645      .5397      .6767   -68.4102  -999.2500    56.3907  -999.2500  -999.2500  -999.2500
 3791.5000  -999.2500  -999.2500   142.5569    50.4987      .4816      .5528      .6649   -65.2903  -999.2500    53.1702  -999.2500  -999.2500  -999.2500
 3792.0000  -999.2500  -999.2500   140.4233    53.2689      .4972      .5577      .6576   -61.5674  -999.2500    52.4849  -999.2500  -999.2500  -999.2500
 3792.5000  -999.2500  -999.2500   143.6855    55.3149      .5145      .5582      .6547   -57.2049  -999.2500    54.1871  -999.2500  -999.2500  -999.2500
 3793.0000  -999.2500  -999.2500   146.3091    57.4584      .5335      .5587      .6498   -54.0747  -999.2500    55.5259  -999.2500  -999.2500  -999.2500
 3793.5000  -999.2500  -999.2500   146.7998    58.8546      .5540      .5600      .6441   -51.5750  -999.2500    56.0970  -999.2500  -999.2500  -999.2500
 3794.0000  -999.2500  -999.2500   146.1582    56.9736      .5764      .5655      .6421   -49.9689  -999.2500    55.7859  -999.2500  -999.2500  -999.2500
 3794.5000  -999.2500  -999.2500   144.9502    54.4297      .5950      .5702      .6414   -48.5416  -999.2500    54.9391  -999.2500  -999.2500  -999.2500
 3795.0000  -999.2500  -999.2500   143.5620    53.8828      .6095      .5739      .6527   -47.0974  -999.2500    53.9816  -999.2500  -999.2500  -999.2500
 3795.5000  -999.2500  -999.2500   142.9683    54.7689      .6176      .5758      .6641   -46.6080  -999.2500    53.4630  -999.2500  -999.2500  -999.2500
 3796.0000  -999.2500  -999.2500   144.2761    56.1943      .6170      .5744      .6631   -46.8365  -999.2500    54.2772  -999.2500  -999.2500  -999.2500
 3796.5000  -999.2500  -999.2500   146.1875    57.3545      .6096      .5632      .6590   -47.5420  -999.2500    55.5353  -999.2500  -999.2500  -999.2500
 3797.0000  -999.2500  -999.2500   147.5896    57.7441      .5921      .5530      .6470   -48.6729  -999.2500    56.3528  -999.2500  -999.2500  -999.2500
 3797.5000  -999.2500  -999.2500   148.1411    57.9544      .5707      .5445      .6344   -50.7261  -999.2500    57.1475  -999.2500  -999.2500  -999.2500
 3798.0000  -999.2500  -999.2500   147.7187    56.2236      .5526      .5348      .6212   -54.6909  -999.2500    56.9122  -999.2500  -999.2500  -999.2500
 3798.5000  -999.2500  -999.2500   144.7412    49.1065      .5335      .5155      .6175   -59.9191  -999.2500    54.9612  -999.2500  -999.2500  -999.2500
 3799.0000  -999.2500  -999.2500   140.8374    40.8651      .5134      .4960      .6195   -67.2012  -999.2500    52.5762  -999.2500  -999.2500  -999.2500
 3799.5000  -999.2500  -999.2500   138.0898    33.9678      .4907      .4670      .6270   -70.0636  -999.2500    50.5123  -999.2500  -999.2500  -999.2500
 3800.0000  -999.2500  -999.2500   136.1079    30.1629      .4702      .4439      .6434   -77.8370  -999.2500    49.1952  -999.2500  -999.2500  -999.2500
 3800.5000  -999.2500  -999.2500   135.0215    28.5887      .4542      .4382      .6580   -81.5964  -999.2500    48.5106  -999.2500  -999.2500  -999.2500
 3801.0000  -999.2500  -999.2500   135.1941    28.3385      .4384      .4382      .6709   -84.0129  -999.2500    48.3201  -999.2500  -999.2500  -999.2500
 3801.5000  -999.2500  -999.2500   135.7581    28.8165      .4224      .4383      .6776   -86.2826  -999.2500    48.8068  -999.2500  -999.2500  -999.2500
 3802.0000  -999.2500  -999.2500   136.3342    30.4424      .4068      .4372      .6785   -87.8958  -999.2500    49.1940  -999.2500  -999.2500  -999.2500
 3802.5000  -999.2500  -999.2500   136.4402    31.6032      .3919      .4341      .6798   -89.0768  -999.2500    49.4791  -999.2500  -999.2500  -999.2500
 3803.0000  -999.2500  -999.2500   136.2939    30.7433      .3782      .4269      .6814   -89.7218  -999.2500    49.4757  -999.2500  -999.2500  -999.2500
 3803.5000  -999.2500  -999.2500   136.1216    30.0017      .3669      .4190      .6884   -90.0371  -999.2500    49.2911  -999.2500  -999.2500  -999.2500
 3804.0000  -999.2500  -999.2500   136.2241    30.7836      .3586      .4127      .6979   -90.2683  -999.2500    48.9763  -999.2500  -999.2500  -999.2500
 3804.5000  -999.2500  -999.2500   136.9480    29.3804      .3530      .4067      .6953   -90.8264  -999.2500    49.4566  -999.2500  -999.2500  -999.2500
 3805.0000  -999.2500  -999.2500   138.1597    27.9524      .3491      .4017      .6878   -91.5687  -999.2500    50.7042  -999.2500  -999.2500  -999.2500
 3805.5000  -999.2500  -999.2500   139.3782    27.1127      .3475      .3974      .6711   -92.0018  -999.2500    52.0097  -999.2500  -999.2500  -999.2500
 3806.0000  -999.2500  -999.2500   141.5051    28.1299      .3479      .3947      .6549   -91.9443  -999.2500    53.0188  -999.2500  -999.2500  -999.2500
 3806.5000  -999.2500  -999.2500   143.3081    30.1954      .3505      .3938      .6445   -91.4628  -999.2500    54.0677  -999.2500  -999.2500  -999.2500
 3807.0000  -999.2500  -999.2500   144.8835    31.5070      .3570      .3952      .6347   -90.5118  -999.2500    55.1101  -999.2500  -999.2500  -999.2500
 3807.5000  -999.2500  -999.2500   145.9246    32.1141      .3660      .4014      .6276   -88.4080  -999.2500    55.6454  -999.2500  -999.2500  -999.2500
 3808.0000  -999.2500  -999.2500   145.6074    34.6671      .3784      .4112      .6304   -85.3999  -999.2500    55.2015  -999.2500  -999.2500  -999.2500
 3808.5000  -999.2500  -999.2500   143.7900    42.1026      .4024      .4214      .6513   -82.0306  -999.2500    53.9202  -999.2500  -999.2500  -999.2500
 3809.0000  -999.2500  -999.2500   141.3862    46.3325      .4299      .4324      .6749   -77.3119  -999.2500    52.4105  -999.2500  -999.2500  -999.2500
 3809.5000  -999.2500  -999.2500   138.9836    48.3916      .4514      .4436      .6942   -72.2838  -999.2500    50.9445  -999.2500  -999.2500  -999.2500
