~VERSION INFORMATION
VERS.                             2.0:   CWLS Log ASCII Standard-VERSION 2.0
WRAP.                              NO:   One line per depth step
~Well Information Block
STRT.F                      3877.0000:   Top Depth
STOP.F                     10380.0000:   Bottom Depth
STEP.F                         .50000:   Depth Increment
NULL.                        -999.250:   Null Value
FLD .                      GA BLK 321:   Field Name
WELL.       OCSG11316   001 ST01 BP00:   NAME
API .                  42706402670100:   WELL API
EDF .F                        90.0000:   ELEV DRILL FLOOR
COMP.              SHELL OFFSHORE INC:   OPERATOR
BN  .                             321:   BLOCK
CTRY.                             USA:   COUNTRY NAME
CNTY.                        GLVSTN L:   COUNTY NAME
EKB .F                        91.0000:   ELEV KELLY BUSHING
TDD .F                      10395.000:   FINAL TD DRILLER
STAT.                           TEXAS:   STATE NAME
UWI .                  42706402670100:   WELL API
DICO.               IHS : Digitizing Company
~PARAMETER INFORMATION (zones)
#MNEM.UNIT                       Value     Description
#=========                       =====     ===========
#ZONATION                          DIL:   ZONATION NAME
#ZONE                            RUN_1:   ZONE NAME
TOP .                       3877.0000:   TOP DEPTH
BOT .                      10380.5000:   BOTTOM DEPTH
RUN .                               1:   RUN NUMBER
LCCD.                             280:   LOGGING CONTRACTOR
SRVC.                     Halliburton:   LOGGING CONT NAME
DICO.          QC Data Collectors Ltd:   DIG COMPANY NAME
LDAT.                      06/13/1990:   DATE LOGGED
ELD .F                        91.0000:   LOG DATUM ELEVATION
TDD .F                     10395.0000:   TOTAL DEPTH DRILLER
TDL .F                     10390.0000:   TOTAL DEPTH LOGGER
BOTL.F                     10380.0000:   BOTTOM DEPTH LOGGED
TOPL.F                      3954.0000:   TOP DEPTH LOGGED
CS1 .IN                       13.3750:   CASING SIZE 1
BS1 .IN                       12.2500:   BIT SIZE 1
DDB1.F                     10395.0000:   DEPTH DRILLED BIT 1
BHF .                              99:   FLUID CODE
DPT .                   Miscellaneous:   DRILLING FLUID TYPE
MUDD.                         13.4000:   FLUID DENSITY
MUDV.                         68.0000:   FLUID VISCOSITY
DFPH.                          9.0000:   FLUID PH
FL  .                          2.1000:   FLUID LOSS
RM  .OHMM                       .0700:   RM
RMT .DEGF                     77.0000:   RM TEMP
RMF .OHMM                       .0400:   RMF
RMFT.DEGF                     73.0000:   RMF TEMP
FSC .                               M:   RMF CODE
RMC .OHMM                       .1000:   RMC
RMCT.DEGF                     74.0000:   RMC TEMP
CMC .                               M:   RMC CODE
TMAX.DEGF                    209.0000:   MAX REC TEMP
TIMC.                         13.0000:   TIME SINCE CIRCLN
~Curve Information Block
#MNEM.UNIT                    API CODE    No Description
#=========                    ========    == ===========
DEPT.F                   00 001 00 00:     1  DEPTH
CALI.IN                              :     2  Caliper
DT.US/F                              :     3  Sonic Transit Time
GR.GAPI                              :     4  Gamma Ray
ILD.OHMM                             :     5  Deep Induction Resistivity
ILM.OHMM                             :     6  Medium Induction Resistivity
SFL.OHMM                             :     7  Medium Resistivity
SP.MV                                :     8  Spontaneous Potential
~ASCII
# ...
 8199.5000    14.1618    91.7812    61.8743     1.0257      .9214     1.0528   -33.1282
 8200.0000    14.0547    91.5942    60.9788     1.0466      .8456     1.1915   -32.4697
 8200.5000    13.9270    91.4111    60.2767     1.0694      .8562     1.4132   -31.6687
 8201.0000    13.8371    91.1422    59.3835     1.0914      .9676     1.5493   -31.3129
 8201.5000    13.7864    90.3436    58.4997     1.1217     1.0134     1.5642   -31.4413
 8202.0000    13.7619    88.3398    57.8211     1.0958      .9895     1.3666   -31.5103
 8202.5000    13.7497    88.3848    57.6008     1.0344      .9824     1.1894   -31.5636
 8203.0000    13.7227    89.1312    58.0612     1.0230      .9858     1.1650   -31.6700
 8203.5000    13.6934    89.8929    58.6227     1.0370      .9578     1.1572   -31.7919
 8204.0000    13.6676    90.7875    59.1248     1.0466      .8519     1.1089   -32.0518
 8204.5000    13.6571    91.3749    59.3942     1.0298      .7718     1.0433   -32.4683
 8205.0000    13.6734    91.4614    57.9073     1.0242      .7474     1.0014   -32.9022
 8205.5000    13.6873    91.3251    56.6171     1.0279      .8127      .9990   -33.4170
 8206.0000    13.6987    91.2104    55.9552     1.0329      .8843     1.0163   -33.4965
 8206.5000    13.6976    91.1061    57.2629     1.0385      .9367     1.0399   -32.8561
 8207.0000    13.6803    91.1499    58.9878     1.0578      .9555     1.0777   -32.2905
 8207.5000    13.6600    90.9109    60.1457     1.0782      .9707     1.1066   -31.6941
 8208.0000    13.6378    90.0999    59.4958     1.0459      .9706     1.1148   -31.1726
 8208.5000    13.6190    89.8564    58.5706      .9985      .9480     1.1451   -30.9792
 8209.0000    13.5965    89.7574    57.6453      .9740      .9294     1.1838   -31.7142
 8209.5000    13.5745    89.9492    56.7173      .9596      .9098     1.2274   -33.3348
 8210.0000    13.5598    90.0385    56.1183      .9563      .8359     1.0931   -35.0837
 8210.5000    13.5488    89.7870    57.1907      .9535      .7710      .8926   -36.8808
 8211.0000    13.5520    89.1459    58.3527      .9484      .7290      .6445   -38.7875
 8211.5000    13.6240    88.2218    59.4731      .9434      .7095      .4388   -40.8948
 8212.0000    13.8319    89.2572    60.3376      .9370      .7326      .4127   -42.2026
 8212.5000    13.9178    94.0640    60.3844      .9303      .7605      .4068   -42.5623
 8213.0000    13.9176    96.6335    60.2146      .9344      .7731      .4075   -42.6998
 8213.5000    13.8633    98.2162    60.0164      .9422      .7822      .4083   -42.6888
 8214.0000    13.7707    98.7660    59.7737      .9558      .7891      .4097   -42.7079
 8214.5000    13.6576    95.8557    59.4926      .9849      .7938      .4116   -42.7595
 8215.0000    13.5070    92.7925    59.0720      .9872      .7962      .4135   -42.8240
 8215.5000    13.3596    90.7808    57.2950      .9896      .7978      .4137   -42.9095
 8216.0000    13.2376    89.6154    54.6047      .9919      .7992      .4119   -42.9450
 8216.5000    13.1183    88.7556    51.7646      .9942      .8000      .4042   -43.0645
 8217.0000    12.9867    87.8383    47.9244      .9848      .7988      .4301   -42.7468
 8217.5000    12.8893    86.8149    43.1803      .9699      .7883      .5639   -42.2587
 8218.0000    12.8203    85.4591    43.1642      .9451      .7674      .7959   -41.6918
 8218.5000    12.7773    86.4677    47.5286      .9071      .7386     1.1953   -41.1235
 8219.0000    12.8455    88.4124    51.6737      .8151      .7074     1.2881   -40.5499
 8219.5000    12.9501    90.1156    54.9095      .7088      .6848     1.3516   -40.0037
 8220.0000    13.1537    91.2570    56.7368      .6475      .6760     1.3664   -39.4822
 8220.5000    13.2668    91.6365    57.1760      .7340      .7025     1.1475   -39.1191
 8221.0000    13.3150    91.0168    56.5449      .8650      .7562      .9457   -38.8651
 8221.5000    13.2858    90.0632    56.2805      .9929      .8140      .8091   -38.7958
 8222.0000    13.1893    88.8951    57.0556     1.0693      .8752      .7277   -38.7993
 8222.5000    13.0885    88.5276    58.0397     1.0979      .9484      .7685   -38.7849
 8223.0000    12.9919    89.4517    58.9396     1.0968      .9066      .7827   -38.7180
 8223.5000    12.9549    90.5367    59.5280     1.0850      .7978      .7938   -38.5402
 8224.0000    12.9413    91.4862    59.3876     1.0652      .7474      .8136   -38.5731
 8224.5000    12.9538    91.6096    59.1011     1.0840      .7536      .8196   -38.7441
 8225.0000    13.0125    90.5594    59.2010     1.2014      .8480      .8467   -39.0583
 8225.5000    13.0663    89.4490    59.5594     1.3138     1.1210      .9168   -39.6045
 8226.0000    13.1168    88.3936    56.8403     1.3979     1.5152      .9372   -40.3573
 8226.5000    13.1680    87.5962    52.9627     1.1607     1.7887      .9902   -41.6998
 8227.0000    13.2119    88.5571    50.2029      .8682     1.4440     1.0247   -43.2188
 8227.5000    13.2453    92.2990    47.6891      .6529      .8453      .7124   -44.7939
 8228.0000    13.1334    94.2839    47.8014      .5258      .4647      .4112   -46.2781
 8228.5000    13.0072    95.5983    51.1389      .4680      .3662      .2308   -48.1260
 8229.0000    13.0016    96.1399    53.7997      .4338      .3491  -999.2500   -49.9150
 8229.5000    13.0427    95.2898    56.2627      .4276      .3414  -999.2500   -51.7015
 8230.0000    13.0860    94.1892    58.3299      .4384      .3761  -999.2500   -52.4659
 8230.5000    13.1293    94.1270    60.0227      .4451      .4024  -999.2500   -52.2709
 8231.0000    13.1664    94.1471    56.9527      .4518      .4250  -999.2500   -52.1611
 8231.5000    13.0557    93.4551    52.6097      .4587      .4453  -999.2500   -52.0515
 8232.0000    12.9322    91.6150    49.3204      .4657      .4514  -999.2500   -52.0598
 8232.5000    12.8525    89.4530    44.1698      .4768      .4270  -999.2500   -52.1868
 8233.0000    12.7747    88.1066    40.3296      .4911      .4214  -999.2500   -52.3914
 8233.5000    12.7322    87.4969    38.1207      .5063      .4298  -999.2500   -52.5960
 8234.0000    12.7008    86.9377    36.3623      .5286      .4539  -999.2500   -52.7845
 8234.5000    12.6779    86.5206    36.8303      .5604      .4770  -999.2500   -52.9410
 8235.0000    12.6652    86.1041    37.7249      .5990      .4969      .2896   -53.0142
 8235.5000    12.6594    85.9373    39.0994      .6585      .5165      .3541   -52.5699
 8236.0000    12.6574    85.8787    40.8511      .7504      .5356      .5891   -52.0551
 8236.5000    12.6563    85.7808    42.4743      .6860      .5015      .5089   -51.5804
 8237.0000    12.6530    85.6685    44.0468      .5972      .4480      .4325   -51.1058
 8237.5000    12.6566    85.5760    45.1927      .5325      .4125      .2494   -50.9306
 8238.0000    12.6761    85.5206    46.3640      .5773      .5022      .2100   -51.4059
 8238.5000    12.6956    85.6349    47.6409      .7041      .5860      .2327   -51.7158
 8239.0000    12.7274    86.6272    49.2482      .8216      .6733      .2742   -51.9983
 8239.5000    12.7697    87.4628    52.5027      .9214      .7711      .3533   -52.0515
 8240.0000    12.8215    87.9564    56.0702      .9425      .9416      .6137   -50.9406
 8240.5000    12.8955    87.8893    56.9446      .8695      .7708      .9172   -49.8843
 8241.0000    12.9231    86.4972    55.3749      .8127      .6875     1.2683   -49.0861
 8241.5000    12.9104    85.0514    53.8051      .7709      .6287     1.5860   -48.3867
 8242.0000    12.9056    83.7933    51.3100      .7706      .5948     1.6377   -47.8312
 8242.5000    12.9045    82.9608    49.0743      .7997      .6388     1.1216   -47.4942
 8243.0000    12.9027    82.9357    47.5126      .8325      .7283      .6618   -47.2973
 8243.5000    12.8999    84.2386    46.1327      .8707      .8198      .5871   -47.1250
 8244.0000    12.8971    85.6737    47.9405      .9171      .9258      .5491   -46.9734
 8244.5000    12.9022    87.1543    50.5479      .9316      .9064      .5269   -46.7832
