~VERSION INFORMATION
VERS.                             2.0:   CWLS Log ASCII Standard-VERSION 2.0
WRAP.                              NO:   One line per depth step
~Well Information Block
STRT.F                      4470.0000:   Top Depth
STOP.F                     11800.5000:   Bottom Depth
STEP.F                         .50000:   Depth Increment
NULL.                        -999.250:   Null Value
FLD .                      GA BLK 315:   Field Name
WELL.       OCSG14835   001 ST00 BP00:   NAME
API .                  42706403880000:   WELL API
LOC .       993' FSL & 3018' FEL OF B:   AREA NAME
CTRY.                             USA:   COUNTRY
EGL .FT                      -66.0000:   GROUND LEVEL
EKB .FT                        0.0000:   KB ELEVATION
COMP.              APACHE CORPORATION:   OPERATOR
DREF.                             MSL:   PERM DATUM
COUN.                        OFFSHORE:   RIG NAME
STAT.                              TX:   STATE
CNTY.                        OFFSHORE:   COUNTY
DIGS.                   QC Data, Inc.:   DIG COMPANY NAME
EREF.FT                        0.0000:   ELEV DEPTH REFERENCE
UWI .                  42706403880000:   WELL API
DICO.               IHS : Digitizing Company
~PARAMETER INFORMATION (zones)
#MNEM.UNIT                       Value     Description
#=========                       =====     ===========
#ZONATION                        ZONES:   ZONATION NAME
#ZONE                             LAS1:   ZONE NAME
TOP .                       4470.0000:   TOP DEPTH
BOT .                      11816.0000:   BOTTOM DEPTH
SRVC.                   WESTERN ATLAS:   LOGGING CONTRACTOR
DATE.                         10AUG96:   RUN DATE
RW  .OHMM                      0.0000:   RW
RWT .DEGF                      0.0000:   RW TEMP
RUN .                               1:   LOG RUN
TDL .FT                     9298.0000:   FINAL TD LOGGER
TDD .FT                     9300.0000:   FINAL TD DRILLER
BOTL.FT                     9296.0000:   BOTTOM DEPTH LOGGED
TOPL.FT                     4478.0000:   TOP DEPTH LOGGED
CSGL.FT                     4494.0000:   CASING DEPTH LOGGER
CSGD.FT                     4488.0000:   CASING DEPTH DRILLER
CSGS.IN                       13.3750:   CASING SIZE
CSGW.                          0.0000:   CASING WEIGHT
BS  .IN                       12.2500:   BIT SIZE
MUD .                             MUD:   MUD TYPE
MUDD.                         14.2000:   MUD WEIGHT
MUDV.                         41.0000:   MUD VISCOSITY
FL  .                          4.4000:   FLUID LOSS
PH  .                          8.5000:   MUD PH
MUDS.                             PIT:   MUD SOURCE
RM  .OHMM                      1.3000:   RM
RMT .DEGF                     80.0000:   RM TEMP
RMF .OHMM                      0.5400:   RMF
RMFT.DEGF                     80.0000:   RMF TEMP
RMC .OHMM                      2.5000:   RMC
RMCT.DEGF                     80.0000:   RMC TEMP
MMFS.                            MEAS:   RMF SOURCE
MCFS.                            MEAS:   RMC SOURCE
RMBH.OHMM                      0.5500:   RM BH
BHT .DEGF                    182.0000:   BH TEMP
TMAX.DEGF                    182.0000:   MAX REC TEMP
SON .                          180318:   SERVICE ORDER NUM
ELMF.FT                       92.0000:   ABOVE PERM DATUM
LMF .                              DF:   LOGS MEAS FROM
DMF .                              DF:   DRILL MEAS FROM
TIMC.                            0600:   TIME SINCE CIRCLN
UNIT.8940                        8079:   UNIT NO.
BASE.                        PEARLAND:   LOG UNIT HOME BASE
ENG .                          SUTTON:   ENGINEER
WIT .                            DILL:   WITNESS
~PARAMETER INFORMATION (zones)
#MNEM.UNIT                       Value     Description
#=========                       =====     ===========
#ZONATION                        ZONES:   ZONATION NAME
#ZONE                             LAS2:   ZONE NAME
TOP .                       4470.0000:   TOP DEPTH
BOT .                      11816.0000:   BOTTOM DEPTH
SRVC.                   WESTERN ATLAS:   LOGGING CONTRACTOR
DATE.                         21AUG96:   RUN DATE
RW  .OHMM                      0.0000:   RW
RWT .DEGF                      0.0000:   RW TEMP
RUN .                               2:   LOG RUN
TDL .FT                    11503.0000:   FINAL TD LOGGER
TDD .FT                    11500.0000:   FINAL TD DRILLER
BOTL.FT                    11495.0000:   BOTTOM DEPTH LOGGED
TOPL.FT                     9240.0000:   TOP DEPTH LOGGED
CSGL.FT                     9240.0000:   CASING DEPTH LOGGER
CSGD.FT                     9250.0000:   CASING DEPTH DRILLER
CSGS.IN                        9.6250:   CASING SIZE
CSGW.                          0.0000:   CASING WEIGHT
BS  .IN                        8.5000:   BIT SIZE
MUD .                     DESCO LO-PH:   MUD TYPE
MUDD.                         16.4000:   MUD WEIGHT
MUDV.                         50.0000:   MUD VISCOSITY
FL  .                          2.8000:   FLUID LOSS
PH  .                          8.5000:   MUD PH
MUDS.                             PIT:   MUD SOURCE
RM  .OHMM                      1.0000:   RM
RMT .DEGF                     80.0000:   RM TEMP
RMF .OHMM                      0.4500:   RMF
RMFT.DEGF                     80.0000:   RMF TEMP
RMC .OHMM                      3.0000:   RMC
RMCT.DEGF                     80.0000:   RMC TEMP
MMFS.                            MEAS:   RMF SOURCE
MCFS.                            MEAS:   RMC SOURCE
RMBH.OHMM                      0.3870:   RM BH
BHT .DEGF                    230.0000:   BH TEMP
TMAX.DEGF                    230.0000:   MAX REC TEMP
SON .                          180319:   SERVICE ORDER NUM
ELMF.FT                       92.0000:   ABOVE PERM DATUM
LMF .                              DF:   LOGS MEAS FROM
DMF .                              DF:   DRILL MEAS FROM
TIMC.                            0700:   TIME SINCE CIRCLN
UNIT.8940                        8089:   UNIT NO.
BASE.                        PEARLAND:   LOG UNIT HOME BASE
ENG .                    SUTTON/DAVIS:   ENGINEER
WIT .                      MR.CAMBELL:   WITNESS
~PARAMETER INFORMATION (zones)
#MNEM.UNIT                       Value     Description
#=========                       =====     ===========
#ZONATION                        ZONES:   ZONATION NAME
#ZONE                             LAS3:   ZONE NAME
TOP .                       4470.0000:   TOP DEPTH
BOT .                      11816.0000:   BOTTOM DEPTH
SRVC.                   WESTERN ATLAS:   LOGGING CONTRACTOR
DATE.                         23AUG96:   RUN DATE
RW  .OHMM                      0.0000:   RW
RWT .DEGF                      0.0000:   RW TEMP
RUN .                               3:   LOG RUN
TDL .FT                    11800.0000:   FINAL TD LOGGER
TDD .FT                    11800.0000:   FINAL TD DRILLER
BOTL.FT                    11791.0000:   BOTTOM DEPTH LOGGED
TOPL.FT                     9240.0000:   TOP DEPTH LOGGED
CSGL.FT                     9240.0000:   CASING DEPTH LOGGER
CSGD.FT                     9250.0000:   CASING DEPTH DRILLER
CSGS.IN                        9.6250:   CASING SIZE
CSGW.                          0.0000:   CASING WEIGHT
BS  .IN                        8.5000:   BIT SIZE
MUD .                     DESCO LO-PH:   MUD TYPE
MUDD.                         16.4000:   MUD WEIGHT
MUDV.                         50.0000:   MUD VISCOSITY
FL  .                          2.8000:   FLUID LOSS
PH  .                          8.5000:   MUD PH
MUDS.                             PIT:   MUD SOURCE
RM  .OHMM                      1.0000:   RM
RMT .DEGF                     80.0000:   RM TEMP
RMF .OHMM                      0.4500:   RMF
RMFT.DEGF                     80.0000:   RMF TEMP
RMC .OHMM                      3.0000:   RMC
RMCT.DEGF                     80.0000:   RMC TEMP
MMFS.                            MEAS:   RMF SOURCE
MCFS.                            MEAS:   RMC SOURCE
RMBH.OHMM                      0.3870:   RM BH
BHT .DEGF                    232.0000:   BH TEMP
TMAX.DEGF                    232.0000:   MAX REC TEMP
SON .                          180319:   SERVICE ORDER NUM
ELMF.FT                       92.0000:   ABOVE PERM DATUM
LMF .                              DF:   LOGS MEAS FROM
DMF .                              DF:   DRILL MEAS FROM
TIMC.                            0700:   TIME SINCE CIRCLN
UNIT.8940                        8089:   UNIT NO.
BASE.                        PEARLAND:   LOG UNIT HOME BASE
ENG .                    SUTTON/DAVIS:   ENGINEER
WIT .                      BOB SHELBY:   WITNESS
~Curve Information Block
#MNEM.UNIT                    API CODE    No Description
#=========                    ========    == ===========
DEPT.F                   00 001 00 00:     1  DEPTH
CALX.IN                              :     2  Caliper
CNCF.%                               :     3  Field Normalized CNC
DT.US/F                              :     4  Sonic Transit Time
GR.GAPI                              :     5  Gamma Ray
M2R1.OHMM                            :     6  Array Resistivity Curve
M2R2.OHMM                            :     7  Array Resistivity Curve
M2R3.OHMM                            :     8  Array Resistivity Curve
M2R6.OHMM                            :     9  Array Resistivity Curve
M2R9.OHMM                            :    10  Array Resistivity Curve
M2RX.OHMM                            :    11  Array Resistivity Curve
PORZ.%                               :    12  PORZ
RFOC.OHMM                            :    13  Medium Resistivity
RILD.OHMM                            :    14  Deep Resistivity
RILM.OHMM                            :    15  Medium Resistivity
RWAA.OHMM                            :    16  RWAA
RWAZ.OHMM                            :    17  RWAZ
SP.MV                                :    18  Spontaneous Potential
TEN.LB                               :    19  TEN
ZCOR.G/CC                            :    20  Density Correction
~ASCII
# ...
 9576.0000    11.2530    38.7100   130.3950    63.5650      .6470      .6220      .5930      .5850      .5790      .5780    22.7060  -999.2500  -999.2500  -999.2500      .1600      .0380    -4.2470   -16.2480      .0090
 9576.5000    11.2590    38.1150   129.2920    64.1900      .6590      .6300      .6010      .5930      .5870      .5870    22.6740  -999.2500  -999.2500  -999.2500      .1570      .0390    -4.3190   -16.2390      .0130
 9577.0000    11.2660    37.7110   128.8070    63.2600      .6720      .6400      .6100      .6020      .5970      .5980    22.6800  -999.2500  -999.2500  -999.2500      .1580      .0400    -4.7130   -16.9660      .0130
 9577.5000    11.2730    37.4150   128.5690    61.2790      .6850      .6510      .6180      .6110      .6060      .6080    22.8500  -999.2500  -999.2500  -999.2500      .1590      .0410    -5.5090   -19.2370      .0110
 9578.0000    11.2800    37.1860   128.1840    59.4330      .6910      .6570      .6240      .6160      .6120      .6130    23.3590  -999.2500  -999.2500  -999.2500      .1590      .0430    -5.8400   -22.5500      .0090
 9578.5000    11.2860    37.0690   128.8410    58.8530      .6820      .6520      .6190      .6120      .6070      .6080    23.8590  -999.2500  -999.2500  -999.2500      .1610      .0450    -5.0450   -25.5490      .0070
 9579.0000    11.2920    37.1990   130.2630    60.4120      .6590      .6330      .6040      .5960      .5910      .5920    24.2470  -999.2500  -999.2500  -999.2500      .1630      .0450    -3.8420   -25.7290      .0030
 9579.5000    11.2850    37.5660   130.4950    63.6720      .6320      .6090      .5830      .5750      .5710      .5710    24.4440  -999.2500  -999.2500  -999.2500      .1580      .0450    -3.1670   -21.4760     -.0010
 9580.0000    11.2740    38.0160   130.6000    65.4780      .6120      .5880      .5650      .5580      .5540      .5530    24.5710  -999.2500  -999.2500  -999.2500      .1540      .0440    -2.8110   -14.7350     -.0010
 9580.5000    11.2630    38.1210   130.8420    64.3510      .6010      .5770      .5540      .5480      .5430      .5420    24.7920  -999.2500  -999.2500  -999.2500      .1520      .0440    -2.4790    -9.1130      .0050
 9581.0000    11.2540    38.0540   130.4310    62.7000      .5950      .5710      .5470      .5400      .5350      .5330    24.7850  -999.2500  -999.2500  -999.2500      .1480      .0430    -2.6710    -7.4690      .0090
 9581.5000    11.2420    38.2840   130.4910    62.7690      .5960      .5700      .5450      .5370      .5320      .5300    24.6110  -999.2500  -999.2500  -999.2500      .1470      .0420    -3.5530    -9.6000      .0080
 9582.0000    11.2260    38.1940   131.6850    64.0690      .6030      .5760      .5510      .5420      .5370      .5350    24.5010  -999.2500  -999.2500  -999.2500      .1540      .0420    -4.1010   -11.2090      .0090
 9582.5000    11.2430    37.9180   132.7760    65.2810      .6130      .5850      .5600      .5510      .5460      .5450    24.5840  -999.2500  -999.2500  -999.2500      .1610      .0430    -3.5310   -10.3370      .0130
 9583.0000    11.2750    38.2360   133.2980    66.3240      .6140      .5860      .5620      .5530      .5480      .5470    24.9790  -999.2500  -999.2500  -999.2500      .1640      .0450    -2.5880   -10.9440      .0180
 9583.5000    11.3040    39.1480   133.7860    67.3220      .6030      .5760      .5530      .5440      .5380      .5370    25.2960  -999.2500  -999.2500  -999.2500      .1630      .0450    -2.1680   -15.0760      .0160
 9584.0000    11.3320    39.9420   133.9560    67.4860      .5870      .5600      .5370      .5280      .5220      .5210    25.1040  -999.2500  -999.2500  -999.2500      .1590      .0430    -2.1400   -18.9540      .0090
 9584.5000    11.3470    40.3920   135.3820    65.8350      .5740      .5460      .5240      .5150      .5080      .5070    24.9380  -999.2500  -999.2500  -999.2500      .1610      .0410    -2.2430   -20.8760      .0070
 9585.0000    11.3500    40.5920   138.2190    62.9320      .5660      .5370      .5150      .5060      .5000      .4980    25.2480  -999.2500  -999.2500  -999.2500      .1700      .0420    -2.4220   -22.7410      .0090
 9585.5000    11.3400    40.5770   139.5550    60.9100      .5590      .5320      .5100      .5000      .4930      .4910    25.5920  -999.2500  -999.2500  -999.2500      .1740      .0420    -2.5550   -25.4210      .0120
 9586.0000    11.3240    40.5990   139.7000    61.2100      .5520      .5250      .5040      .4930      .4860      .4830    25.9300  -999.2500  -999.2500  -999.2500      .1720      .0430    -2.4730   -28.2450      .0140
 9586.5000    11.3150    40.7420   138.7470    62.3820      .5440      .5160      .4950      .4840      .4770      .4740    26.1140  -999.2500  -999.2500  -999.2500      .1650      .0430    -2.0520   -29.5930      .0160
 9587.0000    11.3140    40.6870   137.9570    62.6520      .5370      .5080      .4890      .4780      .4710      .4680    26.1810  -999.2500  -999.2500  -999.2500      .1590      .0420    -1.5590   -30.1780      .0160
 9587.5000    11.3130    40.7180   138.9470    62.9510      .5350      .5060      .4870      .4770      .4710      .4680    26.1380  -999.2500  -999.2500  -999.2500      .1630      .0420    -1.5270   -31.3800      .0150
 9588.0000    11.3110    41.0040   139.7900    62.9870      .5400      .5110      .4920      .4820      .4760      .4740    25.9320  -999.2500  -999.2500  -999.2500      .1690      .0420    -2.1560   -30.4330      .0160
 9588.5000    11.3100    41.2150   139.4810    61.9490      .5530      .5230      .5040      .4940      .4880      .4860    25.3690  -999.2500  -999.2500  -999.2500      .1720      .0410    -3.0560   -24.4050      .0200
 9589.0000    11.3090    40.8520   137.8230    61.9990      .5790      .5460      .5250      .5150      .5090      .5080    24.9000  -999.2500  -999.2500  -999.2500      .1720      .0410    -3.5660   -17.8700      .0220
 9589.5000    11.3080    40.0590   136.9900    64.3050      .6090      .5750      .5520      .5420      .5370      .5360    24.6260  -999.2500  -999.2500  -999.2500      .1780      .0420    -3.6990   -16.7160      .0220
 9590.0000    11.3110    39.6670   136.0780    66.1460      .6260      .5930      .5680      .5590      .5550      .5540    24.2510  -999.2500  -999.2500  -999.2500      .1790      .0420    -4.0000   -18.8290      .0190
 9590.5000    11.3140    39.4410   134.8260    65.5310      .6260      .5940      .5680      .5600      .5560      .5550    23.7050  -999.2500  -999.2500  -999.2500      .1740      .0410    -4.4830   -18.6280      .0170
 9591.0000    11.3160    39.2540   134.8120    63.9420      .6200      .5910      .5660      .5580      .5550      .5550    23.0070  -999.2500  -999.2500  -999.2500      .1740      .0380    -4.7510   -15.0400      .0210
 9591.5000    11.3180    38.9730   133.5550    63.5200      .6220      .5950      .5710      .5640      .5600      .5600    22.5910  -999.2500  -999.2500  -999.2500      .1690      .0370    -4.9400   -12.4260      .0210
 9592.0000    11.3170    38.4030   131.7910    63.9090      .6320      .6050      .5810      .5730      .5690      .5690    22.4900  -999.2500  -999.2500  -999.2500      .1640      .0370    -5.3100   -13.6920      .0160
 9592.5000    11.3190    37.9140   131.6970    63.9440      .6450      .6180      .5930      .5830      .5780      .5780    22.4870  -999.2500  -999.2500  -999.2500      .1660      .0380    -5.6940   -18.1370      .0090
 9593.0000    11.3270    37.7980   131.0030    64.4000      .6550      .6300      .6030      .5920      .5860      .5860    22.4720  -999.2500  -999.2500  -999.2500      .1650      .0380    -5.6930   -22.9060      .0080
 9593.5000    11.3290    37.9480   130.2610    65.0110      .6610      .6390      .6110      .5980      .5920      .5920    22.3020  -999.2500  -999.2500  -999.2500      .1630      .0380    -5.2060   -26.7000      .0110
 9594.0000    11.3280    38.0490   131.1850    64.6510      .6650      .6440      .6170      .6050      .5990      .5990    21.9490  -999.2500  -999.2500  -999.2500      .1690      .0370    -4.5760   -28.6180      .0140
