~VERSION INFORMATION
VERS.                             2.0:   CWLS Log ASCII Standard-VERSION 2.0
WRAP.                              NO:   One line per depth step
~Well Information Block
STRT.F                      4470.0000:   Top Depth
STOP.F                     11800.5000:   Bottom Depth
STEP.F                         .50000:   Depth Increment
NULL.                        -999.250:   Null Value
FLD .                      GA BLK 315:   Field Name
WELL.       OCSG14835   001 ST00 BP00:   NAME
API .                  42706403880000:   WELL API
LOC .       993' FSL & 3018' FEL OF B:   AREA NAME
CTRY.                             USA:   COUNTRY
EGL .FT                      -66.0000:   GROUND LEVEL
EKB .FT                        0.0000:   KB ELEVATION
COMP.              APACHE CORPORATION:   OPERATOR
DREF.                             MSL:   PERM DATUM
COUN.                        OFFSHORE:   RIG NAME
STAT.                              TX:   STATE
CNTY.                        OFFSHORE:   COUNTY
DIGS.                   QC Data, Inc.:   DIG COMPANY NAME
EREF.FT                        0.0000:   ELEV DEPTH REFERENCE
UWI .                  42706403880000:   WELL API
DICO.               IHS : Digitizing Company
~PARAMETER INFORMATION (zones)
#MNEM.UNIT                       Value     Description
#=========                       =====     ===========
#ZONATION                        ZONES:   ZONATION NAME
#ZONE                             LAS1:   ZONE NAME
TOP .                       4470.0000:   TOP DEPTH
BOT .                      11816.0000:   BOTTOM DEPTH
SRVC.                   WESTERN ATLAS:   LOGGING CONTRACTOR
DATE.                         10AUG96:   RUN DATE
RW  .OHMM                      0.0000:   RW
RWT .DEGF                      0.0000:   RW TEMP
RUN .                               1:   LOG RUN
TDL .FT                     9298.0000:   FINAL TD LOGGER
TDD .FT                     9300.0000:   FINAL TD DRILLER
BOTL.FT                     9296.0000:   BOTTOM DEPTH LOGGED
TOPL.FT                     4478.0000:   TOP DEPTH LOGGED
CSGL.FT                     4494.0000:   CASING DEPTH LOGGER
CSGD.FT                     4488.0000:   CASING DEPTH DRILLER
CSGS.IN                       13.3750:   CASING SIZE
CSGW.                          0.0000:   CASING WEIGHT
BS  .IN                       12.2500:   BIT SIZE
MUD .                             MUD:   MUD TYPE
MUDD.                         14.2000:   MUD WEIGHT
MUDV.                         41.0000:   MUD VISCOSITY
FL  .                          4.4000:   FLUID LOSS
PH  .                          8.5000:   MUD PH
MUDS.                             PIT:   MUD SOURCE
RM  .OHMM                      1.3000:   RM
RMT .DEGF                     80.0000:   RM TEMP
RMF .OHMM                      0.5400:   RMF
RMFT.DEGF                     80.0000:   RMF TEMP
RMC .OHMM                      2.5000:   RMC
RMCT.DEGF                     80.0000:   RMC TEMP
MMFS.                            MEAS:   RMF SOURCE
MCFS.                            MEAS:   RMC SOURCE
RMBH.OHMM                      0.5500:   RM BH
BHT .DEGF                    182.0000:   BH TEMP
TMAX.DEGF                    182.0000:   MAX REC TEMP
SON .                          180318:   SERVICE ORDER NUM
ELMF.FT                       92.0000:   ABOVE PERM DATUM
LMF .                              DF:   LOGS MEAS FROM
DMF .                              DF:   DRILL MEAS FROM
TIMC.                            0600:   TIME SINCE CIRCLN
UNIT.8940                        8079:   UNIT NO.
BASE.                        PEARLAND:   LOG UNIT HOME BASE
ENG .                          SUTTON:   ENGINEER
WIT .                            DILL:   WITNESS
~PARAMETER INFORMATION (zones)
#MNEM.UNIT                       Value     Description
#=========                       =====     ===========
#ZONATION                        ZONES:   ZONATION NAME
#ZONE                             LAS2:   ZONE NAME
TOP .                       4470.0000:   TOP DEPTH
BOT .                      11816.0000:   BOTTOM DEPTH
SRVC.                   WESTERN ATLAS:   LOGGING CONTRACTOR
DATE.                         21AUG96:   RUN DATE
RW  .OHMM                      0.0000:   RW
RWT .DEGF                      0.0000:   RW TEMP
RUN .                               2:   LOG RUN
TDL .FT                    11503.0000:   FINAL TD LOGGER
TDD .FT                    11500.0000:   FINAL TD DRILLER
BOTL.FT                    11495.0000:   BOTTOM DEPTH LOGGED
TOPL.FT                     9240.0000:   TOP DEPTH LOGGED
CSGL.FT                     9240.0000:   CASING DEPTH LOGGER
CSGD.FT                     9250.0000:   CASING DEPTH DRILLER
CSGS.IN                        9.6250:   CASING SIZE
CSGW.                          0.0000:   CASING WEIGHT
BS  .IN                        8.5000:   BIT SIZE
MUD .                     DESCO LO-PH:   MUD TYPE
MUDD.                         16.4000:   MUD WEIGHT
MUDV.                         50.0000:   MUD VISCOSITY
FL  .                          2.8000:   FLUID LOSS
PH  .                          8.5000:   MUD PH
MUDS.                             PIT:   MUD SOURCE
RM  .OHMM                      1.0000:   RM
RMT .DEGF                     80.0000:   RM TEMP
RMF .OHMM                      0.4500:   RMF
RMFT.DEGF                     80.0000:   RMF TEMP
RMC .OHMM                      3.0000:   RMC
RMCT.DEGF                     80.0000:   RMC TEMP
MMFS.                            MEAS:   RMF SOURCE
MCFS.                            MEAS:   RMC SOURCE
RMBH.OHMM                      0.3870:   RM BH
BHT .DEGF                    230.0000:   BH TEMP
TMAX.DEGF                    230.0000:   MAX REC TEMP
SON .                          180319:   SERVICE ORDER NUM
ELMF.FT                       92.0000:   ABOVE PERM DATUM
LMF .                              DF:   LOGS MEAS FROM
DMF .                              DF:   DRILL MEAS FROM
TIMC.                            0700:   TIME SINCE CIRCLN
UNIT.8940                        8089:   UNIT NO.
BASE.                        PEARLAND:   LOG UNIT HOME BASE
ENG .                    SUTTON/DAVIS:   ENGINEER
WIT .                      MR.CAMBELL:   WITNESS
~PARAMETER INFORMATION (zones)
#MNEM.UNIT                       Value     Description
#=========                       =====     ===========
#ZONATION                        ZONES:   ZONATION NAME
#ZONE                             LAS3:   ZONE NAME
TOP .                       4470.0000:   TOP DEPTH
BOT .                      11816.0000:   BOTTOM DEPTH
SRVC.                   WESTERN ATLAS:   LOGGING CONTRACTOR
DATE.                         23AUG96:   RUN DATE
RW  .OHMM                      0.0000:   RW
RWT .DEGF                      0.0000:   RW TEMP
RUN .                               3:   LOG RUN
TDL .FT                    11800.0000:   FINAL TD LOGGER
TDD .FT                    11800.0000:   FINAL TD DRILLER
BOTL.FT                    11791.0000:   BOTTOM DEPTH LOGGED
TOPL.FT                     9240.0000:   TOP DEPTH LOGGED
CSGL.FT                     9240.0000:   CASING DEPTH LOGGER
CSGD.FT                     9250.0000:   CASING DEPTH DRILLER
CSGS.IN                        9.6250:   CASING SIZE
CSGW.                          0.0000:   CASING WEIGHT
BS  .IN                        8.5000:   BIT SIZE
MUD .                     DESCO LO-PH:   MUD TYPE
MUDD.                         16.4000:   MUD WEIGHT
MUDV.                         50.0000:   MUD VISCOSITY
FL  .                          2.8000:   FLUID LOSS
PH  .                          8.5000:   MUD PH
MUDS.                             PIT:   MUD SOURCE
RM  .OHMM                      1.0000:   RM
RMT .DEGF                     80.0000:   RM TEMP
RMF .OHMM                      0.4500:   RMF
RMFT.DEGF                     80.0000:   RMF TEMP
RMC .OHMM                      3.0000:   RMC
RMCT.DEGF                     80.0000:   RMC TEMP
MMFS.                            MEAS:   RMF SOURCE
MCFS.                            MEAS:   RMC SOURCE
RMBH.OHMM                      0.3870:   RM BH
BHT .DEGF                    232.0000:   BH TEMP
TMAX.DEGF                    232.0000:   MAX REC TEMP
SON .                          180319:   SERVICE ORDER NUM
ELMF.FT                       92.0000:   ABOVE PERM DATUM
LMF .                              DF:   LOGS MEAS FROM
DMF .                              DF:   DRILL MEAS FROM
TIMC.                            0700:   TIME SINCE CIRCLN
UNIT.8940                        8089:   UNIT NO.
BASE.                        PEARLAND:   LOG UNIT HOME BASE
ENG .                    SUTTON/DAVIS:   ENGINEER
WIT .                      BOB SHELBY:   WITNESS
~Curve Information Block
#MNEM.UNIT                    API CODE    No Description
#=========                    ========    == ===========
DEPT.F                   00 001 00 00:     1  DEPTH
CALX.IN                              :     2  Caliper
CNCF.%                               :     3  Field Normalized CNC
DT.US/F                              :     4  Sonic Transit Time
GR.GAPI                              :     5  Gamma Ray
M2R1.OHMM                            :     6  Array Resistivity Curve
M2R2.OHMM                            :     7  Array Resistivity Curve
M2R3.OHMM                            :     8  Array Resistivity Curve
M2R6.OHMM                            :     9  Array Resistivity Curve
M2R9.OHMM                            :    10  Array Resistivity Curve
M2RX.OHMM                            :    11  Array Resistivity Curve
PORZ.%                               :    12  PORZ
RFOC.OHMM                            :    13  Medium Resistivity
RILD.OHMM                            :    14  Deep Resistivity
RILM.OHMM                            :    15  Medium Resistivity
RWAA.OHMM                            :    16  RWAA
RWAZ.OHMM                            :    17  RWAZ
SP.MV                                :    18  Spontaneous Potential
TEN.LB                               :    19  TEN
ZCOR.G/CC                            :    20  Density Correction
~ASCII
# ...
10408.5000  -999.2500  -999.2500   125.7590    66.7280      .5040      .4710      .4520      .4460      .4420      .4420  -999.2500  -999.2500  -999.2500  -999.2500      .1060  -999.2500    -3.0380   -24.7080  -999.2500
10409.0000  -999.2500  -999.2500   126.2470    66.4230      .5010      .4670      .4490      .4420      .4380      .4370  -999.2500  -999.2500  -999.2500  -999.2500      .1070  -999.2500    -2.8790   -22.7010  -999.2500
10409.5000  -999.2500  -999.2500   126.8190    65.6790      .4960      .4620      .4430      .4360      .4320      .4310  -999.2500  -999.2500  -999.2500  -999.2500      .1070  -999.2500    -2.3990   -18.5010  -999.2500
10410.0000  -999.2500  -999.2500   127.2290    65.7860      .4870      .4530      .4340      .4270      .4230      .4220  -999.2500  -999.2500  -999.2500  -999.2500      .1060  -999.2500    -1.8770   -15.8980  -999.2500
10410.5000  -999.2500  -999.2500   127.4620    67.0960      .4810      .4460      .4280      .4210      .4170      .4160  -999.2500  -999.2500  -999.2500  -999.2500      .1060  -999.2500    -1.4870   -15.4240  -999.2500
10411.0000  -999.2500  -999.2500   127.1760    69.0290      .4810      .4460      .4290      .4210      .4170      .4160  -999.2500  -999.2500  -999.2500  -999.2500      .1050  -999.2500    -1.1550   -17.4810  -999.2500
10411.5000  -999.2500  -999.2500   126.5910    69.8140      .4850      .4490      .4320      .4250      .4200      .4190  -999.2500  -999.2500  -999.2500  -999.2500      .1040  -999.2500     -.9190   -23.0850  -999.2500
10412.0000  -999.2500  -999.2500   126.8150    68.8410      .4890      .4530      .4350      .4270      .4220      .4210  -999.2500  -999.2500  -999.2500  -999.2500      .1050  -999.2500     -.8900   -30.6230  -999.2500
10412.5000  -999.2500  -999.2500   126.7740    67.8190      .4930      .4580      .4390      .4310      .4260      .4250  -999.2500  -999.2500  -999.2500  -999.2500      .1060  -999.2500    -1.0230   -35.9150  -999.2500
10413.0000  -999.2500  -999.2500   126.1000    68.1910      .5000      .4660      .4460      .4370      .4330      .4320  -999.2500  -999.2500  -999.2500  -999.2500      .1050  -999.2500    -1.2470   -36.8600  -999.2500
10413.5000  -999.2500  -999.2500   125.2130    69.6690      .5080      .4760      .4560      .4470      .4430      .4420  -999.2500  -999.2500  -999.2500  -999.2500      .1050  -999.2500    -1.7030   -34.6510  -999.2500
10414.0000  -999.2500  -999.2500   124.6910    71.0210      .5120      .4810      .4610      .4530      .4480      .4480  -999.2500  -999.2500  -999.2500  -999.2500      .1040  -999.2500    -2.3140   -29.8090  -999.2500
10414.5000  -999.2500  -999.2500   125.5330    70.3980      .5070      .4770      .4580      .4490      .4450      .4440  -999.2500  -999.2500  -999.2500  -999.2500      .1060  -999.2500    -2.4500   -23.8720  -999.2500
10415.0000  -999.2500  -999.2500   125.5330    67.8210      .5010      .4710      .4520      .4440      .4400      .4390  -999.2500  -999.2500  -999.2500  -999.2500      .1050  -999.2500    -1.8940   -18.9890  -999.2500
10415.5000  -999.2500  -999.2500   124.8430    65.3760      .5050      .4750      .4560      .4490      .4450      .4440  -999.2500  -999.2500  -999.2500  -999.2500      .1040  -999.2500    -1.4430   -15.9330  -999.2500
10416.0000  -999.2500  -999.2500   124.4170    65.0700      .5190      .4880      .4690      .4620      .4590      .4580  -999.2500  -999.2500  -999.2500  -999.2500      .1060  -999.2500    -1.6650   -13.6400  -999.2500
10416.5000  -999.2500  -999.2500   123.3130    66.7960      .5310      .4990      .4780      .4730      .4690      .4690  -999.2500  -999.2500  -999.2500  -999.2500      .1050  -999.2500    -2.1610   -12.9560  -999.2500
10417.0000  -999.2500  -999.2500   123.6170    68.7430      .5320      .4980      .4770      .4720      .4690      .4690  -999.2500  -999.2500  -999.2500  -999.2500      .1060  -999.2500    -2.3940   -13.9720  -999.2500
10417.5000  -999.2500  -999.2500   124.8450    69.0120      .5230      .4890      .4680      .4630      .4600      .4600  -999.2500  -999.2500  -999.2500  -999.2500      .1080  -999.2500    -2.4700   -15.6400  -999.2500
10418.0000  -999.2500  -999.2500   125.3730    68.1600      .5110      .4770      .4560      .4510      .4480      .4480  -999.2500  -999.2500  -999.2500  -999.2500      .1070  -999.2500    -2.5490   -18.9520  -999.2500
10418.5000  -999.2500  -999.2500   125.3500    68.0760      .5030      .4690      .4480      .4420      .4390      .4390  -999.2500  -999.2500  -999.2500  -999.2500      .1040  -999.2500    -2.4550   -24.1480  -999.2500
10419.0000  -999.2500  -999.2500   125.1160    68.5960      .5020      .4670      .4460      .4400      .4360      .4360  -999.2500  -999.2500  -999.2500  -999.2500      .1030  -999.2500    -2.2490   -27.8210  -999.2500
10419.5000  -999.2500  -999.2500   125.5160    68.3050      .5050      .4710      .4500      .4420      .4380      .4380  -999.2500  -999.2500  -999.2500  -999.2500      .1050  -999.2500    -2.3890   -27.3930  -999.2500
10420.0000  -999.2500  -999.2500   125.6260    67.3540      .5070      .4740      .4530      .4440      .4400      .4400  -999.2500  -999.2500  -999.2500  -999.2500      .1060  -999.2500    -2.8930   -24.8580  -999.2500
10420.5000  -999.2500  -999.2500   126.1450    66.6750      .5060      .4730      .4520      .4440      .4390      .4390  -999.2500  -999.2500  -999.2500  -999.2500      .1070  -999.2500    -3.2200   -22.7920  -999.2500
10421.0000  -999.2500  -999.2500   126.6680    66.2000      .5020      .4700      .4500      .4410      .4360      .4360  -999.2500  -999.2500  -999.2500  -999.2500      .1080  -999.2500    -3.0520   -21.5390  -999.2500
10421.5000  -999.2500  -999.2500   125.9790    65.4340      .4980      .4650      .4460      .4380      .4320      .4320  -999.2500  -999.2500  -999.2500  -999.2500      .1050  -999.2500    -2.5310   -21.8370  -999.2500
10422.0000  -999.2500  -999.2500   125.8740    65.6050      .4930      .4600      .4410      .4340      .4280      .4270  -999.2500  -999.2500  -999.2500  -999.2500      .1030  -999.2500    -1.8970   -23.4630  -999.2500
10422.5000  -999.2500  -999.2500   125.5480    67.6780      .4870      .4540      .4360      .4290      .4230      .4220  -999.2500  -999.2500  -999.2500  -999.2500      .1010  -999.2500    -1.2850   -24.0370  -999.2500
10423.0000  -999.2500  -999.2500   125.2920    70.0750      .4850      .4520      .4340      .4280      .4230      .4220  -999.2500  -999.2500  -999.2500  -999.2500      .1000  -999.2500     -.9360   -21.0730  -999.2500
10423.5000  -999.2500  -999.2500   125.6970    70.5050      .4920      .4590      .4410      .4350      .4310      .4310  -999.2500  -999.2500  -999.2500  -999.2500      .1040  -999.2500    -1.2220   -17.5560  -999.2500
10424.0000  -999.2500  -999.2500   125.2000    69.6520      .5040      .4720      .4530      .4470      .4440      .4440  -999.2500  -999.2500  -999.2500  -999.2500      .1050  -999.2500    -1.9860   -16.4550  -999.2500
10424.5000  -999.2500  -999.2500   125.2300    68.6140      .5150      .4820      .4620      .4550      .4520      .4530  -999.2500  -999.2500  -999.2500  -999.2500      .1070  -999.2500    -2.4820   -15.2870  -999.2500
10425.0000  -999.2500  -999.2500   125.8570    67.0120      .5190      .4850      .4640      .4570      .4530      .4540  -999.2500  -999.2500  -999.2500  -999.2500      .1100  -999.2500    -2.4060   -11.9580  -999.2500
10425.5000  -999.2500  -999.2500   126.0600    65.1470      .5140      .4810      .4610      .4530      .4490      .4490  -999.2500  -999.2500  -999.2500  -999.2500      .1090  -999.2500    -2.1690   -10.2620  -999.2500
10426.0000  -999.2500  -999.2500   126.1950    64.5950      .5060      .4750      .4560      .4490      .4450      .4440  -999.2500  -999.2500  -999.2500  -999.2500      .1090  -999.2500    -2.1470   -12.4510  -999.2500
10426.5000  -999.2500  -999.2500   125.9140    65.4690      .5010      .4720      .4540      .4470      .4430      .4430  -999.2500  -999.2500  -999.2500  -999.2500      .1070  -999.2500    -2.1770   -15.7810  -999.2500
