~VERSION INFORMATION
VERS.                             2.0:   CWLS Log ASCII Standard-VERSION 2.0
WRAP.                              NO:   One line per depth step
~Well Information Block
STRT.F                      6412.0000:   Top Depth
STOP.F                      9744.0000:   Bottom Depth
STEP.F                         .50000:   Depth Increment
NULL.                        -999.250:   Null Value
FLD .                      GA BLK 273:   Field Name
WELL.       OCSG09037   005 ST00 BP00:   NAME
API .                  42706403310000:   WELL API
EDF .F                        93.0000:   ELEV DRILL FLOOR
COMP.       SEAGULL ENERGY E AND P IN:   OPERATOR
BN  .                             273:   BLOCK
CTRY.                             USA:   COUNTRY NAME
CNTY.                              GA:   COUNTY
CNTY.                        GLVSTN L:   COUNTY NAME
EGL .F                       -63.0000:   ELEV GROUND LEVEL
EKB .F                        94.0000:   ELEV KELLY BUSHING
TDD .F                       9756.000:   FINAL TD DRILLER
STAT.                           TEXAS:   STATE NAME
UWI .                  42706403310000:   WELL API
DICO.               IHS : Digitizing Company
~PARAMETER INFORMATION (zones)
#MNEM.UNIT                       Value     Description
#=========                       =====     ===========
#ZONATION                          DIL:   ZONATION NAME
#ZONE                            RUN_1:   ZONE NAME
TOP .                       6412.0000:   TOP DEPTH
BOT .                       9744.5000:   BOTTOM DEPTH
RUN .                               1:   RUN NUMBER
LCCD.                             440:   LOGGING CONTRACTOR
SRVC.                    Schlumberger:   LOGGING CONT NAME
DICO.          QC Data Collectors Ltd:   DIG COMPANY NAME
LDAT.                      03/03/1993:   DATE LOGGED
ELD .F                        94.0000:   LOG DATUM ELEVATION
TDD .F                      9756.0000:   TOTAL DEPTH DRILLER
TDL .F                      9750.0000:   TOTAL DEPTH LOGGER
BOTL.F                      9744.0000:   BOTTOM DEPTH LOGGED
TOPL.F                      6543.0000:   TOP DEPTH LOGGED
CS1 .IN                        7.6250:   CASING SIZE 1
BS1 .IN                        6.5000:   BIT SIZE 1
DDB1.F                      9756.0000:   DEPTH DRILLED BIT 1
BHF .                              99:   FLUID CODE
DPT .                   Miscellaneous:   DRILLING FLUID TYPE
MUDD.                         11.7000:   FLUID DENSITY
MUDV.                         46.0000:   FLUID VISCOSITY
DFPH.                          6.5000:   FLUID PH
FL  .                          9.6500:   FLUID LOSS
RM  .OHMM                      1.3200:   RM
RMT .DEGF                     64.0000:   RM TEMP
RMF .OHMM                      1.1100:   RMF
RMFT.DEGF                     70.0000:   RMF TEMP
FSC .                               M:   RMF CODE
RMC .OHMM                      1.6200:   RMC
RMCT.DEGF                     65.0000:   RMC TEMP
CMC .                               M:   RMC CODE
TMAX.DEGF                    186.0000:   MAX REC TEMP
TIMC.                          6.5000:   TIME SINCE CIRCLN
~Curve Information Block
#MNEM.UNIT                    API CODE    No Description
#=========                    ========    == ===========
DEPT.F                   00 001 00 00:     1  DEPTH
DTL.US/F                             :     2  Sonic Transit Time (Slowness)
GR.GAPI                              :     3  Gamma Ray
ILD.OHMM                             :     4  Deep Induction Resistivity
ILM.OHMM                             :     5  Medium Induction Resistivity
SFL.OHMM                             :     6  Medium Resistivity
SP.MV                                :     7  Spontaneous Potential
~ASCII
# ...
 9272.0000    78.5090    63.2871      .7012      .8037     8.5767   -95.2552
 9272.5000    79.2809    58.0208      .7508      .8675     5.1341   -86.0074
 9273.0000    79.7698    56.0464      .7968      .9281     1.9023   -76.7598
 9273.5000    79.9696    61.1418      .8261      .9804     1.1176   -70.5120
 9274.0000    80.4399    66.2983      .8443     1.0170     1.3569   -64.5143
 9274.5000    81.2080    68.7898      .8489     1.0290     1.4517   -60.2665
 9275.0000    81.8529    67.0389      .8413     1.0131     1.3916   -59.2688
 9275.5000    82.6884    69.2855      .8372      .9794     1.0245   -60.5211
 9276.0000    84.5396    74.8595      .8313      .9438     1.0082   -62.2733
 9276.5000    86.6859    77.6895      .8140      .9136     1.4768   -69.2755
 9277.0000    87.0295    70.8574      .7970      .8863     2.6975   -77.0278
 9277.5000    85.3837    62.2654      .7827      .8593     3.5670   -82.7800
 9278.0000    84.4799    55.4334      .7691      .8364     2.7311   -85.7823
 9278.5000    84.2800    59.2961      .7626      .8253     1.3228   -81.2845
 9279.0000    85.3040    66.1221      .7514      .8295      .6132   -77.7869
 9279.5000    86.6287    71.6570      .7371      .8430     1.1860   -76.5391
 9280.0000    87.5861    70.2231      .7220      .8506     1.5631   -83.5414
 9280.5000    88.1149    69.6648      .7083      .8386     1.6448   -91.5436
 9281.0000    87.7791    71.6959      .6990      .8092     1.6151   -97.7959
 9281.5000    86.4395    74.9686      .6964      .7787     1.3997   -93.2981
 9282.0000    85.8456    76.7051      .6956      .7629     1.4772   -90.3004
 9282.5000    86.9261    74.4222      .6990      .7692     1.0974   -87.3026
 9283.0000    87.5835    78.4839      .7041      .7956     1.9900   -89.0549
 9283.5000    87.8060    78.6189      .7066      .8301     3.5047   -95.5571
 9284.0000    88.1145    82.0913      .7101      .8516     5.4548  -101.5594
 9284.5000    87.9449    78.5492      .7289      .8455     4.9931  -102.8116
 9285.0000    88.3417    79.0190      .7531      .8213     2.8464   -96.8140
 9285.5000    89.2133    77.1052      .7852      .8035     1.3518   -84.3162
 9286.0000    89.8419    79.9608      .8081      .8098      .9916   -71.8185
 9286.5000    90.4208    76.7825      .8304      .8433      .9425   -61.5707
 9287.0000    91.3994    77.9602      .8650      .8948     1.0640   -53.8230
 9287.5000    92.9431    77.9434      .9109      .9488      .8889   -51.5753
 9288.0000    94.4022    78.2504      .9663      .9961      .9330   -49.3275
 9288.5000    95.6135    82.3486     1.0040     1.0395      .8555   -47.5798
 9289.0000    96.2887    79.3436     1.0189     1.0846     1.0124   -47.0820
 9289.5000    95.2463    79.7227     1.0407     1.1293     1.2261   -47.3343
 9290.0000    92.4825    76.0612     1.0734     1.1697     1.2845   -48.0865
 9290.5000    88.2147    76.1655     1.1137     1.2101     1.2450   -48.8388
 9291.0000    86.1555    74.7289     1.1691     1.2600     1.5432   -50.0911
 9291.5000    85.1111    68.8398     1.2012     1.3216     1.7515   -51.5933
 9292.0000    84.6735    64.2231     1.2149     1.3809     1.7181   -54.0956
 9292.5000    84.7096    61.1891     1.2323     1.4123     1.9861   -56.3478
 9293.0000    85.3065    64.2239     1.2417     1.4004     1.6693   -60.1001
 9293.5000    85.8649    68.8406     1.2254     1.3556     1.6913   -62.1024
 9294.0000    86.8478    69.7466     1.2186     1.3016     1.8643   -64.6046
 9294.5000    88.7451    68.2357     1.1991     1.2515     1.8995   -59.3569
 9295.0000    90.8690    66.7517     1.1783     1.2062     1.9829   -53.6091
 9295.5000    93.1697    69.1677     1.2180     1.1695     1.6710   -52.6114
 9296.0000    94.9575    71.7672     1.2311     1.1561     1.1903   -52.6136
 9296.5000    95.9354    77.7030     1.2321     1.1823     1.1327   -52.6159
 9297.0000    91.6857    78.3070     1.2317     1.2516     1.2292   -52.8682
 9297.5000    90.3113    72.6857     1.2313     1.3443     1.9917   -52.8704
 9298.0000    89.8831    67.2445     1.2304     1.4193     2.0581   -52.3727
 9298.5000    90.8317    65.4325     1.2290     1.4420     1.5200   -48.8749
 9299.0000    91.7467    67.6989     1.2274     1.4205     1.5349   -49.8772
 9299.5000    91.4043    73.6150     1.2514     1.3915     1.5382   -48.1295
 9300.0000    89.3127    73.6284     1.1960     1.3774     1.5401   -43.6317
 9300.5000    88.5192    72.8729     1.1647     1.3761     1.5401   -43.1340
 9301.0000    88.5179    69.9070     1.1916     1.3809     1.5399   -42.8862
 9301.5000    90.2814    77.7639     1.1772     1.3877     1.5387   -43.1385
 9302.0000    94.0411    81.3434     1.1751     1.3881     1.5412   -43.1407
 9302.5000    97.5868    75.3372     1.1729     1.3693     1.4783   -43.3930
 9303.0000    98.2939    70.2000     1.1722     1.3246     1.3049   -43.6453
 9303.5000    98.4596    70.8595     1.1712     1.2557     1.4063   -43.3975
 9304.0000    97.7412    76.5975     1.1706     1.1748      .9707   -43.6498
 9304.5000    95.7294    77.9894     1.1710     1.1030      .9048   -43.6520
 9305.0000    95.0496    79.2728     1.1705     1.0546      .9052   -43.4042
 9305.5000    94.0909    77.1886     1.1713     1.0325      .9042   -44.1566
 9306.0000    90.9387    77.6099     1.1717     1.0333      .9058   -43.9088
 9306.5000    87.4578    74.4904     1.1729     1.0489      .9053   -43.4111
 9307.0000    88.0852    75.3767     1.1741     1.0667      .9052   -42.9133
 9307.5000    90.4009    76.1322     1.1751     1.0765      .9049   -42.9156
 9308.0000    92.2484    77.1274     1.1764     1.0773      .9051   -42.9178
 9308.5000    93.4225    71.6934     1.1776     1.0721      .9055   -42.9201
 9309.0000    92.3281    65.3346     1.1786     1.0649      .9045   -42.9224
 9309.5000    89.6315    64.1968     1.1788     1.0599      .9051   -42.9246
 9310.0000    89.1018    69.1829     1.1785     1.0589      .9050   -43.4269
 9310.5000    89.6439    72.6559     1.1770     1.0601      .9046   -43.1791
 9311.0000    91.7455    75.2594     1.1747     1.0617      .9052   -43.4314
 9311.5000    92.8011    78.8856     1.1712     1.0628      .9046   -43.4337
 9312.0000    93.2631    78.8856     1.1667     1.0624      .9048   -42.6859
 9312.5000    93.1255    77.1066     1.1463     1.0609      .9047   -41.9382
 9313.0000    93.4460    70.7606     1.1089     1.0600      .9049   -41.6904
 9313.5000    94.1968    69.0374     1.0814     1.0602      .9048   -41.4427
 9314.0000    94.8367    67.4634     1.0686     1.0612      .9051   -41.9449
 9314.5000    95.3889    70.6210     1.0571     1.0624      .9043   -41.9472
 9315.0000    95.7579    74.1724     1.0424     1.0634      .9045   -41.9495
 9315.5000    95.9550    75.7462     1.0292     1.0640      .9072   -42.2017
 9316.0000    95.2140    72.5752     1.0129     1.0633     1.0488   -41.7039
 9316.5000    94.6932    71.0643     1.0021     1.0593     1.1334   -41.7062
 9317.0000    94.7505    69.7147     1.0005     1.0508     1.2353   -41.2085
 9317.5000    94.8878    72.1606     1.0045     1.0402     1.0874   -41.4608
 9318.0000    94.7897    73.7277     1.0098     1.0317     1.0082   -41.4630
 9318.5000    94.8196    74.7120     1.0116     1.0274     1.0387   -41.4653
 9319.0000    95.1766    75.2861      .9993     1.0244     1.0485   -41.2175
 9319.5000    95.8987    78.9487      .9808     1.0170     1.1526   -41.4697
 9320.0000    96.7900    82.5581      .9712     1.0024     1.0587   -41.2220
 9320.5000    97.3634    86.5018      .9603      .9835      .9815   -40.2243
 9321.0000    97.2806    87.1614      .9506      .9663      .9430   -40.9765
 9321.5000    96.9115    82.9333      .9487      .9559      .9443   -40.2288
 9322.0000    96.4608    84.2932      .9444      .9541      .9955   -40.4811
 9322.5000    96.0306    81.6550      .9370      .9595      .9548   -40.4833
 9323.0000    95.8196    84.2220      .9320      .9681     1.0104   -40.4855
 9323.5000    95.9095    78.0568      .9252      .9746     1.0184   -40.9879
