~VERSION INFORMATION
VERS.                             2.0:   CWLS Log ASCII Standard-VERSION 2.0
WRAP.                              NO:   One line per depth step
~Well Information Block
STRT.F                      3732.0000:   Top Depth
STOP.F                      8303.0000:   Bottom Depth
STEP.F                         .50000:   Depth Increment
NULL.                        -999.250:   Null Value
FLD .                      BA BLK 415:   Field Name
WELL.       OCSG11271   001 ST00 BP00:   NAME
API .                  42704402170000:   WELL API
EDF .F                       100.0000:   ELEV DRILL FLOOR
COMP.                     APACHE CORP:   OPERATOR
BN  .                             415:   BLOCK
CTRY.                             USA:   COUNTRY NAME
CNTY.                        BRAZOS L:   COUNTY NAME
EGL .F                       -78.0000:   ELEV GROUND LEVEL
EKB .F                       101.0000:   ELEV KELLY BUSHING
TDD .F                       8311.000:   FINAL TD DRILLER
STAT.                           TEXAS:   STATE NAME
UWI .                  42704402170000:   WELL API
DICO.               IHS : Digitizing Company
~PARAMETER INFORMATION (zones)
#MNEM.UNIT                       Value     Description
#=========                       =====     ===========
#ZONATION                          CNL:   ZONATION NAME
#ZONE                            RUN_1:   ZONE NAME
TOP .                       5274.0000:   TOP DEPTH
BOT .                       8300.5000:   BOTTOM DEPTH
RUN .                               1:   RUN NUMBER
LCCD.                              99:   LOGGING CONTRACTOR
DICO.          QC Data Collectors Ltd:   DIG COMPANY NAME
LDAT.                      08/26/1990:   DATE LOGGED
ELD .F                       101.0000:   LOG DATUM ELEVATION
TDD .F                      8311.0000:   TOTAL DEPTH DRILLER
TDL .F                      8306.0000:   TOTAL DEPTH LOGGER
BOTL.F                      8303.0000:   BOTTOM DEPTH LOGGED
TOPL.F                      5257.0000:   TOP DEPTH LOGGED
CS1 .IN                       10.7500:   CASING SIZE 1
BS1 .IN                        9.8750:   BIT SIZE 1
DDB1.F                      8311.0000:   DEPTH DRILLED BIT 1
BHF .                              99:   FLUID CODE
DPT .                   Miscellaneous:   DRILLING FLUID TYPE
MUDD.                         10.0000:   FLUID DENSITY
MUDV.                         43.0000:   FLUID VISCOSITY
DFPH.                          8.1000:   FLUID PH
FL  .                          3.2000:   FLUID LOSS
RM  .OHMM                       .8800:   RM
RMT .DEGF                     75.0000:   RM TEMP
RMF .OHMM                       .7000:   RMF
RMFT.DEGF                     75.0000:   RMF TEMP
FSC .                               C:   RMF CODE
RMC .OHMM                       .9600:   RMC
RMCT.DEGF                     75.0000:   RMC TEMP
CMC .                               C:   RMC CODE
TMAX.DEGF                    166.0000:   MAX REC TEMP
TIMC.                         10.0000:   TIME SINCE CIRCLN
~PARAMETER INFORMATION (zones)
#MNEM.UNIT                       Value     Description
#=========                       =====     ===========
#ZONATION                          DIL:   ZONATION NAME
#ZONE                            RUN_1:   ZONE NAME
TOP .                       3732.0000:   TOP DEPTH
BOT .                       8303.5000:   BOTTOM DEPTH
RUN .                               1:   RUN NUMBER
LCCD.                              99:   LOGGING CONTRACTOR
DICO.          QC Data Collectors Ltd:   DIG COMPANY NAME
LDAT.                      08/26/1990:   DATE LOGGED
ELD .F                       101.0000:   LOG DATUM ELEVATION
TDD .F                      8311.0000:   TOTAL DEPTH DRILLER
TDL .F                      8306.0000:   TOTAL DEPTH LOGGER
BOTL.F                      8303.0000:   BOTTOM DEPTH LOGGED
TOPL.F                      3786.0000:   TOP DEPTH LOGGED
CS1 .IN                       10.7500:   CASING SIZE 1
BS1 .IN                        9.8750:   BIT SIZE 1
DDB1.F                      8311.0000:   DEPTH DRILLED BIT 1
BHF .                              99:   FLUID CODE
DPT .                   Miscellaneous:   DRILLING FLUID TYPE
MUDD.                         10.0000:   FLUID DENSITY
MUDV.                         43.0000:   FLUID VISCOSITY
DFPH.                          8.1000:   FLUID PH
FL  .                          3.2000:   FLUID LOSS
RM  .OHMM                       .8800:   RM
RMT .DEGF                     75.0000:   RM TEMP
RMF .OHMM                       .7000:   RMF
RMFT.DEGF                     75.0000:   RMF TEMP
FSC .                               C:   RMF CODE
RMC .OHMM                       .9600:   RMC
RMCT.DEGF                     75.0000:   RMC TEMP
CMC .                               C:   RMC CODE
TMAX.DEGF                    166.0000:   MAX REC TEMP
TIMC.                          6.0000:   TIME SINCE CIRCLN
~PARAMETER INFORMATION (zones)
#MNEM.UNIT                       Value     Description
#=========                       =====     ===========
#ZONATION                          FDC:   ZONATION NAME
#ZONE                            RUN_1:   ZONE NAME
TOP .                       5263.0000:   TOP DEPTH
BOT .                       8303.5000:   BOTTOM DEPTH
RUN .                               1:   RUN NUMBER
LCCD.                              99:   LOGGING CONTRACTOR
DICO.          QC Data Collectors Ltd:   DIG COMPANY NAME
LDAT.                      08/26/1990:   DATE LOGGED
ELD .F                       101.0000:   LOG DATUM ELEVATION
TDD .F                      8311.0000:   TOTAL DEPTH DRILLER
TDL .F                      8306.0000:   TOTAL DEPTH LOGGER
BOTL.F                      8303.0000:   BOTTOM DEPTH LOGGED
TOPL.F                      5257.0000:   TOP DEPTH LOGGED
CS1 .IN                       10.7500:   CASING SIZE 1
BS1 .IN                        9.8750:   BIT SIZE 1
DDB1.F                      8311.0000:   DEPTH DRILLED BIT 1
BHF .                              99:   FLUID CODE
DPT .                   Miscellaneous:   DRILLING FLUID TYPE
MUDD.                         10.0000:   FLUID DENSITY
MUDV.                         43.0000:   FLUID VISCOSITY
DFPH.                          8.1000:   FLUID PH
FL  .                          3.2000:   FLUID LOSS
RM  .OHMM                       .8800:   RM
RMT .DEGF                     75.0000:   RM TEMP
RMF .OHMM                       .7000:   RMF
RMFT.DEGF                     75.0000:   RMF TEMP
FSC .                               C:   RMF CODE
RMC .OHMM                       .9600:   RMC
RMCT.DEGF                     75.0000:   RMC TEMP
CMC .                               C:   RMC CODE
TMAX.DEGF                    166.0000:   MAX REC TEMP
TIMC.                         10.0000:   TIME SINCE CIRCLN
~Curve Information Block
#MNEM.UNIT                    API CODE    No Description
#=========                    ========    == ===========
DEPT.F                   00 001 00 00:     1  DEPTH
NPHI.%                               :     2  Neutron Porosity
CALI.IN                              :     3  Caliper
DT.US/F                              :     4  Sonic Transit Time
GR.GAPI                              :     5  Gamma Ray
ILD.OHMM                             :     6  Deep Induction Resistivity
ILM.OHMM                             :     7  Medium Induction Resistivity
RFOC.OHMM                            :     8  Medium Resistivity
SP.MV                                :     9  Spontaneous Potential
CALI.IN                              :    10  Caliper
DPHI.%                               :    11  Porosity
DRHO.G/C3                            :    12  Bulk Density Correction
GR.GAPI                              :    13  Gamma Ray
RHOB.G/C3                            :    14  Bulk Density
~ASCII
# ...
 5292.0000    36.1599  -999.2500   124.2592    46.6489      .3735      .3862      .7025   -84.0950    11.5557  -999.2500      .0036    59.3152     2.1515
 5292.5000    35.2100  -999.2500   125.1409    43.3871      .3667      .3891      .7072   -86.5654    11.5729  -999.2500      .0064    54.1562     2.1391
 5293.0000    34.8771  -999.2500   125.4272    44.5943      .3775      .3990      .7124   -86.5146    11.5881  -999.2500      .0111    54.0641     2.1388
 5293.5000    36.5940  -999.2500   124.5148    48.8026      .4007      .4151      .7137   -78.6978    11.5938  -999.2500      .0169    57.3694     2.1620
 5294.0000    38.4760  -999.2500   122.7035    55.3417      .4341      .4393      .7168   -70.8158    11.6118  -999.2500      .0248    61.7878     2.1894
 5294.5000    38.6559  -999.2500   120.7013    59.8590      .4676      .4706      .7218   -67.4731    11.6344  -999.2500      .0329    63.5079     2.2151
 5295.0000    37.3421  -999.2500   118.6978    60.4073      .5028      .5050      .7358   -66.1864    11.6574  -999.2500      .0394    64.5275     2.2274
 5295.5000    35.5560  -999.2500   116.7740    60.5024      .5390      .5432      .7555   -65.1122    11.6734  -999.2500      .0341    65.4498     2.2413
 5296.0000    34.6013  -999.2500   114.4880    62.1483      .5676      .5908      .7782   -64.3906    11.6796  -999.2500      .0251    66.8248     2.2655
 5296.5000    34.1871  -999.2500   113.0646    63.4666      .5935      .6182      .8064   -63.7544    11.6701  -999.2500      .0359    66.1399     2.2663
 5297.0000    33.9630  -999.2500   113.4752    62.6658      .6071      .6265      .8353   -63.1730    11.6514  -999.2500      .0479    64.8933     2.2587
 5297.5000    33.9916  -999.2500   114.7941    60.2618      .6150      .6349      .8557   -62.9304    11.6293  -999.2500      .0501    65.8636     2.2530
 5298.0000    34.1096  -999.2500   116.1353    59.3115      .6135      .6359      .8726   -62.0837    11.6207  -999.2500      .0445    71.4806     2.2524
 5298.5000    33.6179  -999.2500   116.8839    59.2913      .6107      .6290      .8670   -61.7944    11.6280  -999.2500      .0395    72.9037     2.2468
 5299.0000    32.8286  -999.2500   117.2233    60.7129      .6034      .6221      .8351   -62.9833    11.6546  -999.2500      .0389    72.0916     2.2381
 5299.5000    32.7646  -999.2500   117.2490    62.2982      .5954      .6127      .8488   -64.6715    11.7268  -999.2500      .0460    70.4194     2.2334
 5300.0000    34.7985  -999.2500   117.1392    63.1155      .5850      .6015      .8551   -65.8423    11.8487  -999.2500      .0551    69.1527     2.2345
 5300.5000    35.4098  -999.2500   119.2013    63.0222      .5746      .5904      .8248   -65.0913    12.0022  -999.2500      .0681    68.0845     2.2432
 5301.0000    35.6083  -999.2500   123.8256    62.2480      .5642      .5796      .8083   -68.3440    12.1541  -999.2500      .0459    65.9414     2.2343
 5301.5000    35.5206  -999.2500   130.3120    59.0598      .5603      .5704      .8498   -73.7855    12.2987  -999.2500      .0262    61.6943     2.2182
 5302.0000    34.6643  -999.2500   134.0732    54.4292      .5620      .5718      .9035   -80.5177    12.4112  -999.2500      .0174    60.4925     2.2040
 5302.5000    32.4147  -999.2500   135.6030    49.5222      .5789      .5783      .9296   -83.7195    12.4969  -999.2500      .0144    59.8063     2.2078
 5303.0000    30.6365  -999.2500   124.1080    45.9293      .6045      .6098      .9299   -84.4346    12.5518  -999.2500      .0136    59.4709     2.2522
 5303.5000    26.3893  -999.2500   112.8821    44.6477      .6376      .6486      .9741   -82.9034    12.5836  -999.2500      .0140    57.0555     2.3358
 5304.0000    25.1007  -999.2500    96.4983    45.9996      .6797      .6930     1.0498   -79.4878    12.6094  -999.2500      .0172    55.2925     2.4381
 5304.5000    23.4439  -999.2500    89.7920    48.0646      .7203      .7398     1.1231   -76.1061    12.6308  -999.2500      .0217    55.5234     2.4714
 5305.0000    23.1945  -999.2500    88.2443    49.7607      .7537      .7711     1.1488   -73.3501    12.6453  -999.2500      .0253    57.3240     2.4736
 5305.5000    24.9976  -999.2500    88.3561    50.6948      .7567      .7734     1.1369   -73.8638    12.6547  -999.2500      .0228    58.5275     2.4287
 5306.0000    26.5970  -999.2500    89.4480    51.0359      .7208      .7283     1.1007   -76.7814    12.6599  -999.2500      .0138    57.4550     2.3823
 5306.5000    28.2564  -999.2500    91.1272    51.1361      .6724      .6778     1.0418   -80.0640    12.6595  -999.2500      .0029    54.4351     2.3423
 5307.0000    29.0685  -999.2500    95.3998    50.8734      .6184      .6233      .9972   -83.3806    12.6559  -999.2500      .0035    52.8093     2.2973
 5307.5000    31.5126  -999.2500   102.9587    50.7802      .5767      .5732      .9714   -85.8380    12.6503  -999.2500      .0111    53.1807     2.2568
 5308.0000    32.3932  -999.2500   108.9745    51.0043      .5313      .5281      .9511   -86.5309    12.6514  -999.2500      .0126    55.8932     2.2333
 5308.5000    32.5948  -999.2500   112.3381    50.6761      .4862      .4973      .9286   -86.6545    12.6828  -999.2500      .0096    58.4928     2.2175
 5309.0000    32.6099  -999.2500   113.5144    51.1882      .4606      .4793      .9043   -86.7920    12.7245  -999.2500      .0049    59.2967     2.2032
 5309.5000    32.6576  -999.2500   114.4200    53.0408      .4422      .4664      .8792   -87.0121    12.7633  -999.2500      .0020    59.4449     2.1918
 5310.0000    32.7349  -999.2500   116.1110    55.2244      .4297      .4628      .8643   -87.2208    12.7968  -999.2500      .0049    60.9705     2.1865
 5310.5000    32.8658  -999.2500   117.7249    56.8879      .4284      .4625      .8711   -87.1788    12.8156  -999.2500      .0130    63.2264     2.1866
 5311.0000    33.0207  -999.2500   118.2108    58.0992      .4336      .4689      .8825   -87.0328    12.8329  -999.2500      .0205    63.9765     2.1873
 5311.5000    33.1548  -999.2500   117.7850    58.1114      .4415      .4854      .8945   -86.7629    12.8552  -999.2500      .0196    62.5233     2.1873
 5312.0000    33.3568  -999.2500   116.6498    57.0079      .4624      .5138      .8896   -86.2793    12.8713  -999.2500      .0125    60.9432     2.1857
 5312.5000    30.9864  -999.2500   114.6816    53.4749      .4881      .5438      .8847   -85.5583    12.8822  -999.2500      .0097    60.0404     2.1965
 5313.0000    29.1259  -999.2500   110.9623    49.4778      .5256      .5756      .8907   -84.9541    12.8947  -999.2500      .0064    61.0963     2.2234
 5313.5000    26.5447  -999.2500   103.3615    47.4402      .5639      .6091      .9206   -84.4000    12.9117  -999.2500      .0085    62.3054     2.2707
 5314.0000    25.5133  -999.2500    95.3840    47.0515      .6013      .6447      .9706   -83.7072    12.9158  -999.2500      .0105    63.0284     2.3072
 5314.5000    25.6928  -999.2500    91.9348    46.9505      .6372      .6771     1.0319   -83.4330    12.8999  -999.2500      .0132    61.3467     2.3145
 5315.0000    26.4821  -999.2500    94.5157    47.2420      .6718      .7007     1.0571   -83.6791    12.8743  -999.2500      .0172    59.0610     2.3049
 5315.5000    26.8900  -999.2500   100.9971    48.5248      .6927      .7108     1.0834   -83.2612    12.8530  -999.2500      .0236    58.8444     2.2965
 5316.0000    26.3065  -999.2500   102.8489    50.2574      .7099      .7210     1.1091   -82.3148    12.8462  -999.2500      .0309    58.9429     2.3018
 5316.5000    25.7927  -999.2500   104.5986    51.1498      .7146      .7226     1.1185   -81.8672    12.8911  -999.2500      .0400    55.6804     2.3287
 5317.0000    26.1132  -999.2500   108.2683    50.4817      .7148      .7159     1.0933   -82.3474    12.9532  -999.2500      .0275    54.1263     2.3367
 5317.5000    26.6772  -999.2500   114.5404    48.1168      .7068      .7093     1.0612   -83.0256    13.0314  -999.2500      .0174    54.1705     2.3308
