~VERSION INFORMATION
VERS.                             2.0:   CWLS Log ASCII Standard-VERSION 2.0
WRAP.                              NO:   One line per depth step
~Well Information Block
STRT.F                      4470.0000:   Top Depth
STOP.F                     11800.5000:   Bottom Depth
STEP.F                         .50000:   Depth Increment
NULL.                        -999.250:   Null Value
FLD .                      GA BLK 315:   Field Name
WELL.       OCSG14835   001 ST00 BP00:   NAME
API .                  42706403880000:   WELL API
LOC .       993' FSL & 3018' FEL OF B:   AREA NAME
CTRY.                             USA:   COUNTRY
EGL .FT                      -66.0000:   GROUND LEVEL
EKB .FT                        0.0000:   KB ELEVATION
COMP.              APACHE CORPORATION:   OPERATOR
DREF.                             MSL:   PERM DATUM
COUN.                        OFFSHORE:   RIG NAME
STAT.                              TX:   STATE
CNTY.                        OFFSHORE:   COUNTY
DIGS.                   QC Data, Inc.:   DIG COMPANY NAME
EREF.FT                        0.0000:   ELEV DEPTH REFERENCE
UWI .                  42706403880000:   WELL API
DICO.               IHS : Digitizing Company
~PARAMETER INFORMATION (zones)
#MNEM.UNIT                       Value     Description
#=========                       =====     ===========
#ZONATION                        ZONES:   ZONATION NAME
#ZONE                             LAS1:   ZONE NAME
TOP .                       4470.0000:   TOP DEPTH
BOT .                      11816.0000:   BOTTOM DEPTH
SRVC.                   WESTERN ATLAS:   LOGGING CONTRACTOR
DATE.                         10AUG96:   RUN DATE
RW  .OHMM                      0.0000:   RW
RWT .DEGF                      0.0000:   RW TEMP
RUN .                               1:   LOG RUN
TDL .FT                     9298.0000:   FINAL TD LOGGER
TDD .FT                     9300.0000:   FINAL TD DRILLER
BOTL.FT                     9296.0000:   BOTTOM DEPTH LOGGED
TOPL.FT                     4478.0000:   TOP DEPTH LOGGED
CSGL.FT                     4494.0000:   CASING DEPTH LOGGER
CSGD.FT                     4488.0000:   CASING DEPTH DRILLER
CSGS.IN                       13.3750:   CASING SIZE
CSGW.                          0.0000:   CASING WEIGHT
BS  .IN                       12.2500:   BIT SIZE
MUD .                             MUD:   MUD TYPE
MUDD.                         14.2000:   MUD WEIGHT
MUDV.                         41.0000:   MUD VISCOSITY
FL  .                          4.4000:   FLUID LOSS
PH  .                          8.5000:   MUD PH
MUDS.                             PIT:   MUD SOURCE
RM  .OHMM                      1.3000:   RM
RMT .DEGF                     80.0000:   RM TEMP
RMF .OHMM                      0.5400:   RMF
RMFT.DEGF                     80.0000:   RMF TEMP
RMC .OHMM                      2.5000:   RMC
RMCT.DEGF                     80.0000:   RMC TEMP
MMFS.                            MEAS:   RMF SOURCE
MCFS.                            MEAS:   RMC SOURCE
RMBH.OHMM                      0.5500:   RM BH
BHT .DEGF                    182.0000:   BH TEMP
TMAX.DEGF                    182.0000:   MAX REC TEMP
SON .                          180318:   SERVICE ORDER NUM
ELMF.FT                       92.0000:   ABOVE PERM DATUM
LMF .                              DF:   LOGS MEAS FROM
DMF .                              DF:   DRILL MEAS FROM
TIMC.                            0600:   TIME SINCE CIRCLN
UNIT.8940                        8079:   UNIT NO.
BASE.                        PEARLAND:   LOG UNIT HOME BASE
ENG .                          SUTTON:   ENGINEER
WIT .                            DILL:   WITNESS
~PARAMETER INFORMATION (zones)
#MNEM.UNIT                       Value     Description
#=========                       =====     ===========
#ZONATION                        ZONES:   ZONATION NAME
#ZONE                             LAS2:   ZONE NAME
TOP .                       4470.0000:   TOP DEPTH
BOT .                      11816.0000:   BOTTOM DEPTH
SRVC.                   WESTERN ATLAS:   LOGGING CONTRACTOR
DATE.                         21AUG96:   RUN DATE
RW  .OHMM                      0.0000:   RW
RWT .DEGF                      0.0000:   RW TEMP
RUN .                               2:   LOG RUN
TDL .FT                    11503.0000:   FINAL TD LOGGER
TDD .FT                    11500.0000:   FINAL TD DRILLER
BOTL.FT                    11495.0000:   BOTTOM DEPTH LOGGED
TOPL.FT                     9240.0000:   TOP DEPTH LOGGED
CSGL.FT                     9240.0000:   CASING DEPTH LOGGER
CSGD.FT                     9250.0000:   CASING DEPTH DRILLER
CSGS.IN                        9.6250:   CASING SIZE
CSGW.                          0.0000:   CASING WEIGHT
BS  .IN                        8.5000:   BIT SIZE
MUD .                     DESCO LO-PH:   MUD TYPE
MUDD.                         16.4000:   MUD WEIGHT
MUDV.                         50.0000:   MUD VISCOSITY
FL  .                          2.8000:   FLUID LOSS
PH  .                          8.5000:   MUD PH
MUDS.                             PIT:   MUD SOURCE
RM  .OHMM                      1.0000:   RM
RMT .DEGF                     80.0000:   RM TEMP
RMF .OHMM                      0.4500:   RMF
RMFT.DEGF                     80.0000:   RMF TEMP
RMC .OHMM                      3.0000:   RMC
RMCT.DEGF                     80.0000:   RMC TEMP
MMFS.                            MEAS:   RMF SOURCE
MCFS.                            MEAS:   RMC SOURCE
RMBH.OHMM                      0.3870:   RM BH
BHT .DEGF                    230.0000:   BH TEMP
TMAX.DEGF                    230.0000:   MAX REC TEMP
SON .                          180319:   SERVICE ORDER NUM
ELMF.FT                       92.0000:   ABOVE PERM DATUM
LMF .                              DF:   LOGS MEAS FROM
DMF .                              DF:   DRILL MEAS FROM
TIMC.                            0700:   TIME SINCE CIRCLN
UNIT.8940                        8089:   UNIT NO.
BASE.                        PEARLAND:   LOG UNIT HOME BASE
ENG .                    SUTTON/DAVIS:   ENGINEER
WIT .                      MR.CAMBELL:   WITNESS
~PARAMETER INFORMATION (zones)
#MNEM.UNIT                       Value     Description
#=========                       =====     ===========
#ZONATION                        ZONES:   ZONATION NAME
#ZONE                             LAS3:   ZONE NAME
TOP .                       4470.0000:   TOP DEPTH
BOT .                      11816.0000:   BOTTOM DEPTH
SRVC.                   WESTERN ATLAS:   LOGGING CONTRACTOR
DATE.                         23AUG96:   RUN DATE
RW  .OHMM                      0.0000:   RW
RWT .DEGF                      0.0000:   RW TEMP
RUN .                               3:   LOG RUN
TDL .FT                    11800.0000:   FINAL TD LOGGER
TDD .FT                    11800.0000:   FINAL TD DRILLER
BOTL.FT                    11791.0000:   BOTTOM DEPTH LOGGED
TOPL.FT                     9240.0000:   TOP DEPTH LOGGED
CSGL.FT                     9240.0000:   CASING DEPTH LOGGER
CSGD.FT                     9250.0000:   CASING DEPTH DRILLER
CSGS.IN                        9.6250:   CASING SIZE
CSGW.                          0.0000:   CASING WEIGHT
BS  .IN                        8.5000:   BIT SIZE
MUD .                     DESCO LO-PH:   MUD TYPE
MUDD.                         16.4000:   MUD WEIGHT
MUDV.                         50.0000:   MUD VISCOSITY
FL  .                          2.8000:   FLUID LOSS
PH  .                          8.5000:   MUD PH
MUDS.                             PIT:   MUD SOURCE
RM  .OHMM                      1.0000:   RM
RMT .DEGF                     80.0000:   RM TEMP
RMF .OHMM                      0.4500:   RMF
RMFT.DEGF                     80.0000:   RMF TEMP
RMC .OHMM                      3.0000:   RMC
RMCT.DEGF                     80.0000:   RMC TEMP
MMFS.                            MEAS:   RMF SOURCE
MCFS.                            MEAS:   RMC SOURCE
RMBH.OHMM                      0.3870:   RM BH
BHT .DEGF                    232.0000:   BH TEMP
TMAX.DEGF                    232.0000:   MAX REC TEMP
SON .                          180319:   SERVICE ORDER NUM
ELMF.FT                       92.0000:   ABOVE PERM DATUM
LMF .                              DF:   LOGS MEAS FROM
DMF .                              DF:   DRILL MEAS FROM
TIMC.                            0700:   TIME SINCE CIRCLN
UNIT.8940                        8089:   UNIT NO.
BASE.                        PEARLAND:   LOG UNIT HOME BASE
ENG .                    SUTTON/DAVIS:   ENGINEER
WIT .                      BOB SHELBY:   WITNESS
~Curve Information Block
#MNEM.UNIT                    API CODE    No Description
#=========                    ========    == ===========
DEPT.F                   00 001 00 00:     1  DEPTH
CALX.IN                              :     2  Caliper
CNCF.%                               :     3  Field Normalized CNC
DT.US/F                              :     4  Sonic Transit Time
GR.GAPI                              :     5  Gamma Ray
M2R1.OHMM                            :     6  Array Resistivity Curve
M2R2.OHMM                            :     7  Array Resistivity Curve
M2R3.OHMM                            :     8  Array Resistivity Curve
M2R6.OHMM                            :     9  Array Resistivity Curve
M2R9.OHMM                            :    10  Array Resistivity Curve
M2RX.OHMM                            :    11  Array Resistivity Curve
PORZ.%                               :    12  PORZ
RFOC.OHMM                            :    13  Medium Resistivity
RILD.OHMM                            :    14  Deep Resistivity
RILM.OHMM                            :    15  Medium Resistivity
RWAA.OHMM                            :    16  RWAA
RWAZ.OHMM                            :    17  RWAZ
SP.MV                                :    18  Spontaneous Potential
TEN.LB                               :    19  TEN
ZCOR.G/CC                            :    20  Density Correction
~ASCII
# ...
11426.0000     9.4680    36.4520   118.4240    59.2000      .5900      .5470      .5240      .5200      .5180      .5180    16.6390  -999.2500  -999.2500  -999.2500      .0980      .0180    -1.8360   -26.8570      .0100
11426.5000     9.5010    36.0150   118.6130    58.6760      .5880      .5460      .5250      .5230      .5210      .5200    17.0820  -999.2500  -999.2500  -999.2500      .1000      .0190    -1.9810   -21.7790     -.0080
11427.0000     9.5020    35.2290   119.4500    60.1330      .5760      .5370      .5160      .5130      .5110      .5100    17.3380  -999.2500  -999.2500  -999.2500      .1000      .0190    -2.2540   -10.6600     -.0410
11427.5000     9.4680    33.3290   121.1780    61.2560      .5740      .5350      .5120      .5070      .5040      .5020    16.4880  -999.2500  -999.2500  -999.2500      .1050      .0170    -2.3580    -1.5070     -.0630
11428.0000     9.4190    31.1540   118.1410    60.4860      .6060      .5620      .5350      .5280      .5250      .5240    15.1690  -999.2500  -999.2500  -999.2500      .0990      .0150    -2.3260    -1.2050     -.0510
11428.5000     9.3730    30.5060   109.8260    58.5050      .6860      .6340      .6020      .5960      .5940      .5960    14.2830  -999.2500  -999.2500  -999.2500      .0830      .0150    -2.5420    -7.3360     -.0360
11429.0000     9.3530    31.0910   106.1620    56.5000      .7660      .7130      .6810      .6780      .6790      .6860    14.4760  -999.2500  -999.2500  -999.2500      .0820      .0170    -2.9990   -14.5430     -.0350
11429.5000     9.4000    29.5260   107.3020    55.7850      .7390      .6930      .6660      .6640      .6650      .6720    15.9730  -999.2500  -999.2500  -999.2500      .0840      .0210    -3.3000   -19.7450     -.0250
11430.0000     9.4950    30.9600   112.1550    56.9660      .6340      .5950      .5730      .5690      .5670      .5700    17.8180  -999.2500  -999.2500  -999.2500      .0860      .0230    -3.3920   -22.8500     -.0040
11430.5000     9.5900    33.6720   120.1940    58.7990      .5610      .5280      .5100      .5050      .5020      .5020    19.0050  -999.2500  -999.2500  -999.2500      .1010      .0230    -3.2980   -24.8440      .0100
11431.0000     9.6570    33.9310   123.6060    60.4450      .5380      .5080      .4910      .4870      .4830      .4820    19.5430  -999.2500  -999.2500  -999.2500      .1090      .0230    -2.8220   -26.8620      .0030
11431.5000     9.7140    33.8160   122.6460    61.3870      .5380      .5040      .4880      .4840      .4800      .4790    19.8580  -999.2500  -999.2500  -999.2500      .1050      .0240    -2.0770   -28.5230     -.0200
11432.0000     9.7730    34.7400   122.1850    61.6980      .5380      .5010      .4830      .4780      .4750      .4740    19.9150  -999.2500  -999.2500  -999.2500      .1020      .0240    -1.3890   -27.7440     -.0370
11432.5000     9.7980    35.6700   122.9400    61.5140      .5390      .5010      .4830      .4770      .4740      .4730    19.6520  -999.2500  -999.2500  -999.2500      .1040      .0230     -.9310   -23.3030     -.0310
11433.0000     9.7530    35.6130   123.1900    60.8400      .5440      .5070      .4890      .4840      .4810      .4800    19.4370  -999.2500  -999.2500  -999.2500      .1070      .0230     -.7500   -16.6920     -.0090
11433.5000     9.6680    35.8190   122.6880    61.1580      .5520      .5140      .4960      .4910      .4880      .4880    19.3850  -999.2500  -999.2500  -999.2500      .1070      .0230     -.8900   -10.0320      .0010
11434.0000     9.6080    35.7140   122.0020    62.5390      .5590      .5190      .5000      .4960      .4930      .4930    19.0890  -999.2500  -999.2500  -999.2500      .1060      .0230    -1.2060    -1.2430      .0000
11434.5000     9.5930    34.6720   121.2270    62.5930      .5680      .5250      .5060      .5020      .5000      .5000    18.3110  -999.2500  -999.2500  -999.2500      .1040      .0210    -1.4220     5.9890      .0040
11435.0000     9.5980    34.0900   120.7970    60.6680      .5730      .5290      .5100      .5060      .5030      .5040    17.4740  -999.2500  -999.2500  -999.2500      .1040      .0190    -1.3290      .5540      .0140
11435.5000     9.6030    34.1040   121.0860    58.8700      .5690      .5250      .5070      .5020      .4990      .4990    17.1210  -999.2500  -999.2500  -999.2500      .1040      .0180    -1.0960   -15.2730      .0160
11436.0000     9.6160    34.5080   121.9050    58.2580      .5610      .5190      .5000      .4940      .4900      .4890    17.1160  -999.2500  -999.2500  -999.2500      .1040      .0180    -1.0850   -25.3570      .0100
11436.5000     9.6400    34.4940   122.8200    58.7270      .5540      .5160      .4950      .4890      .4850      .4830    17.1230  -999.2500  -999.2500  -999.2500      .1060      .0180    -1.4180   -24.7810      .0050
11437.0000     9.6280    33.9030   122.6860    59.9680      .5580      .5220      .5010      .4940      .4900      .4890    17.0060  -999.2500  -999.2500  -999.2500      .1070      .0170    -1.8560   -22.9310      .0050
11437.5000     9.5730    33.4110   120.8170    60.7830      .5730      .5390      .5190      .5120      .5100      .5100    16.8930  -999.2500  -999.2500  -999.2500      .1050      .0180    -2.2440   -21.8910      .0090
11438.0000     9.5360    33.8170   119.4330    59.7710      .5900      .5560      .5390      .5340      .5320      .5340    17.0050  -999.2500  -999.2500  -999.2500      .1050      .0190    -2.8960   -18.8100      .0090
11438.5000     9.5480    34.8410   119.6110    59.2780      .5850      .5510      .5360      .5320      .5310      .5330    17.3880  -999.2500  -999.2500  -999.2500      .1050      .0200    -3.8630   -14.4250      .0030
11439.0000     9.5870    35.7070   121.3910    61.3080      .5570      .5220      .5090      .5050      .5040      .5040    17.9030  -999.2500  -999.2500  -999.2500      .1060      .0200    -4.1530   -11.6930      .0020
11439.5000     9.6160    35.8060   123.8230    63.5160      .5310      .4980      .4840      .4810      .4790      .4780    18.4050  -999.2500  -999.2500  -999.2500      .1090      .0200    -3.2870   -11.8210      .0080
11440.0000     9.5970    35.3730   124.7960    64.5920      .5260      .4930      .4780      .4750      .4730      .4720    18.6810  -999.2500  -999.2500  -999.2500      .1110      .0210    -2.2280   -15.0990      .0120
11440.5000     9.5530    34.5440   124.0640    65.6030      .5400      .5040      .4870      .4850      .4830      .4830    18.5040  -999.2500  -999.2500  -999.2500      .1100      .0210    -1.7800   -20.8930      .0100
11441.0000     9.5270    33.8260   122.4700    66.7570      .5600      .5210      .5020      .5000      .4980      .4980    18.1170  -999.2500  -999.2500  -999.2500      .1080      .0200    -1.6010   -25.6880      .0020
11441.5000     9.5140    33.8420   121.6960    67.1260      .5770      .5370      .5170      .5140      .5130      .5130    18.0350  -999.2500  -999.2500  -999.2500      .1090      .0210    -1.5520   -25.9700     -.0040
11442.0000     9.5160    33.9660   120.9820    65.8340      .5930      .5540      .5330      .5290      .5270      .5280    18.1630  -999.2500  -999.2500  -999.2500      .1090      .0220    -1.8520   -21.7790      .0000
11442.5000     9.5190    33.6760   119.0750    62.7560      .6110      .5750      .5540      .5490      .5470      .5490    17.9530  -999.2500  -999.2500  -999.2500      .1070      .0220    -2.3890   -16.5520      .0070
11443.0000     9.4880    33.3670   118.0250    59.5660      .6300      .5960      .5770      .5720      .5700      .5720    17.3900  -999.2500  -999.2500  -999.2500      .1070      .0210    -2.9550   -13.9570      .0060
11443.5000     9.4360    33.3160   118.2000    57.7740      .6310      .5990      .5820      .5780      .5760      .5780    16.9670  -999.2500  -999.2500  -999.2500      .1090      .0210    -3.0370   -14.8480      .0030
11444.0000     9.4070    33.3950   118.3120    57.6310      .6120      .5820      .5660      .5630      .5610      .5620    16.9170  -999.2500  -999.2500  -999.2500      .1060      .0200    -2.2050   -16.9880      .0010
