~VERSION INFORMATION
VERS.                             2.0:   CWLS Log ASCII Standard-VERSION 2.0
WRAP.                              NO:   One line per depth step
~Well Information Block
STRT.F                      3877.0000:   Top Depth
STOP.F                     10380.0000:   Bottom Depth
STEP.F                         .50000:   Depth Increment
NULL.                        -999.250:   Null Value
FLD .                      GA BLK 321:   Field Name
WELL.       OCSG11316   001 ST01 BP00:   NAME
API .                  42706402670100:   WELL API
EDF .F                        90.0000:   ELEV DRILL FLOOR
COMP.              SHELL OFFSHORE INC:   OPERATOR
BN  .                             321:   BLOCK
CTRY.                             USA:   COUNTRY NAME
CNTY.                        GLVSTN L:   COUNTY NAME
EKB .F                        91.0000:   ELEV KELLY BUSHING
TDD .F                      10395.000:   FINAL TD DRILLER
STAT.                           TEXAS:   STATE NAME
UWI .                  42706402670100:   WELL API
DICO.               IHS : Digitizing Company
~PARAMETER INFORMATION (zones)
#MNEM.UNIT                       Value     Description
#=========                       =====     ===========
#ZONATION                          DIL:   ZONATION NAME
#ZONE                            RUN_1:   ZONE NAME
TOP .                       3877.0000:   TOP DEPTH
BOT .                      10380.5000:   BOTTOM DEPTH
RUN .                               1:   RUN NUMBER
LCCD.                             280:   LOGGING CONTRACTOR
SRVC.                     Halliburton:   LOGGING CONT NAME
DICO.          QC Data Collectors Ltd:   DIG COMPANY NAME
LDAT.                      06/13/1990:   DATE LOGGED
ELD .F                        91.0000:   LOG DATUM ELEVATION
TDD .F                     10395.0000:   TOTAL DEPTH DRILLER
TDL .F                     10390.0000:   TOTAL DEPTH LOGGER
BOTL.F                     10380.0000:   BOTTOM DEPTH LOGGED
TOPL.F                      3954.0000:   TOP DEPTH LOGGED
CS1 .IN                       13.3750:   CASING SIZE 1
BS1 .IN                       12.2500:   BIT SIZE 1
DDB1.F                     10395.0000:   DEPTH DRILLED BIT 1
BHF .                              99:   FLUID CODE
DPT .                   Miscellaneous:   DRILLING FLUID TYPE
MUDD.                         13.4000:   FLUID DENSITY
MUDV.                         68.0000:   FLUID VISCOSITY
DFPH.                          9.0000:   FLUID PH
FL  .                          2.1000:   FLUID LOSS
RM  .OHMM                       .0700:   RM
RMT .DEGF                     77.0000:   RM TEMP
RMF .OHMM                       .0400:   RMF
RMFT.DEGF                     73.0000:   RMF TEMP
FSC .                               M:   RMF CODE
RMC .OHMM                       .1000:   RMC
RMCT.DEGF                     74.0000:   RMC TEMP
CMC .                               M:   RMC CODE
TMAX.DEGF                    209.0000:   MAX REC TEMP
TIMC.                         13.0000:   TIME SINCE CIRCLN
~Curve Information Block
#MNEM.UNIT                    API CODE    No Description
#=========                    ========    == ===========
DEPT.F                   00 001 00 00:     1  DEPTH
CALI.IN                              :     2  Caliper
DT.US/F                              :     3  Sonic Transit Time
GR.GAPI                              :     4  Gamma Ray
ILD.OHMM                             :     5  Deep Induction Resistivity
ILM.OHMM                             :     6  Medium Induction Resistivity
SFL.OHMM                             :     7  Medium Resistivity
SP.MV                                :     8  Spontaneous Potential
~ASCII
# ...
 5651.5000    12.8930   108.2845    43.3427      .5094      .4059      .2978   -46.8445
 5652.0000    12.9404   109.1284    44.9633      .5308      .4332      .3637   -47.1877
 5652.5000    12.9877   109.9849    45.1605      .5338      .4544      .4088   -47.4925
 5653.0000    13.0106   111.0408    43.6999      .5357      .4812      .4677   -47.7032
 5653.5000    13.0261   112.0967    40.2697      .5446      .5096      .5583   -47.7992
 5654.0000    13.0314   112.2051    37.5977      .5502      .5675      .6807   -48.1622
 5654.5000    13.0766   111.4918    36.1131      .4938      .5670      .6030   -48.8458
 5655.0000    13.1048   110.8313    34.7897      .4282      .4110      .3389   -49.6074
 5655.5000    13.1273   110.1709    36.8340      .3528      .3231      .2505   -50.2991
 5656.0000    13.1796   109.5105    38.9476      .3885      .2894  -999.2500   -51.3166
 5656.5000    13.2361   109.1797    39.2875      .4373      .3176      .2157   -52.1381
 5657.0000    13.3039   109.3792    38.4459      .4414      .3595      .2505   -52.7305
 5657.5000    13.3574   109.6056    37.5164      .4121      .3479      .2675   -53.8473
 5658.0000    13.3854   109.9916    37.1552      .4064      .3179      .2341   -54.7162
 5658.5000    13.4306   110.7269    38.2307      .4088      .3304      .2138   -54.7458
 5659.0000    13.4805   111.5178    40.3816      .4559      .3813      .2989   -54.4910
 5659.5000    13.5327   112.0428    42.6684      .5432      .4411      .4061   -54.2364
 5660.0000    13.5802   112.3022    43.2454      .6107      .5073      .5239   -53.3055
 5660.5000    13.5982   112.0721    41.3451      .4807      .4765      .3673   -52.6193
 5661.0000    13.6190   112.1760    40.8960      .3935      .3718      .2525   -52.0215
 5661.5000    13.6541   112.5433    46.6744      .4001      .3235  -999.2500   -51.3179
 5662.0000    13.7398   113.9569    51.1894      .4538      .3883  -999.2500   -50.3198
 5662.5000    13.8770   115.4357    52.5580      .5535      .4709      .2432   -48.7698
 5663.0000    14.0263   116.8088    54.0853      .6699      .5854      .3963   -46.6683
 5663.5000    14.1629   117.6639    55.2540      .7203      .6092      .4929   -44.6973
 5664.0000    14.2636   116.6642    56.3174      .7070      .5949      .5829   -42.8329
 5664.5000    14.2659   115.7207    57.5768      .6902      .5901      .5550   -40.8686
 5665.0000    14.2596   114.7766    55.9443      .7005      .5967      .5490   -39.7425
 5665.5000    14.2559   114.2285    53.9533      .7269      .6377      .5471   -38.5691
 5666.0000    14.2522   116.3082    52.9019      .7454      .6692      .5247   -37.7235
 5666.5000    14.2438   118.3853    54.8262      .7465      .6404      .4366   -36.5921
 5667.0000    14.2254   116.0059    56.7319      .7086      .6229      .4100   -35.8845
 5667.5000    14.2057   113.4470    58.5004      .7005      .6174      .4278   -35.5673
 5668.0000    14.1763   110.6232    57.4689      .7069      .6130      .5055   -35.4130
 5668.5000    14.1414   109.2635    56.3721      .6955      .6155      .5318   -35.7925
 5669.0000    14.0922   109.2407    55.2820      .6428      .5965      .4683   -36.0770
 5669.5000    14.0445   110.3354    55.7391      .5831      .5580      .4024   -36.3612
 5670.0000    14.0198   111.4288    58.1699      .6132      .5837      .3095   -36.3922
 5670.5000    13.9951   112.5236    60.3820      .6821      .6271      .3597   -36.0823
 5671.0000    13.9747   113.1586    59.8849      .7132      .6482      .4207   -35.4480
 5671.5000    13.9547   113.3748    58.7029      .7449      .6598      .4599   -34.8889
 5672.0000    13.9560   110.1949    57.1277      .7730      .6741      .4724   -34.3299
 5672.5000    13.9694   107.8248    55.1021      .7888      .6930      .4683   -33.7855
 5673.0000    13.9843   109.0173    53.4043      .7978      .7045      .4939   -33.2844
 5673.5000    14.0032   110.0143    52.4941      .8206      .7105      .5606   -32.7827
 5674.0000    14.0152   111.0100    51.6912      .8205      .7065      .6439   -32.6940
 5674.5000    13.9827   109.9072    50.7856      .7968      .6994      .6035   -32.7175
 5675.0000    13.9487   108.5436    49.7941      .7689      .6914      .5657   -32.8893
 5675.5000    13.9003   107.1812    48.8353      .7419      .6705      .5121   -33.1158
 5676.0000    13.8519   105.6475    48.3124      .7225      .6472      .4796   -33.5153
 5676.5000    13.7702   104.2671    50.2379      .7117      .6247      .4240   -33.9148
 5677.0000    13.6541   104.8813    53.2630      .7010      .6169      .4096   -34.1973
 5677.5000    13.5381   105.4949    56.0269      .6927      .6126      .4163   -34.4391
 5678.0000    13.4220   106.1091    57.9059      .6849      .6164      .4217   -34.2413
 5678.5000    13.3243   107.0112    59.2626      .6886      .6199      .4218   -34.0434
 5679.0000    13.2363   108.0403    56.9998      .6993      .6177      .4229   -33.9803
 5679.5000    13.1648   108.9119    54.7343      .7048      .6219      .4238   -33.9821
 5680.0000    13.0992   108.3990    52.7539      .7029      .6302      .4310   -34.4265
 5680.5000    13.0663   107.6877    51.3886      .7011      .6220      .4669   -34.9583
 5681.0000    13.0333   107.1039    50.9122      .7199      .6098      .4971   -35.4919
 5681.5000    13.0004   106.8335    50.4105      .7396      .5951      .4561   -36.0483
 5682.0000    12.9853   107.2042    50.1258      .7283      .5796      .3763   -36.7513
 5682.5000    12.9761   107.6910    49.9727      .6770      .6033      .3185   -37.4303
 5683.0000    12.9669   108.1782    49.8195      .6285      .6315      .3831   -38.0940
 5683.5000    12.9572   108.6649    50.3638      .5839      .5390      .4583   -38.5957
 5684.0000    12.9473   109.1521    50.9055      .5474      .4673      .4211   -39.2414
 5684.5000    12.9290   109.4105    51.0746      .5348      .4361      .2764   -39.4086
 5685.0000    12.8974   109.4534    50.2139      .5404      .4359      .3210   -39.5972
 5685.5000    12.8659   108.9812    49.3223      .5521      .4777      .4061   -39.8864
 5686.0000    12.8445   108.2036    46.6904      .5603      .5360      .5822   -40.2499
 5686.5000    12.8337   107.7393    43.8105      .5669      .5231      .4971   -40.7413
 5687.0000    12.8229   108.5746    42.0541      .5664      .4934      .3730   -41.1871
 5687.5000    12.8267   108.9668    40.7227      .5232      .4824      .3948   -42.1693
 5688.0000    12.8314   109.3593    40.3163      .4448      .4279      .4195   -43.2480
 5688.5000    12.8409   109.2876    42.1087      .4114      .3362      .2556   -43.7056
 5689.0000    12.8527   108.6265    43.7932      .4459      .3560      .2234   -43.9170
 5689.5000    12.8736   107.4568    45.2804      .5401      .4194      .2589   -44.2835
 5690.0000    12.9059   106.5896    46.7690      .6410      .4814      .3514   -44.7493
 5690.5000    12.9570   107.9426    47.8265      .6150      .5343      .4015   -44.7866
 5691.0000    13.0039   109.3987    48.7273      .5524      .4895      .3436   -45.2023
 5691.5000    13.0015   110.8761    50.0607      .5183      .4467      .2941   -45.7128
 5692.0000    12.9924   108.0430    51.7971      .5038      .4153      .2877   -46.4257
 5692.5000    12.9606   101.1776    52.0729      .5003      .3927      .3739   -47.1553
 5693.0000    12.9149    97.5562    49.1957      .5145      .4055      .2860   -48.0396
 5693.5000    12.8692    93.2898    45.2724      .6405      .4380      .2492   -48.6574
 5694.0000    12.8235    87.8188    42.4445      .8420      .4731      .3990   -48.8005
 5694.5000    12.7868    93.1613    40.3949      .9146      .5067      .4921   -48.4807
 5695.0000    12.7507    99.7617    38.8464      .5279      .4673      .3837   -47.9123
 5695.5000    12.7608   104.3680    41.6503      .4887      .4159      .2648   -47.3449
 5696.0000    12.7711   110.3583    43.7346      .4714      .3593      .2353   -46.9478
 5696.5000    12.7766   111.8223    45.7368      .4868      .3830      .2799   -46.7775
