~VERSION INFORMATION
VERS.                             2.0:   CWLS Log ASCII Standard-VERSION 2.0
WRAP.                              NO:   One line per depth step
~Well Information Block
STRT.F                      4470.0000:   Top Depth
STOP.F                     11800.5000:   Bottom Depth
STEP.F                         .50000:   Depth Increment
NULL.                        -999.250:   Null Value
FLD .                      GA BLK 315:   Field Name
WELL.       OCSG14835   001 ST00 BP00:   NAME
API .                  42706403880000:   WELL API
LOC .       993' FSL & 3018' FEL OF B:   AREA NAME
CTRY.                             USA:   COUNTRY
EGL .FT                      -66.0000:   GROUND LEVEL
EKB .FT                        0.0000:   KB ELEVATION
COMP.              APACHE CORPORATION:   OPERATOR
DREF.                             MSL:   PERM DATUM
COUN.                        OFFSHORE:   RIG NAME
STAT.                              TX:   STATE
CNTY.                        OFFSHORE:   COUNTY
DIGS.                   QC Data, Inc.:   DIG COMPANY NAME
EREF.FT                        0.0000:   ELEV DEPTH REFERENCE
UWI .                  42706403880000:   WELL API
DICO.               IHS : Digitizing Company
~PARAMETER INFORMATION (zones)
#MNEM.UNIT                       Value     Description
#=========                       =====     ===========
#ZONATION                        ZONES:   ZONATION NAME
#ZONE                             LAS1:   ZONE NAME
TOP .                       4470.0000:   TOP DEPTH
BOT .                      11816.0000:   BOTTOM DEPTH
SRVC.                   WESTERN ATLAS:   LOGGING CONTRACTOR
DATE.                         10AUG96:   RUN DATE
RW  .OHMM                      0.0000:   RW
RWT .DEGF                      0.0000:   RW TEMP
RUN .                               1:   LOG RUN
TDL .FT                     9298.0000:   FINAL TD LOGGER
TDD .FT                     9300.0000:   FINAL TD DRILLER
BOTL.FT                     9296.0000:   BOTTOM DEPTH LOGGED
TOPL.FT                     4478.0000:   TOP DEPTH LOGGED
CSGL.FT                     4494.0000:   CASING DEPTH LOGGER
CSGD.FT                     4488.0000:   CASING DEPTH DRILLER
CSGS.IN                       13.3750:   CASING SIZE
CSGW.                          0.0000:   CASING WEIGHT
BS  .IN                       12.2500:   BIT SIZE
MUD .                             MUD:   MUD TYPE
MUDD.                         14.2000:   MUD WEIGHT
MUDV.                         41.0000:   MUD VISCOSITY
FL  .                          4.4000:   FLUID LOSS
PH  .                          8.5000:   MUD PH
MUDS.                             PIT:   MUD SOURCE
RM  .OHMM                      1.3000:   RM
RMT .DEGF                     80.0000:   RM TEMP
RMF .OHMM                      0.5400:   RMF
RMFT.DEGF                     80.0000:   RMF TEMP
RMC .OHMM                      2.5000:   RMC
RMCT.DEGF                     80.0000:   RMC TEMP
MMFS.                            MEAS:   RMF SOURCE
MCFS.                            MEAS:   RMC SOURCE
RMBH.OHMM                      0.5500:   RM BH
BHT .DEGF                    182.0000:   BH TEMP
TMAX.DEGF                    182.0000:   MAX REC TEMP
SON .                          180318:   SERVICE ORDER NUM
ELMF.FT                       92.0000:   ABOVE PERM DATUM
LMF .                              DF:   LOGS MEAS FROM
DMF .                              DF:   DRILL MEAS FROM
TIMC.                            0600:   TIME SINCE CIRCLN
UNIT.8940                        8079:   UNIT NO.
BASE.                        PEARLAND:   LOG UNIT HOME BASE
ENG .                          SUTTON:   ENGINEER
WIT .                            DILL:   WITNESS
~PARAMETER INFORMATION (zones)
#MNEM.UNIT                       Value     Description
#=========                       =====     ===========
#ZONATION                        ZONES:   ZONATION NAME
#ZONE                             LAS2:   ZONE NAME
TOP .                       4470.0000:   TOP DEPTH
BOT .                      11816.0000:   BOTTOM DEPTH
SRVC.                   WESTERN ATLAS:   LOGGING CONTRACTOR
DATE.                         21AUG96:   RUN DATE
RW  .OHMM                      0.0000:   RW
RWT .DEGF                      0.0000:   RW TEMP
RUN .                               2:   LOG RUN
TDL .FT                    11503.0000:   FINAL TD LOGGER
TDD .FT                    11500.0000:   FINAL TD DRILLER
BOTL.FT                    11495.0000:   BOTTOM DEPTH LOGGED
TOPL.FT                     9240.0000:   TOP DEPTH LOGGED
CSGL.FT                     9240.0000:   CASING DEPTH LOGGER
CSGD.FT                     9250.0000:   CASING DEPTH DRILLER
CSGS.IN                        9.6250:   CASING SIZE
CSGW.                          0.0000:   CASING WEIGHT
BS  .IN                        8.5000:   BIT SIZE
MUD .                     DESCO LO-PH:   MUD TYPE
MUDD.                         16.4000:   MUD WEIGHT
MUDV.                         50.0000:   MUD VISCOSITY
FL  .                          2.8000:   FLUID LOSS
PH  .                          8.5000:   MUD PH
MUDS.                             PIT:   MUD SOURCE
RM  .OHMM                      1.0000:   RM
RMT .DEGF                     80.0000:   RM TEMP
RMF .OHMM                      0.4500:   RMF
RMFT.DEGF                     80.0000:   RMF TEMP
RMC .OHMM                      3.0000:   RMC
RMCT.DEGF                     80.0000:   RMC TEMP
MMFS.                            MEAS:   RMF SOURCE
MCFS.                            MEAS:   RMC SOURCE
RMBH.OHMM                      0.3870:   RM BH
BHT .DEGF                    230.0000:   BH TEMP
TMAX.DEGF                    230.0000:   MAX REC TEMP
SON .                          180319:   SERVICE ORDER NUM
ELMF.FT                       92.0000:   ABOVE PERM DATUM
LMF .                              DF:   LOGS MEAS FROM
DMF .                              DF:   DRILL MEAS FROM
TIMC.                            0700:   TIME SINCE CIRCLN
UNIT.8940                        8089:   UNIT NO.
BASE.                        PEARLAND:   LOG UNIT HOME BASE
ENG .                    SUTTON/DAVIS:   ENGINEER
WIT .                      MR.CAMBELL:   WITNESS
~PARAMETER INFORMATION (zones)
#MNEM.UNIT                       Value     Description
#=========                       =====     ===========
#ZONATION                        ZONES:   ZONATION NAME
#ZONE                             LAS3:   ZONE NAME
TOP .                       4470.0000:   TOP DEPTH
BOT .                      11816.0000:   BOTTOM DEPTH
SRVC.                   WESTERN ATLAS:   LOGGING CONTRACTOR
DATE.                         23AUG96:   RUN DATE
RW  .OHMM                      0.0000:   RW
RWT .DEGF                      0.0000:   RW TEMP
RUN .                               3:   LOG RUN
TDL .FT                    11800.0000:   FINAL TD LOGGER
TDD .FT                    11800.0000:   FINAL TD DRILLER
BOTL.FT                    11791.0000:   BOTTOM DEPTH LOGGED
TOPL.FT                     9240.0000:   TOP DEPTH LOGGED
CSGL.FT                     9240.0000:   CASING DEPTH LOGGER
CSGD.FT                     9250.0000:   CASING DEPTH DRILLER
CSGS.IN                        9.6250:   CASING SIZE
CSGW.                          0.0000:   CASING WEIGHT
BS  .IN                        8.5000:   BIT SIZE
MUD .                     DESCO LO-PH:   MUD TYPE
MUDD.                         16.4000:   MUD WEIGHT
MUDV.                         50.0000:   MUD VISCOSITY
FL  .                          2.8000:   FLUID LOSS
PH  .                          8.5000:   MUD PH
MUDS.                             PIT:   MUD SOURCE
RM  .OHMM                      1.0000:   RM
RMT .DEGF                     80.0000:   RM TEMP
RMF .OHMM                      0.4500:   RMF
RMFT.DEGF                     80.0000:   RMF TEMP
RMC .OHMM                      3.0000:   RMC
RMCT.DEGF                     80.0000:   RMC TEMP
MMFS.                            MEAS:   RMF SOURCE
MCFS.                            MEAS:   RMC SOURCE
RMBH.OHMM                      0.3870:   RM BH
BHT .DEGF                    232.0000:   BH TEMP
TMAX.DEGF                    232.0000:   MAX REC TEMP
SON .                          180319:   SERVICE ORDER NUM
ELMF.FT                       92.0000:   ABOVE PERM DATUM
LMF .                              DF:   LOGS MEAS FROM
DMF .                              DF:   DRILL MEAS FROM
TIMC.                            0700:   TIME SINCE CIRCLN
UNIT.8940                        8089:   UNIT NO.
BASE.                        PEARLAND:   LOG UNIT HOME BASE
ENG .                    SUTTON/DAVIS:   ENGINEER
WIT .                      BOB SHELBY:   WITNESS
~Curve Information Block
#MNEM.UNIT                    API CODE    No Description
#=========                    ========    == ===========
DEPT.F                   00 001 00 00:     1  DEPTH
CALX.IN                              :     2  Caliper
CNCF.%                               :     3  Field Normalized CNC
DT.US/F                              :     4  Sonic Transit Time
GR.GAPI                              :     5  Gamma Ray
M2R1.OHMM                            :     6  Array Resistivity Curve
M2R2.OHMM                            :     7  Array Resistivity Curve
M2R3.OHMM                            :     8  Array Resistivity Curve
M2R6.OHMM                            :     9  Array Resistivity Curve
M2R9.OHMM                            :    10  Array Resistivity Curve
M2RX.OHMM                            :    11  Array Resistivity Curve
PORZ.%                               :    12  PORZ
RFOC.OHMM                            :    13  Medium Resistivity
RILD.OHMM                            :    14  Deep Resistivity
RILM.OHMM                            :    15  Medium Resistivity
RWAA.OHMM                            :    16  RWAA
RWAZ.OHMM                            :    17  RWAZ
SP.MV                                :    18  Spontaneous Potential
TEN.LB                               :    19  TEN
ZCOR.G/CC                            :    20  Density Correction
~ASCII
# ...
11759.0000     8.7890    33.2720  -999.2500    96.7590      .6590      .5980      .5680      .5510      .5410      .5380    16.4320  -999.2500  -999.2500  -999.2500  -999.2500      .0180    -3.2080  -999.2500  -999.2500
11759.5000     8.7960    33.3830  -999.2500    97.8540      .6610      .6020      .5740      .5580      .5480      .5460    15.9690  -999.2500  -999.2500  -999.2500  -999.2500      .0170    -2.8660  -999.2500  -999.2500
11760.0000     8.7940    33.4790  -999.2500  -999.2500      .6630      .6060      .5800      .5650      .5560      .5550    15.7390  -999.2500  -999.2500  -999.2500  -999.2500      .0170    -2.4580  -999.2500  -999.2500
11760.5000     8.7850    33.5030  -999.2500  -999.2500      .6600      .6080      .5830      .5700      .5630      .5620    15.7350  -999.2500  -999.2500  -999.2500  -999.2500      .0170    -2.2530  -999.2500  -999.2500
11761.0000     8.7770    33.5710  -999.2500  -999.2500      .6510      .6050      .5820      .5730      .5680      .5680    15.6530  -999.2500  -999.2500  -999.2500  -999.2500      .0170    -2.4340  -999.2500  -999.2500
11761.5000     8.7750    33.6080  -999.2500  -999.2500      .6340      .5960      .5770      .5720      .5700      .5710    15.6070  -999.2500  -999.2500  -999.2500  -999.2500      .0170    -2.5980  -999.2500  -999.2500
11762.0000     8.7770    33.4640  -999.2500  -999.2500      .6170      .5870      .5730      .5740      .5750      .5770    15.8800  -999.2500  -999.2500  -999.2500  -999.2500      .0180    -2.7210  -999.2500  -999.2500
11762.5000     8.7800    33.3690  -999.2500  -999.2500      .6080      .5850      .5750      .5820      .5860      .5890    16.3760  -999.2500  -999.2500  -999.2500  -999.2500      .0190    -3.0860  -999.2500  -999.2500
11763.0000     8.7800    33.6660  -999.2500  -999.2500      .6060      .5860      .5810      .5930      .6000      .6040    16.6680  -999.2500  -999.2500  -999.2500  -999.2500      .0210    -3.6350  -999.2500  -999.2500
11763.5000     8.7770    33.9550  -999.2500  -999.2500      .6060      .5880      .5840      .6000      .6080      .6120    16.5250  -999.2500  -999.2500  -999.2500  -999.2500      .0210    -4.0260  -999.2500  -999.2500
11764.0000     8.7760    33.8390  -999.2500  -999.2500      .6040      .5830      .5790      .5940      .6010      .6050    16.1490  -999.2500  -999.2500  -999.2500  -999.2500      .0190    -4.2230  -999.2500  -999.2500
11764.5000     8.7750    33.2470  -999.2500  -999.2500      .5990      .5750      .5670      .5790      .5830      .5860    15.9430  -999.2500  -999.2500  -999.2500  -999.2500      .0180    -4.4500  -999.2500  -999.2500
11765.0000     8.7740    33.1410  -999.2500  -999.2500      .5990      .5720      .5590      .5650      .5670      .5700    15.9790  -999.2500  -999.2500  -999.2500  -999.2500      .0180    -4.7100  -999.2500  -999.2500
11765.5000     8.7720    34.0010  -999.2500  -999.2500      .6070      .5760      .5600      .5600      .5600      .5610    15.9770  -999.2500  -999.2500  -999.2500  -999.2500      .0180    -4.7910  -999.2500  -999.2500
11766.0000     8.7710    30.3050  -999.2500  -999.2500      .6110      .5780      .5600      .5550      .5530      .5530    15.6900  -999.2500  -999.2500  -999.2500  -999.2500      .0170    -4.6290  -999.2500  -999.2500
11766.5000     8.7720    20.3140  -999.2500  -999.2500      .6010      .5660      .5480      .5420      .5390      .5380    15.3480  -999.2500  -999.2500  -999.2500  -999.2500      .0150    -4.4660  -999.2500  -999.2500
11767.0000     8.7690    18.9080  -999.2500  -999.2500      .5810      .5460      .5310      .5250      .5220      .5190    15.3480  -999.2500  -999.2500  -999.2500  -999.2500      .0150    -4.5150  -999.2500  -999.2500
11767.5000     8.7580    18.8800  -999.2500  -999.2500      .5600      .5310      .5190      .5160      .5120      .5100    15.6690  -999.2500  -999.2500  -999.2500  -999.2500      .0150    -4.6560  -999.2500  -999.2500
11768.0000     8.7370    18.8390  -999.2500  -999.2500      .5460      .5280      .5220      .5210      .5190      .5170    16.0350  -999.2500  -999.2500  -999.2500  -999.2500      .0160    -4.4650  -999.2500  -999.2500
11768.5000     8.7110    18.6140  -999.2500  -999.2500      .5460      .5390      .5380      .5410      .5410      .5400    16.3910  -999.2500  -999.2500  -999.2500  -999.2500      .0180    -3.9290  -999.2500  -999.2500
11769.0000     8.6890    18.7700  -999.2500  -999.2500      .5560      .5550      .5560      .5590      .5580      .5590    16.7270  -999.2500  -999.2500  -999.2500  -999.2500      .0190    -3.4850  -999.2500  -999.2500
11769.5000     8.6800    18.9530  -999.2500  -999.2500      .5610      .5590      .5550      .5540      .5520      .5510    16.8870  -999.2500  -999.2500  -999.2500  -999.2500      .0190    -3.2370  -999.2500  -999.2500
11770.0000     8.6810    18.7850  -999.2500  -999.2500      .5580      .5500      .5410      .5340      .5310      .5310    16.8650  -999.2500  -999.2500  -999.2500  -999.2500      .0190    -3.0880  -999.2500  -999.2500
11770.5000     8.6810  -999.2500  -999.2500  -999.2500      .5620      .5530      .5430      .5360      .5340      .5350    16.8150  -999.2500  -999.2500  -999.2500  -999.2500      .0190    -3.0920  -999.2500  -999.2500
11771.0000     8.6780  -999.2500  -999.2500  -999.2500      .5900      .5830      .5750      .5690      .5690      .5720    16.8650  -999.2500  -999.2500  -999.2500  -999.2500      .0200    -3.3820  -999.2500  -999.2500
11771.5000     8.6780  -999.2500  -999.2500  -999.2500      .6240      .6060      .5960      .5910      .5900      .5920    17.0380  -999.2500  -999.2500  -999.2500  -999.2500      .0210    -4.0320  -999.2500  -999.2500
11772.0000     8.6800  -999.2500  -999.2500  -999.2500      .6350      .5930      .5750      .5660      .5610      .5610    17.1800  -999.2500  -999.2500  -999.2500  -999.2500      .0210    -4.5820  -999.2500  -999.2500
11772.5000     8.6810  -999.2500  -999.2500  -999.2500      .6300      .5720      .5480      .5360      .5280      .5240    17.1140  -999.2500  -999.2500  -999.2500  -999.2500      .0190    -4.1800  -999.2500  -999.2500
11773.0000     8.6810  -999.2500  -999.2500  -999.2500      .6280      .5650      .5400      .5280      .5170      .5110    16.9110  -999.2500  -999.2500  -999.2500  -999.2500      .0180    -3.1820  -999.2500  -999.2500
11773.5000     8.6840  -999.2500  -999.2500  -999.2500      .6280      .5660      .5430      .5300      .5180      .5120    16.7640  -999.2500  -999.2500  -999.2500  -999.2500      .0180    -2.8360  -999.2500  -999.2500
11774.0000     8.6860  -999.2500  -999.2500  -999.2500      .6290      .5710      .5490      .5360      .5250      .5200    16.7150  -999.2500  -999.2500  -999.2500  -999.2500      .0180    -3.3530  -999.2500  -999.2500
11774.5000     8.6840  -999.2500  -999.2500  -999.2500      .6310      .5850      .5640      .5520      .5430      .5410    16.7290  -999.2500  -999.2500  -999.2500  -999.2500      .0190    -3.8700  -999.2500  -999.2500
11775.0000     8.6810  -999.2500  -999.2500  -999.2500      .6350      .6080      .5910      .5830      .5800      .5820    16.8320  -999.2500  -999.2500  -999.2500  -999.2500      .0200    -4.0100  -999.2500  -999.2500
11775.5000     8.6790  -999.2500  -999.2500  -999.2500      .6430      .6340      .6230      .6240      .6290      .6360    17.0390  -999.2500  -999.2500  -999.2500  -999.2500      .0230    -3.9330  -999.2500  -999.2500
11776.0000     8.6780  -999.2500  -999.2500  -999.2500      .6480      .6440      .6370      .6480      .6600      .6710    17.2060  -999.2500  -999.2500  -999.2500  -999.2500      .0250    -3.8510  -999.2500  -999.2500
11776.5000     8.6800  -999.2500  -999.2500  -999.2500      .6390      .6250      .6180      .6340      .6470      .6580    17.1530  -999.2500  -999.2500  -999.2500  -999.2500      .0240    -3.7880  -999.2500  -999.2500
11777.0000     8.6830  -999.2500  -999.2500  -999.2500      .6150      .5870      .5780      .5940      .6050      .6120    16.9220  -999.2500  -999.2500  -999.2500  -999.2500      .0220    -3.6830  -999.2500  -999.2500
