~VERSION INFORMATION
VERS.                             2.0:   CWLS Log ASCII Standard-VERSION 2.0
WRAP.                              NO:   One line per depth step
~Well Information Block
STRT.F                      4470.0000:   Top Depth
STOP.F                     11800.5000:   Bottom Depth
STEP.F                         .50000:   Depth Increment
NULL.                        -999.250:   Null Value
FLD .                      GA BLK 315:   Field Name
WELL.       OCSG14835   001 ST00 BP00:   NAME
API .                  42706403880000:   WELL API
LOC .       993' FSL & 3018' FEL OF B:   AREA NAME
CTRY.                             USA:   COUNTRY
EGL .FT                      -66.0000:   GROUND LEVEL
EKB .FT                        0.0000:   KB ELEVATION
COMP.              APACHE CORPORATION:   OPERATOR
DREF.                             MSL:   PERM DATUM
COUN.                        OFFSHORE:   RIG NAME
STAT.                              TX:   STATE
CNTY.                        OFFSHORE:   COUNTY
DIGS.                   QC Data, Inc.:   DIG COMPANY NAME
EREF.FT                        0.0000:   ELEV DEPTH REFERENCE
UWI .                  42706403880000:   WELL API
DICO.               IHS : Digitizing Company
~PARAMETER INFORMATION (zones)
#MNEM.UNIT                       Value     Description
#=========                       =====     ===========
#ZONATION                        ZONES:   ZONATION NAME
#ZONE                             LAS1:   ZONE NAME
TOP .                       4470.0000:   TOP DEPTH
BOT .                      11816.0000:   BOTTOM DEPTH
SRVC.                   WESTERN ATLAS:   LOGGING CONTRACTOR
DATE.                         10AUG96:   RUN DATE
RW  .OHMM                      0.0000:   RW
RWT .DEGF                      0.0000:   RW TEMP
RUN .                               1:   LOG RUN
TDL .FT                     9298.0000:   FINAL TD LOGGER
TDD .FT                     9300.0000:   FINAL TD DRILLER
BOTL.FT                     9296.0000:   BOTTOM DEPTH LOGGED
TOPL.FT                     4478.0000:   TOP DEPTH LOGGED
CSGL.FT                     4494.0000:   CASING DEPTH LOGGER
CSGD.FT                     4488.0000:   CASING DEPTH DRILLER
CSGS.IN                       13.3750:   CASING SIZE
CSGW.                          0.0000:   CASING WEIGHT
BS  .IN                       12.2500:   BIT SIZE
MUD .                             MUD:   MUD TYPE
MUDD.                         14.2000:   MUD WEIGHT
MUDV.                         41.0000:   MUD VISCOSITY
FL  .                          4.4000:   FLUID LOSS
PH  .                          8.5000:   MUD PH
MUDS.                             PIT:   MUD SOURCE
RM  .OHMM                      1.3000:   RM
RMT .DEGF                     80.0000:   RM TEMP
RMF .OHMM                      0.5400:   RMF
RMFT.DEGF                     80.0000:   RMF TEMP
RMC .OHMM                      2.5000:   RMC
RMCT.DEGF                     80.0000:   RMC TEMP
MMFS.                            MEAS:   RMF SOURCE
MCFS.                            MEAS:   RMC SOURCE
RMBH.OHMM                      0.5500:   RM BH
BHT .DEGF                    182.0000:   BH TEMP
TMAX.DEGF                    182.0000:   MAX REC TEMP
SON .                          180318:   SERVICE ORDER NUM
ELMF.FT                       92.0000:   ABOVE PERM DATUM
LMF .                              DF:   LOGS MEAS FROM
DMF .                              DF:   DRILL MEAS FROM
TIMC.                            0600:   TIME SINCE CIRCLN
UNIT.8940                        8079:   UNIT NO.
BASE.                        PEARLAND:   LOG UNIT HOME BASE
ENG .                          SUTTON:   ENGINEER
WIT .                            DILL:   WITNESS
~PARAMETER INFORMATION (zones)
#MNEM.UNIT                       Value     Description
#=========                       =====     ===========
#ZONATION                        ZONES:   ZONATION NAME
#ZONE                             LAS2:   ZONE NAME
TOP .                       4470.0000:   TOP DEPTH
BOT .                      11816.0000:   BOTTOM DEPTH
SRVC.                   WESTERN ATLAS:   LOGGING CONTRACTOR
DATE.                         21AUG96:   RUN DATE
RW  .OHMM                      0.0000:   RW
RWT .DEGF                      0.0000:   RW TEMP
RUN .                               2:   LOG RUN
TDL .FT                    11503.0000:   FINAL TD LOGGER
TDD .FT                    11500.0000:   FINAL TD DRILLER
BOTL.FT                    11495.0000:   BOTTOM DEPTH LOGGED
TOPL.FT                     9240.0000:   TOP DEPTH LOGGED
CSGL.FT                     9240.0000:   CASING DEPTH LOGGER
CSGD.FT                     9250.0000:   CASING DEPTH DRILLER
CSGS.IN                        9.6250:   CASING SIZE
CSGW.                          0.0000:   CASING WEIGHT
BS  .IN                        8.5000:   BIT SIZE
MUD .                     DESCO LO-PH:   MUD TYPE
MUDD.                         16.4000:   MUD WEIGHT
MUDV.                         50.0000:   MUD VISCOSITY
FL  .                          2.8000:   FLUID LOSS
PH  .                          8.5000:   MUD PH
MUDS.                             PIT:   MUD SOURCE
RM  .OHMM                      1.0000:   RM
RMT .DEGF                     80.0000:   RM TEMP
RMF .OHMM                      0.4500:   RMF
RMFT.DEGF                     80.0000:   RMF TEMP
RMC .OHMM                      3.0000:   RMC
RMCT.DEGF                     80.0000:   RMC TEMP
MMFS.                            MEAS:   RMF SOURCE
MCFS.                            MEAS:   RMC SOURCE
RMBH.OHMM                      0.3870:   RM BH
BHT .DEGF                    230.0000:   BH TEMP
TMAX.DEGF                    230.0000:   MAX REC TEMP
SON .                          180319:   SERVICE ORDER NUM
ELMF.FT                       92.0000:   ABOVE PERM DATUM
LMF .                              DF:   LOGS MEAS FROM
DMF .                              DF:   DRILL MEAS FROM
TIMC.                            0700:   TIME SINCE CIRCLN
UNIT.8940                        8089:   UNIT NO.
BASE.                        PEARLAND:   LOG UNIT HOME BASE
ENG .                    SUTTON/DAVIS:   ENGINEER
WIT .                      MR.CAMBELL:   WITNESS
~PARAMETER INFORMATION (zones)
#MNEM.UNIT                       Value     Description
#=========                       =====     ===========
#ZONATION                        ZONES:   ZONATION NAME
#ZONE                             LAS3:   ZONE NAME
TOP .                       4470.0000:   TOP DEPTH
BOT .                      11816.0000:   BOTTOM DEPTH
SRVC.                   WESTERN ATLAS:   LOGGING CONTRACTOR
DATE.                         23AUG96:   RUN DATE
RW  .OHMM                      0.0000:   RW
RWT .DEGF                      0.0000:   RW TEMP
RUN .                               3:   LOG RUN
TDL .FT                    11800.0000:   FINAL TD LOGGER
TDD .FT                    11800.0000:   FINAL TD DRILLER
BOTL.FT                    11791.0000:   BOTTOM DEPTH LOGGED
TOPL.FT                     9240.0000:   TOP DEPTH LOGGED
CSGL.FT                     9240.0000:   CASING DEPTH LOGGER
CSGD.FT                     9250.0000:   CASING DEPTH DRILLER
CSGS.IN                        9.6250:   CASING SIZE
CSGW.                          0.0000:   CASING WEIGHT
BS  .IN                        8.5000:   BIT SIZE
MUD .                     DESCO LO-PH:   MUD TYPE
MUDD.                         16.4000:   MUD WEIGHT
MUDV.                         50.0000:   MUD VISCOSITY
FL  .                          2.8000:   FLUID LOSS
PH  .                          8.5000:   MUD PH
MUDS.                             PIT:   MUD SOURCE
RM  .OHMM                      1.0000:   RM
RMT .DEGF                     80.0000:   RM TEMP
RMF .OHMM                      0.4500:   RMF
RMFT.DEGF                     80.0000:   RMF TEMP
RMC .OHMM                      3.0000:   RMC
RMCT.DEGF                     80.0000:   RMC TEMP
MMFS.                            MEAS:   RMF SOURCE
MCFS.                            MEAS:   RMC SOURCE
RMBH.OHMM                      0.3870:   RM BH
BHT .DEGF                    232.0000:   BH TEMP
TMAX.DEGF                    232.0000:   MAX REC TEMP
SON .                          180319:   SERVICE ORDER NUM
ELMF.FT                       92.0000:   ABOVE PERM DATUM
LMF .                              DF:   LOGS MEAS FROM
DMF .                              DF:   DRILL MEAS FROM
TIMC.                            0700:   TIME SINCE CIRCLN
UNIT.8940                        8089:   UNIT NO.
BASE.                        PEARLAND:   LOG UNIT HOME BASE
ENG .                    SUTTON/DAVIS:   ENGINEER
WIT .                      BOB SHELBY:   WITNESS
~Curve Information Block
#MNEM.UNIT                    API CODE    No Description
#=========                    ========    == ===========
DEPT.F                   00 001 00 00:     1  DEPTH
CALX.IN                              :     2  Caliper
CNCF.%                               :     3  Field Normalized CNC
DT.US/F                              :     4  Sonic Transit Time
GR.GAPI                              :     5  Gamma Ray
M2R1.OHMM                            :     6  Array Resistivity Curve
M2R2.OHMM                            :     7  Array Resistivity Curve
M2R3.OHMM                            :     8  Array Resistivity Curve
M2R6.OHMM                            :     9  Array Resistivity Curve
M2R9.OHMM                            :    10  Array Resistivity Curve
M2RX.OHMM                            :    11  Array Resistivity Curve
PORZ.%                               :    12  PORZ
RFOC.OHMM                            :    13  Medium Resistivity
RILD.OHMM                            :    14  Deep Resistivity
RILM.OHMM                            :    15  Medium Resistivity
RWAA.OHMM                            :    16  RWAA
RWAZ.OHMM                            :    17  RWAZ
SP.MV                                :    18  Spontaneous Potential
TEN.LB                               :    19  TEN
ZCOR.G/CC                            :    20  Density Correction
~ASCII
# ...
10242.0000  -999.2500  -999.2500   134.5090    78.9110      .3970      .3710      .3600      .3560      .3530      .3530  -999.2500  -999.2500  -999.2500  -999.2500      .1100  -999.2500    -1.8600   -15.4970  -999.2500
10242.5000  -999.2500  -999.2500   133.9120    79.4030      .3990      .3720      .3610      .3570      .3540      .3530  -999.2500  -999.2500  -999.2500  -999.2500      .1080  -999.2500    -1.8710    -6.0050  -999.2500
10243.0000  -999.2500  -999.2500   133.5570    80.4800      .4010      .3730      .3610      .3560      .3520      .3510  -999.2500  -999.2500  -999.2500  -999.2500      .1060  -999.2500    -2.3820     1.5150  -999.2500
10243.5000  -999.2500  -999.2500   133.5660    81.0040      .4040      .3760      .3640      .3570      .3530      .3520  -999.2500  -999.2500  -999.2500  -999.2500      .1070  -999.2500    -2.8380    -3.3350  -999.2500
10244.0000  -999.2500  -999.2500   133.1790    79.8150      .4110      .3830      .3690      .3620      .3580      .3570  -999.2500  -999.2500  -999.2500  -999.2500      .1070  -999.2500    -3.0690   -14.6060  -999.2500
10244.5000  -999.2500  -999.2500   132.9950    78.6500      .4180      .3900      .3760      .3680      .3640      .3630  -999.2500  -999.2500  -999.2500  -999.2500      .1080  -999.2500    -3.3390   -20.7000  -999.2500
10245.0000  -999.2500  -999.2500   133.1790    78.4950      .4220      .3930      .3790      .3720      .3680      .3670  -999.2500  -999.2500  -999.2500  -999.2500      .1100  -999.2500    -3.4720   -21.6130  -999.2500
10245.5000  -999.2500  -999.2500   133.3050    77.3310      .4210      .3910      .3780      .3710      .3680      .3680  -999.2500  -999.2500  -999.2500  -999.2500      .1100  -999.2500    -3.4000   -23.0800  -999.2500
10246.0000  -999.2500  -999.2500   133.3880    75.7130      .4170      .3880      .3750      .3680      .3650      .3650  -999.2500  -999.2500  -999.2500  -999.2500      .1100  -999.2500    -3.7340   -24.1730  -999.2500
10246.5000  -999.2500  -999.2500   133.3750    76.3240      .4150      .3850      .3710      .3650      .3610      .3610  -999.2500  -999.2500  -999.2500  -999.2500      .1090  -999.2500    -4.3330   -21.6000  -999.2500
10247.0000  -999.2500  -999.2500   133.4970    78.4140      .4150      .3850      .3700      .3640      .3600      .3590  -999.2500  -999.2500  -999.2500  -999.2500      .1080  -999.2500    -4.3630   -17.3510  -999.2500
10247.5000  -999.2500  -999.2500   133.3470    79.8680      .4170      .3870      .3720      .3650      .3610      .3600  -999.2500  -999.2500  -999.2500  -999.2500      .1080  -999.2500    -4.0540   -15.1430  -999.2500
10248.0000  -999.2500  -999.2500   132.9880    81.0470      .4230      .3920      .3770      .3700      .3660      .3650  -999.2500  -999.2500  -999.2500  -999.2500      .1090  -999.2500    -4.0550   -13.9240  -999.2500
10248.5000  -999.2500  -999.2500   132.4970    82.5420      .4330      .4020      .3870      .3800      .3760      .3760  -999.2500  -999.2500  -999.2500  -999.2500      .1100  -999.2500    -4.0830   -11.6940  -999.2500
10249.0000  -999.2500  -999.2500   130.5540    82.8210      .4510      .4190      .4040      .3970      .3940      .3940  -999.2500  -999.2500  -999.2500  -999.2500      .1090  -999.2500    -3.9240   -11.6210  -999.2500
10249.5000  -999.2500  -999.2500   128.2340    80.3450      .4770      .4430      .4270      .4210      .4180      .4180  -999.2500  -999.2500  -999.2500  -999.2500      .1090  -999.2500    -4.1630   -15.5890  -999.2500
10250.0000  -999.2500  -999.2500   126.0930    77.0540      .5030      .4680      .4500      .4440      .4430      .4440  -999.2500  -999.2500  -999.2500  -999.2500      .1080  -999.2500    -5.0780   -19.4350  -999.2500
10250.5000  -999.2500  -999.2500   124.1850    75.1970      .5210      .4860      .4670      .4630      .4610      .4630  -999.2500  -999.2500  -999.2500  -999.2500      .1060  -999.2500    -5.8660   -18.8650  -999.2500
10251.0000  -999.2500  -999.2500   124.0650    74.6380      .5270      .4950      .4760      .4720      .4710      .4730  -999.2500  -999.2500  -999.2500  -999.2500      .1080  -999.2500    -5.7030   -13.9410  -999.2500
10251.5000  -999.2500  -999.2500   124.4880    74.2760      .5230      .4930      .4760      .4710      .4700      .4720  -999.2500  -999.2500  -999.2500  -999.2500      .1090  -999.2500    -5.1400    -6.9160  -999.2500
10252.0000  -999.2500  -999.2500   125.1720    74.0560      .5120      .4840      .4670      .4620      .4600      .4620  -999.2500  -999.2500  -999.2500  -999.2500      .1090  -999.2500    -4.8190    -2.0490  -999.2500
10252.5000  -999.2500  -999.2500   126.0370    73.9300      .5000      .4740      .4580      .4520      .4490      .4500  -999.2500  -999.2500  -999.2500  -999.2500      .1090  -999.2500    -4.3300    -1.4560  -999.2500
10253.0000  -999.2500  -999.2500   126.0950    72.8200      .4930      .4670      .4510      .4450      .4430      .4430  -999.2500  -999.2500  -999.2500  -999.2500      .1080  -999.2500    -3.6580    -2.9700  -999.2500
10253.5000  -999.2500  -999.2500   126.4750    70.7540      .4880      .4630      .4470      .4420      .4390      .4400  -999.2500  -999.2500  -999.2500  -999.2500      .1080  -999.2500    -3.7060    -5.7260  -999.2500
10254.0000  -999.2500  -999.2500   126.7870    69.6720      .4850      .4590      .4430      .4390      .4360      .4370  -999.2500  -999.2500  -999.2500  -999.2500      .1090  -999.2500    -4.4900   -10.1250  -999.2500
10254.5000  -999.2500  -999.2500   126.5170    70.2770      .4820      .4560      .4400      .4360      .4330      .4340  -999.2500  -999.2500  -999.2500  -999.2500      .1070  -999.2500    -4.9450   -12.6800  -999.2500
10255.0000  -999.2500  -999.2500   126.9280    71.7830      .4800      .4540      .4390      .4350      .4330      .4340  -999.2500  -999.2500  -999.2500  -999.2500      .1080  -999.2500    -4.5330   -11.9220  -999.2500
10255.5000  -999.2500  -999.2500   127.5860    73.6750      .4770      .4510      .4370      .4330      .4300      .4310  -999.2500  -999.2500  -999.2500  -999.2500      .1100  -999.2500    -3.7770   -10.4030  -999.2500
10256.0000  -999.2500  -999.2500   127.6050    75.0070      .4720      .4460      .4310      .4260      .4230      .4240  -999.2500  -999.2500  -999.2500  -999.2500      .1080  -999.2500    -3.4330    -9.7240  -999.2500
10256.5000  -999.2500  -999.2500   127.6910    75.8090      .4680      .4410      .4250      .4200      .4170      .4170  -999.2500  -999.2500  -999.2500  -999.2500      .1070  -999.2500    -3.7050   -10.9120  -999.2500
10257.0000  -999.2500  -999.2500   128.0580    77.0570      .4660      .4390      .4230      .4180      .4150      .4160  -999.2500  -999.2500  -999.2500  -999.2500      .1070  -999.2500    -4.4840   -14.5500  -999.2500
10257.5000  -999.2500  -999.2500   128.8380    77.1800      .4600      .4350      .4200      .4150      .4130      .4130  -999.2500  -999.2500  -999.2500  -999.2500      .1090  -999.2500    -5.3860   -18.4860  -999.2500
10258.0000  -999.2500  -999.2500   129.9840    75.6340      .4490      .4240      .4110      .4060      .4040      .4040  -999.2500  -999.2500  -999.2500  -999.2500      .1100  -999.2500    -5.6910   -20.1130  -999.2500
10258.5000  -999.2500  -999.2500   131.0700    74.0990      .4380      .4130      .4000      .3950      .3930      .3930  -999.2500  -999.2500  -999.2500  -999.2500      .1110  -999.2500    -5.0050   -17.4860  -999.2500
10259.0000  -999.2500  -999.2500   131.9190    73.1730      .4320      .4070      .3940      .3890      .3860      .3860  -999.2500  -999.2500  -999.2500  -999.2500      .1120  -999.2500    -3.9110   -11.8620  -999.2500
10259.5000  -999.2500  -999.2500   131.9820    71.9600      .4270      .4030      .3900      .3850      .3820      .3820  -999.2500  -999.2500  -999.2500  -999.2500      .1100  -999.2500    -3.1350    -6.7670  -999.2500
10260.0000  -999.2500  -999.2500   132.1230    71.0290      .4220      .3980      .3850      .3800      .3770      .3760  -999.2500  -999.2500  -999.2500  -999.2500      .1090  -999.2500    -2.6870    -4.5990  -999.2500
