~VERSION INFORMATION
VERS.                             2.0:   CWLS Log ASCII Standard-VERSION 2.0
WRAP.                              NO:   One line per depth step
~Well Information Block
STRT.F                      4470.0000:   Top Depth
STOP.F                     11800.5000:   Bottom Depth
STEP.F                         .50000:   Depth Increment
NULL.                        -999.250:   Null Value
FLD .                      GA BLK 315:   Field Name
WELL.       OCSG14835   001 ST00 BP00:   NAME
API .                  42706403880000:   WELL API
LOC .       993' FSL & 3018' FEL OF B:   AREA NAME
CTRY.                             USA:   COUNTRY
EGL .FT                      -66.0000:   GROUND LEVEL
EKB .FT                        0.0000:   KB ELEVATION
COMP.              APACHE CORPORATION:   OPERATOR
DREF.                             MSL:   PERM DATUM
COUN.                        OFFSHORE:   RIG NAME
STAT.                              TX:   STATE
CNTY.                        OFFSHORE:   COUNTY
DIGS.                   QC Data, Inc.:   DIG COMPANY NAME
EREF.FT                        0.0000:   ELEV DEPTH REFERENCE
UWI .                  42706403880000:   WELL API
DICO.               IHS : Digitizing Company
~PARAMETER INFORMATION (zones)
#MNEM.UNIT                       Value     Description
#=========                       =====     ===========
#ZONATION                        ZONES:   ZONATION NAME
#ZONE                             LAS1:   ZONE NAME
TOP .                       4470.0000:   TOP DEPTH
BOT .                      11816.0000:   BOTTOM DEPTH
SRVC.                   WESTERN ATLAS:   LOGGING CONTRACTOR
DATE.                         10AUG96:   RUN DATE
RW  .OHMM                      0.0000:   RW
RWT .DEGF                      0.0000:   RW TEMP
RUN .                               1:   LOG RUN
TDL .FT                     9298.0000:   FINAL TD LOGGER
TDD .FT                     9300.0000:   FINAL TD DRILLER
BOTL.FT                     9296.0000:   BOTTOM DEPTH LOGGED
TOPL.FT                     4478.0000:   TOP DEPTH LOGGED
CSGL.FT                     4494.0000:   CASING DEPTH LOGGER
CSGD.FT                     4488.0000:   CASING DEPTH DRILLER
CSGS.IN                       13.3750:   CASING SIZE
CSGW.                          0.0000:   CASING WEIGHT
BS  .IN                       12.2500:   BIT SIZE
MUD .                             MUD:   MUD TYPE
MUDD.                         14.2000:   MUD WEIGHT
MUDV.                         41.0000:   MUD VISCOSITY
FL  .                          4.4000:   FLUID LOSS
PH  .                          8.5000:   MUD PH
MUDS.                             PIT:   MUD SOURCE
RM  .OHMM                      1.3000:   RM
RMT .DEGF                     80.0000:   RM TEMP
RMF .OHMM                      0.5400:   RMF
RMFT.DEGF                     80.0000:   RMF TEMP
RMC .OHMM                      2.5000:   RMC
RMCT.DEGF                     80.0000:   RMC TEMP
MMFS.                            MEAS:   RMF SOURCE
MCFS.                            MEAS:   RMC SOURCE
RMBH.OHMM                      0.5500:   RM BH
BHT .DEGF                    182.0000:   BH TEMP
TMAX.DEGF                    182.0000:   MAX REC TEMP
SON .                          180318:   SERVICE ORDER NUM
ELMF.FT                       92.0000:   ABOVE PERM DATUM
LMF .                              DF:   LOGS MEAS FROM
DMF .                              DF:   DRILL MEAS FROM
TIMC.                            0600:   TIME SINCE CIRCLN
UNIT.8940                        8079:   UNIT NO.
BASE.                        PEARLAND:   LOG UNIT HOME BASE
ENG .                          SUTTON:   ENGINEER
WIT .                            DILL:   WITNESS
~PARAMETER INFORMATION (zones)
#MNEM.UNIT                       Value     Description
#=========                       =====     ===========
#ZONATION                        ZONES:   ZONATION NAME
#ZONE                             LAS2:   ZONE NAME
TOP .                       4470.0000:   TOP DEPTH
BOT .                      11816.0000:   BOTTOM DEPTH
SRVC.                   WESTERN ATLAS:   LOGGING CONTRACTOR
DATE.                         21AUG96:   RUN DATE
RW  .OHMM                      0.0000:   RW
RWT .DEGF                      0.0000:   RW TEMP
RUN .                               2:   LOG RUN
TDL .FT                    11503.0000:   FINAL TD LOGGER
TDD .FT                    11500.0000:   FINAL TD DRILLER
BOTL.FT                    11495.0000:   BOTTOM DEPTH LOGGED
TOPL.FT                     9240.0000:   TOP DEPTH LOGGED
CSGL.FT                     9240.0000:   CASING DEPTH LOGGER
CSGD.FT                     9250.0000:   CASING DEPTH DRILLER
CSGS.IN                        9.6250:   CASING SIZE
CSGW.                          0.0000:   CASING WEIGHT
BS  .IN                        8.5000:   BIT SIZE
MUD .                     DESCO LO-PH:   MUD TYPE
MUDD.                         16.4000:   MUD WEIGHT
MUDV.                         50.0000:   MUD VISCOSITY
FL  .                          2.8000:   FLUID LOSS
PH  .                          8.5000:   MUD PH
MUDS.                             PIT:   MUD SOURCE
RM  .OHMM                      1.0000:   RM
RMT .DEGF                     80.0000:   RM TEMP
RMF .OHMM                      0.4500:   RMF
RMFT.DEGF                     80.0000:   RMF TEMP
RMC .OHMM                      3.0000:   RMC
RMCT.DEGF                     80.0000:   RMC TEMP
MMFS.                            MEAS:   RMF SOURCE
MCFS.                            MEAS:   RMC SOURCE
RMBH.OHMM                      0.3870:   RM BH
BHT .DEGF                    230.0000:   BH TEMP
TMAX.DEGF                    230.0000:   MAX REC TEMP
SON .                          180319:   SERVICE ORDER NUM
ELMF.FT                       92.0000:   ABOVE PERM DATUM
LMF .                              DF:   LOGS MEAS FROM
DMF .                              DF:   DRILL MEAS FROM
TIMC.                            0700:   TIME SINCE CIRCLN
UNIT.8940                        8089:   UNIT NO.
BASE.                        PEARLAND:   LOG UNIT HOME BASE
ENG .                    SUTTON/DAVIS:   ENGINEER
WIT .                      MR.CAMBELL:   WITNESS
~PARAMETER INFORMATION (zones)
#MNEM.UNIT                       Value     Description
#=========                       =====     ===========
#ZONATION                        ZONES:   ZONATION NAME
#ZONE                             LAS3:   ZONE NAME
TOP .                       4470.0000:   TOP DEPTH
BOT .                      11816.0000:   BOTTOM DEPTH
SRVC.                   WESTERN ATLAS:   LOGGING CONTRACTOR
DATE.                         23AUG96:   RUN DATE
RW  .OHMM                      0.0000:   RW
RWT .DEGF                      0.0000:   RW TEMP
RUN .                               3:   LOG RUN
TDL .FT                    11800.0000:   FINAL TD LOGGER
TDD .FT                    11800.0000:   FINAL TD DRILLER
BOTL.FT                    11791.0000:   BOTTOM DEPTH LOGGED
TOPL.FT                     9240.0000:   TOP DEPTH LOGGED
CSGL.FT                     9240.0000:   CASING DEPTH LOGGER
CSGD.FT                     9250.0000:   CASING DEPTH DRILLER
CSGS.IN                        9.6250:   CASING SIZE
CSGW.                          0.0000:   CASING WEIGHT
BS  .IN                        8.5000:   BIT SIZE
MUD .                     DESCO LO-PH:   MUD TYPE
MUDD.                         16.4000:   MUD WEIGHT
MUDV.                         50.0000:   MUD VISCOSITY
FL  .                          2.8000:   FLUID LOSS
PH  .                          8.5000:   MUD PH
MUDS.                             PIT:   MUD SOURCE
RM  .OHMM                      1.0000:   RM
RMT .DEGF                     80.0000:   RM TEMP
RMF .OHMM                      0.4500:   RMF
RMFT.DEGF                     80.0000:   RMF TEMP
RMC .OHMM                      3.0000:   RMC
RMCT.DEGF                     80.0000:   RMC TEMP
MMFS.                            MEAS:   RMF SOURCE
MCFS.                            MEAS:   RMC SOURCE
RMBH.OHMM                      0.3870:   RM BH
BHT .DEGF                    232.0000:   BH TEMP
TMAX.DEGF                    232.0000:   MAX REC TEMP
SON .                          180319:   SERVICE ORDER NUM
ELMF.FT                       92.0000:   ABOVE PERM DATUM
LMF .                              DF:   LOGS MEAS FROM
DMF .                              DF:   DRILL MEAS FROM
TIMC.                            0700:   TIME SINCE CIRCLN
UNIT.8940                        8089:   UNIT NO.
BASE.                        PEARLAND:   LOG UNIT HOME BASE
ENG .                    SUTTON/DAVIS:   ENGINEER
WIT .                      BOB SHELBY:   WITNESS
~Curve Information Block
#MNEM.UNIT                    API CODE    No Description
#=========                    ========    == ===========
DEPT.F                   00 001 00 00:     1  DEPTH
CALX.IN                              :     2  Caliper
CNCF.%                               :     3  Field Normalized CNC
DT.US/F                              :     4  Sonic Transit Time
GR.GAPI                              :     5  Gamma Ray
M2R1.OHMM                            :     6  Array Resistivity Curve
M2R2.OHMM                            :     7  Array Resistivity Curve
M2R3.OHMM                            :     8  Array Resistivity Curve
M2R6.OHMM                            :     9  Array Resistivity Curve
M2R9.OHMM                            :    10  Array Resistivity Curve
M2RX.OHMM                            :    11  Array Resistivity Curve
PORZ.%                               :    12  PORZ
RFOC.OHMM                            :    13  Medium Resistivity
RILD.OHMM                            :    14  Deep Resistivity
RILM.OHMM                            :    15  Medium Resistivity
RWAA.OHMM                            :    16  RWAA
RWAZ.OHMM                            :    17  RWAZ
SP.MV                                :    18  Spontaneous Potential
TEN.LB                               :    19  TEN
ZCOR.G/CC                            :    20  Density Correction
~ASCII
# ...
 9409.5000    10.7400    39.4410   125.5490    59.3130      .6670      .6460      .6180      .6170      .6160      .6200    24.6190  -999.2500  -999.2500  -999.2500      .1480      .0490    -1.0640   -11.8860      .0280
 9410.0000    10.7440    39.9100   125.4870    59.4890      .6570      .6360      .6080      .6050      .6030      .6060    24.2020  -999.2500  -999.2500  -999.2500      .1450      .0460     -.9980   -12.1150      .0220
 9410.5000    10.7470    40.1830   125.6190    59.6240      .6560      .6340      .6080      .6040      .6010      .6050    23.7320  -999.2500  -999.2500  -999.2500      .1450      .0440    -1.1150   -13.5870      .0170
 9411.0000    10.7500    40.2620   125.8590    58.7210      .6550      .6340      .6090      .6050      .6020      .6060    23.3690  -999.2500  -999.2500  -999.2500      .1460      .0430    -1.3880   -14.4560      .0140
 9411.5000    10.7570    40.2210   126.3970    57.9790      .6390      .6180      .5970      .5910      .5880      .5910    23.1250  -999.2500  -999.2500  -999.2500      .1450      .0410    -1.6180   -15.6360      .0130
 9412.0000    10.7660    40.2560   126.8620    58.7130      .6140      .5920      .5720      .5660      .5620      .5640    22.9710  -999.2500  -999.2500  -999.2500      .1410      .0380    -2.0040   -17.8700      .0170
 9412.5000    10.7750    40.4600   127.2240    60.5590      .5920      .5690      .5500      .5430      .5390      .5400    22.9160  -999.2500  -999.2500  -999.2500      .1360      .0370    -2.8250   -18.7780      .0190
 9413.0000    10.7750    40.6270   127.3680    62.7340      .5790      .5560      .5370      .5300      .5250      .5250    22.9560  -999.2500  -999.2500  -999.2500      .1330      .0360    -3.3950   -17.4040      .0120
 9413.5000    10.7730    40.6270   127.8510    64.1870      .5730      .5480      .5280      .5210      .5160      .5160    23.0430  -999.2500  -999.2500  -999.2500      .1330      .0350    -3.0490   -15.2970      .0070
 9414.0000    10.7710    40.6540   128.8650    63.8140      .5660      .5400      .5200      .5130      .5080      .5070    23.1560  -999.2500  -999.2500  -999.2500      .1340      .0350    -2.4000   -15.0260      .0070
 9414.5000    10.7650    40.6510   129.2460    62.7230      .5570      .5300      .5100      .5030      .4980      .4980    23.2060  -999.2500  -999.2500  -999.2500      .1330      .0350    -2.0380   -16.9330      .0090
 9415.0000    10.7550    40.5890   129.2220    63.0050      .5480      .5210      .5020      .4960      .4920      .4910    23.1500  -999.2500  -999.2500  -999.2500      .1310      .0340    -1.7130   -17.4180      .0110
 9415.5000    10.7440    40.8030   129.2290    63.9070      .5420      .5170      .5000      .4940      .4900      .4900    23.0560  -999.2500  -999.2500  -999.2500      .1310      .0340    -1.4840   -14.9130      .0130
 9416.0000    10.7360    41.4640   129.3730    64.1250      .5400      .5160      .4990      .4930      .4900      .4900    23.1050  -999.2500  -999.2500  -999.2500      .1320      .0340    -1.7130   -11.8550      .0140
 9416.5000    10.7310    42.1470   129.9650    63.8690      .5370      .5140      .4970      .4900      .4860      .4860    23.3760  -999.2500  -999.2500  -999.2500      .1330      .0340    -2.2220    -8.4620      .0130
 9417.0000    10.7260    42.4010   130.4610    63.6640      .5340      .5110      .4930      .4850      .4800      .4800    23.7820  -999.2500  -999.2500  -999.2500      .1330      .0350    -2.5340    -4.7350      .0090
 9417.5000    10.7250    42.6580   130.3370    63.3890      .5330      .5100      .4920      .4830      .4780      .4770    24.1550  -999.2500  -999.2500  -999.2500      .1320      .0360    -2.2460    -4.1160      .0100
 9418.0000    10.7330    43.0290   130.0600    62.9110      .5320      .5090      .4910      .4830      .4770      .4760    24.4130  -999.2500  -999.2500  -999.2500      .1300      .0370    -1.4280    -7.3450      .0180
 9418.5000    10.7410    43.1930   130.0750    62.0500      .5270      .5040      .4860      .4780      .4720      .4710    24.4620  -999.2500  -999.2500  -999.2500      .1290      .0370     -.7050   -10.5440      .0250
 9419.0000    10.7500    43.1480   130.2120    61.2030      .5180      .4940      .4760      .4690      .4640      .4630    24.2840  -999.2500  -999.2500  -999.2500      .1270      .0360     -.6260   -12.1520      .0290
 9419.5000    10.7630    43.0820   130.1540    60.4410      .5100      .4840      .4680      .4610      .4560      .4550    23.9020  -999.2500  -999.2500  -999.2500      .1250      .0340    -1.1630   -12.4640      .0300
 9420.0000    10.7760    43.1860   129.5240    59.7240      .5040      .4780      .4610      .4550      .4500      .4490    23.5070  -999.2500  -999.2500  -999.2500      .1210      .0320    -1.7740   -12.5120      .0280
 9420.5000    10.7890    43.5650   128.8040    59.4460      .5020      .4750      .4580      .4510      .4470      .4460    23.2750  -999.2500  -999.2500  -999.2500      .1180      .0310    -1.9070   -14.0420      .0230
 9421.0000    10.7940    43.7760   128.8410    60.3370      .5030      .4760      .4570      .4500      .4460      .4450    23.2860  -999.2500  -999.2500  -999.2500      .1180      .0310    -1.8520   -15.8220      .0160
 9421.5000    10.8000    43.6500   129.5380    61.4050      .5000      .4750      .4560      .4490      .4450      .4450    23.4650  -999.2500  -999.2500  -999.2500      .1200      .0320    -2.0000   -14.8850      .0060
 9422.0000    10.8050    43.6400   130.3890    62.2570      .4920      .4680      .4500      .4440      .4400      .4400    23.6320  -999.2500  -999.2500  -999.2500      .1220      .0320    -1.8810   -12.1090     -.0020
 9422.5000    10.7990    43.6650   131.0790    61.8090      .4810      .4580      .4410      .4350      .4310      .4310    23.9040  -999.2500  -999.2500  -999.2500      .1220      .0320    -1.2330   -11.0950     -.0090
 9423.0000    10.7910    43.7370   131.9420    59.8790      .4730      .4490      .4330      .4270      .4230      .4230    24.4660  -999.2500  -999.2500  -999.2500      .1220      .0330     -.9240   -12.1530     -.0050
 9423.5000    10.7830    43.6610   132.1840    58.4080      .4710      .4460      .4300      .4240      .4200      .4190    25.1100  -999.2500  -999.2500  -999.2500      .1220      .0350    -1.4100   -11.9950      .0050
 9424.0000    10.7800    43.5260   131.2170    58.7750      .4770      .4510      .4330      .4260      .4210      .4200    25.5830  -999.2500  -999.2500  -999.2500      .1190      .0360    -1.7620    -8.7200      .0130
 9424.5000    10.7770    43.4530   129.9960    60.6070      .4880      .4600      .4420      .4330      .4280      .4270    25.4410  -999.2500  -999.2500  -999.2500      .1170      .0360    -1.3660    -4.3650      .0170
 9425.0000    10.7760    43.1650   128.3220    62.8310      .4970      .4700      .4500      .4410      .4350      .4340    24.9880  -999.2500  -999.2500  -999.2500      .1130      .0350     -.8750    -2.6970      .0170
 9425.5000    10.7800    42.7290   127.1620    63.2920      .5010      .4730      .4530      .4440      .4380      .4370    24.4340  -999.2500  -999.2500  -999.2500      .1100      .0340     -.7660    -5.3190      .0170
 9426.0000    10.7830    42.4130   127.6570    61.1690      .4970      .4700      .4510      .4420      .4370      .4360    23.9580  -999.2500  -999.2500  -999.2500      .1110      .0330     -.7020    -9.2540      .0170
 9426.5000    10.7840    42.2860   128.8060    58.4830      .4890      .4640      .4470      .4380      .4330      .4320    23.7050  -999.2500  -999.2500  -999.2500      .1140      .0320     -.6050    -9.0030      .0110
 9427.0000    10.8370    42.3230   129.8510    57.0150      .4800      .4560      .4400      .4320      .4270      .4260    24.0180  -999.2500  -999.2500  -999.2500      .1160      .0320     -.6560    -4.0890     -.0040
 9427.5000    10.8400    42.6020   130.1140    56.9840      .4730      .4490      .4320      .4250      .4200      .4190    24.5210  -999.2500  -999.2500  -999.2500      .1150      .0330     -.7620     -.0640     -.0090
