~VERSION INFORMATION
VERS.                             2.0:   CWLS Log ASCII Standard-VERSION 2.0
WRAP.                              NO:   One line per depth step
~Well Information Block
STRT.F                      6412.0000:   Top Depth
STOP.F                      9744.0000:   Bottom Depth
STEP.F                         .50000:   Depth Increment
NULL.                        -999.250:   Null Value
FLD .                      GA BLK 273:   Field Name
WELL.       OCSG09037   005 ST00 BP00:   NAME
API .                  42706403310000:   WELL API
EDF .F                        93.0000:   ELEV DRILL FLOOR
COMP.       SEAGULL ENERGY E AND P IN:   OPERATOR
BN  .                             273:   BLOCK
CTRY.                             USA:   COUNTRY NAME
CNTY.                              GA:   COUNTY
CNTY.                        GLVSTN L:   COUNTY NAME
EGL .F                       -63.0000:   ELEV GROUND LEVEL
EKB .F                        94.0000:   ELEV KELLY BUSHING
TDD .F                       9756.000:   FINAL TD DRILLER
STAT.                           TEXAS:   STATE NAME
UWI .                  42706403310000:   WELL API
DICO.               IHS : Digitizing Company
~PARAMETER INFORMATION (zones)
#MNEM.UNIT                       Value     Description
#=========                       =====     ===========
#ZONATION                          DIL:   ZONATION NAME
#ZONE                            RUN_1:   ZONE NAME
TOP .                       6412.0000:   TOP DEPTH
BOT .                       9744.5000:   BOTTOM DEPTH
RUN .                               1:   RUN NUMBER
LCCD.                             440:   LOGGING CONTRACTOR
SRVC.                    Schlumberger:   LOGGING CONT NAME
DICO.          QC Data Collectors Ltd:   DIG COMPANY NAME
LDAT.                      03/03/1993:   DATE LOGGED
ELD .F                        94.0000:   LOG DATUM ELEVATION
TDD .F                      9756.0000:   TOTAL DEPTH DRILLER
TDL .F                      9750.0000:   TOTAL DEPTH LOGGER
BOTL.F                      9744.0000:   BOTTOM DEPTH LOGGED
TOPL.F                      6543.0000:   TOP DEPTH LOGGED
CS1 .IN                        7.6250:   CASING SIZE 1
BS1 .IN                        6.5000:   BIT SIZE 1
DDB1.F                      9756.0000:   DEPTH DRILLED BIT 1
BHF .                              99:   FLUID CODE
DPT .                   Miscellaneous:   DRILLING FLUID TYPE
MUDD.                         11.7000:   FLUID DENSITY
MUDV.                         46.0000:   FLUID VISCOSITY
DFPH.                          6.5000:   FLUID PH
FL  .                          9.6500:   FLUID LOSS
RM  .OHMM                      1.3200:   RM
RMT .DEGF                     64.0000:   RM TEMP
RMF .OHMM                      1.1100:   RMF
RMFT.DEGF                     70.0000:   RMF TEMP
FSC .                               M:   RMF CODE
RMC .OHMM                      1.6200:   RMC
RMCT.DEGF                     65.0000:   RMC TEMP
CMC .                               M:   RMC CODE
TMAX.DEGF                    186.0000:   MAX REC TEMP
TIMC.                          6.5000:   TIME SINCE CIRCLN
~Curve Information Block
#MNEM.UNIT                    API CODE    No Description
#=========                    ========    == ===========
DEPT.F                   00 001 00 00:     1  DEPTH
DTL.US/F                             :     2  Sonic Transit Time (Slowness)
GR.GAPI                              :     3  Gamma Ray
ILD.OHMM                             :     4  Deep Induction Resistivity
ILM.OHMM                             :     5  Medium Induction Resistivity
SFL.OHMM                             :     6  Medium Resistivity
SP.MV                                :     7  Spontaneous Potential
~ASCII
# ...
 8856.0000   116.0397    96.8939      .5875      .6005      .6281   -37.7940
 8856.5000   116.2539    97.3715      .5876      .5971      .6239   -37.5110
 8857.0000   113.6039    96.8099      .5870      .5931      .6175   -37.2824
 8857.5000   110.1698    94.5262      .5865      .5903      .6108   -37.1995
 8858.0000   108.1748    92.8685      .5866      .5865      .6040   -37.2928
 8858.5000   107.2231    93.6997      .5868      .5837      .5970   -37.3685
 8859.0000   106.8336    94.6204      .5876      .5818      .5918   -37.2515
 8859.5000   106.7544    95.5734      .5885      .5831      .5923   -37.1680
 8860.0000   106.5371    96.3657      .5905      .5871      .6049   -37.0792
 8860.5000   106.1301    97.3945      .5935      .5918      .6250   -36.9463
 8861.0000   105.7170    98.5009      .5976      .5982      .6423   -36.7578
 8861.5000   105.3988    99.6625      .6030      .6062      .6412   -36.6937
 8862.0000   105.2349   100.2457      .6102      .6164      .6318   -36.7191
 8862.5000   105.2126    99.9202      .6202      .6272      .6213   -36.6266
 8863.0000   105.4397    99.1509      .6353      .6413      .6110   -36.5395
 8863.5000   105.6095    97.7140      .6570      .6604      .6067   -36.6411
 8864.0000   105.6198    95.1726      .6898      .6887      .6499   -36.8340
 8864.5000   105.3436    92.1769      .7352      .7343      .7845   -37.2603
 8865.0000   104.4453    87.8181      .7560      .7934     1.0241   -37.8356
 8865.5000   102.8176    83.0825      .7755      .8397     1.1305   -38.4451
 8866.0000   100.8400    79.4053      .8035      .8706     1.1856   -39.0693
 8866.5000    99.0670    79.5125      .8296      .8896     1.2102   -39.6742
 8867.0000    99.3810    80.4626      .8446      .8814     1.1373   -40.1093
 8867.5000   103.1675    81.1858      .8458      .8545      .9811   -40.1754
 8868.0000   108.4229    82.0668      .8302      .8276      .9287   -40.0607
 8868.5000   114.0109    83.0291      .8068      .8005      .8890   -39.8109
 8869.0000   115.4127    84.1316      .7805      .7786      .8187   -39.3057
 8869.5000   115.8533    85.6425      .7587      .7580      .7438   -38.6390
 8870.0000   116.1556    87.4044      .7414      .7408      .6856   -38.0286
 8870.5000   116.3835    89.7463      .7282      .7276      .6372   -38.0183
 8871.0000   116.4445    94.1199      .7215      .7202      .6040   -38.3896
 8871.5000   116.3485    96.8030      .7248      .7213      .5786   -38.9594
 8872.0000   114.7601    95.3979      .7360      .7356      .5818   -39.9254
 8872.5000   111.2814    88.3427      .7532      .7857      .6198   -41.6024
 8873.0000   109.7858    76.4927      .7706      .8760     1.0097   -45.8208
 8873.5000   109.2681    68.9498      .7848      .9681     1.4962   -51.4503
 8874.0000   109.7876    61.9906      .7969      .9963     1.6452   -58.8232
 8874.5000   112.1771    58.8840      .8037     1.0098     1.7322   -68.3091
 8875.0000   113.6163    59.7706      .8063      .9869     1.7961   -72.5275
 8875.5000   114.4097    60.2688      .7947      .9334     1.8329   -75.0320
 8876.0000   115.0713    60.2023      .7541      .8862     1.7749   -75.4462
 8876.5000   115.6844    60.3494      .7028      .8462     1.5347   -75.0310
 8877.0000   116.6100    61.8133      .6585      .8064     1.3056   -75.0831
 8877.5000   117.4524    64.0259      .6293      .7624     1.1840   -75.3618
 8878.0000   118.9760    63.2243      .6082      .7152     1.2126   -75.3408
 8878.5000   121.6732    61.2094      .5934      .6823     1.2691   -74.7456
 8879.0000   126.2090    59.9931      .5798      .6545     1.2178   -73.3660
 8879.5000   130.8193    60.2840      .5696      .6296     1.1396   -70.8505
 8880.0000   131.6580    64.7905      .5669      .6193      .8770   -67.6885
 8880.5000   120.3035    68.9387      .5721      .6258      .7243   -65.0363
 8881.0000   115.4972    71.3213      .5797      .6415      .7552   -63.0287
 8881.5000   114.6176    72.1344      .5884      .6625      .8439   -61.7986
 8882.0000   113.5356    71.5687      .5970      .6905      .9146   -61.3743
 8882.5000   111.6089    68.6063      .6048      .7166     1.0030   -61.0608
 8883.0000   108.1152    66.4453      .6124      .7325     1.1198   -60.3821
 8883.5000   105.9280    66.1776      .6226      .7387     1.1140   -56.9689
 8884.0000   105.1971    68.0116      .6328      .7401     1.0019   -52.9278
 8884.5000   104.7889    71.0073      .6399      .7369      .9135   -47.4313
 8885.0000   107.3906    73.8774      .6408      .7412      .8610   -42.6348
 8885.5000   109.2988    76.1417      .6320      .7522      .8744   -42.1298
 8886.0000   109.7139    77.7089      .6198      .7626      .9075   -42.0867
 8886.5000   108.4836    78.2759      .6093      .7687      .9151   -42.1008
 8887.0000   107.5712    77.7264      .6007      .7672      .8914   -42.0854
 8887.5000   106.9713    77.6174      .5934      .7581      .8154   -42.0925
 8888.0000   106.5107    79.3223      .5872      .7406      .7372   -41.9482
 8888.5000   107.4701    81.9670      .5820      .7193     1.0236   -41.6532
 8889.0000   108.8757    84.1279      .5776      .7008     1.3897   -41.1323
 8889.5000   109.7753    85.4430      .5743      .7036     1.5854   -40.9354
 8890.0000   110.4309    86.5991      .5727      .7174     1.6892   -40.8902
 8890.5000   110.9520    87.8865      .5714      .7312     1.6998   -40.8267
 8891.0000   111.3162    88.8894      .5697      .7428     1.6995   -40.8814
 8891.5000   111.3369    89.5007      .5696      .7447     1.6972   -41.0479
 8892.0000   110.6151    89.4329      .5687      .7313     1.6992   -41.4084
 8892.5000   109.8806    88.9355      .5676      .7201     1.7034   -42.1749
 8893.0000   110.1499    87.8920      .5680      .7179     1.7087   -44.2214
 8893.5000   111.9563    86.5548      .5687      .7224     1.7097   -47.9780
 8894.0000   112.5511    83.3042      .5731      .7256     1.7001   -53.7996
 8894.5000   112.7844    77.8225      .5793      .7290     1.6969   -62.3472
 8895.0000   112.6560    75.2996      .5864      .7327     1.6928   -66.2257
 8895.5000   110.7900    75.6578      .5972      .7338     1.7131   -67.4216
 8896.0000   106.7654    76.2849      .6073      .7322     1.8132   -67.5040
 8896.5000   100.0062    73.4490      .6143      .7266     1.9821   -67.6213
 8897.0000    94.5474    66.3346      .6203      .7173     2.1632   -67.8621
 8897.5000    93.8525    60.7531      .6251      .7045     1.5826   -66.1777
 8898.0000    94.6329    61.6766      .6285      .6904      .8579   -63.7287
 8898.5000    96.9840    69.9176      .6307      .6768      .7127   -58.8380
 8899.0000   103.2419    79.5365      .6318      .6646      .5944   -53.3268
 8899.5000   108.6958    85.1290      .6303      .6560      .5574   -47.8155
 8900.0000   109.9253    86.3859      .6217      .6507      .5507   -44.0219
 8900.5000   110.1843    87.2290      .6170      .6543      .5536   -41.3992
 8901.0000   110.5724    88.8395      .6142      .6614      .5671   -39.9734
 8901.5000   110.6833    89.7704      .6131      .6688      .6017   -38.9677
 8902.0000   109.2145    88.4276      .6137      .6737      .6890   -38.4580
 8902.5000   107.5420    86.1448      .6154      .6759      .7512   -38.4330
 8903.0000   106.7070    84.0707      .6198      .6710      .7700   -38.7124
 8903.5000   106.6277    84.1021      .6262      .6614      .7475   -39.0869
 8904.0000   108.8000    86.1448      .6328      .6549      .6940   -39.3434
 8904.5000   110.6461    88.4313      .6418      .6544      .6587   -39.6447
 8905.0000   111.0905    90.5183      .6540      .6578      .6459   -39.9792
 8905.5000   111.1223    91.5000      .6685      .6589      .6555   -40.1077
 8906.0000   111.5444    90.6993      .6869      .6520      .6785   -40.0302
 8906.5000   112.0680    89.1757      .6998      .6391      .7008   -39.8148
 8907.0000   112.1008    88.1930      .7125      .6267      .7082   -39.7164
 8907.5000   111.6399    87.8359      .7232      .6249      .6869   -39.7177
