~VERSION INFORMATION
VERS.                             2.0:   CWLS Log ASCII Standard-VERSION 2.0
WRAP.                              NO:   One line per depth step
~Well Information Block
STRT.F                      3732.0000:   Top Depth
STOP.F                      8303.0000:   Bottom Depth
STEP.F                         .50000:   Depth Increment
NULL.                        -999.250:   Null Value
FLD .                      BA BLK 415:   Field Name
WELL.       OCSG11271   001 ST00 BP00:   NAME
API .                  42704402170000:   WELL API
EDF .F                       100.0000:   ELEV DRILL FLOOR
COMP.                     APACHE CORP:   OPERATOR
BN  .                             415:   BLOCK
CTRY.                             USA:   COUNTRY NAME
CNTY.                        BRAZOS L:   COUNTY NAME
EGL .F                       -78.0000:   ELEV GROUND LEVEL
EKB .F                       101.0000:   ELEV KELLY BUSHING
TDD .F                       8311.000:   FINAL TD DRILLER
STAT.                           TEXAS:   STATE NAME
UWI .                  42704402170000:   WELL API
DICO.               IHS : Digitizing Company
~PARAMETER INFORMATION (zones)
#MNEM.UNIT                       Value     Description
#=========                       =====     ===========
#ZONATION                          CNL:   ZONATION NAME
#ZONE                            RUN_1:   ZONE NAME
TOP .                       5274.0000:   TOP DEPTH
BOT .                       8300.5000:   BOTTOM DEPTH
RUN .                               1:   RUN NUMBER
LCCD.                              99:   LOGGING CONTRACTOR
DICO.          QC Data Collectors Ltd:   DIG COMPANY NAME
LDAT.                      08/26/1990:   DATE LOGGED
ELD .F                       101.0000:   LOG DATUM ELEVATION
TDD .F                      8311.0000:   TOTAL DEPTH DRILLER
TDL .F                      8306.0000:   TOTAL DEPTH LOGGER
BOTL.F                      8303.0000:   BOTTOM DEPTH LOGGED
TOPL.F                      5257.0000:   TOP DEPTH LOGGED
CS1 .IN                       10.7500:   CASING SIZE 1
BS1 .IN                        9.8750:   BIT SIZE 1
DDB1.F                      8311.0000:   DEPTH DRILLED BIT 1
BHF .                              99:   FLUID CODE
DPT .                   Miscellaneous:   DRILLING FLUID TYPE
MUDD.                         10.0000:   FLUID DENSITY
MUDV.                         43.0000:   FLUID VISCOSITY
DFPH.                          8.1000:   FLUID PH
FL  .                          3.2000:   FLUID LOSS
RM  .OHMM                       .8800:   RM
RMT .DEGF                     75.0000:   RM TEMP
RMF .OHMM                       .7000:   RMF
RMFT.DEGF                     75.0000:   RMF TEMP
FSC .                               C:   RMF CODE
RMC .OHMM                       .9600:   RMC
RMCT.DEGF                     75.0000:   RMC TEMP
CMC .                               C:   RMC CODE
TMAX.DEGF                    166.0000:   MAX REC TEMP
TIMC.                         10.0000:   TIME SINCE CIRCLN
~PARAMETER INFORMATION (zones)
#MNEM.UNIT                       Value     Description
#=========                       =====     ===========
#ZONATION                          DIL:   ZONATION NAME
#ZONE                            RUN_1:   ZONE NAME
TOP .                       3732.0000:   TOP DEPTH
BOT .                       8303.5000:   BOTTOM DEPTH
RUN .                               1:   RUN NUMBER
LCCD.                              99:   LOGGING CONTRACTOR
DICO.          QC Data Collectors Ltd:   DIG COMPANY NAME
LDAT.                      08/26/1990:   DATE LOGGED
ELD .F                       101.0000:   LOG DATUM ELEVATION
TDD .F                      8311.0000:   TOTAL DEPTH DRILLER
TDL .F                      8306.0000:   TOTAL DEPTH LOGGER
BOTL.F                      8303.0000:   BOTTOM DEPTH LOGGED
TOPL.F                      3786.0000:   TOP DEPTH LOGGED
CS1 .IN                       10.7500:   CASING SIZE 1
BS1 .IN                        9.8750:   BIT SIZE 1
DDB1.F                      8311.0000:   DEPTH DRILLED BIT 1
BHF .                              99:   FLUID CODE
DPT .                   Miscellaneous:   DRILLING FLUID TYPE
MUDD.                         10.0000:   FLUID DENSITY
MUDV.                         43.0000:   FLUID VISCOSITY
DFPH.                          8.1000:   FLUID PH
FL  .                          3.2000:   FLUID LOSS
RM  .OHMM                       .8800:   RM
RMT .DEGF                     75.0000:   RM TEMP
RMF .OHMM                       .7000:   RMF
RMFT.DEGF                     75.0000:   RMF TEMP
FSC .                               C:   RMF CODE
RMC .OHMM                       .9600:   RMC
RMCT.DEGF                     75.0000:   RMC TEMP
CMC .                               C:   RMC CODE
TMAX.DEGF                    166.0000:   MAX REC TEMP
TIMC.                          6.0000:   TIME SINCE CIRCLN
~PARAMETER INFORMATION (zones)
#MNEM.UNIT                       Value     Description
#=========                       =====     ===========
#ZONATION                          FDC:   ZONATION NAME
#ZONE                            RUN_1:   ZONE NAME
TOP .                       5263.0000:   TOP DEPTH
BOT .                       8303.5000:   BOTTOM DEPTH
RUN .                               1:   RUN NUMBER
LCCD.                              99:   LOGGING CONTRACTOR
DICO.          QC Data Collectors Ltd:   DIG COMPANY NAME
LDAT.                      08/26/1990:   DATE LOGGED
ELD .F                       101.0000:   LOG DATUM ELEVATION
TDD .F                      8311.0000:   TOTAL DEPTH DRILLER
TDL .F                      8306.0000:   TOTAL DEPTH LOGGER
BOTL.F                      8303.0000:   BOTTOM DEPTH LOGGED
TOPL.F                      5257.0000:   TOP DEPTH LOGGED
CS1 .IN                       10.7500:   CASING SIZE 1
BS1 .IN                        9.8750:   BIT SIZE 1
DDB1.F                      8311.0000:   DEPTH DRILLED BIT 1
BHF .                              99:   FLUID CODE
DPT .                   Miscellaneous:   DRILLING FLUID TYPE
MUDD.                         10.0000:   FLUID DENSITY
MUDV.                         43.0000:   FLUID VISCOSITY
DFPH.                          8.1000:   FLUID PH
FL  .                          3.2000:   FLUID LOSS
RM  .OHMM                       .8800:   RM
RMT .DEGF                     75.0000:   RM TEMP
RMF .OHMM                       .7000:   RMF
RMFT.DEGF                     75.0000:   RMF TEMP
FSC .                               C:   RMF CODE
RMC .OHMM                       .9600:   RMC
RMCT.DEGF                     75.0000:   RMC TEMP
CMC .                               C:   RMC CODE
TMAX.DEGF                    166.0000:   MAX REC TEMP
TIMC.                         10.0000:   TIME SINCE CIRCLN
~Curve Information Block
#MNEM.UNIT                    API CODE    No Description
#=========                    ========    == ===========
DEPT.F                   00 001 00 00:     1  DEPTH
NPHI.%                               :     2  Neutron Porosity
CALI.IN                              :     3  Caliper
DT.US/F                              :     4  Sonic Transit Time
GR.GAPI                              :     5  Gamma Ray
ILD.OHMM                             :     6  Deep Induction Resistivity
ILM.OHMM                             :     7  Medium Induction Resistivity
RFOC.OHMM                            :     8  Medium Resistivity
SP.MV                                :     9  Spontaneous Potential
CALI.IN                              :    10  Caliper
DPHI.%                               :    11  Porosity
DRHO.G/C3                            :    12  Bulk Density Correction
GR.GAPI                              :    13  Gamma Ray
RHOB.G/C3                            :    14  Bulk Density
~ASCII
# ...
 7086.0000    38.4659  -999.2500   116.4700    88.7577      .9708      .9644      .9445   -44.1088    10.6037  -999.2500      .0356    90.5206     2.3393
 7086.5000    38.7598  -999.2500   116.2238    90.1200      .9656      .9564      .9374   -43.9528    10.6020  -999.2500      .0494    93.3557     2.3410
 7087.0000    38.6658  -999.2500   115.1281    87.0758      .9627      .9536      .9367   -43.7840    10.6003  -999.2500      .0556    93.8525     2.3420
 7087.5000    38.2886  -999.2500   113.1235    85.2168      .9599      .9561      .9514   -43.5724    10.5951  -999.2500      .0515    93.1372     2.3395
 7088.0000    37.4855  -999.2500   110.9099    84.4580      .9614      .9585      .9664   -43.7455    10.5768  -999.2500      .0482    94.4481     2.3414
 7088.5000    36.6453  -999.2500   108.8401    83.9711      .9630      .9647      .9940   -44.0447    10.5586  -999.2500      .0497    96.6992     2.3606
 7089.0000    36.0319  -999.2500   107.2367    84.2697      .9673      .9756     1.0253   -44.2625    10.5427  -999.2500      .0540    94.5703     2.3767
 7089.5000    35.9178  -999.2500   106.2599    86.6587      .9735      .9866     1.0528   -44.4662    10.5311  -999.2500      .0622    93.6808     2.3785
 7090.0000    36.1736  -999.2500   106.4919    91.0704      .9787      .9950     1.0519   -44.4023    10.5606  -999.2500      .0685    96.2688     2.3742
 7090.5000    36.5279  -999.2500   107.9541    91.8546      .9787      .9908     1.0489   -44.3344    10.6082  -999.2500      .0741    96.0503     2.3681
 7091.0000    36.9425  -999.2500   109.2471    89.6077      .9788      .9865     1.0257   -44.1665    10.6623  -999.2500      .0686    94.2998     2.3656
 7091.5000    37.5552  -999.2500   109.9259    87.4122      .9781      .9819     1.0069   -43.9987    10.6999  -999.2500      .0609    93.0045     2.3582
 7092.0000    38.0761  -999.2500   110.9399    85.5479      .9719      .9725      .9983   -43.8339    10.7291  -999.2500      .0546    92.8828     2.3430
 7092.5000    38.2521  -999.2500   111.9949    84.2207      .9658      .9631      .9728   -43.6699    10.7271  -999.2500      .0499    93.7068     2.3366
 7093.0000    38.1243  -999.2500   111.6273    83.0721      .9588      .9539      .9763   -43.5295    10.7198  -999.2500      .0463    94.9319     2.3338
 7093.5000    36.7254  -999.2500   107.4366    79.2797      .9446      .9435     1.0218   -43.3277    10.7079  -999.2500      .0480    96.1934     2.3378
 7094.0000    32.6786  -999.2500   104.3319    77.3882      .9305      .9331     1.0920   -43.1727    10.6945  -999.2500      .0637    97.2520     2.3722
 7094.5000    31.9557  -999.2500   102.8344    78.6017      .9199      .9227     1.1203   -43.1165    10.6893  -999.2500      .0720    96.5601     2.3925
 7095.0000    32.4570  -999.2500   102.6285    83.1647      .9127      .9077     1.1155   -43.3033    10.6601  -999.2500      .0614    91.5714     2.4016
 7095.5000    34.3162  -999.2500   104.2117    87.8894      .9039      .8921     1.0583   -43.8013    10.6227  -999.2500      .0506    89.0551     2.3940
 7096.0000    35.9302  -999.2500   108.2050    91.6284      .8959      .8777     1.0041   -44.3149    10.5907  -999.2500      .0442    89.8860     2.3772
 7096.5000    36.4461  -999.2500   111.5554    90.0667      .8909      .8730      .9539   -45.7249    10.5677  -999.2500      .0385    93.9695     2.3575
 7097.0000    36.4471  -999.2500   112.4293    84.9169      .8860      .8704      .9199   -48.5227    10.5528  -999.2500      .0353    96.5380     2.3398
 7097.5000    34.8272  -999.2500   109.5117    80.1296      .8815      .8699      .9635   -53.1301    10.5559  -999.2500      .0349    96.6069     2.3323
 7098.0000    33.2223  -999.2500   105.3171    77.7972      .8772      .8694     1.0398   -54.5785    10.5636  -999.2500      .0379    84.6528     2.3333
 7098.5000    32.7288  -999.2500   103.9517    79.0137      .8729      .8710     1.0947   -52.8511    10.5782  -999.2500      .0373    82.2769     2.3454
 7099.0000    34.5019  -999.2500   108.3409    83.1387      .8770      .8751     1.0615   -49.7795    10.6029  -999.2500      .0354    84.5566     2.3528
 7099.5000    34.8024  -999.2500   112.1801    85.8732      .8820      .8792     1.0092   -48.1407    10.6340  -999.2500      .0348    88.0862     2.3545
 7100.0000    36.1805  -999.2500   113.4338    85.5166      .8892      .8904      .9815   -47.9515    10.6626  -999.2500      .0440    90.3607     2.3311
 7100.5000    36.5507  -999.2500   113.2894    85.2625      .9058      .9074     1.0041   -47.6808    10.6854  -999.2500      .0399    90.9635     2.3265
 7101.0000    35.8695  -999.2500   111.4771    86.9325      .9228      .9164     1.0408   -47.2943    10.7040  -999.2500      .0496    90.2053     2.3321
 7101.5000    35.6661  -999.2500   108.9393    89.6311      .9367      .9223     1.0694   -46.6525    10.7152  -999.2500      .0622    90.8328     2.3446
 7102.0000    36.0964  -999.2500   106.7023    91.0431      .9450      .9285     1.0756   -45.9576    10.7251  -999.2500      .0640    94.0111     2.3556
 7102.5000    36.3851  -999.2500   105.3015    91.4135      .9534      .9349     1.0558   -45.3364    10.7337  -999.2500      .0548    95.9801     2.3638
 7103.0000    36.3708  -999.2500   101.2845    91.0183      .9635      .9457     1.0255   -44.7289    10.7373  -999.2500      .0514    96.5374     2.3705
 7103.5000    35.8565  -999.2500    93.7369    83.9469      .9743      .9598     1.0025   -44.2706    10.7409  -999.2500      .0620    94.8279     2.3744
 7104.0000    34.9667  -999.2500    89.3647    81.1595      .9848      .9723     1.0049   -43.8039    10.7444  -999.2500      .0757    91.3582     2.3759
 7104.5000    33.0724  -999.2500    88.0527    79.7438      .9921      .9830     1.0624   -43.3221    10.7468  -999.2500      .0929    88.3046     2.3946
 7105.0000    31.0542  -999.2500    87.3654    80.7476      .9994      .9939     1.1009   -43.0292    10.7481  -999.2500      .1029    87.7352     2.4165
 7105.5000    30.5588  -999.2500    90.4963    84.6823     1.0045     1.0008     1.0923   -42.7910    10.7369  -999.2500      .0942    88.6323     2.4166
 7106.0000    35.2079  -999.2500    97.9395    87.7120     1.0068     1.0069     1.0644   -42.8134    10.7250  -999.2500      .0821    94.0891     2.3967
 7106.5000    36.4849  -999.2500   104.8389    89.0157     1.0090     1.0130     1.0407   -42.9314    10.7129  -999.2500      .0674    98.3729     2.3800
 7107.0000    36.7717  -999.2500   107.2537    89.7745     1.0098     1.0143     1.0235   -43.2292    10.6974  -999.2500      .0585    99.2870     2.3747
 7107.5000    36.1974  -999.2500   108.4637    90.4526     1.0099     1.0150     1.0409   -43.2413    10.6894  -999.2500      .0543    98.8209     2.3757
 7108.0000    35.7150  -999.2500   109.0818    89.5138     1.0100     1.0158     1.0584   -43.2639    10.6848  -999.2500      .0444    98.4552     2.3747
 7108.5000    35.9549  -999.2500   109.4817    87.5270     1.0084     1.0165     1.0670   -43.4343    10.6809  -999.2500      .0324    98.5452     2.3627
 7109.0000    36.1380  -999.2500   109.9703    87.7460     1.0061     1.0172     1.0571   -43.7283    10.6763  -999.2500      .0367    98.0192     2.3553
 7109.5000    36.0045  -999.2500   110.1718    88.3219     1.0038     1.0180     1.0442   -43.9939    10.6708  -999.2500      .0491    96.6187     2.3513
 7110.0000    35.2704  -999.2500   109.7430    87.0471     1.0024     1.0175     1.0310   -44.0477    10.6654  -999.2500      .0542    95.7833     2.3504
 7110.5000    34.6489  -999.2500   108.3127    85.6300     1.0019     1.0163     1.0179   -43.9688    10.6587  -999.2500      .0561    96.7643     2.3527
 7111.0000    34.3959  -999.2500   107.8444    86.2272     1.0013     1.0151     1.0255   -43.6885    10.6521  -999.2500      .0540    97.6525     2.3534
 7111.5000    34.4797  -999.2500   108.9001    86.0615     1.0008     1.0158     1.0357   -43.6677    10.6485  -999.2500      .0540    95.8812     2.3504
