~VERSION INFORMATION
VERS.                             2.0:   CWLS Log ASCII Standard-VERSION 2.0
WRAP.                              NO:   One line per depth step
~Well Information Block
STRT.F                      6412.0000:   Top Depth
STOP.F                      9744.0000:   Bottom Depth
STEP.F                         .50000:   Depth Increment
NULL.                        -999.250:   Null Value
FLD .                      GA BLK 273:   Field Name
WELL.       OCSG09037   005 ST00 BP00:   NAME
API .                  42706403310000:   WELL API
EDF .F                        93.0000:   ELEV DRILL FLOOR
COMP.       SEAGULL ENERGY E AND P IN:   OPERATOR
BN  .                             273:   BLOCK
CTRY.                             USA:   COUNTRY NAME
CNTY.                              GA:   COUNTY
CNTY.                        GLVSTN L:   COUNTY NAME
EGL .F                       -63.0000:   ELEV GROUND LEVEL
EKB .F                        94.0000:   ELEV KELLY BUSHING
TDD .F                       9756.000:   FINAL TD DRILLER
STAT.                           TEXAS:   STATE NAME
UWI .                  42706403310000:   WELL API
DICO.               IHS : Digitizing Company
~PARAMETER INFORMATION (zones)
#MNEM.UNIT                       Value     Description
#=========                       =====     ===========
#ZONATION                          DIL:   ZONATION NAME
#ZONE                            RUN_1:   ZONE NAME
TOP .                       6412.0000:   TOP DEPTH
BOT .                       9744.5000:   BOTTOM DEPTH
RUN .                               1:   RUN NUMBER
LCCD.                             440:   LOGGING CONTRACTOR
SRVC.                    Schlumberger:   LOGGING CONT NAME
DICO.          QC Data Collectors Ltd:   DIG COMPANY NAME
LDAT.                      03/03/1993:   DATE LOGGED
ELD .F                        94.0000:   LOG DATUM ELEVATION
TDD .F                      9756.0000:   TOTAL DEPTH DRILLER
TDL .F                      9750.0000:   TOTAL DEPTH LOGGER
BOTL.F                      9744.0000:   BOTTOM DEPTH LOGGED
TOPL.F                      6543.0000:   TOP DEPTH LOGGED
CS1 .IN                        7.6250:   CASING SIZE 1
BS1 .IN                        6.5000:   BIT SIZE 1
DDB1.F                      9756.0000:   DEPTH DRILLED BIT 1
BHF .                              99:   FLUID CODE
DPT .                   Miscellaneous:   DRILLING FLUID TYPE
MUDD.                         11.7000:   FLUID DENSITY
MUDV.                         46.0000:   FLUID VISCOSITY
DFPH.                          6.5000:   FLUID PH
FL  .                          9.6500:   FLUID LOSS
RM  .OHMM                      1.3200:   RM
RMT .DEGF                     64.0000:   RM TEMP
RMF .OHMM                      1.1100:   RMF
RMFT.DEGF                     70.0000:   RMF TEMP
FSC .                               M:   RMF CODE
RMC .OHMM                      1.6200:   RMC
RMCT.DEGF                     65.0000:   RMC TEMP
CMC .                               M:   RMC CODE
TMAX.DEGF                    186.0000:   MAX REC TEMP
TIMC.                          6.5000:   TIME SINCE CIRCLN
~Curve Information Block
#MNEM.UNIT                    API CODE    No Description
#=========                    ========    == ===========
DEPT.F                   00 001 00 00:     1  DEPTH
DTL.US/F                             :     2  Sonic Transit Time (Slowness)
GR.GAPI                              :     3  Gamma Ray
ILD.OHMM                             :     4  Deep Induction Resistivity
ILM.OHMM                             :     5  Medium Induction Resistivity
SFL.OHMM                             :     6  Medium Resistivity
SP.MV                                :     7  Spontaneous Potential
~ASCII
# ...
 9064.0000    96.0162    80.5634      .6193      .7183     7.3932   -68.9413
 9064.5000    91.9320    78.5649      .6198      .7159     7.3938   -69.0608
 9065.0000    90.2695    76.2896      .6198      .6877     7.3938   -70.6288
 9065.5000    88.9891    73.4379      .6192      .6556     7.3924   -76.3026
 9066.0000    87.8514    69.9250      .6185      .6363     7.3925   -85.5817
 9066.5000    88.1443    62.5447      .6201      .6325     7.3902   -93.7229
 9067.0000    88.7560    57.9163      .6190      .6392     7.3908  -101.6278
 9067.5000    85.7858    56.1843      .6112      .6494     7.3919  -106.9988
 9068.0000    80.1755    57.1959      .5971      .6570     7.3941  -109.4625
 9068.5000    74.1310    61.7837      .5808      .6591     7.3812  -111.1709
 9069.0000    69.5009    65.1599      .5671      .6560     7.0518  -112.3179
 9069.5000    71.2229    67.7050      .5594      .6477     4.6618  -113.3448
 9070.0000    77.0789    69.5482      .5558      .6344     2.9116  -114.2997
 9070.5000    83.8578    69.6820      .5515      .6178     2.2981  -115.3451
 9071.0000    88.9941    70.2256      .5453      .6022     2.2472  -114.0974
 9071.5000    90.0791    69.3677      .5489      .5947     1.8465  -111.3496
 9072.0000    90.1864    71.1493      .5646      .6042     1.4071  -104.6019
 9072.5000    89.7856    71.7863      .5931      .6399     1.3038   -97.3541
 9073.0000    88.7435    65.5914      .6384      .7083     1.9840   -96.6064
 9073.5000    86.6666    64.3389      .6899      .8080     3.5911   -92.1086
 9074.0000    85.2449    65.5618      .7367      .9197     4.7154   -92.1110
 9074.5000    84.6952    71.1377      .7942     1.0048     3.2772   -88.1132
 9075.0000    85.9794    71.0007      .8610     1.0351     1.6124   -78.3655
 9075.5000    88.1852    70.7279      .9142     1.0208      .9799   -66.6177
 9076.0000    91.8676    69.5199      .9456      .9909      .8704   -56.1200
 9076.5000    93.6490    67.8578      .9513      .9657      .8676   -49.3723
 9077.0000    94.9493    68.2668      .9457      .9527      .8369   -45.8745
 9077.5000    96.0212    71.1598      .9374      .9519      .8385   -43.6267
 9078.0000    96.1722    71.4619      .9238      .9585      .8907   -42.3790
 9078.5000    96.0028    70.8579      .9171      .9639     1.0268   -41.6313
 9079.0000    96.1481    73.5692      .9205      .9593     1.1564   -41.1335
 9079.5000    96.4387    75.6990      .9288      .9448     1.0688   -41.1358
 9080.0000    96.7823    71.7852      .9461      .9314      .8875   -40.6380
 9080.5000    96.8674    67.5399      .9511      .9308      .9285   -40.6403
 9081.0000    96.7539    65.1079      .9293      .9436     1.0247   -40.8925
 9081.5000    95.9331    68.1298      .9137      .9564     1.1863   -42.1448
 9082.0000    95.6094    68.9149      .9103      .9539     1.1455   -42.6471
 9082.5000    97.1155    72.8433      .9045      .9343     1.0175   -43.1493
 9083.0000    98.0374    74.2799      .9044      .9097      .9085   -43.1516
 9083.5000    98.2922    72.4379      .8961      .8923      .9217   -43.1539
 9084.0000    97.1825    67.9050      .8773      .8848      .9685   -42.4061
 9084.5000    96.0547    66.1525      .8715      .8837      .9690   -41.9084
 9085.0000    95.4927    65.8641      .8845      .8880      .8903   -41.1606
 9085.5000    93.7235    68.1166      .8968      .9014      .9414   -41.4129
 9086.0000    92.0115    68.7632      .9075      .9264      .9561   -40.9152
 9086.5000    91.5592    71.9205      .9223      .9586     1.0844   -41.1674
 9087.0000    92.0741    74.5031      .9299      .9870     1.1678   -41.6697
 9087.5000    92.3550    74.7769      .9382      .9999     1.2182   -41.4219
 9088.0000    92.4957    75.2299      .9544      .9938     1.1659   -40.6741
 9088.5000    92.5154    76.9009      .9602      .9769     1.0567   -40.1765
 9089.0000    92.3920    77.9585      .9631      .9615      .9421   -39.9287
 9089.5000    92.0933    75.1179      .9600      .9553      .9138   -39.9310
 9090.0000    91.8267    78.8862      .9499      .9581      .9661   -39.9332
 9090.5000    91.9425    82.0422      .9362      .9633     1.0421   -39.4354
 9091.0000    92.3905    85.5032      .9301      .9632     1.0201   -39.9377
 9091.5000    92.7899    79.0211      .9390      .9559      .9538   -39.6899
 9092.0000    93.2130    78.1315      .9537      .9479      .8937   -39.6923
 9092.5000    93.5970    79.2533      .9724      .9496      .8656   -39.6945
 9093.0000    93.8857    84.2065      .9941      .9692      .8873   -39.4468
 9093.5000    94.0132    80.7313     1.0176     1.0106      .9845   -38.9490
 9094.0000    93.4047    78.7187     1.0461     1.0743     1.2108   -39.2013
 9094.5000    89.5747    76.7725     1.0846     1.1569     1.3153   -39.2036
 9095.0000    85.8876    78.4344     1.1399     1.2503     1.4599   -39.7057
 9095.5000    89.0090    80.0640     1.2131     1.3419     1.5198   -40.4581
 9096.0000    91.7136    80.2489     1.2906     1.4207     1.5874   -40.2103
 9096.5000    93.4084    81.7435     1.3695     1.4868     1.5661   -41.7126
 9097.0000    94.5126    80.4005     1.4499     1.5523     1.3560   -42.7148
 9097.5000    94.4542    74.1981     1.4861     1.6235     1.5822   -44.4671
 9098.0000    92.9965    68.3834     1.4773     1.6816     2.0408   -45.7194
 9098.5000    91.8477    67.7791     1.4605     1.6899     2.6349   -46.2216
 9099.0000    91.4606    73.1758     1.3869     1.6216     2.0800   -45.9739
 9099.5000    91.8110    76.2870     1.2841     1.4796     1.5459   -45.7261
 9100.0000    92.2621    74.7760     1.1902     1.2985     1.4662   -44.9784
 9100.5000    94.4729    72.6923     1.0851     1.1217     1.1550   -44.4807
 9101.0000    97.8425    74.3544      .9978      .9777      .9180   -43.9828
 9101.5000   103.1923    77.9636      .9393      .8771      .7255   -43.4852
 9102.0000   105.3262    78.0996      .8835      .8186      .6976   -41.7374
 9102.5000   106.6724    77.2081      .8291      .7929      .7405   -41.2397
 9103.0000   107.0969    75.1097      .7966      .7878      .8316   -40.4919
 9103.5000   106.9602    78.8691      .7789      .7916      .8681   -39.4942
 9104.0000   106.3497    80.6510      .7667      .7955      .8507   -39.2464
 9104.5000   106.0499    80.8335      .7639      .7937      .9115   -38.7487
 9105.0000   106.8473    82.8157      .7627      .7851      .8719   -38.7510
 9105.5000   108.0569    85.9867      .7605      .7728      .7951   -38.2532
 9106.0000   108.4282    90.0348      .7581      .7615      .7188   -38.5055
 9106.5000   109.1003    87.3322      .7563      .7551      .7252   -38.2578
 9107.0000   126.8145    84.9327      .7551      .7557      .7341   -37.5100
 9107.5000   145.1562    81.1713      .7525      .7624      .7724   -36.7623
 9108.0000   191.1875    80.7009      .7513      .7714      .8369   -37.0145
 9108.5000   240.8091    83.4207      .7537      .7788      .8529   -36.7668
 9109.0000   222.1296    84.1765      .7571      .7821      .8298   -37.0190
 9109.5000   159.1636    86.4430      .7605      .7806      .8208   -36.7713
 9110.0000   128.7200    82.4987      .7646      .7765      .7996   -36.7736
 9110.5000   105.6388    82.8176      .7701      .7738      .7759   -37.2758
 9111.0000   104.2344    81.7421      .7700      .7752      .7437   -38.0281
 9111.5000   104.2416    86.1211      .7718      .7802      .7854   -38.7803
 9112.0000   104.1843    90.0164      .7811      .7870      .8741   -39.0326
 9112.5000   103.9968    89.7148      .7977      .7953      .8301   -39.5348
 9113.0000   103.5248    90.9807      .8337      .8105      .7512   -39.2871
 9113.5000   102.5223    90.3763      .8840      .8433      .7102   -40.0394
 9114.0000    98.5076    89.7723      .9265      .9065      .7306   -41.0416
 9114.5000    92.5721    88.0717      .9726     1.0112      .8140   -43.2939
 9115.0000    86.9744    88.2415     1.0147     1.1615     1.0858   -45.7961
 9115.5000    82.2797    96.2664     1.0316     1.3405     1.2962   -48.0484
