~VERSION INFORMATION
VERS.                             2.0:   CWLS Log ASCII Standard-VERSION 2.0
WRAP.                              NO:   One line per depth step
~Well Information Block
STRT.F                      6412.0000:   Top Depth
STOP.F                      9744.0000:   Bottom Depth
STEP.F                         .50000:   Depth Increment
NULL.                        -999.250:   Null Value
FLD .                      GA BLK 273:   Field Name
WELL.       OCSG09037   005 ST00 BP00:   NAME
API .                  42706403310000:   WELL API
EDF .F                        93.0000:   ELEV DRILL FLOOR
COMP.       SEAGULL ENERGY E AND P IN:   OPERATOR
BN  .                             273:   BLOCK
CTRY.                             USA:   COUNTRY NAME
CNTY.                              GA:   COUNTY
CNTY.                        GLVSTN L:   COUNTY NAME
EGL .F                       -63.0000:   ELEV GROUND LEVEL
EKB .F                        94.0000:   ELEV KELLY BUSHING
TDD .F                       9756.000:   FINAL TD DRILLER
STAT.                           TEXAS:   STATE NAME
UWI .                  42706403310000:   WELL API
DICO.               IHS : Digitizing Company
~PARAMETER INFORMATION (zones)
#MNEM.UNIT                       Value     Description
#=========                       =====     ===========
#ZONATION                          DIL:   ZONATION NAME
#ZONE                            RUN_1:   ZONE NAME
TOP .                       6412.0000:   TOP DEPTH
BOT .                       9744.5000:   BOTTOM DEPTH
RUN .                               1:   RUN NUMBER
LCCD.                             440:   LOGGING CONTRACTOR
SRVC.                    Schlumberger:   LOGGING CONT NAME
DICO.          QC Data Collectors Ltd:   DIG COMPANY NAME
LDAT.                      03/03/1993:   DATE LOGGED
ELD .F                        94.0000:   LOG DATUM ELEVATION
TDD .F                      9756.0000:   TOTAL DEPTH DRILLER
TDL .F                      9750.0000:   TOTAL DEPTH LOGGER
BOTL.F                      9744.0000:   BOTTOM DEPTH LOGGED
TOPL.F                      6543.0000:   TOP DEPTH LOGGED
CS1 .IN                        7.6250:   CASING SIZE 1
BS1 .IN                        6.5000:   BIT SIZE 1
DDB1.F                      9756.0000:   DEPTH DRILLED BIT 1
BHF .                              99:   FLUID CODE
DPT .                   Miscellaneous:   DRILLING FLUID TYPE
MUDD.                         11.7000:   FLUID DENSITY
MUDV.                         46.0000:   FLUID VISCOSITY
DFPH.                          6.5000:   FLUID PH
FL  .                          9.6500:   FLUID LOSS
RM  .OHMM                      1.3200:   RM
RMT .DEGF                     64.0000:   RM TEMP
RMF .OHMM                      1.1100:   RMF
RMFT.DEGF                     70.0000:   RMF TEMP
FSC .                               M:   RMF CODE
RMC .OHMM                      1.6200:   RMC
RMCT.DEGF                     65.0000:   RMC TEMP
CMC .                               M:   RMC CODE
TMAX.DEGF                    186.0000:   MAX REC TEMP
TIMC.                          6.5000:   TIME SINCE CIRCLN
~Curve Information Block
#MNEM.UNIT                    API CODE    No Description
#=========                    ========    == ===========
DEPT.F                   00 001 00 00:     1  DEPTH
DTL.US/F                             :     2  Sonic Transit Time (Slowness)
GR.GAPI                              :     3  Gamma Ray
ILD.OHMM                             :     4  Deep Induction Resistivity
ILM.OHMM                             :     5  Medium Induction Resistivity
SFL.OHMM                             :     6  Medium Resistivity
SP.MV                                :     7  Spontaneous Potential
~ASCII
# ...
 8232.0000   108.7999    97.9175      .8124      .8000      .7622   -42.5580
 8232.5000   108.7999   100.2688      .8091      .8096      .7847   -43.0602
 8233.0000   109.6000    95.8452      .8043      .8157      .8678   -43.0625
 8233.5000   109.7999    90.7177      .7974      .8120      .8877   -43.3148
 8234.0000   108.2000    87.2153      .7917      .7975      .8100   -43.5670
 8234.5000   109.6000    87.5173      .7855      .7775      .7185   -42.8192
 8235.0000   109.1000    88.3418      .7766      .7592      .6767   -42.5715
 8235.5000   109.2999    91.0226      .7662      .7472      .7073   -41.5738
 8236.0000   110.2000    88.8610      .7552      .7414      .7103   -41.0760
 8236.5000   109.5000    90.5955      .7461      .7393      .6918   -40.3283
 8237.0000   110.7999    85.6094      .7376      .7373      .7219   -40.8305
 8237.5000   111.6000    90.0360      .7282      .7327      .7614   -41.0828
 8238.0000   111.7000    89.7854      .7182      .7243      .7154   -41.0850
 8238.5000   111.3999    92.2030      .7128      .7127      .6833   -40.3373
 8239.0000   112.0000    92.5132      .7113      .7006      .6632   -40.5896
 8239.5000   112.1000    92.4615      .7077      .6917      .6496   -40.8419
 8240.0000   112.7000    96.5111      .7065      .6893      .6328   -40.5941
 8240.5000   109.9000    94.2379      .7086      .6948      .6370   -41.0964
 8241.0000   109.5000    93.9186      .7094      .7064      .7293   -41.3486
 8241.5000   108.5000    86.8307      .7055      .7181      .7751   -42.6009
 8242.0000   109.7999    87.3527      .7014      .7220      .8351   -44.1031
 8242.5000   114.1000    85.4056      .7005      .7141      .7461   -46.1054
 8243.0000   116.5000    90.4723      .7041      .6981      .7103   -47.1077
 8243.5000   120.5000    96.5944      .7073      .6823      .6288   -46.3599
 8244.0000   118.6000    97.9231      .7056      .6735      .6380   -43.3621
 8244.5000   115.5000    97.6885      .6991      .6735      .6701   -42.6144
 8245.0000   113.4000    93.5031      .6954      .6807      .6774   -41.8666
 8245.5000   110.7000    93.0809      .6971      .6913      .6779   -41.6190
 8246.0000   110.8999    87.5698      .7060      .7020      .6990   -41.8712
 8246.5000   111.2000    85.7584      .7157      .7113      .7030   -41.8735
 8247.0000   112.5000    87.2694      .7305      .7207      .6880   -41.8757
 8247.5000   111.9000    93.3876      .7450      .7325      .6848   -41.8780
 8248.0000   110.3999    91.9851      .7513      .7481      .7532   -41.8802
 8248.5000   108.8999    92.5027      .7571      .7654      .8055   -42.1325
 8249.0000   107.5000    90.2346      .7645      .7802      .8079   -42.1348
 8249.5000   108.3999    92.5010      .7707      .7881      .7943   -42.3870
 8250.0000   109.3999    87.2670      .7807      .7887      .7986   -41.6393
 8250.5000   109.2000    91.6555      .7848      .7850      .7794   -40.8915
 8251.0000   108.0000    95.2991      .7867      .7817      .7484   -40.8938
 8251.5000   109.2999    99.2158      .7924      .7822      .7213   -41.1461
 8252.0000   107.3999    93.9211      .7942      .7879      .7240   -41.1483
 8252.5000   106.2999    92.0483      .7926      .7974      .7638   -41.1506
 8253.0000   107.1000    88.4664      .7950      .8071      .8215   -41.1528
 8253.5000   108.1000    87.1700      .7968      .8135      .8259   -40.9051
 8254.0000   108.0000    87.0394      .7957      .8148      .8104   -41.4073
 8254.5000   108.4000    91.1569      .7928      .8104      .8140   -41.1596
 8255.0000   109.3000    90.1881      .7840      .8004      .8227   -40.4119
 8255.5000   109.1000    89.3308      .7717      .7850      .7906   -40.6641
 8256.0000   109.7999    89.4957      .7598      .7656      .7543   -40.6664
 8256.5000   111.9999    92.9318      .7487      .7454      .6899   -40.6686
 8257.0000   113.3999    94.1276      .7392      .7282      .6548   -40.9209
 8257.5000   115.1000    92.7161      .7297      .7165      .6503   -40.4231
 8258.0000   115.0000    95.1483      .7206      .7103      .6902   -40.6754
 8258.5000   115.2000    93.7914      .7137      .7084      .7001   -39.9277
 8259.0000   114.7999    98.3357      .7137      .7095      .6690   -40.1799
 8259.5000   115.1000    96.6576      .7213      .7135      .6475   -39.9321
 8260.0000   114.2000    96.3656      .7299      .7211      .6542   -40.4344
 8260.5000   112.1000    89.2528      .7386      .7328      .7181   -40.1866
 8261.0000   110.7999    89.7791      .7487      .7489      .7532   -40.6890
 8261.5000   106.7000    91.1285      .7597      .7684      .7718   -40.4412
 8262.0000   104.8999    93.6248      .7669      .7875      .8291   -40.6935
 8262.5000   104.5000    88.1533      .7731      .7996      .8695   -40.6957
 8263.0000   106.8999    82.9755      .7770      .8007      .8516   -40.6979
 8263.5000   110.2999    83.4827      .7835      .7930      .7581   -40.9502
 8264.0000   110.1000    91.1157      .7920      .7840      .7105   -39.9525
 8264.5000   108.5000    92.6674      .7883      .7793      .7409   -39.9548
 8265.0000   106.2000    92.9845      .7761      .7791      .7994   -39.9570
 8265.5000   105.7000    93.0525      .7698      .7798      .7956   -40.2093
 8266.0000   109.1000    94.7942      .7702      .7779      .7275   -40.2115
 8266.5000   111.8999    96.1381      .7726      .7732      .7405   -39.9638
 8267.0000   113.6000    92.4875      .7742      .7684      .7469   -39.9660
 8267.5000   114.1000    89.0839      .7793      .7676      .7149   -40.2183
 8268.0000   111.7999    86.9156      .7847      .7735      .6803   -39.9706
 8268.5000   107.4000    82.5770      .7866      .7854      .7630   -40.2228
 8269.0000   105.7000    87.2609      .7907      .7995      .8700   -40.7251
 8269.5000   106.5000    85.2822      .8039      .8118      .8390   -40.4773
 8270.0000   107.9000    87.6843      .8228      .8222      .7332   -40.2296
 8270.5000   108.1000    85.4552      .8363      .8335      .7289   -40.4819
 8271.0000   105.8999    89.1683      .8391      .8468      .8535   -40.4841
 8271.5000   103.8999    88.5763      .8363      .8581      .9515   -40.4864
 8272.0000   102.8999    87.4814      .8354      .8610      .9398   -40.2386
 8272.5000   104.9999    87.3958      .8375      .8535      .8413   -39.4908
 8273.0000   108.7999    90.4037      .8379      .8399      .7930   -39.4931
 8273.5000   108.8999    91.3337      .8305      .8261      .7786   -39.2454
 8274.0000   108.7000    89.1351      .8174      .8143      .7905   -39.2477
 8274.5000   108.3999    93.2261      .8050      .8038      .7777   -39.9999
 8275.0000   110.2000    98.7931      .7936      .7929      .7616   -39.5022
 8275.5000   112.1000   100.6620      .7863      .7819      .7308   -39.7545
 8276.0000   113.2000    96.1179      .7841      .7732      .6981   -39.5067
 8276.5000   111.9000    95.0028      .7824      .7690      .7060   -40.2590
 8277.0000   111.8999    92.9830      .7832      .7707      .7257   -40.2612
 8277.5000   111.0000    97.5270      .7875      .7784      .7430   -40.0135
 8278.0000   109.7000    93.6560      .7959      .7919      .7359   -39.2657
 8278.5000   109.7999    95.3461      .8110      .8106      .7755   -39.2680
 8279.0000   109.3999    94.7281      .8303      .8333      .8316   -39.5203
 8279.5000   107.6000    96.5784      .8479      .8580      .8514   -40.0225
 8280.0000   106.1000    97.1533      .8728      .8843      .8463   -40.2748
 8280.5000   101.8999    91.3871      .8993      .9130      .8419   -40.0270
 8281.0000   101.0000    87.7238      .9156      .9421      .9482   -40.7792
 8281.5000   101.3999    80.3406      .9203      .9643     1.0599   -40.7815
 8282.0000    98.1000    79.6306      .9176      .9695     1.1250   -42.0338
 8282.5000   102.2000    78.2246      .9017      .9512     1.0049   -42.2861
 8283.0000   103.2000    80.3228      .8812      .9122     1.0209   -43.2883
 8283.5000   109.7000    82.1477      .8611      .8634      .9152   -43.7906
