~VERSION INFORMATION
VERS.                             2.0:   CWLS Log ASCII Standard-VERSION 2.0
WRAP.                              NO:   One line per depth step
~Well Information Block
STRT.F                      3877.0000:   Top Depth
STOP.F                     10380.0000:   Bottom Depth
STEP.F                         .50000:   Depth Increment
NULL.                        -999.250:   Null Value
FLD .                      GA BLK 321:   Field Name
WELL.       OCSG11316   001 ST01 BP00:   NAME
API .                  42706402670100:   WELL API
EDF .F                        90.0000:   ELEV DRILL FLOOR
COMP.              SHELL OFFSHORE INC:   OPERATOR
BN  .                             321:   BLOCK
CTRY.                             USA:   COUNTRY NAME
CNTY.                        GLVSTN L:   COUNTY NAME
EKB .F                        91.0000:   ELEV KELLY BUSHING
TDD .F                      10395.000:   FINAL TD DRILLER
STAT.                           TEXAS:   STATE NAME
UWI .                  42706402670100:   WELL API
DICO.               IHS : Digitizing Company
~PARAMETER INFORMATION (zones)
#MNEM.UNIT                       Value     Description
#=========                       =====     ===========
#ZONATION                          DIL:   ZONATION NAME
#ZONE                            RUN_1:   ZONE NAME
TOP .                       3877.0000:   TOP DEPTH
BOT .                      10380.5000:   BOTTOM DEPTH
RUN .                               1:   RUN NUMBER
LCCD.                             280:   LOGGING CONTRACTOR
SRVC.                     Halliburton:   LOGGING CONT NAME
DICO.          QC Data Collectors Ltd:   DIG COMPANY NAME
LDAT.                      06/13/1990:   DATE LOGGED
ELD .F                        91.0000:   LOG DATUM ELEVATION
TDD .F                     10395.0000:   TOTAL DEPTH DRILLER
TDL .F                     10390.0000:   TOTAL DEPTH LOGGER
BOTL.F                     10380.0000:   BOTTOM DEPTH LOGGED
TOPL.F                      3954.0000:   TOP DEPTH LOGGED
CS1 .IN                       13.3750:   CASING SIZE 1
BS1 .IN                       12.2500:   BIT SIZE 1
DDB1.F                     10395.0000:   DEPTH DRILLED BIT 1
BHF .                              99:   FLUID CODE
DPT .                   Miscellaneous:   DRILLING FLUID TYPE
MUDD.                         13.4000:   FLUID DENSITY
MUDV.                         68.0000:   FLUID VISCOSITY
DFPH.                          9.0000:   FLUID PH
FL  .                          2.1000:   FLUID LOSS
RM  .OHMM                       .0700:   RM
RMT .DEGF                     77.0000:   RM TEMP
RMF .OHMM                       .0400:   RMF
RMFT.DEGF                     73.0000:   RMF TEMP
FSC .                               M:   RMF CODE
RMC .OHMM                       .1000:   RMC
RMCT.DEGF                     74.0000:   RMC TEMP
CMC .                               M:   RMC CODE
TMAX.DEGF                    209.0000:   MAX REC TEMP
TIMC.                         13.0000:   TIME SINCE CIRCLN
~Curve Information Block
#MNEM.UNIT                    API CODE    No Description
#=========                    ========    == ===========
DEPT.F                   00 001 00 00:     1  DEPTH
CALI.IN                              :     2  Caliper
DT.US/F                              :     3  Sonic Transit Time
GR.GAPI                              :     4  Gamma Ray
ILD.OHMM                             :     5  Deep Induction Resistivity
ILM.OHMM                             :     6  Medium Induction Resistivity
SFL.OHMM                             :     7  Medium Resistivity
SP.MV                                :     8  Spontaneous Potential
~ASCII
# ...
 3968.0000    13.2904   178.2480    29.5298      .5212      .1759      .5182   -13.1767
 3968.5000    13.3216   177.8403    31.8267      .5765      .1879      .5101   -13.1880
 3969.0000    13.3589   178.1448    33.8032      .6029      .1985      .5142   -13.2154
 3969.5000    13.4219   178.8098    35.4558      .6244      .2068      .5197   -13.2422
 3970.0000    13.5291   184.0940    36.7091      .6406      .2140      .4965   -13.3368
 3970.5000    13.6592   186.1665    37.3852      .5814      .2135      .4594   -13.5824
 3971.0000    13.8930   187.1875    36.6343      .5398      .2095      .4261   -13.6439
 3971.5000    14.0306   188.3811    35.5740      .5017      .2053      .4041   -13.8668
 3972.0000    14.1669   199.7712    34.4095      .5117      .2020      .4005   -14.3207
 3972.5000    14.4046   208.0884    33.2443      .5546      .1994      .4291   -14.9587
 3973.0000    14.6671   219.6982    31.9115      .5832      .2097      .4448   -15.5750
 3973.5000    14.8820   228.9487    30.8802      .6196      .2267      .4576   -15.9349
 3974.0000    15.2472   235.7644    30.3810      .6213      .2413      .4747   -16.2578
 3974.5000    15.5863   238.2795  -999.2500      .5328      .2367      .4582   -14.0132
 3975.0000  -999.2500   226.7930  -999.2500      .4989      .2295      .4354  -999.2500
 3975.5000  -999.2500   177.2544  -999.2500      .4847      .2224      .4185  -999.2500
 3976.0000  -999.2500   160.2874  -999.2500      .4725      .2133      .3920  -999.2500
 3976.5000  -999.2500   148.0178  -999.2500      .4554      .2045      .3859  -999.2500
 3977.0000  -999.2500   141.3496  -999.2500      .4573      .2019      .3953  -999.2500
 3977.5000  -999.2500   138.2017  -999.2500      .4643      .2014      .4083  -999.2500
 3978.0000  -999.2500   137.7593  -999.2500      .4646      .2026      .4234  -999.2500
 3978.5000  -999.2500   139.3655  -999.2500      .4573      .2037      .3734  -999.2500
 3979.0000  -999.2500   142.3174  -999.2500      .4352      .2040      .3584  -999.2500
 3979.5000  -999.2500   147.1357  -999.2500      .3927      .1863      .3292  -999.2500
 3980.0000    10.2113   152.3828  -999.2500      .3545      .1748      .3083  -999.2500
 3980.5000    10.5352   162.5771    42.4155      .3458      .1676      .2928   -19.8900
 3981.0000    10.8897   171.5540    43.9760      .3410      .1625      .2924   -19.9971
 3981.5000    11.2281   178.7500    45.1505      .3574      .1619      .2825   -20.0601
 3982.0000    11.4925   205.4717    46.1020      .3705      .1637      .2841   -20.2166
 3982.5000    11.9174   218.7600    45.7164      .3813      .1656      .2907   -20.4414
 3983.0000    12.2457   222.0579    45.2016      .3904      .1671      .2946   -20.7806
 3983.5000    12.5169   221.0610    44.6934      .3962      .1686      .2952   -21.1028
 3984.0000    12.7176   219.6218    44.1893      .4062      .1710      .2849   -21.2986
 3984.5000    12.8739   217.6377    43.8170      .4228      .1789      .2753   -21.4795
 3985.0000    12.7905   214.8855    44.2457      .4624      .1888      .2738   -24.6861
 3985.5000    13.0624   209.8313    44.9716      .6020      .1954      .2833   -27.8618
 3986.0000    13.5502   201.4336    45.5540      .7774      .2016      .2981   -28.9128
 3986.5000    13.9350   194.2720    44.9755      .8036      .2054      .3017   -32.2527
 3987.0000    14.2625   188.7620    43.1660      .7946      .2053      .2931   -34.3254
 3987.5000    15.2825   184.7239    41.6096      .7318      .1986      .2882   -36.3019
 3988.0000    15.6839   182.9517    40.4050      .5763      .1920      .2854   -38.4453
 3988.5000    15.7296   182.5378    40.7375      .4646      .1855      .2821   -36.5516
 3989.0000    15.1540   182.9885    41.4547      .4315      .1794      .2740   -34.0530
 3989.5000    14.7363   185.5767    42.1100      .4188      .1758      .2857   -30.4579
 3990.0000    14.2307   189.4509    42.5926      .4222      .1741      .2968   -27.6268
 3990.5000    14.0085   193.3604    42.3434      .4360      .1740      .3073   -23.7947
 3991.0000    13.9444   196.3821    41.5528      .4481      .1772      .3182   -23.3040
 3991.5000    14.1938   198.6892    41.2550      .4564      .1816      .3324   -23.0390
 3992.0000    14.4520   206.1580    42.7133      .4656      .1861      .3181   -27.0258
 3992.5000    14.6626   223.5056    44.5238      .4793      .1921      .3083   -29.3989
 3993.0000    14.8166   239.6523    45.1450      .4974      .1984      .3141   -33.0247
 3993.5000    15.0145   252.5222    45.3446      .5199      .2053      .3151   -36.5636
 3994.0000    15.1179   271.6450    45.6893      .5433      .2110      .3313   -48.9432
 3994.5000    15.1721   272.8809    46.5026      .5689      .2157      .3389   -59.6589
 3995.0000    15.1025   269.1113    45.1799      .5882      .2180      .3385   -70.6095
 3995.5000    15.0853   265.4082    43.7002      .5895      .2224      .3552   -85.5024
 3996.0000    15.2709   261.2070    42.6439      .5834      .2280      .3791   -93.7422
 3996.5000    15.3815   255.2036    41.9160      .5828      .2374      .4024   -98.7822
 3997.0000    15.4535   250.5784    43.8832      .5910      .2507      .4336  -101.3335
 3997.5000    15.5037   248.7646    46.7090      .6342      .2654      .4585   -99.9841
 3998.0000    15.5370   251.5598    48.2241      .6705      .2772      .4671   -94.1188
 3998.5000    15.5615   255.5361    46.8692      .6494      .2771      .4852   -86.2610
 3999.0000    15.5610   247.4495    43.9873      .6162      .2749      .5018   -75.4438
 3999.5000    15.5479   240.7087    42.0897      .5974      .2729      .5123   -63.5905
 4000.0000    15.5067   206.0400    41.0567      .6224      .2997      .5338   -50.9464
 4000.5000    15.4244   168.9316    40.2968      .6609      .3321      .5592   -40.3376
 4001.0000    15.3161   161.4160    40.9265      .7002      .3619      .5897   -34.4189
 4001.5000    15.1902   170.9844    39.4227      .7379      .3868      .6181   -29.0584
 4002.0000    15.0406   201.7983    37.9177      .7719      .4058      .6721   -24.6474
 4002.5000    14.8837   219.8003    36.5281      .7225      .4185      .6994   -27.1166
 4003.0000    14.7307   243.2773    35.3743      .7060      .4214      .7121   -32.5012
 4003.5000    14.5897   258.5444    34.5674      .6998      .4065      .7161   -37.6733
 4004.0000    14.4904   267.0278    35.3911      .7007      .3889      .7227   -40.4818
 4004.5000    14.7788   266.4043    35.0178      .6976      .3756      .7301   -40.3483
 4005.0000    15.1193   264.4004    33.9414      .6399      .3646      .7666   -37.2821
 4005.5000    15.5370   262.3115    34.6064      .6008      .3530      .7815   -33.5295
 4006.0000    15.9687   260.3647    35.8558      .6073      .3881      .7487   -32.9606
 4006.5000    16.3180   258.7334    36.7878      .6138      .4524      .7188   -39.2906
 4007.0000    16.6075   257.2100    36.7515      .6082      .4701      .6948   -59.3277
 4007.5000    16.7746   256.1299    37.1939      .5515      .4255      .6911   -86.9233
 4008.0000    16.9074   260.3945    37.7100      .5020      .4286      .7268  -139.2263
 4008.5000    17.0265   264.8438    36.7532      .5642      .5264      .7353  -146.7690
 4009.0000    17.1106   259.2202    35.9568      .6307      .6174      .7328  -136.7104
 4009.5000    17.1682   245.1006    39.9276      .7350      .6673      .7303  -123.9061
 4010.0000    17.2170   203.7234    41.6489      .8019      .5319      .7385   -89.0708
 4010.5000    17.2314   167.2156    41.9708      .6711      .4387      .7497   -33.2490
 4011.0000    17.2413   155.8525    40.6573      .6023      .3861      .7441   -20.1563
 4011.5000    17.2482   151.6321    39.3820      .5784      .3650      .7281   -17.6543
 4012.0000    17.2463   149.9248    38.4819      .6270      .4135      .7188   -36.4114
 4012.5000    17.2398   148.7886    37.8442      .6893      .4858      .7151   -73.7932
 4013.0000    17.2247   147.9441    39.0555      .7232      .5679      .7292   -94.9788
