~VERSION INFORMATION
VERS.                             2.0:   CWLS Log ASCII Standard-VERSION 2.0
WRAP.                              NO:   One line per depth step
~Well Information Block
STRT.F                      3150.0000:   Top Depth
STOP.F                     11219.0000:   Bottom Depth
STEP.F                         .50000:   Depth Increment
NULL.                        -999.250:   Null Value
FLD .                      GA BLK 300:   Field Name
WELL.       OCSG11310   002 ST00 BP00:   NAME
API .                  42706403320000:   WELL API
EDF .F                        97.5000:   ELEV DRILL FLOOR
COMP.       SEAGULL ENERGY E AND P IN:   OPERATOR
BN  .                             300:   BLOCK
CTRY.                             USA:   COUNTRY NAME
CNTY.                              GA:   COUNTY
CNTY.                        GLVSTN L:   COUNTY NAME
EGL .F                       -56.0000:   ELEV GROUND LEVEL
EKB .F                        98.5000:   ELEV KELLY BUSHING
TDD .F                      11225.000:   FINAL TD DRILLER
STAT.                           TEXAS:   STATE NAME
UWI .                  42706403320000:   WELL API
DICO.               IHS : Digitizing Company
~PARAMETER INFORMATION (zones)
#MNEM.UNIT                       Value     Description
#=========                       =====     ===========
#ZONATION                          CNL:   ZONATION NAME
#ZONE                            RUN_2:   ZONE NAME
TOP .                       9384.0000:   TOP DEPTH
BOT .                      11168.5000:   BOTTOM DEPTH
RUN .                               2:   RUN NUMBER
LCCD.                             440:   LOGGING CONTRACTOR
SRVC.                    Schlumberger:   LOGGING CONT NAME
DICO.          QC Data Collectors Ltd:   DIG COMPANY NAME
LDAT.                      04/26/1993:   DATE LOGGED
ELD .F                        98.5000:   LOG DATUM ELEVATION
TDD .F                     11217.0000:   TOTAL DEPTH DRILLER
TDL .F                     11225.0000:   TOTAL DEPTH LOGGER
BOTL.F                     11219.0000:   BOTTOM DEPTH LOGGED
TOPL.F                      9802.0000:   TOP DEPTH LOGGED
CS1 .IN                        7.6250:   CASING SIZE 1
BS1 .IN                        6.5000:   BIT SIZE 1
DDB1.F                     11217.0000:   DEPTH DRILLED BIT 1
BHF .                              99:   FLUID CODE
DPT .                   Miscellaneous:   DRILLING FLUID TYPE
MUDD.                         13.9000:   FLUID DENSITY
MUDV.                         41.0000:   FLUID VISCOSITY
DFPH.                         10.0000:   FLUID PH
FL  .                          3.2000:   FLUID LOSS
RM  .OHMM                       .9550:   RM
RMT .DEGF                     77.0000:   RM TEMP
RMF .OHMM                       .5740:   RMF
RMFT.DEGF                     76.0000:   RMF TEMP
FSC .                               M:   RMF CODE
RMC .OHMM                      1.6900:   RMC
RMCT.DEGF                     76.0000:   RMC TEMP
CMC .                               M:   RMC CODE
TMAX.DEGF                    207.0000:   MAX REC TEMP
TIMC.                         17.0000:   TIME SINCE CIRCLN
~PARAMETER INFORMATION (zones)
#MNEM.UNIT                       Value     Description
#=========                       =====     ===========
#ZONATION                          DIL:   ZONATION NAME
#ZONE                            RUN_1:   ZONE NAME
TOP .                       3150.0000:   TOP DEPTH
BOT .                       9865.5000:   BOTTOM DEPTH
RUN .                               1:   RUN NUMBER
LCCD.                             440:   LOGGING CONTRACTOR
SRVC.                    Schlumberger:   LOGGING CONT NAME
DICO.          QC Data Collectors Ltd:   DIG COMPANY NAME
LDAT.                      04/10/1993:   DATE LOGGED
ELD .F                        98.5000:   LOG DATUM ELEVATION
TDD .F                      9878.0000:   TOTAL DEPTH DRILLER
TDL .F                      9871.0000:   TOTAL DEPTH LOGGER
BOTL.F                      9865.0000:   BOTTOM DEPTH LOGGED
TOPL.F                      3298.0000:   TOP DEPTH LOGGED
CS1 .IN                       10.7500:   CASING SIZE 1
BS1 .IN                        9.8750:   BIT SIZE 1
DDB1.F                      9878.0000:   DEPTH DRILLED BIT 1
BHF .                              99:   FLUID CODE
DPT .                   Miscellaneous:   DRILLING FLUID TYPE
MUDD.                         11.8000:   FLUID DENSITY
MUDV.                         44.0000:   FLUID VISCOSITY
DFPH.                          9.5000:   FLUID PH
FL  .                          4.6000:   FLUID LOSS
RM  .OHMM                       .8730:   RM
RMT .DEGF                     82.0000:   RM TEMP
RMF .OHMM                       .4990:   RMF
RMFT.DEGF                     82.0000:   RMF TEMP
FSC .                               M:   RMF CODE
RMC .OHMM                      1.4400:   RMC
RMCT.DEGF                     82.0000:   RMC TEMP
CMC .                               M:   RMC CODE
TMAX.DEGF                    177.0000:   MAX REC TEMP
TIMC.                         15.0000:   TIME SINCE CIRCLN
~PARAMETER INFORMATION (zones)
#MNEM.UNIT                       Value     Description
#=========                       =====     ===========
#ZONATION                          DIL:   ZONATION NAME
#ZONE                            RUN_2:   ZONE NAME
TOP .                       9802.0000:   TOP DEPTH
BOT .                      11219.5000:   BOTTOM DEPTH
RUN .                               2:   RUN NUMBER
LCCD.                             440:   LOGGING CONTRACTOR
SRVC.                    Schlumberger:   LOGGING CONT NAME
DICO.          QC Data Collectors Ltd:   DIG COMPANY NAME
LDAT.                      04/26/1993:   DATE LOGGED
ELD .F                        98.5000:   LOG DATUM ELEVATION
TDD .F                     11217.0000:   TOTAL DEPTH DRILLER
TDL .F                     11225.0000:   TOTAL DEPTH LOGGER
BOTL.F                     11219.0000:   BOTTOM DEPTH LOGGED
TOPL.F                      9802.0000:   TOP DEPTH LOGGED
CS1 .IN                        7.6250:   CASING SIZE 1
BS1 .IN                        6.5000:   BIT SIZE 1
DDB1.F                     11217.0000:   DEPTH DRILLED BIT 1
BHF .                              99:   FLUID CODE
DPT .                   Miscellaneous:   DRILLING FLUID TYPE
MUDD.                         13.9000:   FLUID DENSITY
MUDV.                         41.0000:   FLUID VISCOSITY
DFPH.                         10.0000:   FLUID PH
FL  .                          3.2000:   FLUID LOSS
RM  .OHMM                       .9550:   RM
RMT .DEGF                     77.0000:   RM TEMP
RMF .OHMM                       .5740:   RMF
RMFT.DEGF                     76.0000:   RMF TEMP
FSC .                               M:   RMF CODE
RMC .OHMM                      1.6900:   RMC
RMCT.DEGF                     76.0000:   RMC TEMP
CMC .                               M:   RMC CODE
TMAX.DEGF                    207.0000:   MAX REC TEMP
TIMC.                         17.0000:   TIME SINCE CIRCLN
~PARAMETER INFORMATION (zones)
#MNEM.UNIT                       Value     Description
#=========                       =====     ===========
#ZONATION                          LDT:   ZONATION NAME
#ZONE                            RUN_2:   ZONE NAME
TOP .                       9372.0000:   TOP DEPTH
BOT .                      11188.5000:   BOTTOM DEPTH
RUN .                               2:   RUN NUMBER
LCCD.                             440:   LOGGING CONTRACTOR
SRVC.                    Schlumberger:   LOGGING CONT NAME
DICO.          QC Data Collectors Ltd:   DIG COMPANY NAME
LDAT.                      04/26/1993:   DATE LOGGED
ELD .F                        98.5000:   LOG DATUM ELEVATION
TDD .F                     11217.0000:   TOTAL DEPTH DRILLER
TDL .F                     11225.0000:   TOTAL DEPTH LOGGER
BOTL.F                     11219.0000:   BOTTOM DEPTH LOGGED
TOPL.F                      9802.0000:   TOP DEPTH LOGGED
CS1 .IN                        7.6250:   CASING SIZE 1
BS1 .IN                        6.5000:   BIT SIZE 1
DDB1.F                     11217.0000:   DEPTH DRILLED BIT 1
BHF .                              99:   FLUID CODE
DPT .                   Miscellaneous:   DRILLING FLUID TYPE
MUDD.                         13.9000:   FLUID DENSITY
MUDV.                         41.0000:   FLUID VISCOSITY
DFPH.                         10.0000:   FLUID PH
FL  .                          3.2000:   FLUID LOSS
RM  .OHMM                       .9550:   RM
RMT .DEGF                     77.0000:   RM TEMP
RMF .OHMM                       .5740:   RMF
RMFT.DEGF                     76.0000:   RMF TEMP
FSC .                               M:   RMF CODE
RMC .OHMM                      1.6900:   RMC
RMCT.DEGF                     76.0000:   RMC TEMP
CMC .                               M:   RMC CODE
TMAX.DEGF                    207.0000:   MAX REC TEMP
TIMC.                         17.0000:   TIME SINCE CIRCLN
~Curve Information Block
#MNEM.UNIT                    API CODE    No Description
#=========                    ========    == ===========
DEPT.F                   00 001 00 00:     1  DEPTH
NPHI.%                               :     2  Neutron Porosity
DT.US/F                              :     3  Sonic Transit Time
DTL.US/F                             :     4  Sonic Transit Time (Slowness)
GR.GAPI                              :     5  Gamma Ray
ILD.OHMM                             :     6  Deep Induction Resistivity
ILM.OHMM                             :     7  Medium Induction Resistivity
SFL.OHMM                             :     8  Medium Resistivity
SP.MV                                :     9  Spontaneous Potential
DCAL.IN                              :    10  Differential Caliper
DPHI.%                               :    11  Porosity
GR.GAPI                              :    12  Gamma Ray
~ASCII
# ...
10622.5000    37.0636  -999.2500   105.3875  -999.2500      .7969      .7978      .8567   -40.2975     7.0555    18.3977    73.3341
10623.0000    37.9907  -999.2500   105.1665  -999.2500      .7928      .7995      .8586   -40.1787     7.0246    18.3478    73.3547
10623.5000    38.6304  -999.2500   105.2220  -999.2500      .7907      .8002      .8445   -40.0859     6.9719    18.3643    73.5698
10624.0000    38.5082  -999.2500   105.8341  -999.2500      .7890      .7974      .8257   -39.9750     6.8794    18.4396    73.8394
10624.5000    38.0272  -999.2500   106.6597  -999.2500      .7874      .7971      .8037   -39.8809     6.7852    18.5557    74.2192
10625.0000    37.3448  -999.2500   107.4821  -999.2500      .7855      .7967      .7918   -39.7525     6.8658    18.6816    75.1057
10625.5000    36.6588  -999.2500   107.6194  -999.2500      .7845      .7960      .7888   -39.7313     7.0385    18.7604    76.3767
10626.0000    36.2685  -999.2500   107.6313  -999.2500      .7842      .7979      .7895   -39.7483     7.1715    18.5834    77.2651
10626.5000    36.3264  -999.2500   107.2406  -999.2500      .7847      .7989      .7936   -39.8344     7.1911    17.9755    77.2958
10627.0000    36.3416  -999.2500   106.5194  -999.2500      .7864      .8006      .8085   -39.9597     7.2202    17.1481    76.4490
10627.5000    35.9073  -999.2500   105.6987  -999.2500      .7890      .8006      .8271   -40.1118     7.3177    16.2612    75.0223
10628.0000    33.9758  -999.2500   105.0631  -999.2500      .7906      .8024      .8484   -40.2996     7.3939    15.7582    72.6360
10628.5000    32.8299  -999.2500   104.5430  -999.2500      .7926      .8051      .8660   -40.4091     7.3803    15.6269    70.6202
10629.0000    33.9802  -999.2500   104.1097  -999.2500      .7955      .8119      .8756   -40.4128     7.0269    16.0454    69.4575
10629.5000    34.5442  -999.2500   103.6987  -999.2500      .7985      .8223      .8791   -40.5921     6.4842    16.6719    70.5979
10630.0000    34.8270  -999.2500   103.0768  -999.2500      .8041      .8351      .8797   -40.9781     6.4351    17.2686    72.2877
10630.5000    33.7406  -999.2500   102.4933  -999.2500      .8121      .8548      .9068   -41.3779     6.3665    17.5644    74.8075
10631.0000    31.9102  -999.2500   102.1338  -999.2500      .8214      .8698      .9475   -41.4569     6.1379    17.5391    77.6237
10631.5000    31.9460  -999.2500   102.0874  -999.2500      .8315      .8788      .9720   -41.2617     6.1629    17.4571    79.8655
10632.0000    33.9817  -999.2500   102.2705  -999.2500      .8416      .8845      .9785   -41.0839     6.1434    17.3179    81.4960
10632.5000    35.4728  -999.2500   103.4108  -999.2500      .8475      .8818      .9729   -41.0866     5.8278    17.3334    81.4570
10633.0000    35.8076  -999.2500   104.6323  -999.2500      .8505      .8732      .9618   -41.2820     5.5176    17.6861    80.5159
10633.5000    34.9014  -999.2500   105.2170  -999.2500      .8489      .8640      .9511   -41.5413     5.6294    18.0726    79.0614
10634.0000    34.3634  -999.2500   106.3704  -999.2500      .8448      .8549      .9395   -41.7584     5.9539    18.2824    77.2938
10634.5000    34.9817  -999.2500   107.7434  -999.2500      .8396      .8486      .9255   -41.9168     6.2240    18.3341    75.5522
10635.0000    36.3151  -999.2500   107.8030  -999.2500      .8343      .8418      .8979   -42.0267     6.2673    18.0640    74.9880
10635.5000    37.5740  -999.2500   106.3108  -999.2500      .8291      .8372      .8683   -42.0220     6.0865    17.6533    75.4652
10636.0000    38.1823  -999.2500   105.3289  -999.2500      .8241      .8331      .8646   -41.7257     5.9156    17.6143    76.4712
10636.5000    38.0085  -999.2500   104.5951  -999.2500      .8195      .8305      .8578   -41.5447     5.7665    18.0358    77.8774
10637.0000    37.5651  -999.2500   104.2239  -999.2500      .8151      .8279      .8571   -41.4357     5.9321    18.3605    79.1355
10637.5000    37.5272  -999.2500   104.1667  -999.2500      .8122      .8246      .8737   -41.3307     6.2190    18.3888    79.7108
10638.0000    37.7809  -999.2500   104.2977  -999.2500      .8095      .8201      .8856   -41.1837     6.4847    18.0994    78.7168
10638.5000    37.1425  -999.2500   104.1357  -999.2500      .8080      .8188      .8865   -41.2284     6.6478    17.8211    77.4698
10639.0000    35.9951  -999.2500   103.4468  -999.2500      .8075      .8196      .8883   -41.4048     6.6460    17.6794    77.0437
10639.5000    35.4780  -999.2500   102.6311  -999.2500      .8104      .8230      .8912   -41.6295     6.5982    17.5038    77.5847
10640.0000    35.1089  -999.2500   102.3340  -999.2500      .8131      .8290      .8977   -41.8003     6.5107    16.9204    78.2842
10640.5000    34.8953  -999.2500   102.3821  -999.2500      .8157      .8364      .9126   -41.8854     6.2715    16.3490    78.5476
10641.0000    35.1379  -999.2500   102.5691  -999.2500      .8215      .8442      .9391   -41.7482     6.0152    16.2515    78.1368
10641.5000    35.5420  -999.2500   102.9818  -999.2500      .8292      .8515      .9947   -41.5595     5.7946    16.3518    77.4069
10642.0000    34.9163  -999.2500   103.2157  -999.2500      .8386      .8608     1.0478   -41.4262     5.5794    16.3838    76.2489
10642.5000    32.4281  -999.2500   102.2538  -999.2500      .8507      .8711     1.0695   -41.3343     5.4795    16.1451    74.7740
10643.0000    31.0546  -999.2500   100.2377  -999.2500      .8637      .8811     1.0376   -41.2571     5.6005    15.6280    73.3030
10643.5000    30.8884  -999.2500    98.7417  -999.2500      .8759      .8905     1.0067   -41.1467     5.6849    14.8876    72.3544
10644.0000    30.5583  -999.2500    99.5846  -999.2500      .8863      .9005      .9837   -40.9929     5.6549    13.8296    72.2395
10644.5000    29.5293  -999.2500   100.2687  -999.2500      .8994      .9095      .9759   -40.8394     5.5300    12.9486    73.2456
10645.0000    28.9489  -999.2500   100.1882  -999.2500      .9142      .9188      .9926   -40.7268     5.3207    13.0126    74.6777
10645.5000    29.4876  -999.2500   100.0179  -999.2500      .9258      .9316     1.0398   -40.6294     5.0650    14.1451    75.3503
10646.0000    34.1662  -999.2500   101.1637  -999.2500      .9338      .9475     1.0653   -40.5939     4.8463    14.8795    75.5367
10646.5000    38.5740  -999.2500   102.9788  -999.2500      .9368      .9621     1.0778   -40.6277     4.6494    15.3289    75.4702
10647.0000    39.2675  -999.2500   103.0035  -999.2500      .9336      .9746     1.0882   -40.6581     4.7142    15.6380    75.3237
10647.5000    39.5045  -999.2500   102.1904  -999.2500      .9266      .9607     1.0721   -40.6294     4.9665    15.6819    75.1021
10648.0000    39.1232  -999.2500   102.2810  -999.2500      .9108      .9384     1.0079   -40.5582     5.2040    15.2418    74.5944
10648.5000    38.0413  -999.2500   103.3077  -999.2500      .8907      .9182      .9803   -40.6052     5.1466    14.4799    73.9246
10649.0000    36.9683  -999.2500   103.5844  -999.2500      .8716      .8967     1.0147   -40.8307     4.8686    14.3017    73.8347
10649.5000    36.3552  -999.2500   103.3611  -999.2500      .8603      .8753     1.0763   -41.1797     4.6467    14.4144    76.9863
10650.0000    36.3731  -999.2500   103.1246  -999.2500      .8542      .8618     1.0838   -41.2714     4.4894    14.9888    79.6395
10650.5000    37.3568  -999.2500   103.3322  -999.2500      .8502      .8538     1.0168   -41.3795     4.3983    15.8028    80.2212
10651.0000    38.4208  -999.2500   102.9415  -999.2500      .8457      .8492      .9517   -41.4063     4.3640    16.5558    79.4098
10651.5000    39.1797  -999.2500   101.5238  -999.2500      .8395      .8445      .8940   -41.4709     4.0830    17.2924    77.4532
10652.0000    39.1998  -999.2500    98.7727  -999.2500      .8342      .8401      .8597   -41.4208     3.7318    17.8259    74.8186
10652.5000    39.1147  -999.2500    97.4530  -999.2500      .8309      .8374      .8566   -41.3189     3.5646    17.9480    71.6207
