~VERSION INFORMATION
VERS.                             2.0:   CWLS Log ASCII Standard-VERSION 2.0
WRAP.                              NO:   One line per depth step
~Well Information Block
STRT.F                      3877.0000:   Top Depth
STOP.F                     10380.0000:   Bottom Depth
STEP.F                         .50000:   Depth Increment
NULL.                        -999.250:   Null Value
FLD .                      GA BLK 321:   Field Name
WELL.       OCSG11316   001 ST01 BP00:   NAME
API .                  42706402670100:   WELL API
EDF .F                        90.0000:   ELEV DRILL FLOOR
COMP.              SHELL OFFSHORE INC:   OPERATOR
BN  .                             321:   BLOCK
CTRY.                             USA:   COUNTRY NAME
CNTY.                        GLVSTN L:   COUNTY NAME
EKB .F                        91.0000:   ELEV KELLY BUSHING
TDD .F                      10395.000:   FINAL TD DRILLER
STAT.                           TEXAS:   STATE NAME
UWI .                  42706402670100:   WELL API
DICO.               IHS : Digitizing Company
~PARAMETER INFORMATION (zones)
#MNEM.UNIT                       Value     Description
#=========                       =====     ===========
#ZONATION                          DIL:   ZONATION NAME
#ZONE                            RUN_1:   ZONE NAME
TOP .                       3877.0000:   TOP DEPTH
BOT .                      10380.5000:   BOTTOM DEPTH
RUN .                               1:   RUN NUMBER
LCCD.                             280:   LOGGING CONTRACTOR
SRVC.                     Halliburton:   LOGGING CONT NAME
DICO.          QC Data Collectors Ltd:   DIG COMPANY NAME
LDAT.                      06/13/1990:   DATE LOGGED
ELD .F                        91.0000:   LOG DATUM ELEVATION
TDD .F                     10395.0000:   TOTAL DEPTH DRILLER
TDL .F                     10390.0000:   TOTAL DEPTH LOGGER
BOTL.F                     10380.0000:   BOTTOM DEPTH LOGGED
TOPL.F                      3954.0000:   TOP DEPTH LOGGED
CS1 .IN                       13.3750:   CASING SIZE 1
BS1 .IN                       12.2500:   BIT SIZE 1
DDB1.F                     10395.0000:   DEPTH DRILLED BIT 1
BHF .                              99:   FLUID CODE
DPT .                   Miscellaneous:   DRILLING FLUID TYPE
MUDD.                         13.4000:   FLUID DENSITY
MUDV.                         68.0000:   FLUID VISCOSITY
DFPH.                          9.0000:   FLUID PH
FL  .                          2.1000:   FLUID LOSS
RM  .OHMM                       .0700:   RM
RMT .DEGF                     77.0000:   RM TEMP
RMF .OHMM                       .0400:   RMF
RMFT.DEGF                     73.0000:   RMF TEMP
FSC .                               M:   RMF CODE
RMC .OHMM                       .1000:   RMC
RMCT.DEGF                     74.0000:   RMC TEMP
CMC .                               M:   RMC CODE
TMAX.DEGF                    209.0000:   MAX REC TEMP
TIMC.                         13.0000:   TIME SINCE CIRCLN
~Curve Information Block
#MNEM.UNIT                    API CODE    No Description
#=========                    ========    == ===========
DEPT.F                   00 001 00 00:     1  DEPTH
CALI.IN                              :     2  Caliper
DT.US/F                              :     3  Sonic Transit Time
GR.GAPI                              :     4  Gamma Ray
ILD.OHMM                             :     5  Deep Induction Resistivity
ILM.OHMM                             :     6  Medium Induction Resistivity
SFL.OHMM                             :     7  Medium Resistivity
SP.MV                                :     8  Spontaneous Potential
~ASCII
# ...
10338.0000    10.2865    86.0792    58.5598     1.0702      .9180     1.1627   -38.3499
10338.5000    10.2759  -999.2500  -999.2500     1.0955      .9324     1.3700   -39.7709
10339.0000    10.2652  -999.2500  -999.2500     1.1129      .9643     1.3056   -41.6476
10339.5000    10.2545  -999.2500  -999.2500     1.1565     1.0642     1.1400   -43.0955
10340.0000    10.2439  -999.2500  -999.2500     1.2372     1.1879      .8767   -44.7028
10340.5000    10.2188  -999.2500  -999.2500     1.3652     1.3016      .9093   -45.5105
10341.0000    10.2050  -999.2500  -999.2500     1.5323     1.4370     1.0293   -45.8282
10341.5000    10.1967  -999.2500  -999.2500     1.7014     1.6127     1.2119   -46.4468
10342.0000    10.1944  -999.2500  -999.2500     1.8960     1.8613     1.5249   -47.5247
10342.5000    10.2000  -999.2500  -999.2500     2.1299     2.1183     3.6322   -48.9805
10343.0000    10.1872  -999.2500  -999.2500     2.2622     2.0307     3.9078   -50.2540
10343.5000    10.1602  -999.2500  -999.2500     2.1057     1.7906     3.9327   -51.1995
10344.0000    10.1213  -999.2500  -999.2500     1.7724     1.5013     3.4597   -50.8492
10344.5000    10.0773  -999.2500  -999.2500     1.4141      .8598     1.7365   -49.7366
10345.0000    10.0193  -999.2500  -999.2500     1.2157      .7987     1.0662   -48.1735
10345.5000     9.9800  -999.2500  -999.2500     1.0748      .7875      .8341   -46.5809
10346.0000     9.9408  -999.2500  -999.2500     1.0084      .7941      .7625   -45.0419
10346.5000     9.8993  -999.2500  -999.2500      .9653      .7989      .7755   -43.5646
10347.0000     9.8448  -999.2500  -999.2500      .9345      .7992      .7637   -42.3903
10347.5000     9.7975  -999.2500  -999.2500      .9124      .7984      .7396   -41.7220
10348.0000     9.7472  -999.2500  -999.2500      .9098      .8011      .7729   -41.2790
10348.5000     9.7146  -999.2500  -999.2500      .9049      .8073      .8571   -40.8862
10349.0000     9.6943  -999.2500  -999.2500      .8879      .8090      .8842   -40.5477
10349.5000     9.6843  -999.2500  -999.2500      .8705      .7990      .8194   -40.3212
10350.0000     9.6690  -999.2500  -999.2500      .8756      .7988      .7369   -40.4506
10350.5000     9.6534  -999.2500  -999.2500      .8889      .7798      .6785   -40.8132
10351.0000     9.6367  -999.2500  -999.2500      .8904      .7613      .7029   -41.0709
10351.5000     9.6189  -999.2500  -999.2500      .8465      .7171      .7856   -40.7253
10352.0000     9.6007  -999.2500  -999.2500      .8086      .6874      .7306   -40.1503
10352.5000     9.5822  -999.2500  -999.2500      .8164      .7095      .6599   -39.1154
10353.0000     9.5627  -999.2500  -999.2500      .8476      .7361      .6459   -38.0818
10353.5000     9.5468  -999.2500  -999.2500      .8718      .7553      .6917   -37.7071
10354.0000     9.5437  -999.2500  -999.2500      .8871      .7429      .7277   -37.7325
10354.5000     9.5365  -999.2500  -999.2500      .8893      .7256      .7325  -999.2500
10355.0000     9.5246  -999.2500  -999.2500      .8869      .7162      .7306  -999.2500
10355.5000     9.5181  -999.2500  -999.2500      .8752      .7089      .7058  -999.2500
10356.0000     9.5172  -999.2500  -999.2500      .8629      .7078      .6737  -999.2500
10356.5000     9.5132  -999.2500  -999.2500      .8466      .7086      .6359  -999.2500
10357.0000     9.5017  -999.2500  -999.2500      .8751      .7147      .6115  -999.2500
10357.5000     9.4896  -999.2500  -999.2500      .9917      .7357      .6494  -999.2500
10358.0000     9.4845  -999.2500  -999.2500     1.0807      .7655      .7006  -999.2500
10358.5000     9.4847  -999.2500  -999.2500     1.1733      .7943      .7667  -999.2500
10359.0000     9.4812  -999.2500  -999.2500     1.1501      .8043      .8729  -999.2500
10359.5000     9.4750  -999.2500  -999.2500     1.0033      .8070      .9856  -999.2500
10360.0000     9.4723  -999.2500  -999.2500      .9121      .8043      .9710  -999.2500
10360.5000     9.4724  -999.2500  -999.2500      .8768      .8005      .9086  -999.2500
10361.0000     9.4726  -999.2500  -999.2500      .8697      .7957      .8258  -999.2500
10361.5000     9.4678  -999.2500  -999.2500      .8634      .7857      .7193  -999.2500
10362.0000     9.4581  -999.2500  -999.2500      .8571      .7725      .6582  -999.2500
10362.5000     9.4502  -999.2500  -999.2500      .8500      .7567      .6414  -999.2500
10363.0000     9.4475  -999.2500  -999.2500      .8438      .7428      .6627  -999.2500
10363.5000     9.4476  -999.2500  -999.2500      .8432      .7358      .6344  -999.2500
10364.0000     9.4477  -999.2500  -999.2500      .8427      .7372      .6042  -999.2500
10364.5000     9.4496  -999.2500  -999.2500      .8422      .7391      .6040  -999.2500
10365.0000     9.4523  -999.2500  -999.2500      .8432      .7409      .6060  -999.2500
10365.5000     9.4525  -999.2500  -999.2500      .8445      .7427      .6050  -999.2500
10366.0000     9.4502  -999.2500  -999.2500      .8457      .7423      .6035  -999.2500
10366.5000     9.4502  -999.2500  -999.2500      .8468      .7419      .6020  -999.2500
10367.0000     9.4564  -999.2500  -999.2500      .8479      .7414      .6013  -999.2500
10367.5000     9.4603  -999.2500  -999.2500      .8491      .7404      .6009  -999.2500
10368.0000     9.4528  -999.2500  -999.2500      .8503      .7390      .6006  -999.2500
10368.5000     9.4388  -999.2500  -999.2500      .8563      .7383      .6010  -999.2500
10369.0000     9.4324  -999.2500  -999.2500      .8624      .7399      .6059  -999.2500
10369.5000     9.4293  -999.2500  -999.2500      .8660      .7415      .6130  -999.2500
10370.0000     9.4281  -999.2500  -999.2500      .8680      .7460      .6238  -999.2500
10370.5000     9.4247  -999.2500  -999.2500      .8700      .7512      .6353  -999.2500
10371.0000     9.4188  -999.2500  -999.2500      .8709      .7568      .6475  -999.2500
10371.5000     9.4142  -999.2500  -999.2500      .8693      .7625      .6580  -999.2500
10372.0000     9.4105  -999.2500  -999.2500      .8677      .7628      .6644  -999.2500
10372.5000     9.4080  -999.2500  -999.2500      .8663      .7613      .6708  -999.2500
10373.0000     9.4098  -999.2500  -999.2500      .8679      .7604      .6776  -999.2500
10373.5000     9.4119  -999.2500  -999.2500      .8695      .7602      .6846  -999.2500
10374.0000     9.4121  -999.2500  -999.2500      .8709      .7600      .6914  -999.2500
10374.5000     9.4141  -999.2500  -999.2500      .8698      .7599      .6959  -999.2500
10375.0000     9.4165  -999.2500  -999.2500      .8686      .7597      .7004  -999.2500
10375.5000     9.4125  -999.2500  -999.2500      .8674      .7596      .7027  -999.2500
10376.0000     9.4087  -999.2500  -999.2500      .8679      .7595      .7026  -999.2500
10376.5000     9.4151  -999.2500  -999.2500      .8684      .7594      .7025  -999.2500
10377.0000     9.4172  -999.2500  -999.2500      .8691      .7617      .7015  -999.2500
10377.5000     9.4174  -999.2500  -999.2500      .8702      .7660      .6994  -999.2500
10378.0000     9.4181  -999.2500  -999.2500      .8713      .7702      .6974  -999.2500
10378.5000     9.4213  -999.2500  -999.2500      .8725      .7719      .6958  -999.2500
10379.0000     9.4221  -999.2500  -999.2500      .8737      .7731      .6945  -999.2500
10379.5000     9.4280  -999.2500  -999.2500      .8750      .7723      .6932  -999.2500
10380.0000     9.4476  -999.2500  -999.2500      .8762      .7712      .6924  -999.2500
