~VERSION INFORMATION
VERS.                             2.0:   CWLS Log ASCII Standard-VERSION 2.0
WRAP.                              NO:   One line per depth step
~Well Information Block
STRT.F                      4470.0000:   Top Depth
STOP.F                     11800.5000:   Bottom Depth
STEP.F                         .50000:   Depth Increment
NULL.                        -999.250:   Null Value
FLD .                      GA BLK 315:   Field Name
WELL.       OCSG14835   001 ST00 BP00:   NAME
API .                  42706403880000:   WELL API
LOC .       993' FSL & 3018' FEL OF B:   AREA NAME
CTRY.                             USA:   COUNTRY
EGL .FT                      -66.0000:   GROUND LEVEL
EKB .FT                        0.0000:   KB ELEVATION
COMP.              APACHE CORPORATION:   OPERATOR
DREF.                             MSL:   PERM DATUM
COUN.                        OFFSHORE:   RIG NAME
STAT.                              TX:   STATE
CNTY.                        OFFSHORE:   COUNTY
DIGS.                   QC Data, Inc.:   DIG COMPANY NAME
EREF.FT                        0.0000:   ELEV DEPTH REFERENCE
UWI .                  42706403880000:   WELL API
DICO.               IHS : Digitizing Company
~PARAMETER INFORMATION (zones)
#MNEM.UNIT                       Value     Description
#=========                       =====     ===========
#ZONATION                        ZONES:   ZONATION NAME
#ZONE                             LAS1:   ZONE NAME
TOP .                       4470.0000:   TOP DEPTH
BOT .                      11816.0000:   BOTTOM DEPTH
SRVC.                   WESTERN ATLAS:   LOGGING CONTRACTOR
DATE.                         10AUG96:   RUN DATE
RW  .OHMM                      0.0000:   RW
RWT .DEGF                      0.0000:   RW TEMP
RUN .                               1:   LOG RUN
TDL .FT                     9298.0000:   FINAL TD LOGGER
TDD .FT                     9300.0000:   FINAL TD DRILLER
BOTL.FT                     9296.0000:   BOTTOM DEPTH LOGGED
TOPL.FT                     4478.0000:   TOP DEPTH LOGGED
CSGL.FT                     4494.0000:   CASING DEPTH LOGGER
CSGD.FT                     4488.0000:   CASING DEPTH DRILLER
CSGS.IN                       13.3750:   CASING SIZE
CSGW.                          0.0000:   CASING WEIGHT
BS  .IN                       12.2500:   BIT SIZE
MUD .                             MUD:   MUD TYPE
MUDD.                         14.2000:   MUD WEIGHT
MUDV.                         41.0000:   MUD VISCOSITY
FL  .                          4.4000:   FLUID LOSS
PH  .                          8.5000:   MUD PH
MUDS.                             PIT:   MUD SOURCE
RM  .OHMM                      1.3000:   RM
RMT .DEGF                     80.0000:   RM TEMP
RMF .OHMM                      0.5400:   RMF
RMFT.DEGF                     80.0000:   RMF TEMP
RMC .OHMM                      2.5000:   RMC
RMCT.DEGF                     80.0000:   RMC TEMP
MMFS.                            MEAS:   RMF SOURCE
MCFS.                            MEAS:   RMC SOURCE
RMBH.OHMM                      0.5500:   RM BH
BHT .DEGF                    182.0000:   BH TEMP
TMAX.DEGF                    182.0000:   MAX REC TEMP
SON .                          180318:   SERVICE ORDER NUM
ELMF.FT                       92.0000:   ABOVE PERM DATUM
LMF .                              DF:   LOGS MEAS FROM
DMF .                              DF:   DRILL MEAS FROM
TIMC.                            0600:   TIME SINCE CIRCLN
UNIT.8940                        8079:   UNIT NO.
BASE.                        PEARLAND:   LOG UNIT HOME BASE
ENG .                          SUTTON:   ENGINEER
WIT .                            DILL:   WITNESS
~PARAMETER INFORMATION (zones)
#MNEM.UNIT                       Value     Description
#=========                       =====     ===========
#ZONATION                        ZONES:   ZONATION NAME
#ZONE                             LAS2:   ZONE NAME
TOP .                       4470.0000:   TOP DEPTH
BOT .                      11816.0000:   BOTTOM DEPTH
SRVC.                   WESTERN ATLAS:   LOGGING CONTRACTOR
DATE.                         21AUG96:   RUN DATE
RW  .OHMM                      0.0000:   RW
RWT .DEGF                      0.0000:   RW TEMP
RUN .                               2:   LOG RUN
TDL .FT                    11503.0000:   FINAL TD LOGGER
TDD .FT                    11500.0000:   FINAL TD DRILLER
BOTL.FT                    11495.0000:   BOTTOM DEPTH LOGGED
TOPL.FT                     9240.0000:   TOP DEPTH LOGGED
CSGL.FT                     9240.0000:   CASING DEPTH LOGGER
CSGD.FT                     9250.0000:   CASING DEPTH DRILLER
CSGS.IN                        9.6250:   CASING SIZE
CSGW.                          0.0000:   CASING WEIGHT
BS  .IN                        8.5000:   BIT SIZE
MUD .                     DESCO LO-PH:   MUD TYPE
MUDD.                         16.4000:   MUD WEIGHT
MUDV.                         50.0000:   MUD VISCOSITY
FL  .                          2.8000:   FLUID LOSS
PH  .                          8.5000:   MUD PH
MUDS.                             PIT:   MUD SOURCE
RM  .OHMM                      1.0000:   RM
RMT .DEGF                     80.0000:   RM TEMP
RMF .OHMM                      0.4500:   RMF
RMFT.DEGF                     80.0000:   RMF TEMP
RMC .OHMM                      3.0000:   RMC
RMCT.DEGF                     80.0000:   RMC TEMP
MMFS.                            MEAS:   RMF SOURCE
MCFS.                            MEAS:   RMC SOURCE
RMBH.OHMM                      0.3870:   RM BH
BHT .DEGF                    230.0000:   BH TEMP
TMAX.DEGF                    230.0000:   MAX REC TEMP
SON .                          180319:   SERVICE ORDER NUM
ELMF.FT                       92.0000:   ABOVE PERM DATUM
LMF .                              DF:   LOGS MEAS FROM
DMF .                              DF:   DRILL MEAS FROM
TIMC.                            0700:   TIME SINCE CIRCLN
UNIT.8940                        8089:   UNIT NO.
BASE.                        PEARLAND:   LOG UNIT HOME BASE
ENG .                    SUTTON/DAVIS:   ENGINEER
WIT .                      MR.CAMBELL:   WITNESS
~PARAMETER INFORMATION (zones)
#MNEM.UNIT                       Value     Description
#=========                       =====     ===========
#ZONATION                        ZONES:   ZONATION NAME
#ZONE                             LAS3:   ZONE NAME
TOP .                       4470.0000:   TOP DEPTH
BOT .                      11816.0000:   BOTTOM DEPTH
SRVC.                   WESTERN ATLAS:   LOGGING CONTRACTOR
DATE.                         23AUG96:   RUN DATE
RW  .OHMM                      0.0000:   RW
RWT .DEGF                      0.0000:   RW TEMP
RUN .                               3:   LOG RUN
TDL .FT                    11800.0000:   FINAL TD LOGGER
TDD .FT                    11800.0000:   FINAL TD DRILLER
BOTL.FT                    11791.0000:   BOTTOM DEPTH LOGGED
TOPL.FT                     9240.0000:   TOP DEPTH LOGGED
CSGL.FT                     9240.0000:   CASING DEPTH LOGGER
CSGD.FT                     9250.0000:   CASING DEPTH DRILLER
CSGS.IN                        9.6250:   CASING SIZE
CSGW.                          0.0000:   CASING WEIGHT
BS  .IN                        8.5000:   BIT SIZE
MUD .                     DESCO LO-PH:   MUD TYPE
MUDD.                         16.4000:   MUD WEIGHT
MUDV.                         50.0000:   MUD VISCOSITY
FL  .                          2.8000:   FLUID LOSS
PH  .                          8.5000:   MUD PH
MUDS.                             PIT:   MUD SOURCE
RM  .OHMM                      1.0000:   RM
RMT .DEGF                     80.0000:   RM TEMP
RMF .OHMM                      0.4500:   RMF
RMFT.DEGF                     80.0000:   RMF TEMP
RMC .OHMM                      3.0000:   RMC
RMCT.DEGF                     80.0000:   RMC TEMP
MMFS.                            MEAS:   RMF SOURCE
MCFS.                            MEAS:   RMC SOURCE
RMBH.OHMM                      0.3870:   RM BH
BHT .DEGF                    232.0000:   BH TEMP
TMAX.DEGF                    232.0000:   MAX REC TEMP
SON .                          180319:   SERVICE ORDER NUM
ELMF.FT                       92.0000:   ABOVE PERM DATUM
LMF .                              DF:   LOGS MEAS FROM
DMF .                              DF:   DRILL MEAS FROM
TIMC.                            0700:   TIME SINCE CIRCLN
UNIT.8940                        8089:   UNIT NO.
BASE.                        PEARLAND:   LOG UNIT HOME BASE
ENG .                    SUTTON/DAVIS:   ENGINEER
WIT .                      BOB SHELBY:   WITNESS
~Curve Information Block
#MNEM.UNIT                    API CODE    No Description
#=========                    ========    == ===========
DEPT.F                   00 001 00 00:     1  DEPTH
CALX.IN                              :     2  Caliper
CNCF.%                               :     3  Field Normalized CNC
DT.US/F                              :     4  Sonic Transit Time
GR.GAPI                              :     5  Gamma Ray
M2R1.OHMM                            :     6  Array Resistivity Curve
M2R2.OHMM                            :     7  Array Resistivity Curve
M2R3.OHMM                            :     8  Array Resistivity Curve
M2R6.OHMM                            :     9  Array Resistivity Curve
M2R9.OHMM                            :    10  Array Resistivity Curve
M2RX.OHMM                            :    11  Array Resistivity Curve
PORZ.%                               :    12  PORZ
RFOC.OHMM                            :    13  Medium Resistivity
RILD.OHMM                            :    14  Deep Resistivity
RILM.OHMM                            :    15  Medium Resistivity
RWAA.OHMM                            :    16  RWAA
RWAZ.OHMM                            :    17  RWAZ
SP.MV                                :    18  Spontaneous Potential
TEN.LB                               :    19  TEN
ZCOR.G/CC                            :    20  Density Correction
~ASCII
# ...
10593.5000  -999.2500  -999.2500   128.1190    74.4100      .4680      .4400      .4220      .4150      .4110      .4110  -999.2500  -999.2500  -999.2500  -999.2500      .1060  -999.2500    -1.9630   -16.1010  -999.2500
10594.0000  -999.2500  -999.2500   128.0500    74.1210      .4640      .4350      .4180      .4120      .4080      .4080  -999.2500  -999.2500  -999.2500  -999.2500      .1050  -999.2500    -1.1640   -17.1460  -999.2500
10594.5000  -999.2500  -999.2500   128.3770    74.8460      .4590      .4300      .4130      .4070      .4040      .4040  -999.2500  -999.2500  -999.2500  -999.2500      .1050  -999.2500     -.9470   -16.1350  -999.2500
10595.0000  -999.2500  -999.2500   128.4180    75.6070      .4540      .4240      .4080      .4020      .3990      .3980  -999.2500  -999.2500  -999.2500  -999.2500      .1040  -999.2500    -1.7930   -13.5230  -999.2500
10595.5000  -999.2500  -999.2500   127.9850    76.4390      .4540      .4220      .4060      .4000      .3960      .3960  -999.2500  -999.2500  -999.2500  -999.2500      .1020  -999.2500    -2.6350    -4.7120  -999.2500
10596.0000  -999.2500  -999.2500   127.5090    77.3870      .4600      .4270      .4100      .4040      .4000      .4000  -999.2500  -999.2500  -999.2500  -999.2500      .1020  -999.2500    -2.3710    12.9710  -999.2500
10596.5000  -999.2500  -999.2500   127.1480    77.7820      .4680      .4340      .4170      .4100      .4070      .4070  -999.2500  -999.2500  -999.2500  -999.2500      .1020  -999.2500    -1.6380    26.5920  -999.2500
10597.0000  -999.2500  -999.2500   127.3870    77.9270      .4710      .4360      .4190      .4120      .4080      .4080  -999.2500  -999.2500  -999.2500  -999.2500      .1030  -999.2500    -1.5970    22.3710  -999.2500
10597.5000  -999.2500  -999.2500   128.0560    78.4590      .4670      .4330      .4150      .4080      .4040      .4030  -999.2500  -999.2500  -999.2500  -999.2500      .1040  -999.2500    -1.9400     6.8390  -999.2500
10598.0000  -999.2500  -999.2500   128.3530    78.5140      .4620      .4290      .4120      .4040      .4000      .4000  -999.2500  -999.2500  -999.2500  -999.2500      .1040  -999.2500    -1.9940    -3.4630  -999.2500
10598.5000  -999.2500  -999.2500   128.3240    77.7600      .4620      .4300      .4130      .4060      .4020      .4020  -999.2500  -999.2500  -999.2500  -999.2500      .1050  -999.2500    -2.0060    -4.1430  -999.2500
10599.0000  -999.2500  -999.2500   128.3070    76.5630      .4630      .4320      .4160      .4100      .4060      .4060  -999.2500  -999.2500  -999.2500  -999.2500      .1060  -999.2500    -2.2800    -3.1800  -999.2500
10599.5000  -999.2500  -999.2500   128.6980    75.1920      .4600      .4300      .4140      .4090      .4060      .4060  -999.2500  -999.2500  -999.2500  -999.2500      .1070  -999.2500    -2.5060    -5.5120  -999.2500
10600.0000  -999.2500  -999.2500   129.2160    73.7640      .4530      .4240      .4080      .4020      .4000      .4000  -999.2500  -999.2500  -999.2500  -999.2500      .1070  -999.2500    -2.3410    -7.9690  -999.2500
10600.5000  -999.2500  -999.2500   129.3910    73.9750      .4470      .4180      .4030      .3970      .3940      .3940  -999.2500  -999.2500  -999.2500  -999.2500      .1060  -999.2500    -1.9000    -7.6000  -999.2500
10601.0000  -999.2500  -999.2500   129.5740    76.7550      .4440      .4150      .4000      .3950      .3920      .3920  -999.2500  -999.2500  -999.2500  -999.2500      .1060  -999.2500    -1.5130    -8.6460  -999.2500
10601.5000  -999.2500  -999.2500   129.9010    79.3500      .4400      .4110      .3960      .3900      .3870      .3870  -999.2500  -999.2500  -999.2500  -999.2500      .1060  -999.2500    -1.2320   -13.0830  -999.2500
10602.0000  -999.2500  -999.2500   130.0620    79.0950      .4320      .4040      .3890      .3830      .3800      .3800  -999.2500  -999.2500  -999.2500  -999.2500      .1040  -999.2500    -1.0550   -15.3680  -999.2500
10602.5000  -999.2500  -999.2500   130.1870    77.6910      .4280      .4010      .3860      .3800      .3770      .3770  -999.2500  -999.2500  -999.2500  -999.2500      .1040  -999.2500    -1.1280   -12.8000  -999.2500
10603.0000  -999.2500  -999.2500   130.2580    77.1610      .4290      .4020      .3880      .3820      .3790      .3790  -999.2500  -999.2500  -999.2500  -999.2500      .1040  -999.2500    -1.5310   -10.6930  -999.2500
10603.5000  -999.2500  -999.2500   130.3150    76.9800      .4300      .4010      .3880      .3830      .3790      .3790  -999.2500  -999.2500  -999.2500  -999.2500      .1050  -999.2500    -1.9830   -11.4510  -999.2500
10604.0000  -999.2500  -999.2500   131.3010    77.1690      .4230      .3950      .3830      .3770      .3730      .3730  -999.2500  -999.2500  -999.2500  -999.2500      .1060  -999.2500    -2.0550   -10.7160  -999.2500
10604.5000  -999.2500  -999.2500   132.6350    78.3760      .4130      .3870      .3750      .3690      .3650      .3650  -999.2500  -999.2500  -999.2500  -999.2500      .1080  -999.2500    -1.7390    -7.4810  -999.2500
10605.0000  -999.2500  -999.2500   132.7600    79.4530      .4060      .3810      .3690      .3640      .3610      .3600  -999.2500  -999.2500  -999.2500  -999.2500      .1060  -999.2500    -1.3840    -7.5370  -999.2500
10605.5000  -999.2500  -999.2500   132.0010    79.4510      .4060      .3800      .3680      .3630      .3600      .3600  -999.2500  -999.2500  -999.2500  -999.2500      .1040  -999.2500    -1.3240   -12.9350  -999.2500
10606.0000  -999.2500  -999.2500   131.0660    78.7490      .4090      .3810      .3690      .3640      .3620      .3610  -999.2500  -999.2500  -999.2500  -999.2500      .1020  -999.2500    -1.7400   -18.3730  -999.2500
10606.5000  -999.2500  -999.2500   130.3250    78.7530      .4090      .3800      .3680      .3630      .3610      .3610  -999.2500  -999.2500  -999.2500  -999.2500      .1000  -999.2500    -2.3590   -18.0020  -999.2500
10607.0000  -999.2500  -999.2500   131.0540    79.2680      .4040      .3760      .3640      .3590      .3570      .3560  -999.2500  -999.2500  -999.2500  -999.2500      .1000  -999.2500    -2.5790   -12.6860  -999.2500
10607.5000  -999.2500  -999.2500   132.3880    78.5500      .3990      .3720      .3600      .3550      .3530      .3530  -999.2500  -999.2500  -999.2500  -999.2500      .1030  -999.2500    -2.4760    -8.0410  -999.2500
10608.0000  -999.2500  -999.2500   132.9330    75.9790      .3960      .3700      .3580      .3530      .3500      .3490  -999.2500  -999.2500  -999.2500  -999.2500      .1040  -999.2500    -2.6870    -8.6410  -999.2500
10608.5000  -999.2500  -999.2500   132.8660    74.1570      .3960      .3690      .3570      .3510      .3480      .3470  -999.2500  -999.2500  -999.2500  -999.2500      .1030  -999.2500    -3.1340   -13.6130  -999.2500
10609.0000  -999.2500  -999.2500   131.8630    74.9670      .4010      .3730      .3600      .3540      .3510      .3500  -999.2500  -999.2500  -999.2500  -999.2500      .1010  -999.2500    -3.0570   -18.2170  -999.2500
10609.5000  -999.2500  -999.2500   130.4700    76.9640      .4120      .3830      .3700      .3640      .3610      .3600  -999.2500  -999.2500  -999.2500  -999.2500      .1000  -999.2500    -2.4620   -18.6590  -999.2500
10610.0000  -999.2500  -999.2500   129.8700    77.2350      .4240      .3940      .3810      .3750      .3720      .3720  -999.2500  -999.2500  -999.2500  -999.2500      .1010  -999.2500    -2.1680   -16.9170  -999.2500
10610.5000  -999.2500  -999.2500   129.8910    75.5050      .4290      .4000      .3870      .3810      .3770      .3780  -999.2500  -999.2500  -999.2500  -999.2500      .1030  -999.2500    -2.3280   -16.9290  -999.2500
10611.0000  -999.2500  -999.2500   129.8600    73.6350      .4280      .4000      .3860      .3790      .3760      .3760  -999.2500  -999.2500  -999.2500  -999.2500      .1020  -999.2500    -2.2450   -17.5330  -999.2500
10611.5000  -999.2500  -999.2500   130.5290    72.4130      .4260      .3980      .3840      .3770      .3740      .3740  -999.2500  -999.2500  -999.2500  -999.2500      .1040  -999.2500    -1.9440   -14.2280  -999.2500
