~VERSION INFORMATION
VERS.                             2.0:   CWLS Log ASCII Standard-VERSION 2.0
WRAP.                              NO:   One line per depth step
~Well Information Block
STRT.F                      3877.0000:   Top Depth
STOP.F                     10380.0000:   Bottom Depth
STEP.F                         .50000:   Depth Increment
NULL.                        -999.250:   Null Value
FLD .                      GA BLK 321:   Field Name
WELL.       OCSG11316   001 ST01 BP00:   NAME
API .                  42706402670100:   WELL API
EDF .F                        90.0000:   ELEV DRILL FLOOR
COMP.              SHELL OFFSHORE INC:   OPERATOR
BN  .                             321:   BLOCK
CTRY.                             USA:   COUNTRY NAME
CNTY.                        GLVSTN L:   COUNTY NAME
EKB .F                        91.0000:   ELEV KELLY BUSHING
TDD .F                      10395.000:   FINAL TD DRILLER
STAT.                           TEXAS:   STATE NAME
UWI .                  42706402670100:   WELL API
DICO.               IHS : Digitizing Company
~PARAMETER INFORMATION (zones)
#MNEM.UNIT                       Value     Description
#=========                       =====     ===========
#ZONATION                          DIL:   ZONATION NAME
#ZONE                            RUN_1:   ZONE NAME
TOP .                       3877.0000:   TOP DEPTH
BOT .                      10380.5000:   BOTTOM DEPTH
RUN .                               1:   RUN NUMBER
LCCD.                             280:   LOGGING CONTRACTOR
SRVC.                     Halliburton:   LOGGING CONT NAME
DICO.          QC Data Collectors Ltd:   DIG COMPANY NAME
LDAT.                      06/13/1990:   DATE LOGGED
ELD .F                        91.0000:   LOG DATUM ELEVATION
TDD .F                     10395.0000:   TOTAL DEPTH DRILLER
TDL .F                     10390.0000:   TOTAL DEPTH LOGGER
BOTL.F                     10380.0000:   BOTTOM DEPTH LOGGED
TOPL.F                      3954.0000:   TOP DEPTH LOGGED
CS1 .IN                       13.3750:   CASING SIZE 1
BS1 .IN                       12.2500:   BIT SIZE 1
DDB1.F                     10395.0000:   DEPTH DRILLED BIT 1
BHF .                              99:   FLUID CODE
DPT .                   Miscellaneous:   DRILLING FLUID TYPE
MUDD.                         13.4000:   FLUID DENSITY
MUDV.                         68.0000:   FLUID VISCOSITY
DFPH.                          9.0000:   FLUID PH
FL  .                          2.1000:   FLUID LOSS
RM  .OHMM                       .0700:   RM
RMT .DEGF                     77.0000:   RM TEMP
RMF .OHMM                       .0400:   RMF
RMFT.DEGF                     73.0000:   RMF TEMP
FSC .                               M:   RMF CODE
RMC .OHMM                       .1000:   RMC
RMCT.DEGF                     74.0000:   RMC TEMP
CMC .                               M:   RMC CODE
TMAX.DEGF                    209.0000:   MAX REC TEMP
TIMC.                         13.0000:   TIME SINCE CIRCLN
~Curve Information Block
#MNEM.UNIT                    API CODE    No Description
#=========                    ========    == ===========
DEPT.F                   00 001 00 00:     1  DEPTH
CALI.IN                              :     2  Caliper
DT.US/F                              :     3  Sonic Transit Time
GR.GAPI                              :     4  Gamma Ray
ILD.OHMM                             :     5  Deep Induction Resistivity
ILM.OHMM                             :     6  Medium Induction Resistivity
SFL.OHMM                             :     7  Medium Resistivity
SP.MV                                :     8  Spontaneous Potential
~ASCII
# ...
 6106.5000    16.4004   113.8843    67.6002      .6004      .6028      .5879   -26.5139
 6107.0000    16.3749   115.0107    68.3905      .5913      .6127      .5794   -25.9164
 6107.5000    16.4943   115.2181    68.9707      .6124      .6408      .6310   -25.2249
 6108.0000    16.5859   114.8066    69.4895      .6395      .6580      .6736   -24.5126
 6108.5000    16.5009   114.0425    69.8820      .6571      .6756      .6885   -23.9031
 6109.0000    16.5435   113.0773    70.2721      .6730      .6922      .7350   -23.9578
 6109.5000    16.7355   111.6388    70.8600      .6883      .6991      .8431   -24.3109
 6110.0000    17.0138   110.1414    72.3851      .7015      .7060      .9450   -24.7300
 6110.5000    17.2450   108.7324    74.7206      .7148      .7172      .8398   -25.2795
 6111.0000    17.3651   107.6379    75.1100      .7195      .7289      .8630   -25.7192
 6111.5000    17.3398   106.6318    73.9482      .7274      .7442     1.0126   -25.7390
 6112.0000    17.2051   105.5889    72.8719      .7458      .7562     1.2673   -25.3126
 6112.5000    17.0586   104.6974    72.1750      .7447      .7504     1.3809   -25.2095
 6113.0000    17.0449   106.5929    72.4131      .7288      .7312     1.2590   -25.3923
 6113.5000    17.2038   108.7727    73.1346      .7142      .7214     1.1736   -25.8584
 6114.0000    17.4803   110.3967    73.9800      .7086      .7183     1.0980   -26.4293
 6114.5000    17.9573   110.9374    73.3855      .7056      .7205     1.0266   -26.7097
 6115.0000    18.2141   111.1859    72.2784      .7145      .7262      .9483   -26.7377
 6115.5000    17.9397   111.4033    71.2594      .7236      .7276      .8604   -26.3472
 6116.0000    17.6654   111.7354    72.6412      .7221      .7236      .7656   -25.5750
 6116.5000    17.5054   112.2186    76.3438      .7202      .7108      .8464   -24.6147
 6117.0000    17.4810   112.7716    79.0620      .7006      .6960      .9028   -23.7104
 6117.5000    17.4041   113.9486    80.6785      .6798      .6795      .8807   -22.8307
 6118.0000    17.2693   115.5399    81.8669      .6520      .6545      .8229   -22.0858
 6118.5000    17.0882   116.7008    82.0990      .6259      .6242      .7535   -21.4149
 6119.0000    16.8837   117.5005    80.5758      .6041      .6014      .7331   -20.8628
 6119.5000    16.7725   117.8962    77.8883      .5946      .5943      .7738   -20.3920
 6120.0000    16.7080   118.0389    74.2791      .5952      .5997      .7998   -20.1852
 6120.5000    16.8097   118.0530    69.9417      .5958      .6024      .7230   -20.6542
 6121.0000    16.9785   117.8710    68.5345      .5934      .5988      .6849   -20.8361
 6121.5000    17.2362   117.6376    67.9476      .5882      .5930      .6760   -21.0180
 6122.0000    17.3812   117.3440    70.5525      .5831      .5857      .7265   -21.1999
 6122.5000    17.4286   117.4891    74.4764      .5780      .5785      .8431   -21.3818
 6123.0000    17.2975   118.6406    77.3387      .5727      .5712      .8632   -21.3612
 6123.5000    17.1238   120.1569    78.4658      .5670      .5655      .8131   -21.3326
 6124.0000    16.9801   121.5510    77.5375      .5610      .5621      .7295   -21.5447
 6124.5000    16.8858   122.3312    76.3678      .5577      .5623      .7192   -21.7584
 6125.0000    16.8297   122.1509    75.1914      .5609      .5669      .7852   -22.0002
 6125.5000    16.7858   121.7092    74.3337      .5675      .5716      .8523   -22.2422
 6126.0000    16.8069   121.1394    73.7759      .5721      .5760      .8997   -22.5667
 6126.5000    16.8941   120.7339    74.2563      .5699      .5761      .9486   -22.6294
 6127.0000    16.9575   120.3713    75.7249      .5691      .5773      .9986   -22.0632
 6127.5000    16.9782   120.0530    76.7012      .5713      .5820      .9678   -21.3823
 6128.0000    16.9923   119.7493    77.6628      .5749      .5858      .8802   -21.0935
 6128.5000    17.2280   119.5389    78.1290      .5794      .5832      .7635   -21.0045
 6129.0000    17.6385   119.3700    78.4839      .5777      .5706      .6715   -21.3843
 6129.5000    17.5610   119.4761    78.4907      .5713      .5660      .6231   -22.0218
 6130.0000    17.4642   119.3514    78.2294      .5666      .5817      .6665   -22.5413
 6130.5000    17.3675   118.8444    77.8762      .5828      .5927      .7482   -23.0315
 6131.0000    17.2921   117.9167    77.5548      .6006      .6016      .8411   -23.2545
 6131.5000    17.2191   117.2545    77.2450      .6095      .6017      .8287   -23.2374
 6132.0000    17.1639   116.6827    76.9353      .6177      .6114      .7354   -23.0191
 6132.5000    17.1976   115.8589    76.4637      .6413      .6382     1.0513   -23.1169
 6133.0000    17.2516   114.8790    75.8475      .6658      .6587     1.0175   -23.4405
 6133.5000    17.2220   113.9432    74.6632      .6595      .6595     1.0043   -23.2036
 6134.0000    17.1679   113.2566    72.3158      .6433      .6393     1.0098   -22.6303
 6134.5000    17.2296   114.1270    68.3518      .6440      .6423     1.1941   -22.1965
 6135.0000    17.3787   115.4393    65.7562      .6665      .6574     1.3353   -21.7624
 6135.5000    17.4728   116.8875    63.7050      .6711      .6490     1.2297   -21.7700
 6136.0000    17.5107   116.4622    61.7830      .6456      .6274     1.0890   -21.9698
 6136.5000    17.4687   115.9247    63.4702      .6123      .6122      .9467   -22.5440
 6137.0000    17.4368   115.6172    65.5883      .6031      .6105      .8372   -23.1182
 6137.5000    17.4070   115.4144    66.9260      .6080      .6106      .8533   -23.6917
 6138.0000    17.3898   115.4628    67.6616      .6118      .6136      .8671   -24.2659
 6138.5000    17.3722   115.7544    67.8423      .6157      .6167      .9308   -25.5030
 6139.0000    17.4987   116.4347    66.9846      .6145      .6143     1.1081   -25.9161
 6139.5000    17.7337   116.8872    66.5463      .6106      .6113      .9723   -25.3882
 6140.0000    18.1160   116.9880    66.9287      .6067      .6083      .8275   -23.8824
 6140.5000    18.3713   116.7920    68.6639      .6088      .6047      .8899   -22.7367
 6141.0000    18.5229   116.2089    71.7556      .6185      .6112      .9749   -22.3333
 6141.5000    18.4746   114.9058    73.5469      .6311      .6230      .9864   -22.1562
 6142.0000    18.3579   113.1134    74.3505      .6405      .6344     1.0036   -22.1669
 6142.5000    18.1819   112.1624    74.3243      .6464      .6422     1.1081   -22.4820
 6143.0000    17.9946   112.4604    74.2671      .6475      .6492     1.1995   -22.8498
 6143.5000    17.7340   113.3092    74.2072      .6517      .6501     1.1445   -23.2362
 6144.0000    17.6049   114.5934    74.3761      .7073      .6387     1.0993   -23.7564
 6144.5000    17.5911   115.8322    74.5022     1.0235      .6290     1.0655   -24.4893
 6145.0000    17.6573   115.9414    74.4553      .9475      .6292     1.0463   -25.6070
 6145.5000    17.6926   115.4347    73.8602      .7576      .6278     1.0335   -26.8297
 6146.0000    17.7168   114.7677    72.3051      .6365      .6182      .9944   -26.2272
 6146.5000    17.7568   116.5051    69.7549      .6106      .6077      .9053   -25.0695
 6147.0000    17.8063   118.1989    66.4978      .5991      .6022      .8938   -23.9838
 6147.5000    17.7680   118.1205    66.1074      .5999      .6079      .9213   -22.6980
 6148.0000    17.6065   116.7692    66.6926      .6074      .6118      .8677   -21.4096
 6148.5000    17.4431   115.2838    70.8593      .6137      .6126      .8958   -21.0455
 6149.0000    17.2845   114.0385    73.8042      .6185      .6107      .9791   -22.0658
 6149.5000    17.1499   113.0511    75.3168      .6163      .6074     1.0381   -23.0862
 6150.0000    17.0672   113.2837    75.6262      .6120      .6090     1.0222   -24.1585
 6150.5000    17.0773   114.4393    74.4498      .6061      .6073     1.0148   -24.6047
 6151.0000    17.1577   115.1511    73.5055      .6009      .6021     1.0157   -24.2792
 6151.5000    17.2504   115.2887    72.6492      .6080      .6031     1.0149   -23.7097
