~VERSION INFORMATION
VERS.                             2.0:   CWLS Log ASCII Standard-VERSION 2.0
WRAP.                              NO:   One line per depth step
~Well Information Block
STRT.F                      6412.0000:   Top Depth
STOP.F                      9744.0000:   Bottom Depth
STEP.F                         .50000:   Depth Increment
NULL.                        -999.250:   Null Value
FLD .                      GA BLK 273:   Field Name
WELL.       OCSG09037   005 ST00 BP00:   NAME
API .                  42706403310000:   WELL API
EDF .F                        93.0000:   ELEV DRILL FLOOR
COMP.       SEAGULL ENERGY E AND P IN:   OPERATOR
BN  .                             273:   BLOCK
CTRY.                             USA:   COUNTRY NAME
CNTY.                              GA:   COUNTY
CNTY.                        GLVSTN L:   COUNTY NAME
EGL .F                       -63.0000:   ELEV GROUND LEVEL
EKB .F                        94.0000:   ELEV KELLY BUSHING
TDD .F                       9756.000:   FINAL TD DRILLER
STAT.                           TEXAS:   STATE NAME
UWI .                  42706403310000:   WELL API
DICO.               IHS : Digitizing Company
~PARAMETER INFORMATION (zones)
#MNEM.UNIT                       Value     Description
#=========                       =====     ===========
#ZONATION                          DIL:   ZONATION NAME
#ZONE                            RUN_1:   ZONE NAME
TOP .                       6412.0000:   TOP DEPTH
BOT .                       9744.5000:   BOTTOM DEPTH
RUN .                               1:   RUN NUMBER
LCCD.                             440:   LOGGING CONTRACTOR
SRVC.                    Schlumberger:   LOGGING CONT NAME
DICO.          QC Data Collectors Ltd:   DIG COMPANY NAME
LDAT.                      03/03/1993:   DATE LOGGED
ELD .F                        94.0000:   LOG DATUM ELEVATION
TDD .F                      9756.0000:   TOTAL DEPTH DRILLER
TDL .F                      9750.0000:   TOTAL DEPTH LOGGER
BOTL.F                      9744.0000:   BOTTOM DEPTH LOGGED
TOPL.F                      6543.0000:   TOP DEPTH LOGGED
CS1 .IN                        7.6250:   CASING SIZE 1
BS1 .IN                        6.5000:   BIT SIZE 1
DDB1.F                      9756.0000:   DEPTH DRILLED BIT 1
BHF .                              99:   FLUID CODE
DPT .                   Miscellaneous:   DRILLING FLUID TYPE
MUDD.                         11.7000:   FLUID DENSITY
MUDV.                         46.0000:   FLUID VISCOSITY
DFPH.                          6.5000:   FLUID PH
FL  .                          9.6500:   FLUID LOSS
RM  .OHMM                      1.3200:   RM
RMT .DEGF                     64.0000:   RM TEMP
RMF .OHMM                      1.1100:   RMF
RMFT.DEGF                     70.0000:   RMF TEMP
FSC .                               M:   RMF CODE
RMC .OHMM                      1.6200:   RMC
RMCT.DEGF                     65.0000:   RMC TEMP
CMC .                               M:   RMC CODE
TMAX.DEGF                    186.0000:   MAX REC TEMP
TIMC.                          6.5000:   TIME SINCE CIRCLN
~Curve Information Block
#MNEM.UNIT                    API CODE    No Description
#=========                    ========    == ===========
DEPT.F                   00 001 00 00:     1  DEPTH
DTL.US/F                             :     2  Sonic Transit Time (Slowness)
GR.GAPI                              :     3  Gamma Ray
ILD.OHMM                             :     4  Deep Induction Resistivity
ILM.OHMM                             :     5  Medium Induction Resistivity
SFL.OHMM                             :     6  Medium Resistivity
SP.MV                                :     7  Spontaneous Potential
~ASCII
# ...
 6932.0000   118.8999    94.7345      .7233      .7109      .7322   -44.6864
 6932.5000   118.7999    93.7260      .7198      .7100      .7197   -45.1887
 6933.0000   118.5000    94.5056      .7200      .7096      .6985   -44.6909
 6933.5000   119.1000    94.9084      .7218      .7095      .6842   -45.4432
 6934.0000   119.5000   101.7664      .7224      .7107      .6871   -45.1954
 6934.5000   119.4999   104.8158      .7225      .7132      .7034   -45.4477
 6935.0000   118.7999   108.8434      .7237      .7165      .7165   -45.2000
 6935.5000   119.5000    98.5082      .7235      .7194      .7437   -44.4522
 6936.0000   119.0000   100.3524      .7233      .7207      .7266   -43.9545
 6936.5000   118.8999    97.7346      .7228      .7197      .7233   -43.9567
 6937.0000   118.7000   101.5182      .7223      .7171      .6941   -44.2090
 6937.5000   119.1000    95.6432      .7215      .7137      .6907   -44.2112
 6938.0000   119.8999    98.6638      .7193      .7107      .6861   -43.4635
 6938.5000   119.6000    98.3036      .7183      .7087      .6749   -43.2158
 6939.0000   120.7000   102.1041      .7175      .7080      .6675   -42.9680
 6939.5000   119.4000   104.1763      .7179      .7088      .6761   -42.7203
 6940.0000   119.0000   109.4121      .7188      .7108      .7173   -42.9725
 6940.5000   120.1000   109.6423      .7206      .7138      .7014   -42.7247
 6941.0000   121.2999   103.9946      .7233      .7172      .6725   -42.7270
 6941.5000   120.5000    97.5505      .7252      .7199      .6884   -43.4793
 6942.0000   121.0000    91.2791      .7253      .7211      .7374   -42.7316
 6942.5000   119.5000    91.4312      .7256      .7202      .7584   -43.4838
 6943.0000   117.7000    92.3165      .7252      .7174      .7451   -42.9861
 6943.5000   118.5000    94.7330      .7255      .7136      .7366   -42.9883
 6944.0000   120.1000    96.7468      .7268      .7103      .7191   -42.7406
 6944.5000   119.1000    95.4587      .7283      .7099      .6804   -41.9929
 6945.0000   118.1000    94.3000      .7279      .7132      .6659   -41.9951
 6945.5000   118.2000    93.8972      .7245      .7189      .7347   -41.9973
 6946.0000   118.6000    93.3182      .7201      .7229      .7571   -42.4996
 6946.5000   119.2999    95.4838      .7173      .7215      .7429   -42.7519
 6947.0000   120.3999    94.7291      .7182      .7146      .6790   -42.7542
 6947.5000   121.5000    94.1000      .7187      .7060      .6610   -42.5063
 6948.0000   120.6000    97.7727      .7137      .6996      .6527   -42.2587
 6948.5000   119.2999    94.0970      .7095      .6964      .6605   -42.2609
 6949.0000   118.8999    94.9026      .7061      .6953      .6870   -42.2632
 6949.5000   118.1000    89.6693      .7035      .6946      .6815   -42.0154
 6950.0000   119.5000    94.0996      .7028      .6936      .6655   -40.5177
 6950.5000   121.1000    97.1202      .7042      .6928      .6600   -40.5199
 6951.0000   122.0000    98.2701      .7055      .6929      .6612   -40.2722
 6951.5000   122.2999    97.4647      .7087      .6942      .6616   -40.7744
 6952.0000   120.4000    94.4946      .7153      .6970      .6916   -40.7767
 6952.5000   119.2999    90.4114      .7253      .7031      .6891   -41.0289
 6953.0000   116.4000    92.0223      .7393      .7154      .6518   -41.2813
 6953.5000   113.0000    89.2899      .7511      .7358      .6232   -41.5335
 6954.0000   110.3999    88.5479      .7569      .7609      .7430   -42.5358
 6954.5000   108.2000    86.5592      .7611      .7812      .9352   -43.7880
 6955.0000   109.2999    86.3326      .7641      .7872      .9441   -44.2903
 6955.5000   109.2000    84.7216      .7669      .7771      .7833   -44.5425
 6956.0000   110.4000    82.9225      .7699      .7589      .7029   -43.5448
 6956.5000   113.3999    78.7828      .7676      .7424      .7075   -42.5471
 6957.0000   116.1000    85.8311      .7579      .7325      .7236   -42.7993
 6957.5000   117.6000    83.3114      .7471      .7286      .7091   -41.8016
 6958.0000   118.2999    87.9430      .7390      .7284      .7052   -41.5538
 6958.5000   117.7999    83.0210      .7294      .7290      .6882   -40.5560
 6959.0000   114.8999    86.5581      .7211      .7282      .7050   -40.3083
 6959.5000   115.1000    90.3130      .7172      .7247      .7136   -41.0606
 6960.0000   118.7000    93.4984      .7142      .7193      .6917   -40.3129
 6960.5000   121.3999    93.4496      .7110      .7146      .6751   -40.0651
 6961.0000   120.6000    92.6022      .7092      .7133      .6762   -39.5674
 6961.5000   120.3999    85.4781      .7024      .7160      .6832   -39.5696
 6962.0000   118.1000    84.2828      .6909      .7206      .7222   -40.5718
 6962.5000   118.0000    82.0270      .6807      .7232      .7264   -41.8242
 6963.0000   119.6000    85.2600      .6666      .7208      .7388   -42.5764
 6963.5000   120.7000    84.8444      .6512      .7123      .7310   -44.5787
 6964.0000   121.6000    85.2236      .6357      .6996      .6882   -44.3309
 6964.5000   122.7000    86.8101      .6170      .6862      .5912   -44.5832
 6965.0000   120.2000    88.4211      .5998      .6760      .5088   -45.8354
 6965.5000   120.7000    85.5627      .5777      .6703      .5377   -48.3377
 6966.0000   120.7000    82.1942      .5503      .6663      .6302   -55.0900
 6966.5000   118.9000    74.1733      .5238      .6572      .9015   -65.8422
 6967.0000   118.6000    68.7511      .5011      .6367     1.1903   -76.3445
 6967.5000   116.6000    67.3197      .4831      .6054     1.3421   -85.5967
 6968.0000   114.7000    67.9995      .4742      .5715     1.2345   -89.8490
 6968.5000   114.7000    75.0477      .4692      .5448     1.0200   -87.1012
 6969.0000   112.0000    74.6255      .4639      .5309      .9343   -82.6035
 6969.5000   109.7999    76.0073      .4606      .5308     1.0114   -77.6057
 6970.0000   108.2999    72.2212      .4583      .5415      .9778   -73.6080
 6970.5000   111.0000    69.9644      .4571      .5561      .8639   -77.1102
 6971.0000   113.1000    63.4383      .4578      .5648     1.0865   -83.1125
 6971.5000   115.0000    58.3798      .4648      .5602     1.6599   -90.8647
 6972.0000   117.2000    59.2863      .4795      .5443     1.5685   -96.3671
 6972.5000   111.6000    66.3345      .5007      .5286     1.0239   -90.8693
 6973.0000   108.9000    74.6202      .5241      .5257      .5869   -77.1216
 6973.5000   111.5000    82.0721      .5490      .5440      .5522   -61.1238
 6974.0000   110.3999    85.9446      .5843      .5860      .7216   -48.8761
 6974.5000   112.1000    86.7048      .6238      .6473      .8265   -43.6284
 6975.0000   113.2000    85.1713      .6576      .7142      .7893   -43.1306
 6975.5000   113.3999    84.9236      .6899      .7672      .7323   -41.8829
 6976.0000   116.8999    81.5001      .7147      .7920      .7418   -41.8851
 6976.5000   117.7000    82.8342      .7283      .7894      .7651   -42.1374
 6977.0000   117.2000    77.7998      .7330      .7709      .8236   -42.3896
 6977.5000   114.7999    79.4327      .7355      .7493      .8419   -42.8919
 6978.0000   112.7000    80.3772      .7355      .7330      .7480   -43.3942
 6978.5000   112.8999    86.8213      .7380      .7263      .6753   -41.3964
 6979.0000   113.1000    91.8857      .7439      .7303      .6814   -40.1486
 6979.5000   113.8999    93.8282      .7511      .7430      .7692   -39.6509
 6980.0000   113.7999    96.3231      .7551      .7598      .8268   -39.6531
 6980.5000   112.5000    92.0424      .7629      .7758      .8458   -40.4055
 6981.0000   111.3999    89.2943      .7705      .7878      .8537   -39.6577
 6981.5000   111.2000    86.7994      .7756      .7941      .8723   -40.1600
 6982.0000   110.9999    92.8407      .7803      .7950      .8767   -40.9122
 6982.5000   112.1000    96.5468      .7868      .7922      .8344   -40.4145
 6983.0000   113.4000    95.9426      .7915      .7891      .7923   -41.6667
 6983.5000   113.2999    93.7275      .7952      .7884      .7933   -40.9190
