~VERSION INFORMATION
VERS.                             2.0:   CWLS Log ASCII Standard-VERSION 2.0
WRAP.                              NO:   One line per depth step
~Well Information Block
STRT.F                      3877.0000:   Top Depth
STOP.F                     10380.0000:   Bottom Depth
STEP.F                         .50000:   Depth Increment
NULL.                        -999.250:   Null Value
FLD .                      GA BLK 321:   Field Name
WELL.       OCSG11316   001 ST01 BP00:   NAME
API .                  42706402670100:   WELL API
EDF .F                        90.0000:   ELEV DRILL FLOOR
COMP.              SHELL OFFSHORE INC:   OPERATOR
BN  .                             321:   BLOCK
CTRY.                             USA:   COUNTRY NAME
CNTY.                        GLVSTN L:   COUNTY NAME
EKB .F                        91.0000:   ELEV KELLY BUSHING
TDD .F                      10395.000:   FINAL TD DRILLER
STAT.                           TEXAS:   STATE NAME
UWI .                  42706402670100:   WELL API
DICO.               IHS : Digitizing Company
~PARAMETER INFORMATION (zones)
#MNEM.UNIT                       Value     Description
#=========                       =====     ===========
#ZONATION                          DIL:   ZONATION NAME
#ZONE                            RUN_1:   ZONE NAME
TOP .                       3877.0000:   TOP DEPTH
BOT .                      10380.5000:   BOTTOM DEPTH
RUN .                               1:   RUN NUMBER
LCCD.                             280:   LOGGING CONTRACTOR
SRVC.                     Halliburton:   LOGGING CONT NAME
DICO.          QC Data Collectors Ltd:   DIG COMPANY NAME
LDAT.                      06/13/1990:   DATE LOGGED
ELD .F                        91.0000:   LOG DATUM ELEVATION
TDD .F                     10395.0000:   TOTAL DEPTH DRILLER
TDL .F                     10390.0000:   TOTAL DEPTH LOGGER
BOTL.F                     10380.0000:   BOTTOM DEPTH LOGGED
TOPL.F                      3954.0000:   TOP DEPTH LOGGED
CS1 .IN                       13.3750:   CASING SIZE 1
BS1 .IN                       12.2500:   BIT SIZE 1
DDB1.F                     10395.0000:   DEPTH DRILLED BIT 1
BHF .                              99:   FLUID CODE
DPT .                   Miscellaneous:   DRILLING FLUID TYPE
MUDD.                         13.4000:   FLUID DENSITY
MUDV.                         68.0000:   FLUID VISCOSITY
DFPH.                          9.0000:   FLUID PH
FL  .                          2.1000:   FLUID LOSS
RM  .OHMM                       .0700:   RM
RMT .DEGF                     77.0000:   RM TEMP
RMF .OHMM                       .0400:   RMF
RMFT.DEGF                     73.0000:   RMF TEMP
FSC .                               M:   RMF CODE
RMC .OHMM                       .1000:   RMC
RMCT.DEGF                     74.0000:   RMC TEMP
CMC .                               M:   RMC CODE
TMAX.DEGF                    209.0000:   MAX REC TEMP
TIMC.                         13.0000:   TIME SINCE CIRCLN
~Curve Information Block
#MNEM.UNIT                    API CODE    No Description
#=========                    ========    == ===========
DEPT.F                   00 001 00 00:     1  DEPTH
CALI.IN                              :     2  Caliper
DT.US/F                              :     3  Sonic Transit Time
GR.GAPI                              :     4  Gamma Ray
ILD.OHMM                             :     5  Deep Induction Resistivity
ILM.OHMM                             :     6  Medium Induction Resistivity
SFL.OHMM                             :     7  Medium Resistivity
SP.MV                                :     8  Spontaneous Potential
~ASCII
# ...
 5242.0000    17.4002   110.6000    46.1093      .9988      .7430     1.1658   -24.4971
 5242.5000    17.4782   110.5670    44.7087     1.1882      .8389     1.3376   -24.6002
 5243.0000    17.3950   112.4340    43.1188     1.0047      .9042     1.2423   -24.6984
 5243.5000    17.2575   114.6273    42.8337      .9052      .8082     1.1584   -24.7909
 5244.0000    16.9778   116.8462    43.3887      .8154      .5960      .9280   -24.8632
 5244.5000    16.7067   117.9838    43.9444      .7684      .4828      .7526   -25.0233
 5245.0000    16.5684   118.6105    44.9792      .7524      .6582      .7445   -25.3825
 5245.5000    16.2645   118.7330    46.1293      .7306      .6593      .7713   -25.9169
 5246.0000    15.9204   118.3451    47.3887      .7040      .5563      .7428   -26.8037
 5246.5000    15.5070   117.2050    48.4410      .7088      .5052      .8036   -27.8992
 5247.0000    15.1590   116.1129    48.3922      .7307      .6498      .8306   -29.1679
 5247.5000    14.7187   115.1814    47.6979      .7690      .7869      .7429   -31.3148
 5248.0000    14.2336   113.9235    47.0035      .8362      .6189      .6311   -33.4363
 5248.5000    13.8391   112.4500    46.5661      .7017      .5156      .3927   -35.2061
 5249.0000    13.5931   111.1331    46.7303      .6027      .4723      .3146   -37.0145
 5249.5000    13.4336   109.9983    49.4410      .6158      .4554      .2605   -38.1593
 5250.0000    13.3118   109.1056    50.9002      .7254      .5252      .4703   -38.9279
 5250.5000    13.2803   107.9734    51.7165      .8556      .6308      .6822   -39.2636
 5251.0000    13.2834   106.7449    52.4528      .9387      .7299      .7965   -39.1944
 5251.5000    13.2806   106.5602    53.1314     1.0079      .7745     1.2069   -38.9682
 5252.0000    13.2675   108.0537    53.3989     1.0525      .8102     1.5616   -38.6848
 5252.5000    13.2534   109.7052    50.1073      .9053      .7037     1.2463   -38.6683
 5253.0000    13.2331   111.5654    48.1136      .6803      .5931      .6092   -39.6932
 5253.5000    13.2126   112.9137    47.3607      .5831      .4870      .4473   -41.0325
 5254.0000    13.1827   113.4346    47.7151      .5210      .4197      .2920   -42.2426
 5254.5000    13.1512   113.5090    49.5363      .4729      .3998      .2594   -43.4299
 5255.0000    13.1152   113.5907    50.3798      .5271      .4462      .3460   -45.1477
 5255.5000    13.1081   113.6190    46.7570      .5839      .4982      .4040   -46.5443
 5256.0000    13.1088   113.1232    44.0891      .4961      .4319      .3737   -47.7877
 5256.5000    13.1377   112.5270    41.3771      .4482      .3805      .2910   -48.9098
 5257.0000    13.1675   112.1324    39.8935      .4079      .3425      .2853   -50.0479
 5257.5000    13.1989   111.7052    40.3709      .4000      .3255      .2921   -51.3219
 5258.0000    13.2308   110.8555    43.7958      .4326      .3303      .2994   -52.3160
 5258.5000    13.2648   110.0558    46.3652      .4887      .3809      .3334   -52.7098
 5259.0000    13.2966   109.9388    48.9026      .5707      .4401      .3545   -52.1635
 5259.5000    13.3643   110.3522    51.9277      .6661      .4878      .4016   -51.2486
 5260.0000    13.4461   111.4094    55.0035      .7305      .5328      .4887   -50.0039
 5260.5000    13.5303   112.3135    55.6868      .7350      .5322      .5161   -48.6353
 5261.0000    13.6010   112.9840    56.8145      .7070      .4677      .4597   -47.0054
 5261.5000    13.6405   112.0632    57.3949      .7191      .4687      .5652   -45.2183
 5262.0000    13.6905   110.9839    56.2908      .8023      .5884      .7848   -43.7404
 5262.5000    13.7473   109.7092    53.0924      .9412      .6593     1.0152   -42.3665
 5263.0000    13.8184   108.2491    50.4644     1.1176      .6818     1.0394   -41.1245
 5263.5000    13.9163   107.6549    48.1523      .9604      .7189      .6981   -39.9930
 5264.0000    14.1248   109.8524    47.0215      .8580      .7835      .5290   -38.8829
 5264.5000    14.5622   112.9170    47.4286      .8232      .8692      .4585   -37.8928
 5265.0000    14.8676   117.8125    48.4588      .8351      .7063      .6021   -36.8493
 5265.5000    15.1518   122.3492    49.3976      .7171      .5726      .7020   -35.6566
 5266.0000    15.4943   124.5494    50.4484      .6045      .4952      .7881   -33.2178
 5266.5000    15.4396   122.4911    51.9237      .5395      .4659      .8406   -30.8710
 5267.0000    15.2024   119.4880    53.4789      .5698      .5188      .8860   -30.1587
 5267.5000    15.0190   116.3939    54.9448      .6476      .5822     1.1688   -29.2465
 5268.0000    14.9314   113.4711    58.1459      .7543      .6074     1.3883   -28.4003
 5268.5000    14.9160   113.7922    60.4594      .7923      .7980      .9771   -28.3973
 5269.0000    15.1821   117.0845    62.3537      .6416      .7481      .7148   -28.8321
 5269.5000    15.5825   120.3740    62.5677      .5891      .6839      .5378   -29.1576
 5270.0000    15.9316   123.1362    57.8687      .7468      .7246      .8082   -29.4831
 5270.5000    16.2024   126.8687    54.3958      .9105      .9039     1.2258   -29.8089
 5271.0000    16.3765   128.6365    51.7971      .8037      .7301     1.1699   -29.8027
 5271.5000    16.4508   128.9382    47.6965      .6204      .5352     1.1067   -29.5743
 5272.0000    16.5271   125.3336    45.6669      .5141      .3961     1.1210   -28.8454
 5272.5000    16.4459   121.6989    45.3364      .4846      .3615     1.0463   -29.0949
 5273.0000    16.2801   120.4342    47.3034      .6165      .4915      .9656   -29.2762
 5273.5000    16.3045   120.5399    49.3130      .8399      .7725     1.1014   -28.5175
 5274.0000    16.5297   121.1207    51.3200     1.1451     1.0284     1.3322   -27.9319
 5274.5000    16.7547   121.6829    52.6807      .9705      .9009      .8489   -26.9610
 5275.0000    16.9799   122.1599    50.2192      .6413      .6088      .6158   -26.2214
 5275.5000    17.2008   121.5610    44.2156      .7347      .5270      .7448   -25.5780
 5276.0000    17.4218   121.0258    42.1247     1.0545      .6695     1.2051   -24.9380
 5276.5000    17.6144   121.5610    39.3981     1.1917     1.0578     1.2615   -25.4384
 5277.0000    17.7651   122.3854    38.2227      .9353      .7956     1.1267   -25.9818
 5277.5000    17.8558   123.2104    38.9503      .7269      .5744     1.1464   -26.3778
 5278.0000    17.9285   123.1205    41.7515      .6086      .4350     1.2045   -26.0002
 5278.5000    17.9468   122.7440    43.9864      .5554      .4393     1.2558   -24.9280
 5279.0000    17.9322   121.2479    45.4377      .5963      .5275     1.2888   -23.8679
 5279.5000    17.8240   121.7578    46.8170      .7358      .6335     1.2901   -22.9457
 5280.0000    17.7081   124.5629    48.8359      .8871      .7342     1.2496   -22.3570
 5280.5000    17.5920   126.8727    50.9122     1.0302      .9433     1.2156   -21.8936
 5281.0000    17.4687   128.5481    51.9823     1.1119      .9889     1.1162   -21.9352
 5281.5000    17.3292   129.5693    52.8572      .8132      .7884      .9948   -22.2168
 5282.0000    17.2274   128.1038    53.8860      .6592      .5977      .7541   -22.2986
 5282.5000    17.1389   126.6759    54.6349      .6153      .5032      .7118   -22.3805
 5283.0000    17.0667   125.3557    55.6285      .5978      .4671      .7081   -22.4182
 5283.5000    17.0214   124.4132    57.2197      .6200      .4875      .7495   -22.4353
 5284.0000    16.9833   124.5197    58.9934      .6459      .5303      .8244   -22.3978
 5284.5000    16.9674   124.8168    60.4786      .6947      .5768      .6583   -22.3209
 5285.0000    16.9514   125.1804    59.4772      .7472      .6343      .6727   -22.1891
 5285.5000    16.9352   125.0125    57.5182      .7404      .7002      .6846   -21.8969
 5286.0000    16.9220   123.0010    56.1529      .7078      .6870      .6444   -22.3204
 5286.5000    16.9242   121.1957    55.9337      .6814      .5766      .7736   -22.7818
 5287.0000    16.9448   119.5081    57.3716      .6741      .5074      .7157   -23.2412
