~VERSION INFORMATION
VERS.                             2.0:   CWLS Log ASCII Standard-VERSION 2.0
WRAP.                              NO:   One line per depth step
~Well Information Block
STRT.F                      4470.0000:   Top Depth
STOP.F                     11800.5000:   Bottom Depth
STEP.F                         .50000:   Depth Increment
NULL.                        -999.250:   Null Value
FLD .                      GA BLK 315:   Field Name
WELL.       OCSG14835   001 ST00 BP00:   NAME
API .                  42706403880000:   WELL API
LOC .       993' FSL & 3018' FEL OF B:   AREA NAME
CTRY.                             USA:   COUNTRY
EGL .FT                      -66.0000:   GROUND LEVEL
EKB .FT                        0.0000:   KB ELEVATION
COMP.              APACHE CORPORATION:   OPERATOR
DREF.                             MSL:   PERM DATUM
COUN.                        OFFSHORE:   RIG NAME
STAT.                              TX:   STATE
CNTY.                        OFFSHORE:   COUNTY
DIGS.                   QC Data, Inc.:   DIG COMPANY NAME
EREF.FT                        0.0000:   ELEV DEPTH REFERENCE
UWI .                  42706403880000:   WELL API
DICO.               IHS : Digitizing Company
~PARAMETER INFORMATION (zones)
#MNEM.UNIT                       Value     Description
#=========                       =====     ===========
#ZONATION                        ZONES:   ZONATION NAME
#ZONE                             LAS1:   ZONE NAME
TOP .                       4470.0000:   TOP DEPTH
BOT .                      11816.0000:   BOTTOM DEPTH
SRVC.                   WESTERN ATLAS:   LOGGING CONTRACTOR
DATE.                         10AUG96:   RUN DATE
RW  .OHMM                      0.0000:   RW
RWT .DEGF                      0.0000:   RW TEMP
RUN .                               1:   LOG RUN
TDL .FT                     9298.0000:   FINAL TD LOGGER
TDD .FT                     9300.0000:   FINAL TD DRILLER
BOTL.FT                     9296.0000:   BOTTOM DEPTH LOGGED
TOPL.FT                     4478.0000:   TOP DEPTH LOGGED
CSGL.FT                     4494.0000:   CASING DEPTH LOGGER
CSGD.FT                     4488.0000:   CASING DEPTH DRILLER
CSGS.IN                       13.3750:   CASING SIZE
CSGW.                          0.0000:   CASING WEIGHT
BS  .IN                       12.2500:   BIT SIZE
MUD .                             MUD:   MUD TYPE
MUDD.                         14.2000:   MUD WEIGHT
MUDV.                         41.0000:   MUD VISCOSITY
FL  .                          4.4000:   FLUID LOSS
PH  .                          8.5000:   MUD PH
MUDS.                             PIT:   MUD SOURCE
RM  .OHMM                      1.3000:   RM
RMT .DEGF                     80.0000:   RM TEMP
RMF .OHMM                      0.5400:   RMF
RMFT.DEGF                     80.0000:   RMF TEMP
RMC .OHMM                      2.5000:   RMC
RMCT.DEGF                     80.0000:   RMC TEMP
MMFS.                            MEAS:   RMF SOURCE
MCFS.                            MEAS:   RMC SOURCE
RMBH.OHMM                      0.5500:   RM BH
BHT .DEGF                    182.0000:   BH TEMP
TMAX.DEGF                    182.0000:   MAX REC TEMP
SON .                          180318:   SERVICE ORDER NUM
ELMF.FT                       92.0000:   ABOVE PERM DATUM
LMF .                              DF:   LOGS MEAS FROM
DMF .                              DF:   DRILL MEAS FROM
TIMC.                            0600:   TIME SINCE CIRCLN
UNIT.8940                        8079:   UNIT NO.
BASE.                        PEARLAND:   LOG UNIT HOME BASE
ENG .                          SUTTON:   ENGINEER
WIT .                            DILL:   WITNESS
~PARAMETER INFORMATION (zones)
#MNEM.UNIT                       Value     Description
#=========                       =====     ===========
#ZONATION                        ZONES:   ZONATION NAME
#ZONE                             LAS2:   ZONE NAME
TOP .                       4470.0000:   TOP DEPTH
BOT .                      11816.0000:   BOTTOM DEPTH
SRVC.                   WESTERN ATLAS:   LOGGING CONTRACTOR
DATE.                         21AUG96:   RUN DATE
RW  .OHMM                      0.0000:   RW
RWT .DEGF                      0.0000:   RW TEMP
RUN .                               2:   LOG RUN
TDL .FT                    11503.0000:   FINAL TD LOGGER
TDD .FT                    11500.0000:   FINAL TD DRILLER
BOTL.FT                    11495.0000:   BOTTOM DEPTH LOGGED
TOPL.FT                     9240.0000:   TOP DEPTH LOGGED
CSGL.FT                     9240.0000:   CASING DEPTH LOGGER
CSGD.FT                     9250.0000:   CASING DEPTH DRILLER
CSGS.IN                        9.6250:   CASING SIZE
CSGW.                          0.0000:   CASING WEIGHT
BS  .IN                        8.5000:   BIT SIZE
MUD .                     DESCO LO-PH:   MUD TYPE
MUDD.                         16.4000:   MUD WEIGHT
MUDV.                         50.0000:   MUD VISCOSITY
FL  .                          2.8000:   FLUID LOSS
PH  .                          8.5000:   MUD PH
MUDS.                             PIT:   MUD SOURCE
RM  .OHMM                      1.0000:   RM
RMT .DEGF                     80.0000:   RM TEMP
RMF .OHMM                      0.4500:   RMF
RMFT.DEGF                     80.0000:   RMF TEMP
RMC .OHMM                      3.0000:   RMC
RMCT.DEGF                     80.0000:   RMC TEMP
MMFS.                            MEAS:   RMF SOURCE
MCFS.                            MEAS:   RMC SOURCE
RMBH.OHMM                      0.3870:   RM BH
BHT .DEGF                    230.0000:   BH TEMP
TMAX.DEGF                    230.0000:   MAX REC TEMP
SON .                          180319:   SERVICE ORDER NUM
ELMF.FT                       92.0000:   ABOVE PERM DATUM
LMF .                              DF:   LOGS MEAS FROM
DMF .                              DF:   DRILL MEAS FROM
TIMC.                            0700:   TIME SINCE CIRCLN
UNIT.8940                        8089:   UNIT NO.
BASE.                        PEARLAND:   LOG UNIT HOME BASE
ENG .                    SUTTON/DAVIS:   ENGINEER
WIT .                      MR.CAMBELL:   WITNESS
~PARAMETER INFORMATION (zones)
#MNEM.UNIT                       Value     Description
#=========                       =====     ===========
#ZONATION                        ZONES:   ZONATION NAME
#ZONE                             LAS3:   ZONE NAME
TOP .                       4470.0000:   TOP DEPTH
BOT .                      11816.0000:   BOTTOM DEPTH
SRVC.                   WESTERN ATLAS:   LOGGING CONTRACTOR
DATE.                         23AUG96:   RUN DATE
RW  .OHMM                      0.0000:   RW
RWT .DEGF                      0.0000:   RW TEMP
RUN .                               3:   LOG RUN
TDL .FT                    11800.0000:   FINAL TD LOGGER
TDD .FT                    11800.0000:   FINAL TD DRILLER
BOTL.FT                    11791.0000:   BOTTOM DEPTH LOGGED
TOPL.FT                     9240.0000:   TOP DEPTH LOGGED
CSGL.FT                     9240.0000:   CASING DEPTH LOGGER
CSGD.FT                     9250.0000:   CASING DEPTH DRILLER
CSGS.IN                        9.6250:   CASING SIZE
CSGW.                          0.0000:   CASING WEIGHT
BS  .IN                        8.5000:   BIT SIZE
MUD .                     DESCO LO-PH:   MUD TYPE
MUDD.                         16.4000:   MUD WEIGHT
MUDV.                         50.0000:   MUD VISCOSITY
FL  .                          2.8000:   FLUID LOSS
PH  .                          8.5000:   MUD PH
MUDS.                             PIT:   MUD SOURCE
RM  .OHMM                      1.0000:   RM
RMT .DEGF                     80.0000:   RM TEMP
RMF .OHMM                      0.4500:   RMF
RMFT.DEGF                     80.0000:   RMF TEMP
RMC .OHMM                      3.0000:   RMC
RMCT.DEGF                     80.0000:   RMC TEMP
MMFS.                            MEAS:   RMF SOURCE
MCFS.                            MEAS:   RMC SOURCE
RMBH.OHMM                      0.3870:   RM BH
BHT .DEGF                    232.0000:   BH TEMP
TMAX.DEGF                    232.0000:   MAX REC TEMP
SON .                          180319:   SERVICE ORDER NUM
ELMF.FT                       92.0000:   ABOVE PERM DATUM
LMF .                              DF:   LOGS MEAS FROM
DMF .                              DF:   DRILL MEAS FROM
TIMC.                            0700:   TIME SINCE CIRCLN
UNIT.8940                        8089:   UNIT NO.
BASE.                        PEARLAND:   LOG UNIT HOME BASE
ENG .                    SUTTON/DAVIS:   ENGINEER
WIT .                      BOB SHELBY:   WITNESS
~Curve Information Block
#MNEM.UNIT                    API CODE    No Description
#=========                    ========    == ===========
DEPT.F                   00 001 00 00:     1  DEPTH
CALX.IN                              :     2  Caliper
CNCF.%                               :     3  Field Normalized CNC
DT.US/F                              :     4  Sonic Transit Time
GR.GAPI                              :     5  Gamma Ray
M2R1.OHMM                            :     6  Array Resistivity Curve
M2R2.OHMM                            :     7  Array Resistivity Curve
M2R3.OHMM                            :     8  Array Resistivity Curve
M2R6.OHMM                            :     9  Array Resistivity Curve
M2R9.OHMM                            :    10  Array Resistivity Curve
M2RX.OHMM                            :    11  Array Resistivity Curve
PORZ.%                               :    12  PORZ
RFOC.OHMM                            :    13  Medium Resistivity
RILD.OHMM                            :    14  Deep Resistivity
RILM.OHMM                            :    15  Medium Resistivity
RWAA.OHMM                            :    16  RWAA
RWAZ.OHMM                            :    17  RWAZ
SP.MV                                :    18  Spontaneous Potential
TEN.LB                               :    19  TEN
ZCOR.G/CC                            :    20  Density Correction
~ASCII
# ...
 9909.0000  -999.2500  -999.2500   138.0870    72.8280      .5260      .5030      .4910      .4800      .4720      .4700  -999.2500  -999.2500  -999.2500  -999.2500      .1610  -999.2500    -3.0090  2109.2649  -999.2500
 9909.5000  -999.2500  -999.2500   136.2000    72.1900      .5240      .5010      .4880      .4790      .4730      .4720  -999.2500  -999.2500  -999.2500  -999.2500      .1530  -999.2500    -2.6320  2031.1169  -999.2500
 9910.0000  -999.2500  -999.2500   133.5270    71.9290      .5210      .4960      .4830      .4740      .4680      .4670  -999.2500  -999.2500  -999.2500  -999.2500      .1410  -999.2500    -2.8060  1953.6680  -999.2500
 9910.5000  -999.2500  -999.2500   130.4390    71.4830      .5200      .4920      .4770      .4680      .4610      .4590  -999.2500  -999.2500  -999.2500  -999.2500      .1270  -999.2500    -3.2010  1877.8280  -999.2500
 9911.0000  -999.2500  -999.2500   128.1370    69.8890      .5220      .4900      .4720      .4610      .4540      .4510  -999.2500  -999.2500  -999.2500  -999.2500      .1170  -999.2500    -3.2930  1801.4030  -999.2500
 9911.5000  -999.2500  -999.2500   127.8530    68.5440      .5280      .4930      .4720      .4600      .4520      .4490  -999.2500  -999.2500  -999.2500  -999.2500      .1150  -999.2500    -3.0960  1722.9900  -999.2500
 9912.0000  -999.2500  -999.2500   127.8570    69.2120      .5350      .4990      .4780      .4650      .4570      .4540  -999.2500  -999.2500  -999.2500  -999.2500      .1170  -999.2500    -3.1180  1642.4990  -999.2500
 9912.5000  -999.2500  -999.2500   127.4810    70.2010      .5390      .5050      .4830      .4730      .4660      .4630  -999.2500  -999.2500  -999.2500  -999.2500      .1180  -999.2500    -3.4010  1559.0200  -999.2500
 9913.0000  -999.2500  -999.2500   127.6310    68.7380      .5430      .5110      .4890      .4820      .4770      .4760  -999.2500  -999.2500  -999.2500  -999.2500      .1210  -999.2500    -3.7860  1473.5291  -999.2500
 9913.5000  -999.2500  -999.2500   128.2380    66.4980      .5500      .5210      .4990      .4940      .4910      .4910  -999.2500  -999.2500  -999.2500  -999.2500      .1270  -999.2500    -4.4440  1385.8560  -999.2500
 9914.0000  -999.2500  -999.2500   129.2530    66.4200      .5540      .5270      .5060      .5020      .4980      .4990  -999.2500  -999.2500  -999.2500  -999.2500      .1330  -999.2500    -5.1540  1296.6680  -999.2500
 9914.5000  -999.2500  -999.2500   130.4500    67.8700      .5460      .5220      .5000      .4950      .4910      .4910  -999.2500  -999.2500  -999.2500  -999.2500      .1360  -999.2500    -5.4310  1206.5830  -999.2500
 9915.0000  -999.2500  -999.2500   130.6410    68.5760      .5350      .5140      .4920      .4850      .4810      .4800  -999.2500  -999.2500  -999.2500  -999.2500      .1340  -999.2500    -5.3870  1115.1840  -999.2500
 9915.5000  -999.2500  -999.2500   129.8170    67.3980      .5330      .5140      .4930      .4850      .4800      .4790  -999.2500  -999.2500  -999.2500  -999.2500      .1300  -999.2500    -5.1240  1021.7820  -999.2500
 9916.0000  -999.2500  -999.2500   128.2780    66.0080      .5390      .5210      .5000      .4910      .4860      .4850  -999.2500  -999.2500  -999.2500  -999.2500      .1260  -999.2500    -4.5720   926.2860  -999.2500
 9916.5000  -999.2500  -999.2500   126.0420    65.9420      .5440      .5240      .5040      .4950      .4890      .4880  -999.2500  -999.2500  -999.2500  -999.2500      .1190  -999.2500    -4.0740   828.8560  -999.2500
 9917.0000  -999.2500  -999.2500   125.5270    65.9480      .5440      .5240      .5040      .4940      .4880      .4880  -999.2500  -999.2500  -999.2500  -999.2500      .1170  -999.2500    -4.0240   729.7580  -999.2500
 9917.5000  -999.2500  -999.2500   126.4610    65.3440      .5410      .5230      .5030      .4930      .4860      .4850  -999.2500  -999.2500  -999.2500  -999.2500      .1190  -999.2500    -4.2260   631.0560  -999.2500
 9918.0000  -999.2500  -999.2500   127.9230    64.8140      .5380      .5200      .5000      .4900      .4820      .4810  -999.2500  -999.2500  -999.2500  -999.2500      .1240  -999.2500    -4.3190   531.7980  -999.2500
 9918.5000  -999.2500  -999.2500   129.9810    63.6820      .5350      .5180      .4970      .4870      .4800      .4780  -999.2500  -999.2500  -999.2500  -999.2500      .1310  -999.2500    -4.2580   428.6290  -999.2500
 9919.0000  -999.2500  -999.2500   130.6350    61.9940      .5340      .5180      .4990      .4900      .4830      .4820  -999.2500  -999.2500  -999.2500  -999.2500      .1340  -999.2500    -4.2050   319.6060  -999.2500
 9919.5000  -999.2500  -999.2500   130.4320    61.9900      .5360      .5220      .5030      .4950      .4900      .4890  -999.2500  -999.2500  -999.2500  -999.2500      .1350  -999.2500    -4.1270   204.7080  -999.2500
 9920.0000  -999.2500  -999.2500   131.5530    63.6240      .5380      .5250      .5070      .5010      .4960      .4960  -999.2500  -999.2500  -999.2500  -999.2500      .1420  -999.2500    -3.8310    97.5950  -999.2500
 9920.5000  -999.2500  -999.2500   133.3160    64.4090      .5400      .5270      .5100      .5050      .5010      .5020  -999.2500  -999.2500  -999.2500  -999.2500      .1510  -999.2500    -3.4570    26.1330  -999.2500
 9921.0000  -999.2500  -999.2500   132.5570    63.9640      .5420      .5290      .5120      .5070      .5040      .5050  -999.2500  -999.2500  -999.2500  -999.2500      .1480  -999.2500    -3.3410     -.5010  -999.2500
 9921.5000  -999.2500  -999.2500   130.0600    63.2070      .5430      .5300      .5110      .5060      .5030      .5040  -999.2500  -999.2500  -999.2500  -999.2500      .1380  -999.2500    -3.4040    -5.8670  -999.2500
 9922.0000  -999.2500  -999.2500   127.7760    62.2420      .5430      .5290      .5090      .5030      .5000      .5000  -999.2500  -999.2500  -999.2500  -999.2500      .1280  -999.2500    -3.2290   -10.2740  -999.2500
 9922.5000  -999.2500  -999.2500   124.8850    60.9200      .5450      .5280      .5080      .5020      .4980      .4980  -999.2500  -999.2500  -999.2500  -999.2500      .1170  -999.2500    -2.8030   -13.9520  -999.2500
 9923.0000  -999.2500  -999.2500   124.4230    60.5770      .5510      .5320      .5100      .5040      .5000      .5000  -999.2500  -999.2500  -999.2500  -999.2500      .1160  -999.2500    -2.7240   -14.5710  -999.2500
 9923.5000  -999.2500  -999.2500   125.1470    61.5410      .5590      .5370      .5160      .5100      .5050      .5050  -999.2500  -999.2500  -999.2500  -999.2500      .1190  -999.2500    -3.0080   -14.6680  -999.2500
 9924.0000  -999.2500  -999.2500   124.9650    62.4120      .5630      .5400      .5190      .5140      .5090      .5090  -999.2500  -999.2500  -999.2500  -999.2500      .1200  -999.2500    -2.8590   -17.1310  -999.2500
 9924.5000  -999.2500  -999.2500   125.2730    62.3550      .5620      .5390      .5190      .5140      .5090      .5090  -999.2500  -999.2500  -999.2500  -999.2500      .1210  -999.2500    -2.1930   -20.5140  -999.2500
 9925.0000  -999.2500  -999.2500   127.0240    61.6540      .5590      .5370      .5170      .5110      .5070      .5070  -999.2500  -999.2500  -999.2500  -999.2500      .1270  -999.2500    -2.1350   -22.1570  -999.2500
 9925.5000  -999.2500  -999.2500   129.1040    61.0740      .5550      .5320      .5130      .5060      .5010      .5010  -999.2500  -999.2500  -999.2500  -999.2500      .1330  -999.2500    -2.9040   -22.1260  -999.2500
 9926.0000  -999.2500  -999.2500   129.2490    60.7920      .5480      .5240      .5040      .4960      .4900      .4900  -999.2500  -999.2500  -999.2500  -999.2500      .1310  -999.2500    -3.3170   -21.9750  -999.2500
 9926.5000  -999.2500  -999.2500   128.7890    60.7230      .5390      .5160      .4960      .4860      .4810      .4800  -999.2500  -999.2500  -999.2500  -999.2500      .1270  -999.2500    -2.8530   -20.1630  -999.2500
 9927.0000  -999.2500  -999.2500   128.3200    60.6570      .5320      .5100      .4900      .4810      .4750      .4750  -999.2500  -999.2500  -999.2500  -999.2500      .1240  -999.2500    -2.3390   -16.2640  -999.2500
