~VERSION INFORMATION
VERS.                             2.0:   CWLS Log ASCII Standard-VERSION 2.0
WRAP.                              NO:   One line per depth step
~Well Information Block
STRT.F                      3732.0000:   Top Depth
STOP.F                      8303.0000:   Bottom Depth
STEP.F                         .50000:   Depth Increment
NULL.                        -999.250:   Null Value
FLD .                      BA BLK 415:   Field Name
WELL.       OCSG11271   001 ST00 BP00:   NAME
API .                  42704402170000:   WELL API
EDF .F                       100.0000:   ELEV DRILL FLOOR
COMP.                     APACHE CORP:   OPERATOR
BN  .                             415:   BLOCK
CTRY.                             USA:   COUNTRY NAME
CNTY.                        BRAZOS L:   COUNTY NAME
EGL .F                       -78.0000:   ELEV GROUND LEVEL
EKB .F                       101.0000:   ELEV KELLY BUSHING
TDD .F                       8311.000:   FINAL TD DRILLER
STAT.                           TEXAS:   STATE NAME
UWI .                  42704402170000:   WELL API
DICO.               IHS : Digitizing Company
~PARAMETER INFORMATION (zones)
#MNEM.UNIT                       Value     Description
#=========                       =====     ===========
#ZONATION                          CNL:   ZONATION NAME
#ZONE                            RUN_1:   ZONE NAME
TOP .                       5274.0000:   TOP DEPTH
BOT .                       8300.5000:   BOTTOM DEPTH
RUN .                               1:   RUN NUMBER
LCCD.                              99:   LOGGING CONTRACTOR
DICO.          QC Data Collectors Ltd:   DIG COMPANY NAME
LDAT.                      08/26/1990:   DATE LOGGED
ELD .F                       101.0000:   LOG DATUM ELEVATION
TDD .F                      8311.0000:   TOTAL DEPTH DRILLER
TDL .F                      8306.0000:   TOTAL DEPTH LOGGER
BOTL.F                      8303.0000:   BOTTOM DEPTH LOGGED
TOPL.F                      5257.0000:   TOP DEPTH LOGGED
CS1 .IN                       10.7500:   CASING SIZE 1
BS1 .IN                        9.8750:   BIT SIZE 1
DDB1.F                      8311.0000:   DEPTH DRILLED BIT 1
BHF .                              99:   FLUID CODE
DPT .                   Miscellaneous:   DRILLING FLUID TYPE
MUDD.                         10.0000:   FLUID DENSITY
MUDV.                         43.0000:   FLUID VISCOSITY
DFPH.                          8.1000:   FLUID PH
FL  .                          3.2000:   FLUID LOSS
RM  .OHMM                       .8800:   RM
RMT .DEGF                     75.0000:   RM TEMP
RMF .OHMM                       .7000:   RMF
RMFT.DEGF                     75.0000:   RMF TEMP
FSC .                               C:   RMF CODE
RMC .OHMM                       .9600:   RMC
RMCT.DEGF                     75.0000:   RMC TEMP
CMC .                               C:   RMC CODE
TMAX.DEGF                    166.0000:   MAX REC TEMP
TIMC.                         10.0000:   TIME SINCE CIRCLN
~PARAMETER INFORMATION (zones)
#MNEM.UNIT                       Value     Description
#=========                       =====     ===========
#ZONATION                          DIL:   ZONATION NAME
#ZONE                            RUN_1:   ZONE NAME
TOP .                       3732.0000:   TOP DEPTH
BOT .                       8303.5000:   BOTTOM DEPTH
RUN .                               1:   RUN NUMBER
LCCD.                              99:   LOGGING CONTRACTOR
DICO.          QC Data Collectors Ltd:   DIG COMPANY NAME
LDAT.                      08/26/1990:   DATE LOGGED
ELD .F                       101.0000:   LOG DATUM ELEVATION
TDD .F                      8311.0000:   TOTAL DEPTH DRILLER
TDL .F                      8306.0000:   TOTAL DEPTH LOGGER
BOTL.F                      8303.0000:   BOTTOM DEPTH LOGGED
TOPL.F                      3786.0000:   TOP DEPTH LOGGED
CS1 .IN                       10.7500:   CASING SIZE 1
BS1 .IN                        9.8750:   BIT SIZE 1
DDB1.F                      8311.0000:   DEPTH DRILLED BIT 1
BHF .                              99:   FLUID CODE
DPT .                   Miscellaneous:   DRILLING FLUID TYPE
MUDD.                         10.0000:   FLUID DENSITY
MUDV.                         43.0000:   FLUID VISCOSITY
DFPH.                          8.1000:   FLUID PH
FL  .                          3.2000:   FLUID LOSS
RM  .OHMM                       .8800:   RM
RMT .DEGF                     75.0000:   RM TEMP
RMF .OHMM                       .7000:   RMF
RMFT.DEGF                     75.0000:   RMF TEMP
FSC .                               C:   RMF CODE
RMC .OHMM                       .9600:   RMC
RMCT.DEGF                     75.0000:   RMC TEMP
CMC .                               C:   RMC CODE
TMAX.DEGF                    166.0000:   MAX REC TEMP
TIMC.                          6.0000:   TIME SINCE CIRCLN
~PARAMETER INFORMATION (zones)
#MNEM.UNIT                       Value     Description
#=========                       =====     ===========
#ZONATION                          FDC:   ZONATION NAME
#ZONE                            RUN_1:   ZONE NAME
TOP .                       5263.0000:   TOP DEPTH
BOT .                       8303.5000:   BOTTOM DEPTH
RUN .                               1:   RUN NUMBER
LCCD.                              99:   LOGGING CONTRACTOR
DICO.          QC Data Collectors Ltd:   DIG COMPANY NAME
LDAT.                      08/26/1990:   DATE LOGGED
ELD .F                       101.0000:   LOG DATUM ELEVATION
TDD .F                      8311.0000:   TOTAL DEPTH DRILLER
TDL .F                      8306.0000:   TOTAL DEPTH LOGGER
BOTL.F                      8303.0000:   BOTTOM DEPTH LOGGED
TOPL.F                      5257.0000:   TOP DEPTH LOGGED
CS1 .IN                       10.7500:   CASING SIZE 1
BS1 .IN                        9.8750:   BIT SIZE 1
DDB1.F                      8311.0000:   DEPTH DRILLED BIT 1
BHF .                              99:   FLUID CODE
DPT .                   Miscellaneous:   DRILLING FLUID TYPE
MUDD.                         10.0000:   FLUID DENSITY
MUDV.                         43.0000:   FLUID VISCOSITY
DFPH.                          8.1000:   FLUID PH
FL  .                          3.2000:   FLUID LOSS
RM  .OHMM                       .8800:   RM
RMT .DEGF                     75.0000:   RM TEMP
RMF .OHMM                       .7000:   RMF
RMFT.DEGF                     75.0000:   RMF TEMP
FSC .                               C:   RMF CODE
RMC .OHMM                       .9600:   RMC
RMCT.DEGF                     75.0000:   RMC TEMP
CMC .                               C:   RMC CODE
TMAX.DEGF                    166.0000:   MAX REC TEMP
TIMC.                         10.0000:   TIME SINCE CIRCLN
~Curve Information Block
#MNEM.UNIT                    API CODE    No Description
#=========                    ========    == ===========
DEPT.F                   00 001 00 00:     1  DEPTH
NPHI.%                               :     2  Neutron Porosity
CALI.IN                              :     3  Caliper
DT.US/F                              :     4  Sonic Transit Time
GR.GAPI                              :     5  Gamma Ray
ILD.OHMM                             :     6  Deep Induction Resistivity
ILM.OHMM                             :     7  Medium Induction Resistivity
RFOC.OHMM                            :     8  Medium Resistivity
SP.MV                                :     9  Spontaneous Potential
CALI.IN                              :    10  Caliper
DPHI.%                               :    11  Porosity
DRHO.G/C3                            :    12  Bulk Density Correction
GR.GAPI                              :    13  Gamma Ray
RHOB.G/C3                            :    14  Bulk Density
~ASCII
# ...
 6176.0000    33.4142  -999.2500   111.5471    54.3696      .2773      .3319      .8763  -109.9176    10.1666  -999.2500      .0071    59.0995     2.1248
 6176.5000    32.9885  -999.2500   110.5574    54.8401      .3008      .3582      .8002  -105.8198    10.1635  -999.2500      .0063    58.8005     2.1280
 6177.0000    32.6203  -999.2500   109.3114    55.8828      .3352      .3952      .7701  -100.3387    10.1507  -999.2500      .0086    59.4745     2.1340
 6177.5000    32.3521  -999.2500   108.2471    57.5553      .3734      .4344      .7642   -94.4200    10.1443  -999.2500      .0116    61.2065     2.1426
 6178.0000    32.1656  -999.2500   106.3212    59.8530      .4139      .4754      .8509   -89.8717    10.1522  -999.2500      .0150    63.1576     2.1642
 6178.5000    32.1344  -999.2500   102.9636    62.8878      .4668      .5161     1.0178   -86.7821    10.1874  -999.2500      .0198    65.1478     2.1893
 6179.0000    32.1332  -999.2500   101.0378    65.7664      .5309      .5553     1.1251   -84.9794    10.2256  -999.2500      .0216    67.9493     2.2152
 6179.5000    32.1603  -999.2500   100.1027    68.8274      .6017      .5953     1.1076   -81.6553    10.2581  -999.2500      .0181    70.2656     2.2255
 6180.0000    32.5717  -999.2500   101.8602    75.5848      .6818      .6390      .9050   -74.2308    10.2565  -999.2500      .0221    72.4410     2.2291
 6180.5000    33.1124  -999.2500   108.7740    81.2899      .7643      .6803      .7645   -65.3320    10.3328  -999.2500      .0268    74.8904     2.2305
 6181.0000    33.8031  -999.2500   113.8835    86.5156      .8408      .7176      .7474   -56.5270    10.4207  -999.2500      .0249    79.0509     2.2373
 6181.5000    34.4585  -999.2500   117.2489    89.2354      .9250      .7621      .7490   -50.6500    10.5111  -999.2500      .0239    89.1246     2.2509
 6182.0000    35.0283  -999.2500   117.6097    90.2888     1.0176      .8298      .7708   -47.6594    10.5907  -999.2500      .0314    93.9556     2.2555
 6182.5000    35.6844  -999.2500   114.3098    90.4982     1.1159      .8926      .7977   -45.7876    10.5899  -999.2500      .0410    96.1328     2.2638
 6183.0000    36.0899  -999.2500   111.5118    89.6066     1.1888      .9363      .8256   -44.4981    10.5534  -999.2500      .0503    95.7769     2.2746
 6183.5000    36.0778  -999.2500   109.7050    88.1256     1.2670      .9669      .8544   -43.6130    10.5430  -999.2500      .0571    95.0452     2.2878
 6184.0000    35.2146  -999.2500   107.7908    85.6300     1.3295      .9950      .8825   -43.2718    10.5934  -999.2500      .0535    95.1111     2.3021
 6184.5000    34.1455  -999.2500   105.8649    81.5504     1.3621     1.0176      .8893   -43.1062    10.6659  -999.2500      .0503    96.0110     2.3172
 6185.0000    33.0764  -999.2500   104.6477    77.9398     1.3580     1.0248      .8960   -43.2086    10.7256  -999.2500      .0534    95.4633     2.3292
 6185.5000    32.5334  -999.2500   103.2736    75.2827     1.3234     1.0185      .8991   -43.6293    10.7713  -999.2500      .0545    92.6592     2.3360
 6186.0000    32.3426  -999.2500   101.1437    73.7762     1.2023      .9724      .8923   -44.6440    10.7923  -999.2500      .0456    88.6499     2.3477
 6186.5000    31.8950  -999.2500    98.9263    73.4558     1.0400      .9351      .8903   -46.2422    10.8032  -999.2500      .0357    84.3721     2.3591
 6187.0000    30.5488  -999.2500    97.3824    72.4509      .9120      .7482      .8921   -49.0140    10.8091  -999.2500      .0327    81.3594     2.3705
 6187.5000    29.5150  -999.2500    98.2150    65.2688      .7600      .6174      .8907   -54.6513    10.8027  -999.2500      .0327    78.7874     2.3792
 6188.0000    29.7333  -999.2500   101.5621    52.7229      .6402      .5095      .8604   -66.7491    10.7633  -999.2500      .0400    76.5128     2.3838
 6188.5000    31.1409  -999.2500   106.1696    43.3343      .5393      .4144      .8308   -80.6498    10.7094  -999.2500      .0511    74.5421     2.3652
 6189.0000    32.6686  -999.2500   111.1797    39.6689      .4539      .3671      .8018   -91.7994    10.6476  -999.2500      .0542    71.8776     2.3130
 6189.5000    33.6345  -999.2500   115.7637    36.5481      .3999      .3431      .7728  -100.2502    10.5889  -999.2500      .0339    64.1722     2.2548
 6190.0000    34.0018  -999.2500   118.1589    33.6904      .3574      .3266      .7551  -102.9542    10.5098  -999.2500      .0163    54.9227     2.1866
 6190.5000    34.0230  -999.2500   119.4363    31.7769      .3199      .3081      .7545  -104.6281    10.4745  -999.2500      .0070    50.7492     2.1232
 6191.0000    33.8154  -999.2500   120.1718    30.1787      .2963      .2938      .7614  -105.7312    10.4870  -999.2500      .0017    47.7312     2.1029
 6191.5000    33.5306  -999.2500   119.7102    31.4240      .2802      .2810      .7441  -106.5277    10.4725  -999.2500     -.0026    45.7853     2.0904
 6192.0000    33.2527  -999.2500   119.0081    33.3976      .2684      .2702      .7267  -106.2921    10.3529  -999.2500     -.0068    44.0011     2.0832
 6192.5000    33.0709  -999.2500   118.2524    32.9271      .2588      .2629      .7040  -106.9556    10.2016  -999.2500     -.0099    42.4230     2.0768
 6193.0000    33.3803  -999.2500   117.7405    31.4474      .2515      .2580      .6822  -108.6776    10.1167  -999.2500     -.0114    41.5159     2.0705
 6193.5000    33.8384  -999.2500   118.0419    30.7304      .2482      .2536      .6786  -110.4333    10.0805  -999.2500     -.0110    41.6262     2.0652
 6194.0000    34.1105  -999.2500   118.3661    30.5471      .2453      .2497      .6751  -111.2273    10.0533  -999.2500     -.0090    43.2003     2.0602
 6194.5000    34.1107  -999.2500   118.8636    32.7942      .2439      .2465      .6716  -111.1951    10.0301  -999.2500     -.0072    45.0067     2.0541
 6195.0000    34.0432  -999.2500   119.3618    35.6545      .2426      .2434      .6634  -111.0413    10.0229  -999.2500     -.0056    45.4230     2.0482
 6195.5000    34.0664  -999.2500   119.5027    36.8125      .2427      .2417      .6537  -110.7762    10.0221  -999.2500     -.0052    44.9597     2.0445
 6196.0000    34.1940  -999.2500   119.5729    37.1300      .2433      .2415      .6457  -110.5737    10.0342  -999.2500     -.0050    44.4563     2.0421
 6196.5000    34.1890  -999.2500   119.5880    36.9756      .2439      .2413      .6388  -110.8717    10.0476  -999.2500     -.0053    44.0588     2.0441
 6197.0000    33.8093  -999.2500   119.5184    37.4104      .2444      .2411      .6461  -111.2761    10.0638  -999.2500     -.0050    43.9619     2.0466
 6197.5000    33.5175  -999.2500   119.4490    38.2889      .2449      .2415      .6535  -111.9482    10.0777  -999.2500     -.0044    43.9705     2.0478
 6198.0000    33.6819  -999.2500   119.4276    38.3560      .2453      .2421      .6581  -112.4431    10.0868  -999.2500     -.0029    45.6053     2.0461
 6198.5000    33.8789  -999.2500   119.5195    36.8242      .2457      .2428      .6571  -112.6837    10.0918  -999.2500     -.0009    48.5033     2.0438
 6199.0000    34.0158  -999.2500   119.6113    35.7653      .2459      .2434      .6506  -112.6200    10.0937  -999.2500      .0011    50.4166     2.0440
 6199.5000    33.8806  -999.2500   119.6548    35.9229      .2461      .2435      .6384  -112.4854    10.0955  -999.2500      .0029    50.6338     2.0464
 6200.0000    33.5074  -999.2500   119.6617    37.0717      .2463      .2433      .6216  -112.3231    10.0973  -999.2500      .0047    49.9323     2.0484
 6200.5000    33.3161  -999.2500   119.7004    38.3690      .2467      .2430      .6125  -112.1711    10.0945  -999.2500      .0066    50.2269     2.0496
 6201.0000    33.2687  -999.2500   119.5879    38.3755      .2478      .2429      .6070  -112.0226    10.0907  -999.2500      .0069    50.5020     2.0499
 6201.5000    33.4352  -999.2500   119.4648    37.2437      .2489      .2430      .6091  -111.9413    10.0847  -999.2500      .0064    49.3915     2.0499
