~VERSION INFORMATION
VERS.                             2.0:   CWLS Log ASCII Standard-VERSION 2.0
WRAP.                              NO:   One line per depth step
~Well Information Block
STRT.F                      6412.0000:   Top Depth
STOP.F                      9744.0000:   Bottom Depth
STEP.F                         .50000:   Depth Increment
NULL.                        -999.250:   Null Value
FLD .                      GA BLK 273:   Field Name
WELL.       OCSG09037   005 ST00 BP00:   NAME
API .                  42706403310000:   WELL API
EDF .F                        93.0000:   ELEV DRILL FLOOR
COMP.       SEAGULL ENERGY E AND P IN:   OPERATOR
BN  .                             273:   BLOCK
CTRY.                             USA:   COUNTRY NAME
CNTY.                              GA:   COUNTY
CNTY.                        GLVSTN L:   COUNTY NAME
EGL .F                       -63.0000:   ELEV GROUND LEVEL
EKB .F                        94.0000:   ELEV KELLY BUSHING
TDD .F                       9756.000:   FINAL TD DRILLER
STAT.                           TEXAS:   STATE NAME
UWI .                  42706403310000:   WELL API
DICO.               IHS : Digitizing Company
~PARAMETER INFORMATION (zones)
#MNEM.UNIT                       Value     Description
#=========                       =====     ===========
#ZONATION                          DIL:   ZONATION NAME
#ZONE                            RUN_1:   ZONE NAME
TOP .                       6412.0000:   TOP DEPTH
BOT .                       9744.5000:   BOTTOM DEPTH
RUN .                               1:   RUN NUMBER
LCCD.                             440:   LOGGING CONTRACTOR
SRVC.                    Schlumberger:   LOGGING CONT NAME
DICO.          QC Data Collectors Ltd:   DIG COMPANY NAME
LDAT.                      03/03/1993:   DATE LOGGED
ELD .F                        94.0000:   LOG DATUM ELEVATION
TDD .F                      9756.0000:   TOTAL DEPTH DRILLER
TDL .F                      9750.0000:   TOTAL DEPTH LOGGER
BOTL.F                      9744.0000:   BOTTOM DEPTH LOGGED
TOPL.F                      6543.0000:   TOP DEPTH LOGGED
CS1 .IN                        7.6250:   CASING SIZE 1
BS1 .IN                        6.5000:   BIT SIZE 1
DDB1.F                      9756.0000:   DEPTH DRILLED BIT 1
BHF .                              99:   FLUID CODE
DPT .                   Miscellaneous:   DRILLING FLUID TYPE
MUDD.                         11.7000:   FLUID DENSITY
MUDV.                         46.0000:   FLUID VISCOSITY
DFPH.                          6.5000:   FLUID PH
FL  .                          9.6500:   FLUID LOSS
RM  .OHMM                      1.3200:   RM
RMT .DEGF                     64.0000:   RM TEMP
RMF .OHMM                      1.1100:   RMF
RMFT.DEGF                     70.0000:   RMF TEMP
FSC .                               M:   RMF CODE
RMC .OHMM                      1.6200:   RMC
RMCT.DEGF                     65.0000:   RMC TEMP
CMC .                               M:   RMC CODE
TMAX.DEGF                    186.0000:   MAX REC TEMP
TIMC.                          6.5000:   TIME SINCE CIRCLN
~Curve Information Block
#MNEM.UNIT                    API CODE    No Description
#=========                    ========    == ===========
DEPT.F                   00 001 00 00:     1  DEPTH
DTL.US/F                             :     2  Sonic Transit Time (Slowness)
GR.GAPI                              :     3  Gamma Ray
ILD.OHMM                             :     4  Deep Induction Resistivity
ILM.OHMM                             :     5  Medium Induction Resistivity
SFL.OHMM                             :     6  Medium Resistivity
SP.MV                                :     7  Spontaneous Potential
~ASCII
# ...
 6516.0000  -999.2500    56.2217  -999.2500  -999.2500  -999.2500  -999.2500
 6516.5000  -999.2500    58.4659  -999.2500  -999.2500  -999.2500  -999.2500
 6517.0000  -999.2500    56.4409  -999.2500  -999.2500  -999.2500  -999.2500
 6517.5000  -999.2500    58.2231  -999.2500  -999.2500  -999.2500  -999.2500
 6518.0000  -999.2500    60.0033  -999.2500  -999.2500  -999.2500  -999.2500
 6518.5000  -999.2500    57.6143  -999.2500  -999.2500  -999.2500  -999.2500
 6519.0000  -999.2500    56.5738  -999.2500  -999.2500  -999.2500  -999.2500
 6519.5000  -999.2500    48.5460  -999.2500  -999.2500  -999.2500  -999.2500
 6520.0000  -999.2500    50.3598  -999.2500  -999.2500  -999.2500  -999.2500
 6520.5000  -999.2500    47.1680  -999.2500  -999.2500  -999.2500  -999.2500
 6521.0000  -999.2500    49.7880  -999.2500  -999.2500  -999.2500  -999.2500
 6521.5000  -999.2500    50.1619  -999.2500  -999.2500  -999.2500  -999.2500
 6522.0000  -999.2500    52.1773  -999.2500  -999.2500  -999.2500  -999.2500
 6522.5000  -999.2500    56.0065  -999.2500  -999.2500  -999.2500  -999.2500
 6523.0000  -999.2500    54.7993  -999.2500  -999.2500  -999.2500  -999.2500
 6523.5000  -999.2500    55.2023  -999.2500  -999.2500  -999.2500  -999.2500
 6524.0000  -999.2500    54.1652  -999.2500  -999.2500  -999.2500  -999.2500
 6524.5000  -999.2500    60.6416  -999.2500  -999.2500  -999.2500  -999.2500
 6525.0000  -999.2500    58.6262  -999.2500  -999.2500  -999.2500  -999.2500
 6525.5000  -999.2500    56.2117  -999.2500  -999.2500  -999.2500  -999.2500
 6526.0000  -999.2500    52.0724  -999.2500  -999.2500  -999.2500  -999.2500
 6526.5000  -999.2500    54.0878  -999.2500  -999.2500  -999.2500  -999.2500
 6527.0000  -999.2500    57.5084  -999.2500  -999.2500  -999.2500  -999.2500
 6527.5000  -999.2500    56.8107  -999.2500  -999.2500  -999.2500  -999.2500
 6528.0000  -999.2500    53.7877  -999.2500  -999.2500  -999.2500  -999.2500
 6528.5000  -999.2500    51.5743  -999.2500  -999.2500  -999.2500  -999.2500
 6529.0000  -999.2500    52.4117  -999.2500  -999.2500  -999.2500  -999.2500
 6529.5000  -999.2500    55.0009  -999.2500  -999.2500  -999.2500  -999.2500
 6530.0000  -999.2500    55.0284  -999.2500  -999.2500  -999.2500  -999.2500
 6530.5000  -999.2500    53.9895  -999.2500  -999.2500  -999.2500  -999.2500
 6531.0000  -999.2500    53.7883  -999.2500  -999.2500  -999.2500  -999.2500
 6531.5000  -999.2500    58.2222  -999.2500  -999.2500  -999.2500  -999.2500
 6532.0000  -999.2500    58.1927  -999.2500  -999.2500  -999.2500  -999.2500
 6532.5000  -999.2500    57.4170  -999.2500  -999.2500  -999.2500  -999.2500
 6533.0000  -999.2500    55.8047  -999.2500  -999.2500  -999.2500  -999.2500
 6533.5000  -999.2500    56.8107  -999.2500  -999.2500  -999.2500  -999.2500
 6534.0000  -999.2500    60.4384  -999.2500  -999.2500  -999.2500  -999.2500
 6534.5000  -999.2500    54.7724  -999.2500  -999.2500  -999.2500  -999.2500
 6535.0000  -999.2500    55.0051  -999.2500  -999.2500  -999.2500  -999.2500
 6535.5000  -999.2500    55.3724  -999.2500  -999.2500  -999.2500  -999.2500
 6536.0000  -999.2500    60.4338  -999.2500  -999.2500  -999.2500  -999.2500
 6536.5000  -999.2500    57.8138  -999.2500  -999.2500  -999.2500  -999.2500
 6537.0000  -999.2500    53.1859  -999.2500  -999.2500  -999.2500  -999.2500
 6537.5000  -999.2500    53.7906  -999.2500  -999.2500  -999.2500  -999.2500
 6538.0000  -999.2500    55.7755  -999.2500  -999.2500  -999.2500  -999.2500
 6538.5000  -999.2500    56.2357  -999.2500  -999.2500  -999.2500  -999.2500
 6539.0000  -999.2500    52.2049  -999.2500  -999.2500  -999.2500  -999.2500
 6539.5000  -999.2500    53.0097  -999.2500  -999.2500  -999.2500  -999.2500
 6540.0000  -999.2500    51.0811  -999.2500  -999.2500  -999.2500  -999.2500
 6540.5000  -999.2500    50.2993  -999.2500  -999.2500  -999.2500  -999.2500
 6541.0000  -999.2500    48.9203  -999.2500  -999.2500  -999.2500  -999.2500
 6541.5000  -999.2500    56.0226  -999.2500  -999.2500  -999.2500  -999.2500
 6542.0000  -999.2500    63.4553  -999.2500  -999.2500  -999.2500  -999.2500
 6542.5000  -999.2500    72.4803  -999.2500  -999.2500  -999.2500  -999.2500
 6543.0000   111.1000    74.9362  1950.0000  1950.0000     1.5086   -58.1794
 6543.5000   111.7999    74.8998      .3492     3.0140     1.0118   -57.9317
 6544.0000   113.0000    71.3547      .2811      .9859     1.0105   -58.4340
 6544.5000   114.6000    66.5178      .3029      .5541      .9566   -57.6862
 6545.0000   114.4999    68.1274      .3304      .4119      .8665   -55.6885
 6545.5000   117.5000    67.6859      .4100      .3782      .9763   -53.1907
 6546.0000   120.0000    72.8840      .6556      .4094     1.3500   -51.1930
 6546.5000   121.2000    72.7214      .6922      .4981     1.4158   -50.1953
 6547.0000   122.6000    76.7523      .7230      .6438     1.0910   -49.4475
 6547.5000   120.1000    74.9414      .7466      .8030      .8854   -48.1998
 6548.0000   119.3999    75.1429      .7466      .8611      .8504   -47.7020
 6548.5000   118.6000    73.6902      .7206      .7911      .8528   -44.9542
 6549.0000   118.7999    72.5199      .6825      .7004      .8392   -41.4565
 6549.5000   120.5000    72.9628      .6482      .6532      .8120   -41.4587
 6550.0000   119.8307    69.9446      .6304      .6539      .8426   -43.7111
 6550.5000   119.8450    69.9446      .6330      .6913      .8497   -40.9633
 6551.0000   118.7930    72.4886      .6515      .7421      .8227   -40.4656
 6551.5000   116.3851    76.1105      .6819      .7749      .7815   -41.4678
 6552.0000   114.4729    76.9166      .7109      .7769      .7770   -41.4701
 6552.5000    93.9056    76.5498      .7303      .7597      .8104   -42.9724
 6553.0000    57.3727    75.7449      .7382      .7399      .8400   -43.7246
 6553.5000     5.6982    76.1479      .7361      .7283      .8629   -44.2269
 6554.0000    30.2793    75.9036      .7293      .7295      .8514   -44.2291
 6554.5000    99.3239    78.1621      .7236      .7407      .8339   -43.2314
 6555.0000   118.1774    78.4031      .7214      .7565      .8014   -42.4836
 6555.5000   117.0537    77.1958      .7235      .7729      .7653   -42.4859
 6556.0000   114.5526    74.7773      .7328      .7864      .7643   -42.4882
 6556.5000   111.9805    72.2839      .7464      .7968      .8256   -43.4904
 6557.0000   110.9318    70.9142      .7613      .8070      .9265   -43.9927
 6557.5000   111.0323    69.7050      .7766      .8187      .9681   -44.2449
 6558.0000   111.7513    74.1316      .7894      .8305      .9614   -44.7471
 6558.5000   115.5884    74.5347      .7970      .8394      .9077   -44.9995
 6559.0000   121.4448    72.6844      .7937      .8422      .9311   -46.0017
 6559.5000   122.6350    70.6724      .7837      .8362      .9431   -46.7540
 6560.0000   122.6824    75.6633      .7721      .8225      .9196   -47.0062
 6560.5000   122.1000    78.5212      .7630      .8054      .8724   -47.5085
 6561.0000   119.5000    82.2524      .7564      .7903      .8449   -48.0107
 6561.5000   114.8999    77.3547      .7529      .7821      .8354   -49.5130
 6562.0000   111.8999    76.1422      .7522      .7833      .8690   -51.0153
 6562.5000   112.0000    68.8225      .7535      .7924      .8897   -51.0175
 6563.0000   112.2999    70.5431      .7567      .8048      .9289   -51.7698
 6563.5000   117.6000    71.5135      .7621      .8149      .9586   -51.2720
 6564.0000   112.6000    78.5674      .7669      .8207      .9018   -51.5243
 6564.5000   112.5000    77.6794      .7774      .8244      .8776   -51.0266
 6565.0000   111.7000    81.5493      .7799      .8294      .8310   -50.5288
 6565.5000   107.5000    76.0718      .7808      .8364      .9724   -50.2811
 6566.0000   112.2000    82.1997      .7777      .8436      .9297   -50.2833
 6566.5000   113.2000    83.8120      .7772      .8481      .9534   -50.7856
 6567.0000   112.2999    85.8241      .7788      .8474      .9195   -50.7878
 6567.5000   115.0000    78.9321      .7735      .8402      .9339   -51.0401
