~VERSION INFORMATION
VERS.                             2.0:   CWLS Log ASCII Standard-VERSION 2.0
WRAP.                              NO:   One line per depth step
~Well Information Block
STRT.F                      6412.0000:   Top Depth
STOP.F                      9744.0000:   Bottom Depth
STEP.F                         .50000:   Depth Increment
NULL.                        -999.250:   Null Value
FLD .                      GA BLK 273:   Field Name
WELL.       OCSG09037   005 ST00 BP00:   NAME
API .                  42706403310000:   WELL API
EDF .F                        93.0000:   ELEV DRILL FLOOR
COMP.       SEAGULL ENERGY E AND P IN:   OPERATOR
BN  .                             273:   BLOCK
CTRY.                             USA:   COUNTRY NAME
CNTY.                              GA:   COUNTY
CNTY.                        GLVSTN L:   COUNTY NAME
EGL .F                       -63.0000:   ELEV GROUND LEVEL
EKB .F                        94.0000:   ELEV KELLY BUSHING
TDD .F                       9756.000:   FINAL TD DRILLER
STAT.                           TEXAS:   STATE NAME
UWI .                  42706403310000:   WELL API
DICO.               IHS : Digitizing Company
~PARAMETER INFORMATION (zones)
#MNEM.UNIT                       Value     Description
#=========                       =====     ===========
#ZONATION                          DIL:   ZONATION NAME
#ZONE                            RUN_1:   ZONE NAME
TOP .                       6412.0000:   TOP DEPTH
BOT .                       9744.5000:   BOTTOM DEPTH
RUN .                               1:   RUN NUMBER
LCCD.                             440:   LOGGING CONTRACTOR
SRVC.                    Schlumberger:   LOGGING CONT NAME
DICO.          QC Data Collectors Ltd:   DIG COMPANY NAME
LDAT.                      03/03/1993:   DATE LOGGED
ELD .F                        94.0000:   LOG DATUM ELEVATION
TDD .F                      9756.0000:   TOTAL DEPTH DRILLER
TDL .F                      9750.0000:   TOTAL DEPTH LOGGER
BOTL.F                      9744.0000:   BOTTOM DEPTH LOGGED
TOPL.F                      6543.0000:   TOP DEPTH LOGGED
CS1 .IN                        7.6250:   CASING SIZE 1
BS1 .IN                        6.5000:   BIT SIZE 1
DDB1.F                      9756.0000:   DEPTH DRILLED BIT 1
BHF .                              99:   FLUID CODE
DPT .                   Miscellaneous:   DRILLING FLUID TYPE
MUDD.                         11.7000:   FLUID DENSITY
MUDV.                         46.0000:   FLUID VISCOSITY
DFPH.                          6.5000:   FLUID PH
FL  .                          9.6500:   FLUID LOSS
RM  .OHMM                      1.3200:   RM
RMT .DEGF                     64.0000:   RM TEMP
RMF .OHMM                      1.1100:   RMF
RMFT.DEGF                     70.0000:   RMF TEMP
FSC .                               M:   RMF CODE
RMC .OHMM                      1.6200:   RMC
RMCT.DEGF                     65.0000:   RMC TEMP
CMC .                               M:   RMC CODE
TMAX.DEGF                    186.0000:   MAX REC TEMP
TIMC.                          6.5000:   TIME SINCE CIRCLN
~Curve Information Block
#MNEM.UNIT                    API CODE    No Description
#=========                    ========    == ===========
DEPT.F                   00 001 00 00:     1  DEPTH
DTL.US/F                             :     2  Sonic Transit Time (Slowness)
GR.GAPI                              :     3  Gamma Ray
ILD.OHMM                             :     4  Deep Induction Resistivity
ILM.OHMM                             :     5  Medium Induction Resistivity
SFL.OHMM                             :     6  Medium Resistivity
SP.MV                                :     7  Spontaneous Potential
~ASCII
# ...
 7972.0000   115.5000    93.4205      .7259      .7228      .7163   -40.8836
 7972.5000   115.1000    89.9666      .7279      .7263      .7346   -41.1359
 7973.0000   115.1000    90.6783      .7311      .7303      .7275   -41.6382
 7973.5000   114.8999    92.1106      .7348      .7350      .7370   -40.8904
 7974.0000   112.7999    94.9055      .7358      .7397      .7274   -41.1427
 7974.5000   112.6000    88.1500      .7365      .7433      .7552   -41.1450
 7975.0000   113.0000    86.3879      .7363      .7448      .7424   -41.1472
 7975.5000   114.5000    90.5391      .7366      .7439      .7534   -41.6494
 7976.0000   114.5000    88.3909      .7371      .7415      .7443   -41.6517
 7976.5000   114.2999    92.4193      .7346      .7387      .7406   -41.4040
 7977.0000   114.2000    87.2795      .7315      .7360      .7286   -41.4062
 7977.5000   113.0000    95.9248      .7305      .7334      .7189   -41.4085
 7978.0000   114.1000    92.5558      .7280      .7309      .7280   -41.6608
 7978.5000   113.3999    93.6893      .7239      .7282      .7211   -41.6630
 7979.0000   114.2000    91.1018      .7214      .7251      .7245   -41.1653
 7979.5000   115.3999    90.4423      .7197      .7218      .7003   -40.9175
 7980.0000   115.0000    94.5996      .7188      .7190      .7152   -40.6698
 7980.5000   115.6000    96.2914      .7187      .7175      .7033   -40.4221
 7981.0000   115.8999    98.2046      .7179      .7176      .7147   -40.6743
 7981.5000   116.2000    94.0872      .7200      .7190      .6939   -40.1766
 7982.0000   116.6000    92.6974      .7240      .7219      .7155   -40.4288
 7982.5000   115.7999    94.7415      .7307      .7268      .7009   -40.1811
 7983.0000   114.1000    99.1608      .7367      .7341      .7108   -40.1833
 7983.5000   112.3999    98.8605      .7446      .7430      .6905   -40.6856
 7984.0000   111.7000    94.7384      .7552      .7529      .7415   -41.1879
 7984.5000   112.2999    92.6442      .7646      .7632      .7539   -40.9401
 7985.0000   113.0000    94.8068      .7738      .7737      .7800   -40.6924
 7985.5000   113.7999    97.4893      .7816      .7840      .8016   -39.6946
 7986.0000   112.7000    96.1122      .7845      .7927      .8349   -40.4469
 7986.5000   113.0000    93.3809      .7901      .7983      .8304   -40.6991
 7987.0000   112.2000    91.6473      .7979      .8006      .7940   -40.4514
 7987.5000   113.2999    91.3624      .8075      .8021      .7678   -40.4537
 7988.0000   115.9999    93.7642      .8206      .8075      .7576   -40.2059
 7988.5000   112.7999    91.4181      .8342      .8213      .7735   -40.2081
 7989.0000   111.2000    91.2498      .8453      .8447      .8160   -40.2104
 7989.5000   108.2000    88.5089      .8557      .8745      .8947   -40.2127
 7990.0000   105.1000    92.0494      .8603      .9018      .9296   -39.7149
 7990.5000   103.1000    89.9060      .8575      .9142     1.0381   -40.7172
 7991.0000   103.7999    87.3390      .8531      .9041      .9973   -39.7195
 7991.5000   107.6000    86.8444      .8444      .8746      .9006   -39.7217
 7992.0000   110.7000    88.4008      .8302      .8367      .7421   -38.9740
 7992.5000   112.8999    92.3904      .8156      .8020      .7214   -38.7263
 7993.0000   114.7000    93.1218      .8015      .7779      .7118   -38.7285
 7993.5000   115.0000    93.5439      .7940      .7676      .6980   -37.9808
 7994.0000   115.7000    92.8763      .8010      .7723      .6913   -38.4830
 7994.5000   115.2000    87.5282      .8190      .7930      .7390   -38.7353
 7995.0000   112.0000    83.1776      .8429      .8317      .7983   -38.9875
 7995.5000   103.7999    78.5724      .8793      .8891      .8841   -39.7398
 7996.0000    99.6000    76.2321      .9181      .9602     1.0069   -41.2420
 7996.5000    96.6000    73.6635      .9429     1.0285     1.1218   -41.7443
 7997.0000    93.3999    71.3726      .9580     1.0673     1.4892   -43.4965
 7997.5000    99.7000    68.9247      .9645     1.0567     1.4130   -43.9988
 7998.0000    99.2999    74.1949      .9516     1.0026     1.2366   -44.0011
 7998.5000   105.2999    80.3361      .9309      .9299      .9284   -44.5034
 7999.0000   111.3999    92.2144      .9058      .8619      .7963   -43.2556
 7999.5000   114.2000    94.6498      .8685      .8106      .7499   -42.7579
 8000.0000   115.6000    95.4338      .8420      .7802      .6657   -42.5101
 8000.5000   115.5000    92.0116      .8248      .7709      .6606   -42.2624
 8001.0000   111.6000    96.1246      .8084      .7802      .6956   -42.5146
 8001.5000   103.2999    94.8875      .8035      .8009      .7612   -42.0169
 8002.0000   103.7999    91.7144      .8093      .8221      .8848   -41.7691
 8002.5000   106.1000    83.8469      .8269      .8352      .8988   -42.0214
 8003.0000   108.9000    80.6920      .8510      .8412      .8173   -41.5237
 8003.5000   115.0000    76.8843      .8765      .8494      .7544   -42.0259
 8004.0000   109.2000    78.6746      .8985      .8683      .8821   -41.7782
 8004.5000   102.4999    79.1094      .9019      .8969     1.0107   -41.7805
 8005.0000   100.6000    84.1272      .9034      .9238     1.1014   -43.0327
 8005.5000    99.2000    83.3262      .9096      .9354      .9678   -43.0350
 8006.0000   107.7000    85.1578      .9072      .9272      .9599   -43.7872
 8006.5000   105.1000    90.1472      .8994      .9049      .9530   -43.2895
 8007.0000   108.3999    89.7394      .8806      .8768      .9203   -42.5417
 8007.5000   108.7999    90.7108      .8520      .8473      .8400   -41.7940
 8008.0000   110.7999    84.5134      .8288      .8186      .7595   -41.2963
 8008.5000   112.7000    84.7563      .8087      .7928      .7277   -40.2985
 8009.0000   113.8999    88.6687      .7944      .7726      .7088   -40.0508
 8009.5000   116.8999    93.1987      .7884      .7613      .6928   -39.8030
 8010.0000   113.7999    95.6720      .7865      .7606      .7167   -39.3052
 8010.5000   110.1000    91.3926      .7862      .7696      .7385   -39.8076
 8011.0000   108.7999    86.0187      .7928      .7850      .7661   -39.3098
 8011.5000   108.7999    86.1732      .8033      .8029      .7697   -39.3121
 8012.0000   107.2000    85.7158      .8183      .8210      .8114   -39.3143
 8012.5000   107.4000    86.5597      .8363      .8395      .8245   -39.0666
 8013.0000   106.7999    87.8890      .8501      .8592      .8546   -38.5688
 8013.5000   105.7000    88.0154      .8602      .8795      .8936   -38.5711
 8014.0000   105.7000    91.2230      .8691      .8986      .9074   -39.0734
 8014.5000   106.0000    91.1803      .8737      .9149      .8844   -40.5756
 8015.0000   105.5000    95.0266      .8740      .9276      .8872   -40.8279
 8015.5000   105.6000    95.7125      .8695      .9370      .8959   -40.8301
 8016.0000   105.7999    92.0084      .8599      .9439      .8581   -42.0824
 8016.5000   104.3999    87.0465      .8436      .9496      .7892   -43.8347
 8017.0000   100.9999    85.4180      .8155      .9543      .7699   -45.5869
 8017.5000    98.0000    82.5695      .7773      .9544      .8030   -48.3392
 8018.0000    96.7999    82.9585      .7364      .9422      .8509   -51.8414
 8018.5000    98.3999    75.5800      .6939      .9094     1.0226   -59.0937
 8019.0000   101.4999    69.8041      .6553      .8557     1.3608   -68.0959
 8019.5000   102.7999    61.6387      .6188      .7915     1.7227   -79.8481
 8020.0000   102.6000    61.0142      .5791      .7282     1.7206   -89.6005
 8020.5000   101.0000    63.4924      .5395      .6704     1.8533   -98.1027
 8021.0000   100.5000    63.1894      .5048      .6166     2.3816  -102.6050
 8021.5000   102.6000    63.9444      .4858      .5661     2.7341  -106.6072
 8022.0000   103.3999    65.5931      .4809      .5237     1.8254  -108.1095
 8022.5000   104.2000    73.6083      .4788      .4971      .9428  -104.3617
 8023.0000   107.7000    81.0625      .4755      .4920      .4458   -89.3640
 8023.5000   109.1000    88.8645      .4686      .5092      .3854   -76.8662
