~VERSION INFORMATION
VERS.                             2.0:   CWLS Log ASCII Standard-VERSION 2.0
WRAP.                              NO:   One line per depth step
~Well Information Block
STRT.F                      6412.0000:   Top Depth
STOP.F                      9744.0000:   Bottom Depth
STEP.F                         .50000:   Depth Increment
NULL.                        -999.250:   Null Value
FLD .                      GA BLK 273:   Field Name
WELL.       OCSG09037   005 ST00 BP00:   NAME
API .                  42706403310000:   WELL API
EDF .F                        93.0000:   ELEV DRILL FLOOR
COMP.       SEAGULL ENERGY E AND P IN:   OPERATOR
BN  .                             273:   BLOCK
CTRY.                             USA:   COUNTRY NAME
CNTY.                              GA:   COUNTY
CNTY.                        GLVSTN L:   COUNTY NAME
EGL .F                       -63.0000:   ELEV GROUND LEVEL
EKB .F                        94.0000:   ELEV KELLY BUSHING
TDD .F                       9756.000:   FINAL TD DRILLER
STAT.                           TEXAS:   STATE NAME
UWI .                  42706403310000:   WELL API
DICO.               IHS : Digitizing Company
~PARAMETER INFORMATION (zones)
#MNEM.UNIT                       Value     Description
#=========                       =====     ===========
#ZONATION                          DIL:   ZONATION NAME
#ZONE                            RUN_1:   ZONE NAME
TOP .                       6412.0000:   TOP DEPTH
BOT .                       9744.5000:   BOTTOM DEPTH
RUN .                               1:   RUN NUMBER
LCCD.                             440:   LOGGING CONTRACTOR
SRVC.                    Schlumberger:   LOGGING CONT NAME
DICO.          QC Data Collectors Ltd:   DIG COMPANY NAME
LDAT.                      03/03/1993:   DATE LOGGED
ELD .F                        94.0000:   LOG DATUM ELEVATION
TDD .F                      9756.0000:   TOTAL DEPTH DRILLER
TDL .F                      9750.0000:   TOTAL DEPTH LOGGER
BOTL.F                      9744.0000:   BOTTOM DEPTH LOGGED
TOPL.F                      6543.0000:   TOP DEPTH LOGGED
CS1 .IN                        7.6250:   CASING SIZE 1
BS1 .IN                        6.5000:   BIT SIZE 1
DDB1.F                      9756.0000:   DEPTH DRILLED BIT 1
BHF .                              99:   FLUID CODE
DPT .                   Miscellaneous:   DRILLING FLUID TYPE
MUDD.                         11.7000:   FLUID DENSITY
MUDV.                         46.0000:   FLUID VISCOSITY
DFPH.                          6.5000:   FLUID PH
FL  .                          9.6500:   FLUID LOSS
RM  .OHMM                      1.3200:   RM
RMT .DEGF                     64.0000:   RM TEMP
RMF .OHMM                      1.1100:   RMF
RMFT.DEGF                     70.0000:   RMF TEMP
FSC .                               M:   RMF CODE
RMC .OHMM                      1.6200:   RMC
RMCT.DEGF                     65.0000:   RMC TEMP
CMC .                               M:   RMC CODE
TMAX.DEGF                    186.0000:   MAX REC TEMP
TIMC.                          6.5000:   TIME SINCE CIRCLN
~Curve Information Block
#MNEM.UNIT                    API CODE    No Description
#=========                    ========    == ===========
DEPT.F                   00 001 00 00:     1  DEPTH
DTL.US/F                             :     2  Sonic Transit Time (Slowness)
GR.GAPI                              :     3  Gamma Ray
ILD.OHMM                             :     4  Deep Induction Resistivity
ILM.OHMM                             :     5  Medium Induction Resistivity
SFL.OHMM                             :     6  Medium Resistivity
SP.MV                                :     7  Spontaneous Potential
~ASCII
# ...
 7556.0000   106.0000    85.2313      .8879      .9006      .8656   -43.5048
 7556.5000   107.2999    86.3655      .8999      .9137      .8668   -43.7570
 7557.0000   107.5000    82.7380      .9109      .9251      .9202   -44.0092
 7557.5000   107.0000    85.0261      .9191      .9352      .9480   -44.2615
 7558.0000   106.3999    82.9211      .9275      .9441      .9367   -45.0138
 7558.5000   102.5000    87.3730      .9309      .9518      .9273   -44.5161
 7559.0000   100.1000    85.1538      .9296      .9566      .9963   -45.0183
 7559.5000    97.6000    83.9996      .9256      .9547     1.0746   -45.0206
 7560.0000    97.2000    79.8602      .9190      .9436     1.0059   -45.2728
 7560.5000   102.2000    77.1533      .9142      .9246      .9371   -45.7751
 7561.0000   108.7000    80.2861      .9087      .9035      .8645   -45.0273
 7561.5000   114.0000    87.6788      .8957      .8854      .8421   -44.5296
 7562.0000   118.7999    93.4288      .8848      .8721      .8349   -44.0319
 7562.5000   119.7999    97.3861      .8773      .8623      .8436   -44.5341
 7563.0000   116.5000    96.1113      .8706      .8545      .8280   -44.7864
 7563.5000   112.7999    92.9994      .8669      .8487      .7919   -44.5386
 7564.0000   109.2000    87.0636      .8713      .8470      .7827   -44.7908
 7564.5000   108.2999    85.3945      .8722      .8509      .8066   -46.0432
 7565.0000   105.3999    88.1976      .8702      .8593      .8070   -47.2954
 7565.5000   107.2999    92.4846      .8689      .8674      .8862   -49.7977
 7566.0000   106.8999    93.2877      .8650      .8690      .8978   -50.5499
 7566.5000   109.7000    91.7841      .8603      .8609      .9185   -51.3022
 7567.0000   112.1000    92.2788      .8570      .8443      .8332   -50.8044
 7567.5000   114.0000    88.3630      .8494      .8248      .7981   -48.3067
 7568.0000   113.8999    88.3827      .8388      .8080      .7668   -47.5590
 7568.5000   114.6000    84.8489      .8300      .7969      .7605   -46.8112
 7569.0000   116.2999    86.6047      .8223      .7919      .7582   -46.5635
 7569.5000   115.6000    84.7910      .8185      .7919      .7572   -46.0657
 7570.0000   114.7999    87.6653      .8203      .7958      .7579   -45.0680
 7570.5000   113.5000    87.3933      .8270      .8036      .7567   -45.0703
 7571.0000   111.6000    89.5369      .8340      .8157      .7795   -45.0725
 7571.5000   109.0000    84.5730      .8378      .8314      .8265   -45.5748
 7572.0000   108.6000    82.4294      .8399      .8467      .8687   -45.5770
 7572.5000   109.2000    79.7914      .8396      .8557      .9098   -46.0793
 7573.0000   109.5000    84.4254      .8418      .8547      .8917   -45.8315
 7573.5000   111.6000    90.1320      .8447      .8454      .8271   -46.0838
 7574.0000   113.5000    95.2433      .8476      .8343      .7540   -45.8361
 7574.5000   112.3999    95.4082      .8479      .8286      .7426   -46.0883
 7575.0000   111.0000    99.9246      .8441      .8315      .7782   -45.8406
 7575.5000   109.9999    97.6162      .8380      .8411      .8420   -45.5928
 7576.0000   108.6000    98.0900      .8330      .8506      .9041   -45.3451
 7576.5000   108.6000    85.3939      .8296      .8532      .9068   -44.8474
 7577.0000   109.2999    83.9099      .8262      .8455      .8648   -44.8496
 7577.5000   111.2000    83.1063      .8219      .8301      .8172   -45.1019
 7578.0000   113.2999    86.0563      .8146      .8127      .7716   -44.6041
 7578.5000   114.7999    86.3860      .8066      .7984      .7554   -44.8564
 7579.0000   114.9000    82.2639      .8002      .7900      .7445   -44.3586
 7579.5000   113.9000    88.3827      .7977      .7877      .7554   -44.6109
 7580.0000   113.5000    90.5261      .7968      .7910      .7651   -44.6132
 7580.5000   112.6000    92.8154      .7977      .7986      .7888   -44.3654
 7581.0000   111.8999    86.7147      .8022      .8085      .8039   -44.8677
 7581.5000   111.3999    85.5605      .8039      .8169      .8297   -45.3699
 7582.0000   111.5000    86.8987      .8024      .8196      .8603   -44.8722
 7582.5000   112.2999    91.6106      .8002      .8139      .8477   -45.8745
 7583.0000   114.5000    93.3612      .7970      .8009      .8099   -45.8767
 7583.5000   116.0000    97.4833      .7936      .7856      .7542   -45.8790
 7584.0000   116.0000    96.7286      .7881      .7728      .7188   -45.3812
 7584.5000   115.8999    95.1429      .7779      .7650      .7275   -44.6335
 7585.0000   116.7999    93.1643      .7686      .7613      .7385   -44.6357
 7585.5000   115.7000    99.8994      .7602      .7593      .7683   -44.1380
 7586.0000   115.7000   103.3174      .7544      .7562      .7672   -44.3903
 7586.5000   116.1000    99.1953      .7517      .7510      .7540   -44.3925
 7587.0000   115.7999    96.2526      .7504      .7448      .7070   -43.8948
 7587.5000   116.7000    97.4282      .7486      .7390      .7194   -44.1470
 7588.0000   116.7999   102.2098      .7451      .7346      .7354   -43.8993
 7588.5000   116.7999    97.9229      .7401      .7312      .7549   -44.4015
 7589.0000   116.2999    94.4833      .7356      .7277      .7368   -44.1538
 7589.5000   115.6000    92.7723      .7317      .7230      .7290   -43.9061
 7590.0000   116.9999    92.1128      .7253      .7164      .7266   -43.1583
 7590.5000   118.2000    97.5540      .7179      .7078      .7180   -43.1605
 7591.0000   118.5000   100.7489      .7096      .6974      .6990   -42.9128
 7591.5000   119.4000   106.5199      .7028      .6862      .6739   -43.4150
 7592.0000   120.8999   105.1304      .6974      .6754      .6572   -43.4173
 7592.5000   121.6000   107.1090      .6941      .6669      .6492   -43.4196
 7593.0000   121.2999   105.4602      .6939      .6627      .6375   -43.4219
 7593.5000   122.2000   106.0251      .6974      .6646      .6375   -43.4241
 7594.0000   120.7999   106.4954      .7026      .6736      .6580   -43.9263
 7594.5000   118.7000   104.6816      .7091      .6886      .6980   -44.1786
 7595.0000   116.2999   107.9274      .7191      .7070      .7002   -44.9309
 7595.5000   114.1000   103.5000      .7322      .7256      .7047   -45.1832
 7596.0000   114.5000   103.5000      .7487      .7423      .7086   -45.4354
 7596.5000   115.7000    97.0997      .7644      .7570      .7291   -45.6877
 7597.0000   118.6000    95.4100      .7754      .7696      .7320   -46.1899
 7597.5000   123.1000    98.0482      .7827      .7793      .7243   -45.6922
 7598.0000   125.2999    92.9585      .7847      .7843      .7062   -45.4445
 7598.5000   125.6000    97.9221      .7839      .7830      .6925   -44.6967
 7599.0000   123.0000    90.0077      .7788      .7753      .7058   -44.4490
 7599.5000   120.3999    94.6245      .7725      .7626      .7197   -44.4512
 7600.0000   118.2000    84.0360      .7660      .7478      .7090   -44.4534
 7600.5000   118.1000    86.5093      .7590      .7338      .6891   -44.2057
 7601.0000   120.0000    86.3231      .7537      .7235      .6981   -44.2080
 7601.5000   119.3999    95.2864      .7512      .7189      .7099   -44.2103
 7602.0000   119.6000    95.1216      .7511      .7208      .7087   -44.7125
 7602.5000   118.1000    92.1749      .7516      .7286      .7150   -44.2147
 7603.0000   117.1000    91.6803      .7566      .7403      .7559   -44.9670
 7603.5000   117.1000    93.4734      .7632      .7533      .7712   -44.9693
 7604.0000   116.7999    98.2550      .7690      .7651      .7573   -45.2216
 7604.5000   115.3999    95.7817      .7778      .7743      .7541   -44.7238
 7605.0000   113.7000    94.4833      .7851      .7804      .7689   -44.4761
 7605.5000   113.1000    93.6370      .7883      .7844      .7643   -44.9783
 7606.0000   111.5000    97.9240      .7917      .7872      .7706   -44.9806
 7606.5000   113.5000   102.3303      .7937      .7899      .8040   -44.7328
 7607.0000   113.6000   102.8469      .7911      .7920      .8334   -44.7351
 7607.5000   113.3999   102.0226      .7881      .7921      .8485   -44.9874
