~VERSION INFORMATION
VERS.                             2.0:   CWLS Log ASCII Standard-VERSION 2.0
WRAP.                              NO:   One line per depth step
~Well Information Block
STRT.F                      3877.0000:   Top Depth
STOP.F                     10380.0000:   Bottom Depth
STEP.F                         .50000:   Depth Increment
NULL.                        -999.250:   Null Value
FLD .                      GA BLK 321:   Field Name
WELL.       OCSG11316   001 ST01 BP00:   NAME
API .                  42706402670100:   WELL API
EDF .F                        90.0000:   ELEV DRILL FLOOR
COMP.              SHELL OFFSHORE INC:   OPERATOR
BN  .                             321:   BLOCK
CTRY.                             USA:   COUNTRY NAME
CNTY.                        GLVSTN L:   COUNTY NAME
EKB .F                        91.0000:   ELEV KELLY BUSHING
TDD .F                      10395.000:   FINAL TD DRILLER
STAT.                           TEXAS:   STATE NAME
UWI .                  42706402670100:   WELL API
DICO.               IHS : Digitizing Company
~PARAMETER INFORMATION (zones)
#MNEM.UNIT                       Value     Description
#=========                       =====     ===========
#ZONATION                          DIL:   ZONATION NAME
#ZONE                            RUN_1:   ZONE NAME
TOP .                       3877.0000:   TOP DEPTH
BOT .                      10380.5000:   BOTTOM DEPTH
RUN .                               1:   RUN NUMBER
LCCD.                             280:   LOGGING CONTRACTOR
SRVC.                     Halliburton:   LOGGING CONT NAME
DICO.          QC Data Collectors Ltd:   DIG COMPANY NAME
LDAT.                      06/13/1990:   DATE LOGGED
ELD .F                        91.0000:   LOG DATUM ELEVATION
TDD .F                     10395.0000:   TOTAL DEPTH DRILLER
TDL .F                     10390.0000:   TOTAL DEPTH LOGGER
BOTL.F                     10380.0000:   BOTTOM DEPTH LOGGED
TOPL.F                      3954.0000:   TOP DEPTH LOGGED
CS1 .IN                       13.3750:   CASING SIZE 1
BS1 .IN                       12.2500:   BIT SIZE 1
DDB1.F                     10395.0000:   DEPTH DRILLED BIT 1
BHF .                              99:   FLUID CODE
DPT .                   Miscellaneous:   DRILLING FLUID TYPE
MUDD.                         13.4000:   FLUID DENSITY
MUDV.                         68.0000:   FLUID VISCOSITY
DFPH.                          9.0000:   FLUID PH
FL  .                          2.1000:   FLUID LOSS
RM  .OHMM                       .0700:   RM
RMT .DEGF                     77.0000:   RM TEMP
RMF .OHMM                       .0400:   RMF
RMFT.DEGF                     73.0000:   RMF TEMP
FSC .                               M:   RMF CODE
RMC .OHMM                       .1000:   RMC
RMCT.DEGF                     74.0000:   RMC TEMP
CMC .                               M:   RMC CODE
TMAX.DEGF                    209.0000:   MAX REC TEMP
TIMC.                         13.0000:   TIME SINCE CIRCLN
~Curve Information Block
#MNEM.UNIT                    API CODE    No Description
#=========                    ========    == ===========
DEPT.F                   00 001 00 00:     1  DEPTH
CALI.IN                              :     2  Caliper
DT.US/F                              :     3  Sonic Transit Time
GR.GAPI                              :     4  Gamma Ray
ILD.OHMM                             :     5  Deep Induction Resistivity
ILM.OHMM                             :     6  Medium Induction Resistivity
SFL.OHMM                             :     7  Medium Resistivity
SP.MV                                :     8  Spontaneous Potential
~ASCII
# ...
 9473.5000    13.5014   101.8617    67.9774     1.1155      .9432     1.4120   -37.3196
 9474.0000    13.4946   107.2196    66.3158     1.1440      .9598     1.5161   -37.3179
 9474.5000    13.4947   110.0409    64.9757     1.1742      .9801     1.4647   -37.3162
 9475.0000    13.4949   112.5775    63.5981     1.2061     1.0044     1.4139   -37.3144
 9475.5000    13.4982   114.9474    61.7595     1.2333     1.0401     1.3734   -37.3280
 9476.0000    13.5047   116.7423    60.4248     1.2508     1.0612     1.3471   -37.4148
 9476.5000    13.5111   117.9703    60.9206     1.2542     1.0592     1.3168   -37.5015
 9477.0000    13.5176   119.0605    61.9096     1.2441     1.0474     1.2830   -37.5586
 9477.5000    13.5210   119.2372    62.9401     1.2235     1.0295     1.2547   -37.6057
 9478.0000    13.5199   117.8333    63.9559     1.2035     1.0121     1.2252   -37.6351
 9478.5000    13.5189   115.6837    64.9636     1.1845     1.0010     1.1967   -37.5262
 9479.0000    13.5178   112.3625    65.7985     1.1737      .9933     1.1703   -37.4133
 9479.5000    13.5179   109.0239    66.6133     1.1750      .9957     1.1274   -37.2701
 9480.0000    13.5181   108.0068    67.5192     1.1931     1.0120     1.0785   -37.1268
 9480.5000    13.5182   107.0852    65.5868     1.2137     1.0720     1.1431   -37.0349
 9481.0000    13.5211   104.6669    65.3928     1.2189     1.1748     1.2672   -36.9659
 9481.5000    13.5242    99.6046    65.5710     1.2088     1.2585     1.2886   -36.9062
 9482.0000    13.5274    95.3215    65.4326     1.2012     1.1554     1.2549   -36.9045
 9482.5000    13.5356    92.5270    65.2152     1.2007     1.0452     1.2282   -36.8530
 9483.0000    13.5439    93.5374    64.6460     1.2202     1.0536     1.2019   -36.8152
 9483.5000    13.5521    99.6368    64.4624     1.2380     1.0693     1.1756   -36.8950
 9484.0000    13.5547   106.5693    65.1405     1.2543     1.0852     1.2229   -37.0276
 9484.5000    13.5560   110.3634    65.6523     1.2674     1.0941     1.3392   -37.1603
 9485.0000    13.5572   112.5210    64.7827     1.2751     1.0900     1.4002   -37.2099
 9485.5000    13.5585   114.3993    64.1301     1.2795     1.0717     1.3699   -37.1425
 9486.0000    13.5530   116.0437    63.8850     1.2607     1.0525     1.3309   -37.1642
 9486.5000    13.5475   117.2865    63.8915     1.2422     1.0462     1.2972   -37.2911
 9487.0000    13.5419   117.8547    63.5338     1.2248     1.0409     1.2988   -37.5640
 9487.5000    13.5367   117.5350    62.6024     1.2212     1.0525     1.3213   -38.0123
 9488.0000    13.5326   116.1028    61.6697     1.2211     1.0705     1.3633   -38.6093
 9488.5000    13.5284   112.9268    60.6714     1.2134     1.0674     1.3125   -38.2280
 9489.0000    13.5240   110.3151    62.7780     1.2048     1.0452     1.1111   -37.5687
 9489.5000    13.5190   108.0256    64.9569     1.1908     1.0168      .9971   -36.8866
 9490.0000    13.5140   106.1018    66.6722     1.1790     1.0023      .9345   -36.8210
 9490.5000    13.5090   106.2012    68.0070     1.1789     1.0011      .9643   -37.2397
 9491.0000    13.5063   107.2102    68.1919     1.1838     1.0261     1.0689   -37.5168
 9491.5000    13.5036   103.9683    66.6187     1.1931     1.0534     1.1811   -37.4401
 9492.0000    13.5009    96.6489    65.1686     1.2030     1.0642     1.2286   -37.1131
 9492.5000    13.4976    90.8611    64.3164     1.2131     1.0668     1.2781   -36.6749
 9493.0000    13.4942    87.5883    63.7133     1.2174     1.0589     1.3301   -37.0782
 9493.5000    13.4908    85.9224    63.1780     1.2155     1.0150     1.3865   -38.3380
 9494.0000    13.4865    85.6835    62.7585     1.2135      .9758     1.4453   -40.2194
 9494.5000    13.4801    86.2917    62.9843     1.1890      .9424     1.3214   -41.4965
 9495.0000    13.4738    86.9877    63.7790     1.1581      .9154     1.1315   -41.9263
 9495.5000    13.4675    87.6770    64.7491     1.1254      .9135     1.0227   -41.9927
 9496.0000    13.4615    88.4347    65.9271     1.1218      .9408      .9698   -40.5732
 9496.5000    13.4560    89.2422    67.7604     1.1196      .9727      .9563   -38.7346
 9497.0000    13.4505    89.8776    69.8134     1.1172      .9880     1.0515   -38.2347
 9497.5000    13.4450    90.2189    71.6278     1.0993      .9908     1.0942   -37.9131
 9498.0000    13.4395    90.3047    71.4857     1.0996      .9885     1.0227   -37.6934
 9498.5000    13.4343    90.2480    69.9956     1.1193      .9900      .9514   -37.3744
 9499.0000    13.4290    90.0630    69.4132     1.1458      .9956      .8985   -36.7017
 9499.5000    13.4238    90.2693    69.4677     1.1446     1.0011      .9384   -35.5077
 9500.0000    13.4186    90.3502    70.7246     1.1400     1.0065     1.0577   -34.1489
 9500.5000    13.4134    90.0684    70.0063     1.1260     1.0015     1.2123   -32.7953
 9501.0000    13.4073    89.3899    68.1919     1.1117      .9902     1.3731   -34.3499
 9501.5000    13.4014    88.8203    66.0076     1.0970      .9791     1.2497   -36.7352
 9502.0000    13.3953    88.2520    64.4102     1.0820      .9682     1.0953   -38.7346
 9502.5000    13.3893    87.5507    62.9147     1.0699      .9553      .9693   -39.7691
 9503.0000    13.3827    87.3263    61.5451     1.0641      .9438      .9368   -40.3588
 9503.5000    13.3730    87.6931    61.9069     1.0599      .9345      .9256   -40.6771
 9504.0000    13.3633    88.8525    63.1854     1.0608      .9310      .9359   -40.6774
 9504.5000    13.3536    90.0281    64.4718     1.0618      .9278      .9544   -39.5192
 9505.0000    13.3438    91.2533    65.9753     1.0631      .9204      .9589   -39.2331
 9505.5000    13.3350    91.8619    67.4816     1.0646      .9117      .9598   -39.6874
 9506.0000    13.3274    92.2483    69.2076     1.0662      .9104      .9619   -40.1310
 9506.5000    13.3199    92.2760    69.9299     1.0698      .9094      .9653   -40.4103
 9507.0000    13.3123    92.2052    69.2478     1.0743      .9085      .9729   -40.1738
 9507.5000    13.3047    92.1143    68.8351     1.0781      .9096      .9969   -40.0676
 9508.0000    13.2919    91.9379    68.4385     1.0802      .9122     1.0368   -39.9995
 9508.5000    13.2791    91.7615    68.3726     1.0836      .9149     1.0611   -39.7785
 9509.0000    13.2662    91.6356    68.3066     1.0923      .9149     1.0276   -39.5839
 9509.5000    13.2533    91.5281    68.3234     1.1016      .9142      .9940   -39.8241
 9510.0000    13.2406    91.4497    68.4200     1.1133      .9260      .9607   -40.2435
 9510.5000    13.2279    91.3834    68.5751     1.1279      .9753      .9640   -40.4733
 9511.0000    13.2175    91.2191    68.3339     1.1448     1.0274     1.0231   -40.2356
 9511.5000    13.2071    91.0168    67.0581     1.1518     1.0625     1.1473   -40.2338
 9512.0000    13.1979    90.6588    64.9650     1.1145     1.0894     1.2636   -40.3025
 9512.5000    13.1934    90.1719    64.3452     1.0797     1.0969     1.2099   -40.8137
 9513.0000    13.1890    90.0482    65.9325     1.0481     1.0276     1.1146   -40.9888
 9513.5000    13.1845    90.1268    67.4869     1.0307      .9394     1.0244   -40.8238
 9514.0000    13.1835    90.2052    67.4172     1.0136      .8922      .9426   -40.4753
 9514.5000    13.1859    90.9309    65.7114     1.0080      .8808      .8991   -40.1155
 9515.0000    13.1882    92.1212    64.5944     1.0032      .8705      .8797   -39.7236
 9515.5000    13.1906    93.1665    64.2266     1.0041      .8636      .8692   -39.4374
 9516.0000    13.1881    94.1426    64.4476     1.0103      .8582      .8635   -39.3995
 9516.5000    13.1823    94.6396    65.0668     1.0171      .8786      .8682   -39.3616
 9517.0000    13.1764    94.9568    65.7153     1.0267      .9050      .8824   -38.9651
 9517.5000    13.1705    95.1599    64.9596     1.0402      .9354      .9081   -37.9976
 9518.0000    13.1602    95.2551    62.6145     1.0549      .9637      .9357   -37.4052
 9518.5000    13.1500    95.3427    61.4185     1.0705      .9652      .9642   -38.8578
