~VERSION INFORMATION
VERS.                             2.0:   CWLS Log ASCII Standard-VERSION 2.0
WRAP.                              NO:   One line per depth step
~Well Information Block
STRT.F                      6412.0000:   Top Depth
STOP.F                      9744.0000:   Bottom Depth
STEP.F                         .50000:   Depth Increment
NULL.                        -999.250:   Null Value
FLD .                      GA BLK 273:   Field Name
WELL.       OCSG09037   005 ST00 BP00:   NAME
API .                  42706403310000:   WELL API
EDF .F                        93.0000:   ELEV DRILL FLOOR
COMP.       SEAGULL ENERGY E AND P IN:   OPERATOR
BN  .                             273:   BLOCK
CTRY.                             USA:   COUNTRY NAME
CNTY.                              GA:   COUNTY
CNTY.                        GLVSTN L:   COUNTY NAME
EGL .F                       -63.0000:   ELEV GROUND LEVEL
EKB .F                        94.0000:   ELEV KELLY BUSHING
TDD .F                       9756.000:   FINAL TD DRILLER
STAT.                           TEXAS:   STATE NAME
UWI .                  42706403310000:   WELL API
DICO.               IHS : Digitizing Company
~PARAMETER INFORMATION (zones)
#MNEM.UNIT                       Value     Description
#=========                       =====     ===========
#ZONATION                          DIL:   ZONATION NAME
#ZONE                            RUN_1:   ZONE NAME
TOP .                       6412.0000:   TOP DEPTH
BOT .                       9744.5000:   BOTTOM DEPTH
RUN .                               1:   RUN NUMBER
LCCD.                             440:   LOGGING CONTRACTOR
SRVC.                    Schlumberger:   LOGGING CONT NAME
DICO.          QC Data Collectors Ltd:   DIG COMPANY NAME
LDAT.                      03/03/1993:   DATE LOGGED
ELD .F                        94.0000:   LOG DATUM ELEVATION
TDD .F                      9756.0000:   TOTAL DEPTH DRILLER
TDL .F                      9750.0000:   TOTAL DEPTH LOGGER
BOTL.F                      9744.0000:   BOTTOM DEPTH LOGGED
TOPL.F                      6543.0000:   TOP DEPTH LOGGED
CS1 .IN                        7.6250:   CASING SIZE 1
BS1 .IN                        6.5000:   BIT SIZE 1
DDB1.F                      9756.0000:   DEPTH DRILLED BIT 1
BHF .                              99:   FLUID CODE
DPT .                   Miscellaneous:   DRILLING FLUID TYPE
MUDD.                         11.7000:   FLUID DENSITY
MUDV.                         46.0000:   FLUID VISCOSITY
DFPH.                          6.5000:   FLUID PH
FL  .                          9.6500:   FLUID LOSS
RM  .OHMM                      1.3200:   RM
RMT .DEGF                     64.0000:   RM TEMP
RMF .OHMM                      1.1100:   RMF
RMFT.DEGF                     70.0000:   RMF TEMP
FSC .                               M:   RMF CODE
RMC .OHMM                      1.6200:   RMC
RMCT.DEGF                     65.0000:   RMC TEMP
CMC .                               M:   RMC CODE
TMAX.DEGF                    186.0000:   MAX REC TEMP
TIMC.                          6.5000:   TIME SINCE CIRCLN
~Curve Information Block
#MNEM.UNIT                    API CODE    No Description
#=========                    ========    == ===========
DEPT.F                   00 001 00 00:     1  DEPTH
DTL.US/F                             :     2  Sonic Transit Time (Slowness)
GR.GAPI                              :     3  Gamma Ray
ILD.OHMM                             :     4  Deep Induction Resistivity
ILM.OHMM                             :     5  Medium Induction Resistivity
SFL.OHMM                             :     6  Medium Resistivity
SP.MV                                :     7  Spontaneous Potential
~ASCII
# ...
 6724.0000   112.6000    81.9547      .6849      .7243      .8029   -43.9969
 6724.5000   113.1000    84.9264      .7122      .7438      .7755   -44.4992
 6725.0000   114.2000    91.2170      .7311      .7502      .6915   -44.2515
 6725.5000   115.5000    92.4166      .7493      .7497      .7527   -44.0037
 6726.0000   115.5000    93.2742      .7611      .7484      .7452   -44.5060
 6726.5000   115.7999    84.9319      .7692      .7498      .7191   -44.2582
 6727.0000   114.4999    80.5438      .7767      .7547      .6692   -44.5104
 6727.5000   113.0000    81.5515      .7812      .7614      .7565   -44.7627
 6728.0000   112.1000    84.4081      .7834      .7669      .8182   -44.5150
 6728.5000   111.6000    89.8496      .7821      .7688      .8594   -44.5173
 6729.0000   113.0000    86.3746      .7765      .7654      .7960   -43.5195
 6729.5000   113.3999    87.2250      .7658      .7560      .7847   -43.7718
 6730.0000   113.6000    89.8451      .7528      .7403      .7646   -43.0240
 6730.5000   115.2000    86.9840      .7400      .7200      .6882   -43.0263
 6731.0000   116.8999    94.5524      .7303      .6991      .6191   -42.7785
 6731.5000   116.2000    99.3894      .7226      .6822      .5894   -42.5308
 6732.0000   116.1000   108.4292      .7132      .6724      .6375   -42.5331
 6732.5000   117.2000   101.0623      .7043      .6700      .6744   -42.0353
 6733.0000   116.6000    95.6207      .6989      .6726      .7305   -42.5376
 6733.5000   117.7000    90.2468      .6964      .6767      .7376   -42.5398
 6734.0000   118.2999    96.2930      .6978      .6794      .6881   -42.2921
 6734.5000   118.6000    98.2004      .6995      .6798      .6268   -41.7943
 6735.0000   119.2000    98.6537      .7022      .6789      .6272   -40.7966
 6735.5000   120.2000    96.2351      .7039      .6788      .6617   -40.5489
 6736.0000   120.5000    95.8866      .7051      .6812      .6548   -41.0511
 6736.5000   119.6000    96.6927      .7070      .6870      .6258   -41.0534
 6737.0000   119.3999    95.1832      .7085      .6948      .6731   -41.0557
 6737.5000   118.8999    92.3021      .7079      .7021      .7435   -41.0579
 6738.0000   119.1000    89.4806      .7067      .7058      .7411   -40.8101
 6738.5000   119.1000    91.3932      .7071      .7044      .7064   -41.3124
 6739.0000   120.0000    96.0852      .7084      .6991      .6590   -41.0646
 6739.5000   120.7000   102.7361      .7060      .6930      .6490   -41.0669
 6740.0000   121.2999   101.8278      .7043      .6895      .6299   -40.8192
 6740.5000   121.6000   103.2949      .7064      .6911      .6483   -40.8215
 6741.0000   120.2999    99.2642      .7089      .6991      .6444   -40.5737
 6741.5000   118.6000    99.9187      .7098      .7125      .6663   -40.3260
 6742.0000   113.7999    95.8879      .7142      .7281      .7174   -41.0782
 6742.5000   114.1000    91.0071      .7178      .7403      .8077   -40.5805
 6743.0000   113.0000    81.7883      .7220      .7449      .7706   -41.0827
 6743.5000   114.2000    78.4701      .7324      .7425      .7541   -41.0850
 6744.0000   116.7000    83.3510      .7438      .7391      .6623   -40.8373
 6744.5000   116.7000    93.2264      .7496      .7410      .6823   -40.8395
 6745.0000   114.2000    95.8889      .7524      .7502      .7383   -40.8418
 6745.5000   112.2999    90.9664      .7489      .7623      .8441   -41.5941
 6746.0000   111.3999    88.3464      .7482      .7705      .8274   -40.5963
 6746.5000   113.7999    85.1730      .7528      .7705      .7668   -41.0985
 6747.0000   116.2000    86.2206      .7592      .7640      .7128   -40.8508
 6747.5000   118.6000    86.0190      .7581      .7558      .7146   -40.6031
 6748.0000   119.5000    83.3574      .7568      .7494      .7175   -40.8553
 6748.5000   118.4999    83.8060      .7543      .7457      .7237   -40.6075
 6749.0000   118.1000    81.5442      .7511      .7436      .7102   -40.3599
 6749.5000   116.7000    86.6243      .7505      .7425      .7142   -39.6121
 6750.0000   116.7999    92.4132      .7527      .7428      .6808   -39.6144
 6750.5000   117.2000    99.6569      .7563      .7456      .6695   -39.8666
 6751.0000   116.7999    98.2461      .7578      .7513      .7107   -40.3688
 6751.5000   116.1000    91.6061      .7584      .7587      .7724   -40.3711
 6752.0000   116.2999    85.0120      .7600      .7653      .7739   -40.6234
 6752.5000   114.2000    86.3851      .7661      .7700      .7423   -40.3757
 6753.0000   114.2000    90.8639      .7733      .7736      .7190   -40.1279
 6753.5000   112.5000    88.2023      .7778      .7784      .7249   -39.8802
 6754.0000   112.9999    81.9921      .7811      .7848      .7540   -39.3824
 6754.5000   111.6000    76.9097      .7818      .7914      .7870   -39.6347
 6755.0000   111.5000    79.9745      .7816      .7957      .7857   -39.6370
 6755.5000   112.7999    84.2068      .7831      .7955      .8053   -39.6392
 6756.0000   114.2999    86.4200      .7847      .7910      .8073   -39.8915
 6756.5000   114.7999    91.6602      .7847      .7846      .7854   -39.3937
 6757.0000   115.8999    94.7814      .7868      .7798      .7309   -39.6460
 6757.5000   114.6000    93.0150      .7872      .7788      .7123   -39.3983
 6758.0000   113.1000    82.2737      .7838      .7815      .7273   -38.9005
 6758.5000   111.2000    77.3385      .7799      .7854      .7788   -38.9028
 6759.0000   111.7000    76.8915      .7755      .7871      .7844   -39.4050
 6759.5000   112.7999    81.1837      .7728      .7846      .7712   -39.6572
 6760.0000   113.7999    79.4895      .7723      .7786      .7557   -39.9095
 6760.5000   116.1000    84.1688      .7668      .7715      .7444   -40.1618
 6761.0000   118.5000    86.7889      .7631      .7653      .7076   -40.1640
 6761.5000   120.0000    90.8540      .7586      .7611      .6971   -40.6663
 6762.0000   119.1000    90.6525      .7530      .7590      .7092   -40.4185
 6762.5000   115.6000    85.5732      .7485      .7587      .7355   -40.9208
 6763.0000   115.2999    86.6285      .7467      .7596      .7395   -40.4231
 6763.5000   113.7999    83.2023      .7456      .7608      .7379   -40.1754
 6764.0000   112.5000    85.4156      .7427      .7613      .7658   -39.1776
 6764.5000   114.2000    83.8033      .7407      .7600      .7621   -39.1798
 6765.0000   116.1000    82.1481      .7412      .7572      .7364   -38.9321
 6765.5000   114.5000    84.2078      .7424      .7548      .6910   -39.1844
 6766.0000   116.2000    84.9661      .7441      .7550      .7271   -39.1866
 6766.5000   114.7999    85.7709      .7421      .7582      .7554   -39.1889
 6767.0000   112.7999    86.7786      .7394      .7619      .8058   -39.9412
 6767.5000   112.4999    86.9799      .7374      .7623      .7982   -39.9434
 6768.0000   113.8999    83.7318      .7341      .7573      .8043   -40.4457
 6768.5000   116.7000    82.7241      .7332      .7481      .7399   -40.4479
 6769.0000   119.7000    84.1326      .7346      .7388      .6623   -39.7002
 6769.5000   120.7999    88.6340      .7342      .7336      .6426   -39.9525
 6770.0000   119.0000    91.6571      .7326      .7346      .6689   -40.2047
 6770.5000   117.5000    91.0535      .7348      .7416      .7165   -40.2070
 6771.0000   112.9999    88.8365      .7411      .7539      .6916   -41.4592
 6771.5000   111.1000    81.7417      .7487      .7703      .6868   -41.7114
 6772.0000   109.3999    81.5897      .7571      .7889      .8165   -42.4637
 6772.5000   107.1000    82.9287      .7633      .8067      .8923   -42.4660
 6773.0000   106.3999    85.7457      .7684      .8202      .8927   -42.7183
 6773.5000   105.2000    79.6995      .7726      .8266      .8508   -43.4705
 6774.0000   107.2000    78.5405      .7729      .8252      .9122   -44.4728
 6774.5000   108.6000    76.3481      .7692      .8175      .9206   -46.4750
 6775.0000   109.3999    82.3698      .7664      .8064      .8644   -47.4773
 6775.5000   109.0000    84.9875      .7620      .7953      .8105   -47.9796
