~VERSION INFORMATION
VERS.                             2.0:   CWLS Log ASCII Standard-VERSION 2.0
WRAP.                              NO:   One line per depth step
~Well Information Block
STRT.F                      4470.0000:   Top Depth
STOP.F                     11800.5000:   Bottom Depth
STEP.F                         .50000:   Depth Increment
NULL.                        -999.250:   Null Value
FLD .                      GA BLK 315:   Field Name
WELL.       OCSG14835   001 ST00 BP00:   NAME
API .                  42706403880000:   WELL API
LOC .       993' FSL & 3018' FEL OF B:   AREA NAME
CTRY.                             USA:   COUNTRY
EGL .FT                      -66.0000:   GROUND LEVEL
EKB .FT                        0.0000:   KB ELEVATION
COMP.              APACHE CORPORATION:   OPERATOR
DREF.                             MSL:   PERM DATUM
COUN.                        OFFSHORE:   RIG NAME
STAT.                              TX:   STATE
CNTY.                        OFFSHORE:   COUNTY
DIGS.                   QC Data, Inc.:   DIG COMPANY NAME
EREF.FT                        0.0000:   ELEV DEPTH REFERENCE
UWI .                  42706403880000:   WELL API
DICO.               IHS : Digitizing Company
~PARAMETER INFORMATION (zones)
#MNEM.UNIT                       Value     Description
#=========                       =====     ===========
#ZONATION                        ZONES:   ZONATION NAME
#ZONE                             LAS1:   ZONE NAME
TOP .                       4470.0000:   TOP DEPTH
BOT .                      11816.0000:   BOTTOM DEPTH
SRVC.                   WESTERN ATLAS:   LOGGING CONTRACTOR
DATE.                         10AUG96:   RUN DATE
RW  .OHMM                      0.0000:   RW
RWT .DEGF                      0.0000:   RW TEMP
RUN .                               1:   LOG RUN
TDL .FT                     9298.0000:   FINAL TD LOGGER
TDD .FT                     9300.0000:   FINAL TD DRILLER
BOTL.FT                     9296.0000:   BOTTOM DEPTH LOGGED
TOPL.FT                     4478.0000:   TOP DEPTH LOGGED
CSGL.FT                     4494.0000:   CASING DEPTH LOGGER
CSGD.FT                     4488.0000:   CASING DEPTH DRILLER
CSGS.IN                       13.3750:   CASING SIZE
CSGW.                          0.0000:   CASING WEIGHT
BS  .IN                       12.2500:   BIT SIZE
MUD .                             MUD:   MUD TYPE
MUDD.                         14.2000:   MUD WEIGHT
MUDV.                         41.0000:   MUD VISCOSITY
FL  .                          4.4000:   FLUID LOSS
PH  .                          8.5000:   MUD PH
MUDS.                             PIT:   MUD SOURCE
RM  .OHMM                      1.3000:   RM
RMT .DEGF                     80.0000:   RM TEMP
RMF .OHMM                      0.5400:   RMF
RMFT.DEGF                     80.0000:   RMF TEMP
RMC .OHMM                      2.5000:   RMC
RMCT.DEGF                     80.0000:   RMC TEMP
MMFS.                            MEAS:   RMF SOURCE
MCFS.                            MEAS:   RMC SOURCE
RMBH.OHMM                      0.5500:   RM BH
BHT .DEGF                    182.0000:   BH TEMP
TMAX.DEGF                    182.0000:   MAX REC TEMP
SON .                          180318:   SERVICE ORDER NUM
ELMF.FT                       92.0000:   ABOVE PERM DATUM
LMF .                              DF:   LOGS MEAS FROM
DMF .                              DF:   DRILL MEAS FROM
TIMC.                            0600:   TIME SINCE CIRCLN
UNIT.8940                        8079:   UNIT NO.
BASE.                        PEARLAND:   LOG UNIT HOME BASE
ENG .                          SUTTON:   ENGINEER
WIT .                            DILL:   WITNESS
~PARAMETER INFORMATION (zones)
#MNEM.UNIT                       Value     Description
#=========                       =====     ===========
#ZONATION                        ZONES:   ZONATION NAME
#ZONE                             LAS2:   ZONE NAME
TOP .                       4470.0000:   TOP DEPTH
BOT .                      11816.0000:   BOTTOM DEPTH
SRVC.                   WESTERN ATLAS:   LOGGING CONTRACTOR
DATE.                         21AUG96:   RUN DATE
RW  .OHMM                      0.0000:   RW
RWT .DEGF                      0.0000:   RW TEMP
RUN .                               2:   LOG RUN
TDL .FT                    11503.0000:   FINAL TD LOGGER
TDD .FT                    11500.0000:   FINAL TD DRILLER
BOTL.FT                    11495.0000:   BOTTOM DEPTH LOGGED
TOPL.FT                     9240.0000:   TOP DEPTH LOGGED
CSGL.FT                     9240.0000:   CASING DEPTH LOGGER
CSGD.FT                     9250.0000:   CASING DEPTH DRILLER
CSGS.IN                        9.6250:   CASING SIZE
CSGW.                          0.0000:   CASING WEIGHT
BS  .IN                        8.5000:   BIT SIZE
MUD .                     DESCO LO-PH:   MUD TYPE
MUDD.                         16.4000:   MUD WEIGHT
MUDV.                         50.0000:   MUD VISCOSITY
FL  .                          2.8000:   FLUID LOSS
PH  .                          8.5000:   MUD PH
MUDS.                             PIT:   MUD SOURCE
RM  .OHMM                      1.0000:   RM
RMT .DEGF                     80.0000:   RM TEMP
RMF .OHMM                      0.4500:   RMF
RMFT.DEGF                     80.0000:   RMF TEMP
RMC .OHMM                      3.0000:   RMC
RMCT.DEGF                     80.0000:   RMC TEMP
MMFS.                            MEAS:   RMF SOURCE
MCFS.                            MEAS:   RMC SOURCE
RMBH.OHMM                      0.3870:   RM BH
BHT .DEGF                    230.0000:   BH TEMP
TMAX.DEGF                    230.0000:   MAX REC TEMP
SON .                          180319:   SERVICE ORDER NUM
ELMF.FT                       92.0000:   ABOVE PERM DATUM
LMF .                              DF:   LOGS MEAS FROM
DMF .                              DF:   DRILL MEAS FROM
TIMC.                            0700:   TIME SINCE CIRCLN
UNIT.8940                        8089:   UNIT NO.
BASE.                        PEARLAND:   LOG UNIT HOME BASE
ENG .                    SUTTON/DAVIS:   ENGINEER
WIT .                      MR.CAMBELL:   WITNESS
~PARAMETER INFORMATION (zones)
#MNEM.UNIT                       Value     Description
#=========                       =====     ===========
#ZONATION                        ZONES:   ZONATION NAME
#ZONE                             LAS3:   ZONE NAME
TOP .                       4470.0000:   TOP DEPTH
BOT .                      11816.0000:   BOTTOM DEPTH
SRVC.                   WESTERN ATLAS:   LOGGING CONTRACTOR
DATE.                         23AUG96:   RUN DATE
RW  .OHMM                      0.0000:   RW
RWT .DEGF                      0.0000:   RW TEMP
RUN .                               3:   LOG RUN
TDL .FT                    11800.0000:   FINAL TD LOGGER
TDD .FT                    11800.0000:   FINAL TD DRILLER
BOTL.FT                    11791.0000:   BOTTOM DEPTH LOGGED
TOPL.FT                     9240.0000:   TOP DEPTH LOGGED
CSGL.FT                     9240.0000:   CASING DEPTH LOGGER
CSGD.FT                     9250.0000:   CASING DEPTH DRILLER
CSGS.IN                        9.6250:   CASING SIZE
CSGW.                          0.0000:   CASING WEIGHT
BS  .IN                        8.5000:   BIT SIZE
MUD .                     DESCO LO-PH:   MUD TYPE
MUDD.                         16.4000:   MUD WEIGHT
MUDV.                         50.0000:   MUD VISCOSITY
FL  .                          2.8000:   FLUID LOSS
PH  .                          8.5000:   MUD PH
MUDS.                             PIT:   MUD SOURCE
RM  .OHMM                      1.0000:   RM
RMT .DEGF                     80.0000:   RM TEMP
RMF .OHMM                      0.4500:   RMF
RMFT.DEGF                     80.0000:   RMF TEMP
RMC .OHMM                      3.0000:   RMC
RMCT.DEGF                     80.0000:   RMC TEMP
MMFS.                            MEAS:   RMF SOURCE
MCFS.                            MEAS:   RMC SOURCE
RMBH.OHMM                      0.3870:   RM BH
BHT .DEGF                    232.0000:   BH TEMP
TMAX.DEGF                    232.0000:   MAX REC TEMP
SON .                          180319:   SERVICE ORDER NUM
ELMF.FT                       92.0000:   ABOVE PERM DATUM
LMF .                              DF:   LOGS MEAS FROM
DMF .                              DF:   DRILL MEAS FROM
TIMC.                            0700:   TIME SINCE CIRCLN
UNIT.8940                        8089:   UNIT NO.
BASE.                        PEARLAND:   LOG UNIT HOME BASE
ENG .                    SUTTON/DAVIS:   ENGINEER
WIT .                      BOB SHELBY:   WITNESS
~Curve Information Block
#MNEM.UNIT                    API CODE    No Description
#=========                    ========    == ===========
DEPT.F                   00 001 00 00:     1  DEPTH
CALX.IN                              :     2  Caliper
CNCF.%                               :     3  Field Normalized CNC
DT.US/F                              :     4  Sonic Transit Time
GR.GAPI                              :     5  Gamma Ray
M2R1.OHMM                            :     6  Array Resistivity Curve
M2R2.OHMM                            :     7  Array Resistivity Curve
M2R3.OHMM                            :     8  Array Resistivity Curve
M2R6.OHMM                            :     9  Array Resistivity Curve
M2R9.OHMM                            :    10  Array Resistivity Curve
M2RX.OHMM                            :    11  Array Resistivity Curve
PORZ.%                               :    12  PORZ
RFOC.OHMM                            :    13  Medium Resistivity
RILD.OHMM                            :    14  Deep Resistivity
RILM.OHMM                            :    15  Medium Resistivity
RWAA.OHMM                            :    16  RWAA
RWAZ.OHMM                            :    17  RWAZ
SP.MV                                :    18  Spontaneous Potential
TEN.LB                               :    19  TEN
ZCOR.G/CC                            :    20  Density Correction
~ASCII
# ...
10760.0000    10.0360    39.6870   126.3700    69.0040      .4740      .4440      .4260      .4190      .4150      .4150    21.1670  -999.2500  -999.2500  -999.2500      .1020      .0240    -2.2580   -12.0070      .0040
10760.5000    10.0320    39.2690   125.9420    69.8910      .4810      .4510      .4320      .4260      .4210      .4220    20.8990  -999.2500  -999.2500  -999.2500      .1020      .0240    -2.2240   -14.1340     -.0010
10761.0000    10.0550    39.0780   126.0590    70.7240      .4760      .4460      .4280      .4220      .4180      .4180    20.8660  -999.2500  -999.2500  -999.2500      .1020      .0230    -2.4570   -11.3090      .0000
10761.5000    10.1000    39.2880   127.7940    70.3160      .4620      .4310      .4150      .4100      .4060      .4060    21.2390  -999.2500  -999.2500  -999.2500      .1040      .0230    -2.2620    -4.4640      .0040
10762.0000    10.1270    39.6960   129.7510    69.1380      .4480      .4170      .4020      .3970      .3930      .3930    21.6540  -999.2500  -999.2500  -999.2500      .1070      .0240    -2.0220     4.7650      .0090
10762.5000    10.1110    39.9740   129.6810    69.3210      .4420      .4100      .3960      .3910      .3870      .3870    21.8240  -999.2500  -999.2500  -999.2500      .1050      .0240    -2.1650    11.3510      .0110
10763.0000    10.0690    39.9920   129.2460    71.6000      .4460      .4120      .3960      .3910      .3870      .3870    21.9160  -999.2500  -999.2500  -999.2500      .1040      .0240    -2.2570    11.1630      .0100
10763.5000    10.0570    39.6910   128.8090    73.3050      .4520      .4170      .4000      .3940      .3910      .3900    22.1170  -999.2500  -999.2500  -999.2500      .1030      .0250    -2.0800     4.7140      .0070
10764.0000    10.0900    39.3250   128.0870    73.7820      .4540      .4190      .4010      .3950      .3910      .3910    22.3700  -999.2500  -999.2500  -999.2500      .1010      .0250    -1.8880    -4.5410      .0090
10764.5000    10.1170    39.3670   128.1440    74.5470      .4490      .4150      .3980      .3910      .3880      .3880    22.5610  -999.2500  -999.2500  -999.2500      .1000      .0250    -1.7500   -12.3510      .0150
10765.0000    10.1080    39.8930   129.3360    74.1480      .4390      .4080      .3930      .3860      .3820      .3810    22.5600  -999.2500  -999.2500  -999.2500      .1020      .0250    -1.7480   -13.1990      .0180
10765.5000    10.0860    40.6840   130.4700    70.8900      .4270      .4000      .3850      .3790      .3740      .3740    22.4220  -999.2500  -999.2500  -999.2500      .1040      .0240    -2.0870    -8.6140      .0160
10766.0000    10.0690    41.3290   130.1010    68.4540      .4220      .3960      .3820      .3750      .3710      .3700    22.4870  -999.2500  -999.2500  -999.2500      .1010      .0240    -2.4410    -7.8080      .0120
10766.5000    10.0440    41.4040   129.6390    69.2810      .4290      .4020      .3890      .3820      .3780      .3770    22.5980  -999.2500  -999.2500  -999.2500      .1020      .0250    -2.4170   -13.1660      .0110
10767.0000     9.9970    40.9320   129.0770    71.2600      .4460      .4170      .4020      .3960      .3910      .3910    22.2130  -999.2500  -999.2500  -999.2500      .1040      .0250    -2.2930   -17.4360      .0060
10767.5000     9.9310    40.3650   127.3190    72.2480      .4610      .4290      .4130      .4060      .4010      .4010    21.5070  -999.2500  -999.2500  -999.2500      .1010      .0240    -2.3750   -16.3050     -.0030
10768.0000     9.8830    40.0830   125.9200    71.2450      .4710      .4370      .4190      .4120      .4070      .4070    21.2850  -999.2500  -999.2500  -999.2500      .0990      .0240    -2.4890   -13.3730     -.0130
10768.5000     9.8770    40.1710   126.3470    67.7800      .4780      .4450      .4270      .4200      .4160      .4160    21.6290  -999.2500  -999.2500  -999.2500      .1020      .0250    -2.5060   -10.7360     -.0200
10769.0000     9.9120    40.4840   126.9140    64.9420      .4760      .4470      .4300      .4230      .4190      .4190    21.9870  -999.2500  -999.2500  -999.2500      .1050      .0260    -2.4420    -7.5260     -.0230
10769.5000     9.9620    40.8270   127.3090    65.1820      .4620      .4360      .4200      .4130      .4100      .4100    22.1590  -999.2500  -999.2500  -999.2500      .1040      .0260    -2.1540    -5.4210     -.0180
10770.0000     9.9570    41.1060   129.2030    65.9170      .4490      .4240      .4080      .4020      .3990      .3990    22.1930  -999.2500  -999.2500  -999.2500      .1070      .0250    -1.5740    -6.1800     -.0060
10770.5000     9.8640    41.3430   129.3870    65.8020      .4460      .4210      .4060      .4000      .3970      .3970    22.0410  -999.2500  -999.2500  -999.2500      .1070      .0250     -.9840    -7.3010      .0100
10771.0000     9.7550    41.4930   128.1010    66.6320      .4490      .4230      .4080      .4030      .4000      .4000    21.8190  -999.2500  -999.2500  -999.2500      .1030      .0240     -.8040    -5.7680      .0260
10771.5000     9.7030    41.3060   128.5380    68.5120      .4510      .4240      .4080      .4030      .4000      .4000    21.8230  -999.2500  -999.2500  -999.2500      .1050      .0240    -1.0120    -3.6580      .0320
10772.0000     9.6950    40.6840   129.1040    70.2150      .4480      .4200      .4040      .3990      .3950      .3950    22.0540  -999.2500  -999.2500  -999.2500      .1050      .0250    -1.0890    -4.9920      .0230
10772.5000     9.6990    41.2100   128.5540    70.0580      .4460      .4180      .4020      .3960      .3920      .3920    22.3050  -999.2500  -999.2500  -999.2500      .1030      .0250     -.7510   -10.5770      .0140
10773.0000     9.6930    41.5020   127.9010    67.4370      .4550      .4260      .4100      .4040      .4000      .3990    22.0750  -999.2500  -999.2500  -999.2500      .1030      .0250     -.3450   -16.4390      .0140
10773.5000     9.6610    40.6170   126.1280    64.5020      .4770      .4460      .4280      .4220      .4180      .4180    21.1620  -999.2500  -999.2500  -999.2500      .1020      .0240     -.2870   -18.5480      .0170
10774.0000     9.6140    40.0480   122.3030    63.7380      .5070      .4720      .4520      .4450      .4410      .4420    20.1780  -999.2500  -999.2500  -999.2500      .0960      .0230     -.4710   -18.2820      .0110
10774.5000     9.5830    39.1700   119.9220    64.1240      .5340      .4980      .4770      .4690      .4650      .4670    19.5630  -999.2500  -999.2500  -999.2500      .0930      .0230     -.7330   -18.2250     -.0040
10775.0000     9.5780    38.4670   121.2040    64.3390      .5360      .5050      .4850      .4770      .4730      .4750    19.4130  -999.2500  -999.2500  -999.2500      .0990      .0230    -1.5340   -19.1690     -.0150
10775.5000     9.6080    38.7430   123.9880    64.7660      .5010      .4760      .4580      .4510      .4460      .4470    19.7370  -999.2500  -999.2500  -999.2500      .1020      .0220    -2.8040   -20.8100     -.0070
10776.0000     9.6860    39.8280   127.7270    66.5760      .4580      .4360      .4190      .4120      .4080      .4080    20.3940  -999.2500  -999.2500  -999.2500      .1040      .0220    -3.3180   -20.6500      .0080
10776.5000     9.7610    41.0870   130.6670    69.4340      .4350      .4130      .3980      .3910      .3880      .3870    21.2660  -999.2500  -999.2500  -999.2500      .1080      .0220    -2.6500   -15.2790      .0190
10777.0000     9.7520    42.1010   130.5130    71.3230      .4300      .4060      .3920      .3870      .3830      .3820    21.9130  -999.2500  -999.2500  -999.2500      .1060      .0240    -2.1210    -8.1910      .0230
10777.5000     9.6730    42.6620   130.0870    70.6760      .4300      .4030      .3890      .3840      .3800      .3800    22.1540  -999.2500  -999.2500  -999.2500      .1040      .0240    -2.2090    -8.2730      .0200
10778.0000     9.6140    42.6980   130.5520    68.8950      .4280      .3980      .3840      .3780      .3740      .3740    22.3060  -999.2500  -999.2500  -999.2500      .1040      .0240    -1.9990   -15.6130      .0120
