~VERSION INFORMATION
VERS.                             2.0:   CWLS Log ASCII Standard-VERSION 2.0
WRAP.                              NO:   One line per depth step
~Well Information Block
STRT.F                      3150.0000:   Top Depth
STOP.F                     11219.0000:   Bottom Depth
STEP.F                         .50000:   Depth Increment
NULL.                        -999.250:   Null Value
FLD .                      GA BLK 300:   Field Name
WELL.       OCSG11310   002 ST00 BP00:   NAME
API .                  42706403320000:   WELL API
EDF .F                        97.5000:   ELEV DRILL FLOOR
COMP.       SEAGULL ENERGY E AND P IN:   OPERATOR
BN  .                             300:   BLOCK
CTRY.                             USA:   COUNTRY NAME
CNTY.                              GA:   COUNTY
CNTY.                        GLVSTN L:   COUNTY NAME
EGL .F                       -56.0000:   ELEV GROUND LEVEL
EKB .F                        98.5000:   ELEV KELLY BUSHING
TDD .F                      11225.000:   FINAL TD DRILLER
STAT.                           TEXAS:   STATE NAME
UWI .                  42706403320000:   WELL API
DICO.               IHS : Digitizing Company
~PARAMETER INFORMATION (zones)
#MNEM.UNIT                       Value     Description
#=========                       =====     ===========
#ZONATION                          CNL:   ZONATION NAME
#ZONE                            RUN_2:   ZONE NAME
TOP .                       9384.0000:   TOP DEPTH
BOT .                      11168.5000:   BOTTOM DEPTH
RUN .                               2:   RUN NUMBER
LCCD.                             440:   LOGGING CONTRACTOR
SRVC.                    Schlumberger:   LOGGING CONT NAME
DICO.          QC Data Collectors Ltd:   DIG COMPANY NAME
LDAT.                      04/26/1993:   DATE LOGGED
ELD .F                        98.5000:   LOG DATUM ELEVATION
TDD .F                     11217.0000:   TOTAL DEPTH DRILLER
TDL .F                     11225.0000:   TOTAL DEPTH LOGGER
BOTL.F                     11219.0000:   BOTTOM DEPTH LOGGED
TOPL.F                      9802.0000:   TOP DEPTH LOGGED
CS1 .IN                        7.6250:   CASING SIZE 1
BS1 .IN                        6.5000:   BIT SIZE 1
DDB1.F                     11217.0000:   DEPTH DRILLED BIT 1
BHF .                              99:   FLUID CODE
DPT .                   Miscellaneous:   DRILLING FLUID TYPE
MUDD.                         13.9000:   FLUID DENSITY
MUDV.                         41.0000:   FLUID VISCOSITY
DFPH.                         10.0000:   FLUID PH
FL  .                          3.2000:   FLUID LOSS
RM  .OHMM                       .9550:   RM
RMT .DEGF                     77.0000:   RM TEMP
RMF .OHMM                       .5740:   RMF
RMFT.DEGF                     76.0000:   RMF TEMP
FSC .                               M:   RMF CODE
RMC .OHMM                      1.6900:   RMC
RMCT.DEGF                     76.0000:   RMC TEMP
CMC .                               M:   RMC CODE
TMAX.DEGF                    207.0000:   MAX REC TEMP
TIMC.                         17.0000:   TIME SINCE CIRCLN
~PARAMETER INFORMATION (zones)
#MNEM.UNIT                       Value     Description
#=========                       =====     ===========
#ZONATION                          DIL:   ZONATION NAME
#ZONE                            RUN_1:   ZONE NAME
TOP .                       3150.0000:   TOP DEPTH
BOT .                       9865.5000:   BOTTOM DEPTH
RUN .                               1:   RUN NUMBER
LCCD.                             440:   LOGGING CONTRACTOR
SRVC.                    Schlumberger:   LOGGING CONT NAME
DICO.          QC Data Collectors Ltd:   DIG COMPANY NAME
LDAT.                      04/10/1993:   DATE LOGGED
ELD .F                        98.5000:   LOG DATUM ELEVATION
TDD .F                      9878.0000:   TOTAL DEPTH DRILLER
TDL .F                      9871.0000:   TOTAL DEPTH LOGGER
BOTL.F                      9865.0000:   BOTTOM DEPTH LOGGED
TOPL.F                      3298.0000:   TOP DEPTH LOGGED
CS1 .IN                       10.7500:   CASING SIZE 1
BS1 .IN                        9.8750:   BIT SIZE 1
DDB1.F                      9878.0000:   DEPTH DRILLED BIT 1
BHF .                              99:   FLUID CODE
DPT .                   Miscellaneous:   DRILLING FLUID TYPE
MUDD.                         11.8000:   FLUID DENSITY
MUDV.                         44.0000:   FLUID VISCOSITY
DFPH.                          9.5000:   FLUID PH
FL  .                          4.6000:   FLUID LOSS
RM  .OHMM                       .8730:   RM
RMT .DEGF                     82.0000:   RM TEMP
RMF .OHMM                       .4990:   RMF
RMFT.DEGF                     82.0000:   RMF TEMP
FSC .                               M:   RMF CODE
RMC .OHMM                      1.4400:   RMC
RMCT.DEGF                     82.0000:   RMC TEMP
CMC .                               M:   RMC CODE
TMAX.DEGF                    177.0000:   MAX REC TEMP
TIMC.                         15.0000:   TIME SINCE CIRCLN
~PARAMETER INFORMATION (zones)
#MNEM.UNIT                       Value     Description
#=========                       =====     ===========
#ZONATION                          DIL:   ZONATION NAME
#ZONE                            RUN_2:   ZONE NAME
TOP .                       9802.0000:   TOP DEPTH
BOT .                      11219.5000:   BOTTOM DEPTH
RUN .                               2:   RUN NUMBER
LCCD.                             440:   LOGGING CONTRACTOR
SRVC.                    Schlumberger:   LOGGING CONT NAME
DICO.          QC Data Collectors Ltd:   DIG COMPANY NAME
LDAT.                      04/26/1993:   DATE LOGGED
ELD .F                        98.5000:   LOG DATUM ELEVATION
TDD .F                     11217.0000:   TOTAL DEPTH DRILLER
TDL .F                     11225.0000:   TOTAL DEPTH LOGGER
BOTL.F                     11219.0000:   BOTTOM DEPTH LOGGED
TOPL.F                      9802.0000:   TOP DEPTH LOGGED
CS1 .IN                        7.6250:   CASING SIZE 1
BS1 .IN                        6.5000:   BIT SIZE 1
DDB1.F                     11217.0000:   DEPTH DRILLED BIT 1
BHF .                              99:   FLUID CODE
DPT .                   Miscellaneous:   DRILLING FLUID TYPE
MUDD.                         13.9000:   FLUID DENSITY
MUDV.                         41.0000:   FLUID VISCOSITY
DFPH.                         10.0000:   FLUID PH
FL  .                          3.2000:   FLUID LOSS
RM  .OHMM                       .9550:   RM
RMT .DEGF                     77.0000:   RM TEMP
RMF .OHMM                       .5740:   RMF
RMFT.DEGF                     76.0000:   RMF TEMP
FSC .                               M:   RMF CODE
RMC .OHMM                      1.6900:   RMC
RMCT.DEGF                     76.0000:   RMC TEMP
CMC .                               M:   RMC CODE
TMAX.DEGF                    207.0000:   MAX REC TEMP
TIMC.                         17.0000:   TIME SINCE CIRCLN
~PARAMETER INFORMATION (zones)
#MNEM.UNIT                       Value     Description
#=========                       =====     ===========
#ZONATION                          LDT:   ZONATION NAME
#ZONE                            RUN_2:   ZONE NAME
TOP .                       9372.0000:   TOP DEPTH
BOT .                      11188.5000:   BOTTOM DEPTH
RUN .                               2:   RUN NUMBER
LCCD.                             440:   LOGGING CONTRACTOR
SRVC.                    Schlumberger:   LOGGING CONT NAME
DICO.          QC Data Collectors Ltd:   DIG COMPANY NAME
LDAT.                      04/26/1993:   DATE LOGGED
ELD .F                        98.5000:   LOG DATUM ELEVATION
TDD .F                     11217.0000:   TOTAL DEPTH DRILLER
TDL .F                     11225.0000:   TOTAL DEPTH LOGGER
BOTL.F                     11219.0000:   BOTTOM DEPTH LOGGED
TOPL.F                      9802.0000:   TOP DEPTH LOGGED
CS1 .IN                        7.6250:   CASING SIZE 1
BS1 .IN                        6.5000:   BIT SIZE 1
DDB1.F                     11217.0000:   DEPTH DRILLED BIT 1
BHF .                              99:   FLUID CODE
DPT .                   Miscellaneous:   DRILLING FLUID TYPE
MUDD.                         13.9000:   FLUID DENSITY
MUDV.                         41.0000:   FLUID VISCOSITY
DFPH.                         10.0000:   FLUID PH
FL  .                          3.2000:   FLUID LOSS
RM  .OHMM                       .9550:   RM
RMT .DEGF                     77.0000:   RM TEMP
RMF .OHMM                       .5740:   RMF
RMFT.DEGF                     76.0000:   RMF TEMP
FSC .                               M:   RMF CODE
RMC .OHMM                      1.6900:   RMC
RMCT.DEGF                     76.0000:   RMC TEMP
CMC .                               M:   RMC CODE
TMAX.DEGF                    207.0000:   MAX REC TEMP
TIMC.                         17.0000:   TIME SINCE CIRCLN
~Curve Information Block
#MNEM.UNIT                    API CODE    No Description
#=========                    ========    == ===========
DEPT.F                   00 001 00 00:     1  DEPTH
NPHI.%                               :     2  Neutron Porosity
DT.US/F                              :     3  Sonic Transit Time
DTL.US/F                             :     4  Sonic Transit Time (Slowness)
GR.GAPI                              :     5  Gamma Ray
ILD.OHMM                             :     6  Deep Induction Resistivity
ILM.OHMM                             :     7  Medium Induction Resistivity
SFL.OHMM                             :     8  Medium Resistivity
SP.MV                                :     9  Spontaneous Potential
DCAL.IN                              :    10  Differential Caliper
DPHI.%                               :    11  Porosity
GR.GAPI                              :    12  Gamma Ray
~ASCII
# ...
 3821.0000  -999.2500   136.0000  -999.2500    85.1875      .6675      .5869      .6919   -48.8828  -999.2500  -999.2500  -999.2500
 3821.5000  -999.2500   136.2500  -999.2500    80.7500      .6650      .5840      .6870   -48.9688  -999.2500  -999.2500  -999.2500
 3822.0000  -999.2500   138.0000  -999.2500    83.6875      .6626      .5781      .6821   -48.7813  -999.2500  -999.2500  -999.2500
 3822.5000  -999.2500   137.7500  -999.2500    83.3750      .6602      .5713      .6553   -48.5391  -999.2500  -999.2500  -999.2500
 3823.0000  -999.2500   137.5000  -999.2500    86.3750      .6577      .5645      .6191   -48.6953  -999.2500  -999.2500  -999.2500
 3823.5000  -999.2500   137.5000  -999.2500    84.8750      .6553      .5601      .6045   -48.6719  -999.2500  -999.2500  -999.2500
 3824.0000  -999.2500   134.5000  -999.2500    84.8125      .6528      .5591      .6094   -48.2031  -999.2500  -999.2500  -999.2500
 3824.5000  -999.2500   133.0000  -999.2500    83.0625      .6514      .5605      .6216   -48.1875  -999.2500  -999.2500  -999.2500
 3825.0000  -999.2500   130.0000  -999.2500    84.5625      .6499      .5640      .6401   -47.4141  -999.2500  -999.2500  -999.2500
 3825.5000  -999.2500   128.5000  -999.2500    85.3750      .6465      .5664      .6665   -47.3516  -999.2500  -999.2500  -999.2500
 3826.0000  -999.2500   131.5000  -999.2500    89.6875      .6426      .5645      .6826   -46.3398  -999.2500  -999.2500  -999.2500
 3826.5000  -999.2500   135.2500  -999.2500    87.9375      .6387      .5576      .6660   -46.8711  -999.2500  -999.2500  -999.2500
 3827.0000  -999.2500   139.2500  -999.2500    91.1875      .6362      .5483      .6240   -46.7461  -999.2500  -999.2500  -999.2500
 3827.5000  -999.2500   141.5000  -999.2500    88.0000      .6318      .5381      .5874   -47.1055  -999.2500  -999.2500  -999.2500
 3828.0000  -999.2500   142.0000  -999.2500    87.7500      .6235      .5298      .5786   -47.2578  -999.2500  -999.2500  -999.2500
 3828.5000  -999.2500   140.7500  -999.2500    85.0625      .6147      .5234      .5771   -47.0781  -999.2500  -999.2500  -999.2500
 3829.0000  -999.2500   140.2500  -999.2500    82.6875      .6060      .5176      .5957   -47.4336  -999.2500  -999.2500  -999.2500
 3829.5000  -999.2500   138.2500  -999.2500    84.9375      .5986      .5117      .5977   -47.3437  -999.2500  -999.2500  -999.2500
 3830.0000  -999.2500   138.2500  -999.2500    87.3750      .5933      .5054      .5742   -47.7422  -999.2500  -999.2500  -999.2500
 3830.5000  -999.2500   138.2500  -999.2500    91.4375      .5908      .4990      .5518   -48.0469  -999.2500  -999.2500  -999.2500
 3831.0000  -999.2500   137.5000  -999.2500    89.7500      .5903      .4946      .5410   -47.8320  -999.2500  -999.2500  -999.2500
 3831.5000  -999.2500   138.5000  -999.2500    87.8125      .5884      .4922      .5537   -47.8359  -999.2500  -999.2500  -999.2500
 3832.0000  -999.2500   139.0000  -999.2500    89.4375      .5869      .4922      .5444   -47.8516  -999.2500  -999.2500  -999.2500
 3832.5000  -999.2500   140.2500  -999.2500    92.7500      .5874      .4937      .5435   -47.5625  -999.2500  -999.2500  -999.2500
 3833.0000  -999.2500   141.5000  -999.2500    89.9375      .5884      .4961      .5518   -47.2109  -999.2500  -999.2500  -999.2500
 3833.5000  -999.2500   141.5000  -999.2500    86.5000      .5903      .4990      .5571   -47.0156  -999.2500  -999.2500  -999.2500
 3834.0000  -999.2500   142.7500  -999.2500    80.6250      .5933      .5020      .5693   -46.7578  -999.2500  -999.2500  -999.2500
 3834.5000  -999.2500   142.0000  -999.2500    84.2500      .5977      .5044      .5718   -46.2813  -999.2500  -999.2500  -999.2500
 3835.0000  -999.2500   141.2500  -999.2500    81.6875      .6021      .5073      .5903   -46.3828  -999.2500  -999.2500  -999.2500
 3835.5000  -999.2500   143.0000  -999.2500    83.5000      .6069      .5112      .5854   -45.8320  -999.2500  -999.2500  -999.2500
 3836.0000  -999.2500   139.7500  -999.2500    78.4375      .6133      .5156      .5825   -45.9688  -999.2500  -999.2500  -999.2500
 3836.5000  -999.2500   137.2500  -999.2500    79.3750      .6211      .5225      .5610   -45.9180  -999.2500  -999.2500  -999.2500
 3837.0000  -999.2500   133.7500  -999.2500    81.4375      .6289      .5312      .5889   -45.4336  -999.2500  -999.2500  -999.2500
 3837.5000  -999.2500   131.0000  -999.2500    84.0625      .6357      .5405      .6353   -45.2891  -999.2500  -999.2500  -999.2500
 3838.0000  -999.2500   129.2500  -999.2500    89.9375      .6431      .5503      .6641   -44.8477  -999.2500  -999.2500  -999.2500
 3838.5000  -999.2500   129.7500  -999.2500    87.6875      .6528      .5596      .6470   -45.3633  -999.2500  -999.2500  -999.2500
 3839.0000  -999.2500   127.0000  -999.2500    88.6875      .6636      .5679      .6182   -45.6211  -999.2500  -999.2500  -999.2500
 3839.5000  -999.2500   125.7500  -999.2500    86.4375      .6714      .5771      .6084   -45.8320  -999.2500  -999.2500  -999.2500
 3840.0000  -999.2500   124.7500  -999.2500    85.3750      .6748      .5864      .6489   -46.9922  -999.2500  -999.2500  -999.2500
 3840.5000  -999.2500   124.7500  -999.2500    78.6250      .6743      .5947      .7427   -47.9258  -999.2500  -999.2500  -999.2500
 3841.0000  -999.2500   128.5000  -999.2500    72.9375      .6714      .5977      .7944   -48.8672  -999.2500  -999.2500  -999.2500
 3841.5000  -999.2500   132.7500  -999.2500    69.7500      .6714      .5952      .7373   -49.5547  -999.2500  -999.2500  -999.2500
 3842.0000  -999.2500   136.5000  -999.2500    75.1875      .6743      .5894      .6470   -50.0078  -999.2500  -999.2500  -999.2500
 3842.5000  -999.2500   138.5000  -999.2500    76.0625      .6787      .5854      .6035   -49.8359  -999.2500  -999.2500  -999.2500
 3843.0000  -999.2500   135.7500  -999.2500    74.3125      .6816      .5874      .6118   -50.1250  -999.2500  -999.2500  -999.2500
 3843.5000  -999.2500   132.5000  -999.2500    74.5000      .6836      .5967      .6611   -50.4375  -999.2500  -999.2500  -999.2500
 3844.0000  -999.2500   129.0000  -999.2500    72.0625      .6851      .6104      .7729   -51.1563  -999.2500  -999.2500  -999.2500
 3844.5000  -999.2500   124.7500  -999.2500    74.2500      .6851      .6230      .8936   -51.7266  -999.2500  -999.2500  -999.2500
 3845.0000  -999.2500   124.7500  -999.2500    69.7500      .6846      .6279      .9570   -52.0234  -999.2500  -999.2500  -999.2500
 3845.5000  -999.2500   126.2500  -999.2500    68.0625      .6860      .6221      .8936   -51.4531  -999.2500  -999.2500  -999.2500
 3846.0000  -999.2500   127.5000  -999.2500    73.1250      .6855      .6079      .7637   -51.0859  -999.2500  -999.2500  -999.2500
 3846.5000  -999.2500   131.5000  -999.2500    81.0625      .6831      .5918      .6494   -50.0859  -999.2500  -999.2500  -999.2500
 3847.0000  -999.2500   133.2500  -999.2500    90.0000      .6763      .5781      .6162   -48.5313  -999.2500  -999.2500  -999.2500
 3847.5000  -999.2500   133.0000  -999.2500    90.0625      .6660      .5693      .6040   -48.3281  -999.2500  -999.2500  -999.2500
 3848.0000  -999.2500   133.2500  -999.2500    90.7500      .6558      .5635      .6172   -47.3477  -999.2500  -999.2500  -999.2500
 3848.5000  -999.2500   132.7500  -999.2500    93.0000      .6470      .5586      .6118   -47.1641  -999.2500  -999.2500  -999.2500
 3849.0000  -999.2500   133.0000  -999.2500    95.0625      .6396      .5532      .6108   -46.4375  -999.2500  -999.2500  -999.2500
 3849.5000  -999.2500   137.0000  -999.2500    93.0625      .6362      .5474      .6040   -46.4180  -999.2500  -999.2500  -999.2500
 3850.0000  -999.2500   138.5000  -999.2500    90.0625      .6353      .5420      .5850   -46.4297  -999.2500  -999.2500  -999.2500
 3850.5000  -999.2500   139.7500  -999.2500    87.5625      .6357      .5391      .5742   -46.4883  -999.2500  -999.2500  -999.2500
 3851.0000  -999.2500   140.2500  -999.2500    89.7500      .6353      .5386      .5742   -46.1914  -999.2500  -999.2500  -999.2500
