~VERSION INFORMATION
VERS.                             2.0:   CWLS Log ASCII Standard-VERSION 2.0
WRAP.                              NO:   One line per depth step
~Well Information Block
STRT.F                      3150.0000:   Top Depth
STOP.F                     11219.0000:   Bottom Depth
STEP.F                         .50000:   Depth Increment
NULL.                        -999.250:   Null Value
FLD .                      GA BLK 300:   Field Name
WELL.       OCSG11310   002 ST00 BP00:   NAME
API .                  42706403320000:   WELL API
EDF .F                        97.5000:   ELEV DRILL FLOOR
COMP.       SEAGULL ENERGY E AND P IN:   OPERATOR
BN  .                             300:   BLOCK
CTRY.                             USA:   COUNTRY NAME
CNTY.                              GA:   COUNTY
CNTY.                        GLVSTN L:   COUNTY NAME
EGL .F                       -56.0000:   ELEV GROUND LEVEL
EKB .F                        98.5000:   ELEV KELLY BUSHING
TDD .F                      11225.000:   FINAL TD DRILLER
STAT.                           TEXAS:   STATE NAME
UWI .                  42706403320000:   WELL API
DICO.               IHS : Digitizing Company
~PARAMETER INFORMATION (zones)
#MNEM.UNIT                       Value     Description
#=========                       =====     ===========
#ZONATION                          CNL:   ZONATION NAME
#ZONE                            RUN_2:   ZONE NAME
TOP .                       9384.0000:   TOP DEPTH
BOT .                      11168.5000:   BOTTOM DEPTH
RUN .                               2:   RUN NUMBER
LCCD.                             440:   LOGGING CONTRACTOR
SRVC.                    Schlumberger:   LOGGING CONT NAME
DICO.          QC Data Collectors Ltd:   DIG COMPANY NAME
LDAT.                      04/26/1993:   DATE LOGGED
ELD .F                        98.5000:   LOG DATUM ELEVATION
TDD .F                     11217.0000:   TOTAL DEPTH DRILLER
TDL .F                     11225.0000:   TOTAL DEPTH LOGGER
BOTL.F                     11219.0000:   BOTTOM DEPTH LOGGED
TOPL.F                      9802.0000:   TOP DEPTH LOGGED
CS1 .IN                        7.6250:   CASING SIZE 1
BS1 .IN                        6.5000:   BIT SIZE 1
DDB1.F                     11217.0000:   DEPTH DRILLED BIT 1
BHF .                              99:   FLUID CODE
DPT .                   Miscellaneous:   DRILLING FLUID TYPE
MUDD.                         13.9000:   FLUID DENSITY
MUDV.                         41.0000:   FLUID VISCOSITY
DFPH.                         10.0000:   FLUID PH
FL  .                          3.2000:   FLUID LOSS
RM  .OHMM                       .9550:   RM
RMT .DEGF                     77.0000:   RM TEMP
RMF .OHMM                       .5740:   RMF
RMFT.DEGF                     76.0000:   RMF TEMP
FSC .                               M:   RMF CODE
RMC .OHMM                      1.6900:   RMC
RMCT.DEGF                     76.0000:   RMC TEMP
CMC .                               M:   RMC CODE
TMAX.DEGF                    207.0000:   MAX REC TEMP
TIMC.                         17.0000:   TIME SINCE CIRCLN
~PARAMETER INFORMATION (zones)
#MNEM.UNIT                       Value     Description
#=========                       =====     ===========
#ZONATION                          DIL:   ZONATION NAME
#ZONE                            RUN_1:   ZONE NAME
TOP .                       3150.0000:   TOP DEPTH
BOT .                       9865.5000:   BOTTOM DEPTH
RUN .                               1:   RUN NUMBER
LCCD.                             440:   LOGGING CONTRACTOR
SRVC.                    Schlumberger:   LOGGING CONT NAME
DICO.          QC Data Collectors Ltd:   DIG COMPANY NAME
LDAT.                      04/10/1993:   DATE LOGGED
ELD .F                        98.5000:   LOG DATUM ELEVATION
TDD .F                      9878.0000:   TOTAL DEPTH DRILLER
TDL .F                      9871.0000:   TOTAL DEPTH LOGGER
BOTL.F                      9865.0000:   BOTTOM DEPTH LOGGED
TOPL.F                      3298.0000:   TOP DEPTH LOGGED
CS1 .IN                       10.7500:   CASING SIZE 1
BS1 .IN                        9.8750:   BIT SIZE 1
DDB1.F                      9878.0000:   DEPTH DRILLED BIT 1
BHF .                              99:   FLUID CODE
DPT .                   Miscellaneous:   DRILLING FLUID TYPE
MUDD.                         11.8000:   FLUID DENSITY
MUDV.                         44.0000:   FLUID VISCOSITY
DFPH.                          9.5000:   FLUID PH
FL  .                          4.6000:   FLUID LOSS
RM  .OHMM                       .8730:   RM
RMT .DEGF                     82.0000:   RM TEMP
RMF .OHMM                       .4990:   RMF
RMFT.DEGF                     82.0000:   RMF TEMP
FSC .                               M:   RMF CODE
RMC .OHMM                      1.4400:   RMC
RMCT.DEGF                     82.0000:   RMC TEMP
CMC .                               M:   RMC CODE
TMAX.DEGF                    177.0000:   MAX REC TEMP
TIMC.                         15.0000:   TIME SINCE CIRCLN
~PARAMETER INFORMATION (zones)
#MNEM.UNIT                       Value     Description
#=========                       =====     ===========
#ZONATION                          DIL:   ZONATION NAME
#ZONE                            RUN_2:   ZONE NAME
TOP .                       9802.0000:   TOP DEPTH
BOT .                      11219.5000:   BOTTOM DEPTH
RUN .                               2:   RUN NUMBER
LCCD.                             440:   LOGGING CONTRACTOR
SRVC.                    Schlumberger:   LOGGING CONT NAME
DICO.          QC Data Collectors Ltd:   DIG COMPANY NAME
LDAT.                      04/26/1993:   DATE LOGGED
ELD .F                        98.5000:   LOG DATUM ELEVATION
TDD .F                     11217.0000:   TOTAL DEPTH DRILLER
TDL .F                     11225.0000:   TOTAL DEPTH LOGGER
BOTL.F                     11219.0000:   BOTTOM DEPTH LOGGED
TOPL.F                      9802.0000:   TOP DEPTH LOGGED
CS1 .IN                        7.6250:   CASING SIZE 1
BS1 .IN                        6.5000:   BIT SIZE 1
DDB1.F                     11217.0000:   DEPTH DRILLED BIT 1
BHF .                              99:   FLUID CODE
DPT .                   Miscellaneous:   DRILLING FLUID TYPE
MUDD.                         13.9000:   FLUID DENSITY
MUDV.                         41.0000:   FLUID VISCOSITY
DFPH.                         10.0000:   FLUID PH
FL  .                          3.2000:   FLUID LOSS
RM  .OHMM                       .9550:   RM
RMT .DEGF                     77.0000:   RM TEMP
RMF .OHMM                       .5740:   RMF
RMFT.DEGF                     76.0000:   RMF TEMP
FSC .                               M:   RMF CODE
RMC .OHMM                      1.6900:   RMC
RMCT.DEGF                     76.0000:   RMC TEMP
CMC .                               M:   RMC CODE
TMAX.DEGF                    207.0000:   MAX REC TEMP
TIMC.                         17.0000:   TIME SINCE CIRCLN
~PARAMETER INFORMATION (zones)
#MNEM.UNIT                       Value     Description
#=========                       =====     ===========
#ZONATION                          LDT:   ZONATION NAME
#ZONE                            RUN_2:   ZONE NAME
TOP .                       9372.0000:   TOP DEPTH
BOT .                      11188.5000:   BOTTOM DEPTH
RUN .                               2:   RUN NUMBER
LCCD.                             440:   LOGGING CONTRACTOR
SRVC.                    Schlumberger:   LOGGING CONT NAME
DICO.          QC Data Collectors Ltd:   DIG COMPANY NAME
LDAT.                      04/26/1993:   DATE LOGGED
ELD .F                        98.5000:   LOG DATUM ELEVATION
TDD .F                     11217.0000:   TOTAL DEPTH DRILLER
TDL .F                     11225.0000:   TOTAL DEPTH LOGGER
BOTL.F                     11219.0000:   BOTTOM DEPTH LOGGED
TOPL.F                      9802.0000:   TOP DEPTH LOGGED
CS1 .IN                        7.6250:   CASING SIZE 1
BS1 .IN                        6.5000:   BIT SIZE 1
DDB1.F                     11217.0000:   DEPTH DRILLED BIT 1
BHF .                              99:   FLUID CODE
DPT .                   Miscellaneous:   DRILLING FLUID TYPE
MUDD.                         13.9000:   FLUID DENSITY
MUDV.                         41.0000:   FLUID VISCOSITY
DFPH.                         10.0000:   FLUID PH
FL  .                          3.2000:   FLUID LOSS
RM  .OHMM                       .9550:   RM
RMT .DEGF                     77.0000:   RM TEMP
RMF .OHMM                       .5740:   RMF
RMFT.DEGF                     76.0000:   RMF TEMP
FSC .                               M:   RMF CODE
RMC .OHMM                      1.6900:   RMC
RMCT.DEGF                     76.0000:   RMC TEMP
CMC .                               M:   RMC CODE
TMAX.DEGF                    207.0000:   MAX REC TEMP
TIMC.                         17.0000:   TIME SINCE CIRCLN
~Curve Information Block
#MNEM.UNIT                    API CODE    No Description
#=========                    ========    == ===========
DEPT.F                   00 001 00 00:     1  DEPTH
NPHI.%                               :     2  Neutron Porosity
DT.US/F                              :     3  Sonic Transit Time
DTL.US/F                             :     4  Sonic Transit Time (Slowness)
GR.GAPI                              :     5  Gamma Ray
ILD.OHMM                             :     6  Deep Induction Resistivity
ILM.OHMM                             :     7  Medium Induction Resistivity
SFL.OHMM                             :     8  Medium Resistivity
SP.MV                                :     9  Spontaneous Potential
DCAL.IN                              :    10  Differential Caliper
DPHI.%                               :    11  Porosity
GR.GAPI                              :    12  Gamma Ray
~ASCII
# ...
 8518.0000  -999.2500   106.3750  -999.2500    69.6250      .6421      .6597      .9121   -72.0938  -999.2500  -999.2500  -999.2500
 8518.5000  -999.2500   105.1250  -999.2500    75.3750      .6279      .6382      .8115   -70.3438  -999.2500  -999.2500  -999.2500
 8519.0000  -999.2500   104.1250  -999.2500    80.8125      .6064      .6211      .8169   -70.3438  -999.2500  -999.2500  -999.2500
 8519.5000  -999.2500   104.0000  -999.2500    80.1875      .5835      .6074      .8018   -72.4063  -999.2500  -999.2500  -999.2500
 8520.0000  -999.2500   102.8750  -999.2500    75.0000      .5576      .5928      .7969   -75.8750  -999.2500  -999.2500  -999.2500
 8520.5000  -999.2500   102.2500  -999.2500    63.8750      .5288      .5684      .9170   -80.6875  -999.2500  -999.2500  -999.2500
 8521.0000  -999.2500   105.6250  -999.2500    55.0625      .5049      .5332     1.0576   -85.4375  -999.2500  -999.2500  -999.2500
 8521.5000  -999.2500    97.3750  -999.2500    45.3125      .4985      .4946      .9365   -88.6875  -999.2500  -999.2500  -999.2500
 8522.0000  -999.2500    96.7500  -999.2500    45.9688      .4995      .4634      .6719   -90.2813  -999.2500  -999.2500  -999.2500
 8522.5000  -999.2500    99.6250  -999.2500    52.0312      .5005      .4487      .5889   -89.6250  -999.2500  -999.2500  -999.2500
 8523.0000  -999.2500   101.1250  -999.2500    59.1875      .5000      .4531      .6870   -86.3750  -999.2500  -999.2500  -999.2500
 8523.5000  -999.2500    99.7500  -999.2500    63.7813      .5020      .4746      .8975   -81.7187  -999.2500  -999.2500  -999.2500
 8524.0000  -999.2500   101.7500  -999.2500    62.5313      .5151      .5073     1.0469   -77.6562  -999.2500  -999.2500  -999.2500
 8524.5000  -999.2500   103.3750  -999.2500    66.8750      .5352      .5425     1.0117   -74.2187  -999.2500  -999.2500  -999.2500
 8525.0000  -999.2500   104.0000  -999.2500    70.0625      .5483      .5698      .9063   -69.9844  -999.2500  -999.2500  -999.2500
 8525.5000  -999.2500   104.5000  -999.2500    75.8125      .5586      .5845      .7749   -64.7031  -999.2500  -999.2500  -999.2500
 8526.0000  -999.2500   104.7500  -999.2500    77.8750      .5596      .5854      .7007   -62.4063  -999.2500  -999.2500  -999.2500
 8526.5000  -999.2500   107.1250  -999.2500    78.5625      .5488      .5752      .6802   -64.5625  -999.2500  -999.2500  -999.2500
 8527.0000  -999.2500   104.7500  -999.2500    72.8125      .5366      .5591      .6992   -69.6719  -999.2500  -999.2500  -999.2500
 8527.5000  -999.2500   104.7500  -999.2500    66.0625      .5273      .5405      .6885   -74.4063  -999.2500  -999.2500  -999.2500
 8528.0000  -999.2500   101.8750  -999.2500    60.9688      .5195      .5244      .6230   -77.0312  -999.2500  -999.2500  -999.2500
 8528.5000  -999.2500   100.2500  -999.2500    67.1875      .5142      .5142      .6270   -79.2813  -999.2500  -999.2500  -999.2500
 8529.0000  -999.2500    92.7500  -999.2500    68.5625      .5083      .5117      .7617   -78.9062  -999.2500  -999.2500  -999.2500
 8529.5000  -999.2500    81.8750  -999.2500    64.5000      .5078      .5156      .9365   -80.2813  -999.2500  -999.2500  -999.2500
 8530.0000  -999.2500    72.5000  -999.2500    54.8437      .5137      .5234     1.1426   -83.1875  -999.2500  -999.2500  -999.2500
 8530.5000  -999.2500    70.7500  -999.2500    47.7812      .5205      .5322     1.8203   -85.6250  -999.2500  -999.2500  -999.2500
 8531.0000  -999.2500    79.6250  -999.2500    45.4375      .5308      .5386     2.4512   -85.5938  -999.2500  -999.2500  -999.2500
 8531.5000  -999.2500    87.5000  -999.2500    44.4375      .5493      .5430     2.3535   -83.4063  -999.2500  -999.2500  -999.2500
 8532.0000  -999.2500    97.7500  -999.2500    51.0625      .5806      .5488     1.4375   -79.5938  -999.2500  -999.2500  -999.2500
 8532.5000  -999.2500    99.3750  -999.2500    58.4688      .6152      .5635      .8940   -73.9375  -999.2500  -999.2500  -999.2500
 8533.0000  -999.2500    95.2500  -999.2500    66.5000      .6465      .5923      .8018   -67.5625  -999.2500  -999.2500  -999.2500
 8533.5000  -999.2500    94.7500  -999.2500    69.8125      .6826      .6372      .8901   -60.9843  -999.2500  -999.2500  -999.2500
 8534.0000  -999.2500    94.8750  -999.2500    73.0000      .7339      .6958      .9941   -57.3437  -999.2500  -999.2500  -999.2500
 8534.5000  -999.2500    94.5000  -999.2500    73.8125      .7944      .7603     1.0332   -55.1094  -999.2500  -999.2500  -999.2500
 8535.0000  -999.2500    94.3750  -999.2500    69.0000      .8447      .8218     1.0166   -52.5625  -999.2500  -999.2500  -999.2500
 8535.5000  -999.2500    96.7500  -999.2500    69.4375      .8887      .8716     1.0684   -50.5469  -999.2500  -999.2500  -999.2500
 8536.0000  -999.2500    98.1250  -999.2500    65.8750      .9253      .9028     1.1914   -48.0547  -999.2500  -999.2500  -999.2500
 8536.5000  -999.2500   102.0000  -999.2500    74.3125      .9551      .9136     1.1680   -47.2617  -999.2500  -999.2500  -999.2500
 8537.0000  -999.2500   104.0000  -999.2500    81.8750      .9814      .9082     1.0576   -46.0781  -999.2500  -999.2500  -999.2500
 8537.5000  -999.2500   101.2500  -999.2500    88.1875     1.0020      .8970      .9429   -45.5273  -999.2500  -999.2500  -999.2500
 8538.0000  -999.2500   100.2500  -999.2500    80.7500     1.0156      .8916      .9404   -44.8008  -999.2500  -999.2500  -999.2500
 8538.5000  -999.2500    98.3750  -999.2500    77.6250     1.0205      .8975      .9927   -44.1523  -999.2500  -999.2500  -999.2500
 8539.0000  -999.2500   100.1250  -999.2500    72.2500     1.0215      .9116     1.0752   -43.6855  -999.2500  -999.2500  -999.2500
 8539.5000  -999.2500   101.1250  -999.2500    74.0625     1.0244      .9268     1.1416   -43.7187  -999.2500  -999.2500  -999.2500
 8540.0000  -999.2500   100.3750  -999.2500    69.0000     1.0313      .9360     1.1133   -43.9883  -999.2500  -999.2500  -999.2500
 8540.5000  -999.2500   103.6250  -999.2500    69.0000     1.0459      .9390     1.0410   -43.9824  -999.2500  -999.2500  -999.2500
 8541.0000  -999.2500   103.3750  -999.2500    71.0000     1.0625      .9414      .9795   -44.1328  -999.2500  -999.2500  -999.2500
 8541.5000  -999.2500   100.3750  -999.2500    73.0000     1.0801      .9507      .9746   -44.3516  -999.2500  -999.2500  -999.2500
 8542.0000  -999.2500    97.1250  -999.2500    74.8125     1.0986      .9731     1.0078   -44.5664  -999.2500  -999.2500  -999.2500
 8542.5000  -999.2500    93.3750  -999.2500    74.8125     1.1230     1.0098     1.0664   -44.9961  -999.2500  -999.2500  -999.2500
 8543.0000  -999.2500    92.0000  -999.2500    69.6875     1.1484     1.0566     1.2139   -45.5664  -999.2500  -999.2500  -999.2500
 8543.5000  -999.2500    87.0000  -999.2500    66.2500     1.1689     1.1074     1.3574   -46.5469  -999.2500  -999.2500  -999.2500
 8544.0000  -999.2500    87.7500  -999.2500    62.2813     1.1846     1.1494     1.4648   -47.4297  -999.2500  -999.2500  -999.2500
 8544.5000  -999.2500    85.7500  -999.2500    61.6563     1.1934     1.1709     1.5557   -48.6250  -999.2500  -999.2500  -999.2500
 8545.0000  -999.2500    90.3750  -999.2500    58.7500     1.1904     1.1660     1.6855   -49.9297  -999.2500  -999.2500  -999.2500
 8545.5000  -999.2500    92.7500  -999.2500    57.1875     1.1729     1.1318     1.7461   -51.0313  -999.2500  -999.2500  -999.2500
 8546.0000  -999.2500    97.8750  -999.2500    60.1875     1.1475     1.0752     1.5430   -52.0234  -999.2500  -999.2500  -999.2500
 8546.5000  -999.2500    99.1250  -999.2500    67.6250     1.1104     1.0098     1.2979   -51.4844  -999.2500  -999.2500  -999.2500
 8547.0000  -999.2500    99.8750  -999.2500    77.6250     1.0664      .9487     1.1357   -50.0859  -999.2500  -999.2500  -999.2500
 8547.5000  -999.2500   106.1250  -999.2500    82.1875     1.0254      .8984     1.0225   -48.0078  -999.2500  -999.2500  -999.2500
 8548.0000  -999.2500   109.1250  -999.2500    83.8125      .9878      .8618      .9194   -46.3828  -999.2500  -999.2500  -999.2500
