~VERSION INFORMATION
VERS.                             2.0:   CWLS Log ASCII Standard-VERSION 2.0
WRAP.                              NO:   One line per depth step
~Well Information Block
STRT.F                      3150.0000:   Top Depth
STOP.F                     11219.0000:   Bottom Depth
STEP.F                         .50000:   Depth Increment
NULL.                        -999.250:   Null Value
FLD .                      GA BLK 300:   Field Name
WELL.       OCSG11310   002 ST00 BP00:   NAME
API .                  42706403320000:   WELL API
EDF .F                        97.5000:   ELEV DRILL FLOOR
COMP.       SEAGULL ENERGY E AND P IN:   OPERATOR
BN  .                             300:   BLOCK
CTRY.                             USA:   COUNTRY NAME
CNTY.                              GA:   COUNTY
CNTY.                        GLVSTN L:   COUNTY NAME
EGL .F                       -56.0000:   ELEV GROUND LEVEL
EKB .F                        98.5000:   ELEV KELLY BUSHING
TDD .F                      11225.000:   FINAL TD DRILLER
STAT.                           TEXAS:   STATE NAME
UWI .                  42706403320000:   WELL API
DICO.               IHS : Digitizing Company
~PARAMETER INFORMATION (zones)
#MNEM.UNIT                       Value     Description
#=========                       =====     ===========
#ZONATION                          CNL:   ZONATION NAME
#ZONE                            RUN_2:   ZONE NAME
TOP .                       9384.0000:   TOP DEPTH
BOT .                      11168.5000:   BOTTOM DEPTH
RUN .                               2:   RUN NUMBER
LCCD.                             440:   LOGGING CONTRACTOR
SRVC.                    Schlumberger:   LOGGING CONT NAME
DICO.          QC Data Collectors Ltd:   DIG COMPANY NAME
LDAT.                      04/26/1993:   DATE LOGGED
ELD .F                        98.5000:   LOG DATUM ELEVATION
TDD .F                     11217.0000:   TOTAL DEPTH DRILLER
TDL .F                     11225.0000:   TOTAL DEPTH LOGGER
BOTL.F                     11219.0000:   BOTTOM DEPTH LOGGED
TOPL.F                      9802.0000:   TOP DEPTH LOGGED
CS1 .IN                        7.6250:   CASING SIZE 1
BS1 .IN                        6.5000:   BIT SIZE 1
DDB1.F                     11217.0000:   DEPTH DRILLED BIT 1
BHF .                              99:   FLUID CODE
DPT .                   Miscellaneous:   DRILLING FLUID TYPE
MUDD.                         13.9000:   FLUID DENSITY
MUDV.                         41.0000:   FLUID VISCOSITY
DFPH.                         10.0000:   FLUID PH
FL  .                          3.2000:   FLUID LOSS
RM  .OHMM                       .9550:   RM
RMT .DEGF                     77.0000:   RM TEMP
RMF .OHMM                       .5740:   RMF
RMFT.DEGF                     76.0000:   RMF TEMP
FSC .                               M:   RMF CODE
RMC .OHMM                      1.6900:   RMC
RMCT.DEGF                     76.0000:   RMC TEMP
CMC .                               M:   RMC CODE
TMAX.DEGF                    207.0000:   MAX REC TEMP
TIMC.                         17.0000:   TIME SINCE CIRCLN
~PARAMETER INFORMATION (zones)
#MNEM.UNIT                       Value     Description
#=========                       =====     ===========
#ZONATION                          DIL:   ZONATION NAME
#ZONE                            RUN_1:   ZONE NAME
TOP .                       3150.0000:   TOP DEPTH
BOT .                       9865.5000:   BOTTOM DEPTH
RUN .                               1:   RUN NUMBER
LCCD.                             440:   LOGGING CONTRACTOR
SRVC.                    Schlumberger:   LOGGING CONT NAME
DICO.          QC Data Collectors Ltd:   DIG COMPANY NAME
LDAT.                      04/10/1993:   DATE LOGGED
ELD .F                        98.5000:   LOG DATUM ELEVATION
TDD .F                      9878.0000:   TOTAL DEPTH DRILLER
TDL .F                      9871.0000:   TOTAL DEPTH LOGGER
BOTL.F                      9865.0000:   BOTTOM DEPTH LOGGED
TOPL.F                      3298.0000:   TOP DEPTH LOGGED
CS1 .IN                       10.7500:   CASING SIZE 1
BS1 .IN                        9.8750:   BIT SIZE 1
DDB1.F                      9878.0000:   DEPTH DRILLED BIT 1
BHF .                              99:   FLUID CODE
DPT .                   Miscellaneous:   DRILLING FLUID TYPE
MUDD.                         11.8000:   FLUID DENSITY
MUDV.                         44.0000:   FLUID VISCOSITY
DFPH.                          9.5000:   FLUID PH
FL  .                          4.6000:   FLUID LOSS
RM  .OHMM                       .8730:   RM
RMT .DEGF                     82.0000:   RM TEMP
RMF .OHMM                       .4990:   RMF
RMFT.DEGF                     82.0000:   RMF TEMP
FSC .                               M:   RMF CODE
RMC .OHMM                      1.4400:   RMC
RMCT.DEGF                     82.0000:   RMC TEMP
CMC .                               M:   RMC CODE
TMAX.DEGF                    177.0000:   MAX REC TEMP
TIMC.                         15.0000:   TIME SINCE CIRCLN
~PARAMETER INFORMATION (zones)
#MNEM.UNIT                       Value     Description
#=========                       =====     ===========
#ZONATION                          DIL:   ZONATION NAME
#ZONE                            RUN_2:   ZONE NAME
TOP .                       9802.0000:   TOP DEPTH
BOT .                      11219.5000:   BOTTOM DEPTH
RUN .                               2:   RUN NUMBER
LCCD.                             440:   LOGGING CONTRACTOR
SRVC.                    Schlumberger:   LOGGING CONT NAME
DICO.          QC Data Collectors Ltd:   DIG COMPANY NAME
LDAT.                      04/26/1993:   DATE LOGGED
ELD .F                        98.5000:   LOG DATUM ELEVATION
TDD .F                     11217.0000:   TOTAL DEPTH DRILLER
TDL .F                     11225.0000:   TOTAL DEPTH LOGGER
BOTL.F                     11219.0000:   BOTTOM DEPTH LOGGED
TOPL.F                      9802.0000:   TOP DEPTH LOGGED
CS1 .IN                        7.6250:   CASING SIZE 1
BS1 .IN                        6.5000:   BIT SIZE 1
DDB1.F                     11217.0000:   DEPTH DRILLED BIT 1
BHF .                              99:   FLUID CODE
DPT .                   Miscellaneous:   DRILLING FLUID TYPE
MUDD.                         13.9000:   FLUID DENSITY
MUDV.                         41.0000:   FLUID VISCOSITY
DFPH.                         10.0000:   FLUID PH
FL  .                          3.2000:   FLUID LOSS
RM  .OHMM                       .9550:   RM
RMT .DEGF                     77.0000:   RM TEMP
RMF .OHMM                       .5740:   RMF
RMFT.DEGF                     76.0000:   RMF TEMP
FSC .                               M:   RMF CODE
RMC .OHMM                      1.6900:   RMC
RMCT.DEGF                     76.0000:   RMC TEMP
CMC .                               M:   RMC CODE
TMAX.DEGF                    207.0000:   MAX REC TEMP
TIMC.                         17.0000:   TIME SINCE CIRCLN
~PARAMETER INFORMATION (zones)
#MNEM.UNIT                       Value     Description
#=========                       =====     ===========
#ZONATION                          LDT:   ZONATION NAME
#ZONE                            RUN_2:   ZONE NAME
TOP .                       9372.0000:   TOP DEPTH
BOT .                      11188.5000:   BOTTOM DEPTH
RUN .                               2:   RUN NUMBER
LCCD.                             440:   LOGGING CONTRACTOR
SRVC.                    Schlumberger:   LOGGING CONT NAME
DICO.          QC Data Collectors Ltd:   DIG COMPANY NAME
LDAT.                      04/26/1993:   DATE LOGGED
ELD .F                        98.5000:   LOG DATUM ELEVATION
TDD .F                     11217.0000:   TOTAL DEPTH DRILLER
TDL .F                     11225.0000:   TOTAL DEPTH LOGGER
BOTL.F                     11219.0000:   BOTTOM DEPTH LOGGED
TOPL.F                      9802.0000:   TOP DEPTH LOGGED
CS1 .IN                        7.6250:   CASING SIZE 1
BS1 .IN                        6.5000:   BIT SIZE 1
DDB1.F                     11217.0000:   DEPTH DRILLED BIT 1
BHF .                              99:   FLUID CODE
DPT .                   Miscellaneous:   DRILLING FLUID TYPE
MUDD.                         13.9000:   FLUID DENSITY
MUDV.                         41.0000:   FLUID VISCOSITY
DFPH.                         10.0000:   FLUID PH
FL  .                          3.2000:   FLUID LOSS
RM  .OHMM                       .9550:   RM
RMT .DEGF                     77.0000:   RM TEMP
RMF .OHMM                       .5740:   RMF
RMFT.DEGF                     76.0000:   RMF TEMP
FSC .                               M:   RMF CODE
RMC .OHMM                      1.6900:   RMC
RMCT.DEGF                     76.0000:   RMC TEMP
CMC .                               M:   RMC CODE
TMAX.DEGF                    207.0000:   MAX REC TEMP
TIMC.                         17.0000:   TIME SINCE CIRCLN
~Curve Information Block
#MNEM.UNIT                    API CODE    No Description
#=========                    ========    == ===========
DEPT.F                   00 001 00 00:     1  DEPTH
NPHI.%                               :     2  Neutron Porosity
DT.US/F                              :     3  Sonic Transit Time
DTL.US/F                             :     4  Sonic Transit Time (Slowness)
GR.GAPI                              :     5  Gamma Ray
ILD.OHMM                             :     6  Deep Induction Resistivity
ILM.OHMM                             :     7  Medium Induction Resistivity
SFL.OHMM                             :     8  Medium Resistivity
SP.MV                                :     9  Spontaneous Potential
DCAL.IN                              :    10  Differential Caliper
DPHI.%                               :    11  Porosity
GR.GAPI                              :    12  Gamma Ray
~ASCII
# ...
10104.0000    32.6921  -999.2500    99.6305  -999.2500      .9859     1.0199     1.1520   -37.4679     2.2369    14.1043    73.9429
10104.5000    32.2249  -999.2500    99.0458  -999.2500      .9919     1.0345     1.1489   -37.2370     2.2303    14.2530    72.7601
10105.0000    32.0884  -999.2500    98.2339  -999.2500     1.0011     1.0460     1.1534   -36.9092     2.2125    14.3500    72.0195
10105.5000    32.0212  -999.2500    97.8512  -999.2500     1.0110     1.0536     1.1849   -36.4000     2.1884    14.4242    72.0039
10106.0000    31.8923  -999.2500    97.6626  -999.2500     1.0218     1.0630     1.2087   -35.9437     2.1595    14.4111    74.3905
10106.5000    31.6444  -999.2500    97.2780  -999.2500     1.0330     1.0732     1.2087   -35.6937     2.0987    14.2987    77.7251
10107.0000    31.5500  -999.2500    97.1395  -999.2500     1.0424     1.0845     1.2062   -35.9930     2.0068    14.1337    79.4983
10107.5000    31.2946  -999.2500    97.5834  -999.2500     1.0471     1.0970     1.2092   -36.8500     1.8716    13.9246    79.1583
10108.0000    29.1881  -999.2500    98.5021  -999.2500     1.0502     1.1095     1.2432   -37.1608     1.6968    13.7106    78.8744
10108.5000    27.7593  -999.2500    98.8770  -999.2500     1.0510     1.1182     1.3106   -37.3245     1.5781    13.6614    78.8453
10109.0000    31.0672  -999.2500    98.2910  -999.2500     1.0501     1.1217     1.3789   -37.2797     1.5533    13.7452    78.7445
10109.5000    33.5250  -999.2500    97.2892  -999.2500     1.0493     1.1208     1.3938   -37.1454     1.5387    13.8640    78.6224
10110.0000    34.2349  -999.2500    96.3047  -999.2500     1.0436     1.1147     1.3122   -36.9312     1.4974    13.8334    78.4338
10110.5000    31.1865  -999.2500    95.6182  -999.2500     1.0337     1.1077     1.3167   -37.2064     1.4536    13.2646    77.7343
10111.0000    26.8078  -999.2500    95.8807  -999.2500     1.0253     1.1027     1.3249   -38.5161     1.4036    12.6673    75.8792
10111.5000    24.9992  -999.2500    95.5654  -999.2500     1.0214     1.1072     1.2557   -39.2572     1.3262    12.7382    72.1577
10112.0000    26.7959  -999.2500    95.1483  -999.2500     1.0253     1.1180     1.1819   -40.4657     1.2089    13.8567    70.1893
10112.5000    29.5341  -999.2500    94.6598  -999.2500     1.0346     1.1355     1.2482   -43.6226     1.1264    14.6964    69.8823
10113.0000    30.6862  -999.2500    94.1763  -999.2500     1.0464     1.1517     1.3825   -48.4418     1.0465    14.7700    69.8014
10113.5000    29.1553  -999.2500    94.0087  -999.2500     1.0581     1.1581     1.4917   -50.2176      .9361    14.9611    69.8195
10114.0000    27.4790  -999.2500    94.0713  -999.2500     1.0694     1.1564     1.5734   -50.9014      .8081    15.3697    69.9452
10114.5000    31.0195  -999.2500    94.5369  -999.2500     1.0782     1.1492     1.5115   -51.0356      .7067    15.5256    70.4868
10115.0000    33.5876  -999.2500    95.2035  -999.2500     1.0822     1.1483     1.4568   -50.9409      .6308    15.4033    72.4673
10115.5000    35.0850  -999.2500    95.7733  -999.2500     1.0843     1.1588     1.4397   -49.8920      .5309    15.1788    75.2711
10116.0000    34.7986  -999.2500    94.1793  -999.2500     1.0844     1.1742     1.4743   -48.0670      .5186    14.6755    77.3197
10116.5000    34.9530  -999.2500    91.5052  -999.2500     1.0807     1.1876     1.5260   -45.1714      .5640    13.9298    75.4296
10117.0000    35.2067  -999.2500    90.4215  -999.2500     1.0748     1.1978     1.5846   -43.7265      .5947    13.3049    70.2271
10117.5000    34.6047  -999.2500    90.9193  -999.2500     1.0667     1.1826     1.6973   -43.6038      .5738    13.0806    69.1294
10118.0000    33.1790  -999.2500    91.7288  -999.2500     1.0587     1.1575     1.7473   -43.4724      .5219    13.5942    69.3901
10118.5000    32.7564  -999.2500    91.6021  -999.2500     1.0488     1.1229     1.7671   -43.5221      .4230    14.6098    69.7181
10119.0000    32.9131  -999.2500    86.9442  -999.2500     1.0383     1.0955     1.7722   -44.0074      .3388    15.7478    69.9554
10119.5000    32.1470  -999.2500    83.4283  -999.2500     1.0233     1.0898     1.6085   -45.8867      .2839    16.8424    69.9718
10120.0000    30.8734  -999.2500    79.7885  -999.2500     1.0055     1.1031     1.3573   -49.1423      .2586    17.7186    69.8466
10120.5000    32.6779  -999.2500    77.2659  -999.2500      .9861     1.1364     1.2686   -50.7626      .2825    17.2869    69.2524
10121.0000    33.0776  -999.2500    77.4545  -999.2500      .9497     1.1561     1.2858   -52.1586      .2824    14.2087    66.7267
10121.5000    27.5714  -999.2500    80.1857  -999.2500      .8936     1.1671     1.7787   -53.8776      .2657    13.2937    60.0135
10122.0000    22.6946  -999.2500    84.0640  -999.2500      .8592     1.1442     2.3452   -57.5228      .1595    14.1848    56.4506
10122.5000    27.1180  -999.2500    89.0199  -999.2500      .8359     1.0817     2.4257   -62.1595      .0113    18.9393    54.4481
10123.0000    32.9046  -999.2500    94.7157  -999.2500      .8138      .9889     1.9856   -67.0873     -.0463    21.2420    60.0872
10123.5000    38.3571  -999.2500    97.4469  -999.2500      .7970      .8943     1.3105   -68.6953      .0144    21.4657    70.4775
10124.0000    41.0341  -999.2500    99.3947  -999.2500      .7850      .8192      .8440   -66.2733      .1677    19.3957    76.4318
10124.5000    39.5919  -999.2500    99.4357  -999.2500      .7811      .7720      .7499   -57.2762      .3257    18.1485    78.8470
10125.0000    38.0290  -999.2500    97.6703  -999.2500      .7888      .7935      .8547   -48.2593      .4218    17.9861    76.7560
10125.5000    36.7151  -999.2500    95.2222  -999.2500      .8075      .8497     1.0601   -43.8248      .4061    18.0877    68.6206
10126.0000    35.5324  -999.2500    92.9254  -999.2500      .8326      .9155     1.2108   -44.2047      .2920    18.5143    67.0823
10126.5000    35.2430  -999.2500    92.7368  -999.2500      .8629      .9831     1.2457   -46.1185      .1680    19.1123    66.2256
10127.0000    36.9880  -999.2500    94.2321  -999.2500      .8896     1.0417     1.1957   -48.3037      .0783    19.4169    63.4586
10127.5000    37.5040  -999.2500    94.4163  -999.2500      .9048     1.0867     1.2896   -50.4938      .0599    19.3906    61.0784
10128.0000    32.7137  -999.2500    94.7131  -999.2500      .9025     1.0901     1.8257   -52.7826      .0531    19.5926    59.9694
10128.5000    27.5058  -999.2500    97.3823  -999.2500      .8910     1.0682     2.3924   -54.5781      .1176    20.3815    63.2264
10129.0000    26.4767  -999.2500    99.3612  -999.2500      .8782     1.0288     2.0375   -55.0553      .2319    21.0175    71.8041
10129.5000    31.4729  -999.2500   100.9751  -999.2500      .8631      .9692     1.2331   -52.0920      .4046    21.0302    78.4214
10130.0000    40.2780  -999.2500   102.5417  -999.2500      .8458      .8867      .8859   -46.6907      .5836    20.5803    82.7175
10130.5000    42.8610  -999.2500   104.1458  -999.2500      .8302      .8295      .7414   -43.5831      .7225    20.6331    84.3719
10131.0000    43.1743  -999.2500   105.5784  -999.2500      .8194      .7985      .7305   -42.2230      .8288    20.8229    84.9684
10131.5000    42.1086  -999.2500   105.6355  -999.2500      .8153      .7869      .7370   -41.4941      .9143    20.9409    83.7493
10132.0000    42.2037  -999.2500   102.7454  -999.2500      .8146      .7967      .7424   -41.0546      .9773    20.8371    78.5541
10132.5000    42.1974  -999.2500   100.2823  -999.2500      .8152      .8875      .9951   -40.9614      .9428    20.6194    72.0914
10133.0000    35.3266  -999.2500    98.5592  -999.2500      .8253      .9488     1.3201   -42.1428      .7664    20.3375    69.1622
10133.5000    27.1002  -999.2500    97.1489  -999.2500      .8423      .9883     1.5964   -43.7928      .5854    20.1503    67.3015
10134.0000    27.2851  -999.2500    97.4369  -999.2500      .8667     1.0140     1.3920   -44.9520      .5431    20.3248    68.6796
