~VERSION INFORMATION
VERS.                             2.0:   CWLS Log ASCII Standard-VERSION 2.0
WRAP.                              NO:   One line per depth step
~Well Information Block
STRT.F                      3150.0000:   Top Depth
STOP.F                     11219.0000:   Bottom Depth
STEP.F                         .50000:   Depth Increment
NULL.                        -999.250:   Null Value
FLD .                      GA BLK 300:   Field Name
WELL.       OCSG11310   002 ST00 BP00:   NAME
API .                  42706403320000:   WELL API
EDF .F                        97.5000:   ELEV DRILL FLOOR
COMP.       SEAGULL ENERGY E AND P IN:   OPERATOR
BN  .                             300:   BLOCK
CTRY.                             USA:   COUNTRY NAME
CNTY.                              GA:   COUNTY
CNTY.                        GLVSTN L:   COUNTY NAME
EGL .F                       -56.0000:   ELEV GROUND LEVEL
EKB .F                        98.5000:   ELEV KELLY BUSHING
TDD .F                      11225.000:   FINAL TD DRILLER
STAT.                           TEXAS:   STATE NAME
UWI .                  42706403320000:   WELL API
DICO.               IHS : Digitizing Company
~PARAMETER INFORMATION (zones)
#MNEM.UNIT                       Value     Description
#=========                       =====     ===========
#ZONATION                          CNL:   ZONATION NAME
#ZONE                            RUN_2:   ZONE NAME
TOP .                       9384.0000:   TOP DEPTH
BOT .                      11168.5000:   BOTTOM DEPTH
RUN .                               2:   RUN NUMBER
LCCD.                             440:   LOGGING CONTRACTOR
SRVC.                    Schlumberger:   LOGGING CONT NAME
DICO.          QC Data Collectors Ltd:   DIG COMPANY NAME
LDAT.                      04/26/1993:   DATE LOGGED
ELD .F                        98.5000:   LOG DATUM ELEVATION
TDD .F                     11217.0000:   TOTAL DEPTH DRILLER
TDL .F                     11225.0000:   TOTAL DEPTH LOGGER
BOTL.F                     11219.0000:   BOTTOM DEPTH LOGGED
TOPL.F                      9802.0000:   TOP DEPTH LOGGED
CS1 .IN                        7.6250:   CASING SIZE 1
BS1 .IN                        6.5000:   BIT SIZE 1
DDB1.F                     11217.0000:   DEPTH DRILLED BIT 1
BHF .                              99:   FLUID CODE
DPT .                   Miscellaneous:   DRILLING FLUID TYPE
MUDD.                         13.9000:   FLUID DENSITY
MUDV.                         41.0000:   FLUID VISCOSITY
DFPH.                         10.0000:   FLUID PH
FL  .                          3.2000:   FLUID LOSS
RM  .OHMM                       .9550:   RM
RMT .DEGF                     77.0000:   RM TEMP
RMF .OHMM                       .5740:   RMF
RMFT.DEGF                     76.0000:   RMF TEMP
FSC .                               M:   RMF CODE
RMC .OHMM                      1.6900:   RMC
RMCT.DEGF                     76.0000:   RMC TEMP
CMC .                               M:   RMC CODE
TMAX.DEGF                    207.0000:   MAX REC TEMP
TIMC.                         17.0000:   TIME SINCE CIRCLN
~PARAMETER INFORMATION (zones)
#MNEM.UNIT                       Value     Description
#=========                       =====     ===========
#ZONATION                          DIL:   ZONATION NAME
#ZONE                            RUN_1:   ZONE NAME
TOP .                       3150.0000:   TOP DEPTH
BOT .                       9865.5000:   BOTTOM DEPTH
RUN .                               1:   RUN NUMBER
LCCD.                             440:   LOGGING CONTRACTOR
SRVC.                    Schlumberger:   LOGGING CONT NAME
DICO.          QC Data Collectors Ltd:   DIG COMPANY NAME
LDAT.                      04/10/1993:   DATE LOGGED
ELD .F                        98.5000:   LOG DATUM ELEVATION
TDD .F                      9878.0000:   TOTAL DEPTH DRILLER
TDL .F                      9871.0000:   TOTAL DEPTH LOGGER
BOTL.F                      9865.0000:   BOTTOM DEPTH LOGGED
TOPL.F                      3298.0000:   TOP DEPTH LOGGED
CS1 .IN                       10.7500:   CASING SIZE 1
BS1 .IN                        9.8750:   BIT SIZE 1
DDB1.F                      9878.0000:   DEPTH DRILLED BIT 1
BHF .                              99:   FLUID CODE
DPT .                   Miscellaneous:   DRILLING FLUID TYPE
MUDD.                         11.8000:   FLUID DENSITY
MUDV.                         44.0000:   FLUID VISCOSITY
DFPH.                          9.5000:   FLUID PH
FL  .                          4.6000:   FLUID LOSS
RM  .OHMM                       .8730:   RM
RMT .DEGF                     82.0000:   RM TEMP
RMF .OHMM                       .4990:   RMF
RMFT.DEGF                     82.0000:   RMF TEMP
FSC .                               M:   RMF CODE
RMC .OHMM                      1.4400:   RMC
RMCT.DEGF                     82.0000:   RMC TEMP
CMC .                               M:   RMC CODE
TMAX.DEGF                    177.0000:   MAX REC TEMP
TIMC.                         15.0000:   TIME SINCE CIRCLN
~PARAMETER INFORMATION (zones)
#MNEM.UNIT                       Value     Description
#=========                       =====     ===========
#ZONATION                          DIL:   ZONATION NAME
#ZONE                            RUN_2:   ZONE NAME
TOP .                       9802.0000:   TOP DEPTH
BOT .                      11219.5000:   BOTTOM DEPTH
RUN .                               2:   RUN NUMBER
LCCD.                             440:   LOGGING CONTRACTOR
SRVC.                    Schlumberger:   LOGGING CONT NAME
DICO.          QC Data Collectors Ltd:   DIG COMPANY NAME
LDAT.                      04/26/1993:   DATE LOGGED
ELD .F                        98.5000:   LOG DATUM ELEVATION
TDD .F                     11217.0000:   TOTAL DEPTH DRILLER
TDL .F                     11225.0000:   TOTAL DEPTH LOGGER
BOTL.F                     11219.0000:   BOTTOM DEPTH LOGGED
TOPL.F                      9802.0000:   TOP DEPTH LOGGED
CS1 .IN                        7.6250:   CASING SIZE 1
BS1 .IN                        6.5000:   BIT SIZE 1
DDB1.F                     11217.0000:   DEPTH DRILLED BIT 1
BHF .                              99:   FLUID CODE
DPT .                   Miscellaneous:   DRILLING FLUID TYPE
MUDD.                         13.9000:   FLUID DENSITY
MUDV.                         41.0000:   FLUID VISCOSITY
DFPH.                         10.0000:   FLUID PH
FL  .                          3.2000:   FLUID LOSS
RM  .OHMM                       .9550:   RM
RMT .DEGF                     77.0000:   RM TEMP
RMF .OHMM                       .5740:   RMF
RMFT.DEGF                     76.0000:   RMF TEMP
FSC .                               M:   RMF CODE
RMC .OHMM                      1.6900:   RMC
RMCT.DEGF                     76.0000:   RMC TEMP
CMC .                               M:   RMC CODE
TMAX.DEGF                    207.0000:   MAX REC TEMP
TIMC.                         17.0000:   TIME SINCE CIRCLN
~PARAMETER INFORMATION (zones)
#MNEM.UNIT                       Value     Description
#=========                       =====     ===========
#ZONATION                          LDT:   ZONATION NAME
#ZONE                            RUN_2:   ZONE NAME
TOP .                       9372.0000:   TOP DEPTH
BOT .                      11188.5000:   BOTTOM DEPTH
RUN .                               2:   RUN NUMBER
LCCD.                             440:   LOGGING CONTRACTOR
SRVC.                    Schlumberger:   LOGGING CONT NAME
DICO.          QC Data Collectors Ltd:   DIG COMPANY NAME
LDAT.                      04/26/1993:   DATE LOGGED
ELD .F                        98.5000:   LOG DATUM ELEVATION
TDD .F                     11217.0000:   TOTAL DEPTH DRILLER
TDL .F                     11225.0000:   TOTAL DEPTH LOGGER
BOTL.F                     11219.0000:   BOTTOM DEPTH LOGGED
TOPL.F                      9802.0000:   TOP DEPTH LOGGED
CS1 .IN                        7.6250:   CASING SIZE 1
BS1 .IN                        6.5000:   BIT SIZE 1
DDB1.F                     11217.0000:   DEPTH DRILLED BIT 1
BHF .                              99:   FLUID CODE
DPT .                   Miscellaneous:   DRILLING FLUID TYPE
MUDD.                         13.9000:   FLUID DENSITY
MUDV.                         41.0000:   FLUID VISCOSITY
DFPH.                         10.0000:   FLUID PH
FL  .                          3.2000:   FLUID LOSS
RM  .OHMM                       .9550:   RM
RMT .DEGF                     77.0000:   RM TEMP
RMF .OHMM                       .5740:   RMF
RMFT.DEGF                     76.0000:   RMF TEMP
FSC .                               M:   RMF CODE
RMC .OHMM                      1.6900:   RMC
RMCT.DEGF                     76.0000:   RMC TEMP
CMC .                               M:   RMC CODE
TMAX.DEGF                    207.0000:   MAX REC TEMP
TIMC.                         17.0000:   TIME SINCE CIRCLN
~Curve Information Block
#MNEM.UNIT                    API CODE    No Description
#=========                    ========    == ===========
DEPT.F                   00 001 00 00:     1  DEPTH
NPHI.%                               :     2  Neutron Porosity
DT.US/F                              :     3  Sonic Transit Time
DTL.US/F                             :     4  Sonic Transit Time (Slowness)
GR.GAPI                              :     5  Gamma Ray
ILD.OHMM                             :     6  Deep Induction Resistivity
ILM.OHMM                             :     7  Medium Induction Resistivity
SFL.OHMM                             :     8  Medium Resistivity
SP.MV                                :     9  Spontaneous Potential
DCAL.IN                              :    10  Differential Caliper
DPHI.%                               :    11  Porosity
GR.GAPI                              :    12  Gamma Ray
~ASCII
# ...
 5925.5000  -999.2500   112.0000  -999.2500    71.8750      .8369      .7456      .8823   -43.4824  -999.2500  -999.2500  -999.2500
 5926.0000  -999.2500   114.6250  -999.2500    71.6875      .8364      .7432      .8613   -42.7109  -999.2500  -999.2500  -999.2500
 5926.5000  -999.2500   112.7500  -999.2500    76.1250      .8384      .7402      .8042   -42.2422  -999.2500  -999.2500  -999.2500
 5927.0000  -999.2500   114.5000  -999.2500    74.6250      .8418      .7402      .7690   -41.2500  -999.2500  -999.2500  -999.2500
 5927.5000  -999.2500   112.7500  -999.2500    74.5625      .8442      .7432      .8018   -41.4170  -999.2500  -999.2500  -999.2500
 5928.0000  -999.2500   109.7500  -999.2500    76.0000      .8442      .7505      .8408   -40.8018  -999.2500  -999.2500  -999.2500
 5928.5000  -999.2500   101.7500  -999.2500    73.6875      .8462      .7588      .8599   -40.6636  -999.2500  -999.2500  -999.2500
 5929.0000  -999.2500   106.2500  -999.2500    71.7500      .8477      .7656      .9141   -40.7104  -999.2500  -999.2500  -999.2500
 5929.5000  -999.2500   105.2500  -999.2500    64.1875      .8477      .7676      .9453   -40.7910  -999.2500  -999.2500  -999.2500
 5930.0000  -999.2500   113.7500  -999.2500    65.7500      .8447      .7642      .9702   -40.6719  -999.2500  -999.2500  -999.2500
 5930.5000  -999.2500   115.5000  -999.2500    61.4375      .8403      .7559      .8784   -40.5449  -999.2500  -999.2500  -999.2500
 5931.0000  -999.2500   114.0000  -999.2500    63.3125      .8359      .7456      .8179   -40.7534  -999.2500  -999.2500  -999.2500
 5931.5000  -999.2500   113.7500  -999.2500    63.0625      .8281      .7358      .8164   -40.9297  -999.2500  -999.2500  -999.2500
 5932.0000  -999.2500   115.5000  -999.2500    70.6875      .8164      .7280      .8306   -41.1445  -999.2500  -999.2500  -999.2500
 5932.5000  -999.2500   113.5000  -999.2500    72.1875      .8057      .7227      .8320   -41.8379  -999.2500  -999.2500  -999.2500
 5933.0000  -999.2500   107.2500  -999.2500    77.6875      .7983      .7197      .8071   -41.9883  -999.2500  -999.2500  -999.2500
 5933.5000  -999.2500   111.0000  -999.2500    77.3125      .7915      .7192      .8135   -42.2539  -999.2500  -999.2500  -999.2500
 5934.0000  -999.2500   110.5000  -999.2500    77.6250      .7832      .7197      .8311   -41.8623  -999.2500  -999.2500  -999.2500
 5934.5000  -999.2500   109.0000  -999.2500    78.2500      .7754      .7202      .8457   -41.4404  -999.2500  -999.2500  -999.2500
 5935.0000  -999.2500   113.2500  -999.2500    77.3125      .7666      .7197      .8232   -41.8760  -999.2500  -999.2500  -999.2500
 5935.5000  -999.2500   112.5000  -999.2500    76.8125      .7568      .7168      .8296   -42.1875  -999.2500  -999.2500  -999.2500
 5936.0000  -999.2500   112.0000  -999.2500    72.3750      .7451      .7109      .8726   -43.3008  -999.2500  -999.2500  -999.2500
 5936.5000  -999.2500   114.5000  -999.2500    74.7500      .7271      .7012      .8896   -44.5938  -999.2500  -999.2500  -999.2500
 5937.0000  -999.2500   116.2500  -999.2500    75.1250      .7104      .6875      .8687   -45.1250  -999.2500  -999.2500  -999.2500
 5937.5000  -999.2500   117.2500  -999.2500    78.8750      .6953      .6714      .7910   -45.9688  -999.2500  -999.2500  -999.2500
 5938.0000  -999.2500   117.0000  -999.2500    80.0625      .6802      .6562      .7222   -45.8477  -999.2500  -999.2500  -999.2500
 5938.5000  -999.2500   117.2500  -999.2500    80.1875      .6665      .6450      .6914   -45.7227  -999.2500  -999.2500  -999.2500
 5939.0000  -999.2500   114.7500  -999.2500    74.0000      .6489      .6372      .7295   -47.0664  -999.2500  -999.2500  -999.2500
 5939.5000  -999.2500   115.7500  -999.2500    70.8125      .6328      .6309      .8110   -48.7578  -999.2500  -999.2500  -999.2500
 5940.0000  -999.2500   116.0000  -999.2500    71.8750      .6182      .6226      .8364   -51.5078  -999.2500  -999.2500  -999.2500
 5940.5000  -999.2500   115.2500  -999.2500    73.0625      .6074      .6118      .8037   -54.6328  -999.2500  -999.2500  -999.2500
 5941.0000  -999.2500   116.2500  -999.2500    72.0000      .6006      .5991      .7295   -56.5312  -999.2500  -999.2500  -999.2500
 5941.5000  -999.2500   114.2500  -999.2500    72.1875      .5933      .5874      .7075   -57.0938  -999.2500  -999.2500  -999.2500
 5942.0000  -999.2500   115.0000  -999.2500    75.0000      .5840      .5786      .7290   -56.5938  -999.2500  -999.2500  -999.2500
 5942.5000  -999.2500   115.0000  -999.2500    76.6875      .5811      .5732      .7373   -55.6016  -999.2500  -999.2500  -999.2500
 5943.0000  -999.2500   113.8750  -999.2500    74.0625      .5815      .5718      .7026   -55.0469  -999.2500  -999.2500  -999.2500
 5943.5000  -999.2500   116.1250  -999.2500    70.8750      .5854      .5737      .7124   -55.6172  -999.2500  -999.2500  -999.2500
 5944.0000  -999.2500   116.0000  -999.2500    65.1875      .5903      .5791      .8130   -56.9844  -999.2500  -999.2500  -999.2500
 5944.5000  -999.2500   115.5000  -999.2500    63.8750      .5947      .5874      .8955   -59.2187  -999.2500  -999.2500  -999.2500
 5945.0000  -999.2500   110.7500  -999.2500    65.1875      .6035      .5967      .9419   -61.4531  -999.2500  -999.2500  -999.2500
 5945.5000  -999.2500   111.8750  -999.2500    65.3125      .6182      .6050      .9229   -61.3281  -999.2500  -999.2500  -999.2500
 5946.0000  -999.2500   111.2500  -999.2500    64.8125      .6338      .6138      .8628   -60.0625  -999.2500  -999.2500  -999.2500
 5946.5000  -999.2500   111.2500  -999.2500    63.3125      .6504      .6240      .7852   -57.4375  -999.2500  -999.2500  -999.2500
 5947.0000  -999.2500   113.2500  -999.2500    68.4375      .6699      .6377      .7178   -54.3984  -999.2500  -999.2500  -999.2500
 5947.5000  -999.2500   111.5000  -999.2500    72.3125      .6870      .6567      .6992   -52.1406  -999.2500  -999.2500  -999.2500
 5948.0000  -999.2500   109.7500  -999.2500    70.8750      .7031      .6787      .7476   -51.4453  -999.2500  -999.2500  -999.2500
 5948.5000  -999.2500   108.5000  -999.2500    69.0000      .7187      .6992      .8916   -51.3594  -999.2500  -999.2500  -999.2500
 5949.0000  -999.2500   107.2500  -999.2500    68.5000      .7334      .7144      .9849   -51.4062  -999.2500  -999.2500  -999.2500
 5949.5000  -999.2500   107.5000  -999.2500    69.0625      .7485      .7222      .9814   -50.8828  -999.2500  -999.2500  -999.2500
 5950.0000  -999.2500   108.7500  -999.2500    67.8750      .7661      .7266      .8970   -49.4609  -999.2500  -999.2500  -999.2500
 5950.5000  -999.2500   107.8750  -999.2500    62.3125      .7847      .7319      .8584   -47.5547  -999.2500  -999.2500  -999.2500
 5951.0000  -999.2500   108.7500  -999.2500    62.4687      .7979      .7417      .9092   -47.4258  -999.2500  -999.2500  -999.2500
 5951.5000  -999.2500   106.8750  -999.2500    60.9688      .8076      .7549      .9839   -47.8320  -999.2500  -999.2500  -999.2500
 5952.0000  -999.2500   105.6250  -999.2500    61.0937      .8149      .7666     1.0283   -48.3359  -999.2500  -999.2500  -999.2500
 5952.5000  -999.2500   106.1250  -999.2500    63.4375      .8213      .7715     1.0313   -48.8984  -999.2500  -999.2500  -999.2500
 5953.0000  -999.2500   107.0000  -999.2500    66.4375      .8276      .7695     1.0186   -48.2734  -999.2500  -999.2500  -999.2500
 5953.5000  -999.2500   108.6250  -999.2500    69.0000      .8330      .7627      .9863   -47.4297  -999.2500  -999.2500  -999.2500
 5954.0000  -999.2500   109.2500  -999.2500    70.5625      .8340      .7563      .9229   -46.7070  -999.2500  -999.2500  -999.2500
 5954.5000  -999.2500   110.7500  -999.2500    71.6875      .8350      .7524      .8887   -45.8594  -999.2500  -999.2500  -999.2500
 5955.0000  -999.2500   112.0000  -999.2500    73.4375      .8335      .7510      .8574   -45.2578  -999.2500  -999.2500  -999.2500
 5955.5000  -999.2500   112.7500  -999.2500    72.5000      .8354      .7515      .8291   -44.5664  -999.2500  -999.2500  -999.2500
