~VERSION INFORMATION
VERS.                             2.0:   CWLS Log ASCII Standard-VERSION 2.0
WRAP.                              NO:   One line per depth step
~Well Information Block
STRT.F                      3732.0000:   Top Depth
STOP.F                      8303.0000:   Bottom Depth
STEP.F                         .50000:   Depth Increment
NULL.                        -999.250:   Null Value
FLD .                      BA BLK 415:   Field Name
WELL.       OCSG11271   001 ST00 BP00:   NAME
API .                  42704402170000:   WELL API
EDF .F                       100.0000:   ELEV DRILL FLOOR
COMP.                     APACHE CORP:   OPERATOR
BN  .                             415:   BLOCK
CTRY.                             USA:   COUNTRY NAME
CNTY.                        BRAZOS L:   COUNTY NAME
EGL .F                       -78.0000:   ELEV GROUND LEVEL
EKB .F                       101.0000:   ELEV KELLY BUSHING
TDD .F                       8311.000:   FINAL TD DRILLER
STAT.                           TEXAS:   STATE NAME
UWI .                  42704402170000:   WELL API
DICO.               IHS : Digitizing Company
~PARAMETER INFORMATION (zones)
#MNEM.UNIT                       Value     Description
#=========                       =====     ===========
#ZONATION                          CNL:   ZONATION NAME
#ZONE                            RUN_1:   ZONE NAME
TOP .                       5274.0000:   TOP DEPTH
BOT .                       8300.5000:   BOTTOM DEPTH
RUN .                               1:   RUN NUMBER
LCCD.                              99:   LOGGING CONTRACTOR
DICO.          QC Data Collectors Ltd:   DIG COMPANY NAME
LDAT.                      08/26/1990:   DATE LOGGED
ELD .F                       101.0000:   LOG DATUM ELEVATION
TDD .F                      8311.0000:   TOTAL DEPTH DRILLER
TDL .F                      8306.0000:   TOTAL DEPTH LOGGER
BOTL.F                      8303.0000:   BOTTOM DEPTH LOGGED
TOPL.F                      5257.0000:   TOP DEPTH LOGGED
CS1 .IN                       10.7500:   CASING SIZE 1
BS1 .IN                        9.8750:   BIT SIZE 1
DDB1.F                      8311.0000:   DEPTH DRILLED BIT 1
BHF .                              99:   FLUID CODE
DPT .                   Miscellaneous:   DRILLING FLUID TYPE
MUDD.                         10.0000:   FLUID DENSITY
MUDV.                         43.0000:   FLUID VISCOSITY
DFPH.                          8.1000:   FLUID PH
FL  .                          3.2000:   FLUID LOSS
RM  .OHMM                       .8800:   RM
RMT .DEGF                     75.0000:   RM TEMP
RMF .OHMM                       .7000:   RMF
RMFT.DEGF                     75.0000:   RMF TEMP
FSC .                               C:   RMF CODE
RMC .OHMM                       .9600:   RMC
RMCT.DEGF                     75.0000:   RMC TEMP
CMC .                               C:   RMC CODE
TMAX.DEGF                    166.0000:   MAX REC TEMP
TIMC.                         10.0000:   TIME SINCE CIRCLN
~PARAMETER INFORMATION (zones)
#MNEM.UNIT                       Value     Description
#=========                       =====     ===========
#ZONATION                          DIL:   ZONATION NAME
#ZONE                            RUN_1:   ZONE NAME
TOP .                       3732.0000:   TOP DEPTH
BOT .                       8303.5000:   BOTTOM DEPTH
RUN .                               1:   RUN NUMBER
LCCD.                              99:   LOGGING CONTRACTOR
DICO.          QC Data Collectors Ltd:   DIG COMPANY NAME
LDAT.                      08/26/1990:   DATE LOGGED
ELD .F                       101.0000:   LOG DATUM ELEVATION
TDD .F                      8311.0000:   TOTAL DEPTH DRILLER
TDL .F                      8306.0000:   TOTAL DEPTH LOGGER
BOTL.F                      8303.0000:   BOTTOM DEPTH LOGGED
TOPL.F                      3786.0000:   TOP DEPTH LOGGED
CS1 .IN                       10.7500:   CASING SIZE 1
BS1 .IN                        9.8750:   BIT SIZE 1
DDB1.F                      8311.0000:   DEPTH DRILLED BIT 1
BHF .                              99:   FLUID CODE
DPT .                   Miscellaneous:   DRILLING FLUID TYPE
MUDD.                         10.0000:   FLUID DENSITY
MUDV.                         43.0000:   FLUID VISCOSITY
DFPH.                          8.1000:   FLUID PH
FL  .                          3.2000:   FLUID LOSS
RM  .OHMM                       .8800:   RM
RMT .DEGF                     75.0000:   RM TEMP
RMF .OHMM                       .7000:   RMF
RMFT.DEGF                     75.0000:   RMF TEMP
FSC .                               C:   RMF CODE
RMC .OHMM                       .9600:   RMC
RMCT.DEGF                     75.0000:   RMC TEMP
CMC .                               C:   RMC CODE
TMAX.DEGF                    166.0000:   MAX REC TEMP
TIMC.                          6.0000:   TIME SINCE CIRCLN
~PARAMETER INFORMATION (zones)
#MNEM.UNIT                       Value     Description
#=========                       =====     ===========
#ZONATION                          FDC:   ZONATION NAME
#ZONE                            RUN_1:   ZONE NAME
TOP .                       5263.0000:   TOP DEPTH
BOT .                       8303.5000:   BOTTOM DEPTH
RUN .                               1:   RUN NUMBER
LCCD.                              99:   LOGGING CONTRACTOR
DICO.          QC Data Collectors Ltd:   DIG COMPANY NAME
LDAT.                      08/26/1990:   DATE LOGGED
ELD .F                       101.0000:   LOG DATUM ELEVATION
TDD .F                      8311.0000:   TOTAL DEPTH DRILLER
TDL .F                      8306.0000:   TOTAL DEPTH LOGGER
BOTL.F                      8303.0000:   BOTTOM DEPTH LOGGED
TOPL.F                      5257.0000:   TOP DEPTH LOGGED
CS1 .IN                       10.7500:   CASING SIZE 1
BS1 .IN                        9.8750:   BIT SIZE 1
DDB1.F                      8311.0000:   DEPTH DRILLED BIT 1
BHF .                              99:   FLUID CODE
DPT .                   Miscellaneous:   DRILLING FLUID TYPE
MUDD.                         10.0000:   FLUID DENSITY
MUDV.                         43.0000:   FLUID VISCOSITY
DFPH.                          8.1000:   FLUID PH
FL  .                          3.2000:   FLUID LOSS
RM  .OHMM                       .8800:   RM
RMT .DEGF                     75.0000:   RM TEMP
RMF .OHMM                       .7000:   RMF
RMFT.DEGF                     75.0000:   RMF TEMP
FSC .                               C:   RMF CODE
RMC .OHMM                       .9600:   RMC
RMCT.DEGF                     75.0000:   RMC TEMP
CMC .                               C:   RMC CODE
TMAX.DEGF                    166.0000:   MAX REC TEMP
TIMC.                         10.0000:   TIME SINCE CIRCLN
~Curve Information Block
#MNEM.UNIT                    API CODE    No Description
#=========                    ========    == ===========
DEPT.F                   00 001 00 00:     1  DEPTH
NPHI.%                               :     2  Neutron Porosity
CALI.IN                              :     3  Caliper
DT.US/F                              :     4  Sonic Transit Time
GR.GAPI                              :     5  Gamma Ray
ILD.OHMM                             :     6  Deep Induction Resistivity
ILM.OHMM                             :     7  Medium Induction Resistivity
RFOC.OHMM                            :     8  Medium Resistivity
SP.MV                                :     9  Spontaneous Potential
CALI.IN                              :    10  Caliper
DPHI.%                               :    11  Porosity
DRHO.G/C3                            :    12  Bulk Density Correction
GR.GAPI                              :    13  Gamma Ray
RHOB.G/C3                            :    14  Bulk Density
~ASCII
# ...
 7970.0000    34.6794    10.5923    98.6409    81.3077     1.2337     1.1170     1.0832   -42.2200    10.7113  -999.2500      .0655    94.7522     2.3958
 7970.5000    35.3329    10.6068   101.9292    82.5217     1.2000     1.0844     1.0586   -41.9217    10.6324  -999.2500      .0673    93.5259     2.3883
 7971.0000    35.8237    10.5895   103.7852    87.4379     1.1638     1.0518     1.0170   -41.7616    10.5230  -999.2500      .0676    93.3395     2.3813
 7971.5000    35.8293    10.5448   105.6437    93.5914     1.1389     1.0191      .9879   -41.8605    10.4484  -999.2500      .0665    96.6678     2.3779
 7972.0000    35.8799    10.4697   107.1571    96.6056     1.1216      .9874      .9675   -41.8870    10.4011  -999.2500      .0645    99.7487     2.3733
 7972.5000    36.6569    10.3905   108.3164    97.4915     1.0934      .9625      .9496   -41.8587    10.3722  -999.2500      .0621   101.5626     2.3625
 7973.0000    37.6633    10.3245   109.2953    98.3212     1.0531      .9403      .9308   -41.8311    10.3602  -999.2500      .0594   101.1913     2.3478
 7973.5000    38.4227    10.2722   110.1422    97.7545     1.0140      .9191      .9125   -41.8660    10.3531  -999.2500      .0626    99.8672     2.3405
 7974.0000    38.4341    10.2433   110.7709    94.5032      .9867      .8987      .8956   -42.1871    10.3513  -999.2500      .0704    99.1492     2.3345
 7974.5000    37.8208    10.2195   111.1176    91.3717      .9660      .8818      .8805   -42.6459    10.3535  -999.2500      .0748    98.7816     2.3312
 7975.0000    36.5628    10.2042   111.1868    88.6858      .9472      .8779      .8812   -43.3304    10.3537  -999.2500      .0637    97.5110     2.3265
 7975.5000    35.5604    10.2070   111.1481    87.3440      .9236      .8771      .9075   -45.0251    10.3476  -999.2500      .0192    97.3615     2.2960
 7976.0000    35.0689    10.2093   110.0952    85.8695      .8601      .8649      .9226   -48.3833    10.3392  -999.2500     -.0278    95.9016     2.2680
 7976.5000    34.0913    10.2045   106.3468    79.5074      .7793      .8161      .9203   -52.3433    10.3262  -999.2500     -.0500    91.4030     2.2343
 7977.0000    32.4249    10.1998   102.7604    70.8373      .7016      .7123      .9465   -69.1626    10.3136  -999.2500     -.0445    73.6169     2.1964
 7977.5000    31.7449    10.1893   100.3112    57.1234      .6225      .6238      .9702   -87.6077    10.3015  -999.2500     -.0200    62.2843     2.1504
 7978.0000    31.4518    10.1783   100.6797    47.0880      .5474      .5362      .9092   -95.7881    10.2934  -999.2500      .0031    59.1605     2.1392
 7978.5000    31.0337    10.1754   102.4885    45.5203      .4849      .4909      .8800   -99.3833    10.2898  -999.2500      .0151    58.7064     2.1344
 7979.0000    31.6342    10.1823   103.5015    47.1766      .4405      .4597      .9022  -101.7618    10.2915  -999.2500      .0204    60.0167     2.1382
 7979.5000    32.0825    10.1823   103.7994    52.9029      .4277      .4512      .8688  -101.1027    10.3018  -999.2500      .0219    63.0193     2.1572
 7980.0000    32.4902    10.1684   103.0192    62.9279      .4361      .4681      .7848   -92.3387    10.3174  -999.2500      .0260    71.9487     2.2252
 7980.5000    33.8351    10.1545   102.5211    73.4946      .4553      .5219      .7594   -76.8115    10.3481  -999.2500      .0471    80.8209     2.2742
 7981.0000    35.1147    10.1409   103.2310    81.4771      .4908      .5833      .7555   -57.5850    10.3779  -999.2500      .0666    88.8695     2.3282
 7981.5000    36.3811    10.1372   104.7366    86.6198      .5763      .6519      .7642   -51.9212    10.3945  -999.2500      .0728    96.0867     2.3408
 7982.0000    38.4985    10.1450   106.3416    89.3605      .6803      .7330      .7911   -47.4454    10.4111  -999.2500      .0680    97.1227     2.3432
 7982.5000    38.6030    10.1618   107.8210    89.5350      .7775      .7881      .8205   -45.6035    10.4144  -999.2500      .0654    95.6982     2.3335
 7983.0000    36.4125    10.1858   108.8040    86.1874      .8212      .8089      .8227   -47.1119    10.4032  -999.2500      .0597    91.1683     2.2946
 7983.5000    33.7567    10.2095   108.8431    80.0911      .8098      .8125      .8044   -65.6611    10.3920  -999.2500      .0375    85.4603     2.2533
 7984.0000    32.5516    10.2330   106.2527    70.6914      .7536      .8001      .8519   -70.5955    10.3768  -999.2500      .0257    78.3292     2.2359
 7984.5000    30.8519    10.2381   103.2021    68.0054      .7161      .7790     1.0029   -76.8115    10.3589  -999.2500      .0243    71.6881     2.2304
 7985.0000    31.3571    10.2262   100.6875    68.2972      .6905      .7590     1.1131   -78.6626    10.3524  -999.2500      .0298    69.6395     2.2550
 7985.5000    33.3002    10.2144    99.4224    71.1708      .6818      .7442     1.0718   -78.7706    10.3700  -999.2500      .0408    77.4952     2.2979
 7986.0000    34.1592    10.2030    99.7426    78.3403      .7028      .7415      .9148   -66.5990    10.3923  -999.2500      .0487    87.2848     2.3384
 7986.5000    35.0722    10.1916   101.0928    84.7544      .7433      .7555      .8450   -52.6559    10.4108  -999.2500      .0534    93.8529     2.3490
 7987.0000    34.8506    10.1927   102.8114    87.4248      .7931      .7860      .7951   -48.5292    10.4112  -999.2500      .0554    95.6781     2.3485
 7987.5000    33.9057    10.1954   103.9916    88.1251      .8265      .8134      .8084   -46.8358    10.4077  -999.2500      .0542    95.6696     2.3383
 7988.0000    32.9581    10.2148   105.3927    87.6775      .8314      .8257      .8271   -48.1046    10.3754  -999.2500      .0522    94.8356     2.3245
 7988.5000    31.2368    10.2454   106.3573    82.6025      .8020      .8035      .8182   -55.7822    10.3461  -999.2500      .0514    91.8721     2.3075
 7989.0000    30.6918    10.2760   106.3834    76.0686      .7419      .7268      .8053   -64.1814    10.3283  -999.2500      .0416    85.2101     2.2840
 7989.5000    31.3917    10.2797   104.5300    68.2633      .6538      .6456      .8361   -73.3101    10.3105  -999.2500      .0196    77.5474     2.2491
 7990.0000    31.3721    10.2824   102.3186    65.9330      .5551      .5735      .8812   -84.1271    10.3281  -999.2500      .0121    72.0947     2.2162
 7990.5000    30.7957    10.2777   100.5477    62.0733      .4991      .5145      .9175   -90.6401    10.3489  -999.2500      .0102    67.9818     2.1950
 7991.0000    30.6278    10.2692    99.5175    56.0031      .4618      .4696      .9409   -96.8197    10.3652  -999.2500      .0119    66.3164     2.1796
 7991.5000    30.9950    10.2565    99.2943    53.4422      .4359      .4415      .9413  -100.8344    10.3683  -999.2500      .0182    65.4393     2.1732
 7992.0000    31.3179    10.2387    99.1191    54.0753      .4182      .4254      .9105  -102.4886    10.3715  -999.2500      .0235    63.7021     2.1695
 7992.5000    31.4314    10.2210    98.9594    54.5930      .4066      .4142      .8807  -103.6663    10.3732  -999.2500      .0241    61.0228     2.1711
 7993.0000    31.4825    10.2164    98.4872    53.5542      .3970      .4141      .8581  -104.4801    10.3698  -999.2500      .0233    59.6427     2.1738
 7993.5000    31.7887    10.2118    97.7690    53.6037      .3944      .4182      .8573  -104.7141    10.3663  -999.2500      .0214    59.3658     2.1772
 7994.0000    31.8601    10.2037    96.7418    56.0135      .3969      .4310      .8863  -104.7637    10.3629  -999.2500      .0225    60.3530     2.1824
 7994.5000    31.0656    10.1945    95.8217    59.1034      .4058      .4442      .9150  -104.5508    10.3619  -999.2500      .0266    61.8542     2.1944
 7995.0000    29.9272    10.1825    94.7277    59.7807      .4163      .4653      .9152  -103.3484    10.3609  -999.2500      .0344    63.3529     2.2237
 7995.5000    28.9601    10.1696    92.9554    58.6162      .4344      .4877      .8990  -100.9673    10.3600  -999.2500      .0433    64.9976     2.2488
