~VERSION INFORMATION
VERS.                             2.0:   CWLS Log ASCII Standard-VERSION 2.0
WRAP.                              NO:   One line per depth step
~Well Information Block
STRT.F                      4470.0000:   Top Depth
STOP.F                     11800.5000:   Bottom Depth
STEP.F                         .50000:   Depth Increment
NULL.                        -999.250:   Null Value
FLD .                      GA BLK 315:   Field Name
WELL.       OCSG14835   001 ST00 BP00:   NAME
API .                  42706403880000:   WELL API
LOC .       993' FSL & 3018' FEL OF B:   AREA NAME
CTRY.                             USA:   COUNTRY
EGL .FT                      -66.0000:   GROUND LEVEL
EKB .FT                        0.0000:   KB ELEVATION
COMP.              APACHE CORPORATION:   OPERATOR
DREF.                             MSL:   PERM DATUM
COUN.                        OFFSHORE:   RIG NAME
STAT.                              TX:   STATE
CNTY.                        OFFSHORE:   COUNTY
DIGS.                   QC Data, Inc.:   DIG COMPANY NAME
EREF.FT                        0.0000:   ELEV DEPTH REFERENCE
UWI .                  42706403880000:   WELL API
DICO.               IHS : Digitizing Company
~PARAMETER INFORMATION (zones)
#MNEM.UNIT                       Value     Description
#=========                       =====     ===========
#ZONATION                        ZONES:   ZONATION NAME
#ZONE                             LAS1:   ZONE NAME
TOP .                       4470.0000:   TOP DEPTH
BOT .                      11816.0000:   BOTTOM DEPTH
SRVC.                   WESTERN ATLAS:   LOGGING CONTRACTOR
DATE.                         10AUG96:   RUN DATE
RW  .OHMM                      0.0000:   RW
RWT .DEGF                      0.0000:   RW TEMP
RUN .                               1:   LOG RUN
TDL .FT                     9298.0000:   FINAL TD LOGGER
TDD .FT                     9300.0000:   FINAL TD DRILLER
BOTL.FT                     9296.0000:   BOTTOM DEPTH LOGGED
TOPL.FT                     4478.0000:   TOP DEPTH LOGGED
CSGL.FT                     4494.0000:   CASING DEPTH LOGGER
CSGD.FT                     4488.0000:   CASING DEPTH DRILLER
CSGS.IN                       13.3750:   CASING SIZE
CSGW.                          0.0000:   CASING WEIGHT
BS  .IN                       12.2500:   BIT SIZE
MUD .                             MUD:   MUD TYPE
MUDD.                         14.2000:   MUD WEIGHT
MUDV.                         41.0000:   MUD VISCOSITY
FL  .                          4.4000:   FLUID LOSS
PH  .                          8.5000:   MUD PH
MUDS.                             PIT:   MUD SOURCE
RM  .OHMM                      1.3000:   RM
RMT .DEGF                     80.0000:   RM TEMP
RMF .OHMM                      0.5400:   RMF
RMFT.DEGF                     80.0000:   RMF TEMP
RMC .OHMM                      2.5000:   RMC
RMCT.DEGF                     80.0000:   RMC TEMP
MMFS.                            MEAS:   RMF SOURCE
MCFS.                            MEAS:   RMC SOURCE
RMBH.OHMM                      0.5500:   RM BH
BHT .DEGF                    182.0000:   BH TEMP
TMAX.DEGF                    182.0000:   MAX REC TEMP
SON .                          180318:   SERVICE ORDER NUM
ELMF.FT                       92.0000:   ABOVE PERM DATUM
LMF .                              DF:   LOGS MEAS FROM
DMF .                              DF:   DRILL MEAS FROM
TIMC.                            0600:   TIME SINCE CIRCLN
UNIT.8940                        8079:   UNIT NO.
BASE.                        PEARLAND:   LOG UNIT HOME BASE
ENG .                          SUTTON:   ENGINEER
WIT .                            DILL:   WITNESS
~PARAMETER INFORMATION (zones)
#MNEM.UNIT                       Value     Description
#=========                       =====     ===========
#ZONATION                        ZONES:   ZONATION NAME
#ZONE                             LAS2:   ZONE NAME
TOP .                       4470.0000:   TOP DEPTH
BOT .                      11816.0000:   BOTTOM DEPTH
SRVC.                   WESTERN ATLAS:   LOGGING CONTRACTOR
DATE.                         21AUG96:   RUN DATE
RW  .OHMM                      0.0000:   RW
RWT .DEGF                      0.0000:   RW TEMP
RUN .                               2:   LOG RUN
TDL .FT                    11503.0000:   FINAL TD LOGGER
TDD .FT                    11500.0000:   FINAL TD DRILLER
BOTL.FT                    11495.0000:   BOTTOM DEPTH LOGGED
TOPL.FT                     9240.0000:   TOP DEPTH LOGGED
CSGL.FT                     9240.0000:   CASING DEPTH LOGGER
CSGD.FT                     9250.0000:   CASING DEPTH DRILLER
CSGS.IN                        9.6250:   CASING SIZE
CSGW.                          0.0000:   CASING WEIGHT
BS  .IN                        8.5000:   BIT SIZE
MUD .                     DESCO LO-PH:   MUD TYPE
MUDD.                         16.4000:   MUD WEIGHT
MUDV.                         50.0000:   MUD VISCOSITY
FL  .                          2.8000:   FLUID LOSS
PH  .                          8.5000:   MUD PH
MUDS.                             PIT:   MUD SOURCE
RM  .OHMM                      1.0000:   RM
RMT .DEGF                     80.0000:   RM TEMP
RMF .OHMM                      0.4500:   RMF
RMFT.DEGF                     80.0000:   RMF TEMP
RMC .OHMM                      3.0000:   RMC
RMCT.DEGF                     80.0000:   RMC TEMP
MMFS.                            MEAS:   RMF SOURCE
MCFS.                            MEAS:   RMC SOURCE
RMBH.OHMM                      0.3870:   RM BH
BHT .DEGF                    230.0000:   BH TEMP
TMAX.DEGF                    230.0000:   MAX REC TEMP
SON .                          180319:   SERVICE ORDER NUM
ELMF.FT                       92.0000:   ABOVE PERM DATUM
LMF .                              DF:   LOGS MEAS FROM
DMF .                              DF:   DRILL MEAS FROM
TIMC.                            0700:   TIME SINCE CIRCLN
UNIT.8940                        8089:   UNIT NO.
BASE.                        PEARLAND:   LOG UNIT HOME BASE
ENG .                    SUTTON/DAVIS:   ENGINEER
WIT .                      MR.CAMBELL:   WITNESS
~PARAMETER INFORMATION (zones)
#MNEM.UNIT                       Value     Description
#=========                       =====     ===========
#ZONATION                        ZONES:   ZONATION NAME
#ZONE                             LAS3:   ZONE NAME
TOP .                       4470.0000:   TOP DEPTH
BOT .                      11816.0000:   BOTTOM DEPTH
SRVC.                   WESTERN ATLAS:   LOGGING CONTRACTOR
DATE.                         23AUG96:   RUN DATE
RW  .OHMM                      0.0000:   RW
RWT .DEGF                      0.0000:   RW TEMP
RUN .                               3:   LOG RUN
TDL .FT                    11800.0000:   FINAL TD LOGGER
TDD .FT                    11800.0000:   FINAL TD DRILLER
BOTL.FT                    11791.0000:   BOTTOM DEPTH LOGGED
TOPL.FT                     9240.0000:   TOP DEPTH LOGGED
CSGL.FT                     9240.0000:   CASING DEPTH LOGGER
CSGD.FT                     9250.0000:   CASING DEPTH DRILLER
CSGS.IN                        9.6250:   CASING SIZE
CSGW.                          0.0000:   CASING WEIGHT
BS  .IN                        8.5000:   BIT SIZE
MUD .                     DESCO LO-PH:   MUD TYPE
MUDD.                         16.4000:   MUD WEIGHT
MUDV.                         50.0000:   MUD VISCOSITY
FL  .                          2.8000:   FLUID LOSS
PH  .                          8.5000:   MUD PH
MUDS.                             PIT:   MUD SOURCE
RM  .OHMM                      1.0000:   RM
RMT .DEGF                     80.0000:   RM TEMP
RMF .OHMM                      0.4500:   RMF
RMFT.DEGF                     80.0000:   RMF TEMP
RMC .OHMM                      3.0000:   RMC
RMCT.DEGF                     80.0000:   RMC TEMP
MMFS.                            MEAS:   RMF SOURCE
MCFS.                            MEAS:   RMC SOURCE
RMBH.OHMM                      0.3870:   RM BH
BHT .DEGF                    232.0000:   BH TEMP
TMAX.DEGF                    232.0000:   MAX REC TEMP
SON .                          180319:   SERVICE ORDER NUM
ELMF.FT                       92.0000:   ABOVE PERM DATUM
LMF .                              DF:   LOGS MEAS FROM
DMF .                              DF:   DRILL MEAS FROM
TIMC.                            0700:   TIME SINCE CIRCLN
UNIT.8940                        8089:   UNIT NO.
BASE.                        PEARLAND:   LOG UNIT HOME BASE
ENG .                    SUTTON/DAVIS:   ENGINEER
WIT .                      BOB SHELBY:   WITNESS
~Curve Information Block
#MNEM.UNIT                    API CODE    No Description
#=========                    ========    == ===========
DEPT.F                   00 001 00 00:     1  DEPTH
CALX.IN                              :     2  Caliper
CNCF.%                               :     3  Field Normalized CNC
DT.US/F                              :     4  Sonic Transit Time
GR.GAPI                              :     5  Gamma Ray
M2R1.OHMM                            :     6  Array Resistivity Curve
M2R2.OHMM                            :     7  Array Resistivity Curve
M2R3.OHMM                            :     8  Array Resistivity Curve
M2R6.OHMM                            :     9  Array Resistivity Curve
M2R9.OHMM                            :    10  Array Resistivity Curve
M2RX.OHMM                            :    11  Array Resistivity Curve
PORZ.%                               :    12  PORZ
RFOC.OHMM                            :    13  Medium Resistivity
RILD.OHMM                            :    14  Deep Resistivity
RILM.OHMM                            :    15  Medium Resistivity
RWAA.OHMM                            :    16  RWAA
RWAZ.OHMM                            :    17  RWAZ
SP.MV                                :    18  Spontaneous Potential
TEN.LB                               :    19  TEN
ZCOR.G/CC                            :    20  Density Correction
~ASCII
# ...
 9243.0000    19.8750    53.6280   107.3290    28.6100      .6210      .7470      .7090      .8740      .9680      .9610    25.0460      .8580      .4750      .4950  -999.2500      .0790      .1590   -29.3550     -.3370
 9243.5000    18.7580    49.5950   105.4940    30.9570      .6270      .7260      .6840      .8460      .9550      .9580    25.0170      .8700      .4820      .4960  -999.2500      .0790      .0410   -28.9620     -.3180
 9244.0000    17.1280    49.3710   106.6950    32.1940      .6310      .7140      .6690      .7860      .8690      .8700    22.8740      .8590      .4880      .4960  -999.2500      .0590      .0470   -27.2900     -.3030
 9244.5000    15.4740    51.4950   108.7870    31.9360      .6370      .7150      .6670      .7400      .7900      .7890    20.6850      .8430      .4920      .4950  -999.2500      .0430      .0590   -25.4240     -.2910
 9245.0000    14.7680    51.7760   110.7840    30.6740      .6340      .7110      .6660      .7030      .7280      .7250    20.0220      .8400      .4930      .4930  -999.2500      .0370      .0730   -24.6320     -.2900
 9245.5000    15.4680    52.0660   114.8570    29.3720      .6200      .6940      .6560      .6710      .6810      .6800    20.0680      .8430      .4890      .4900  -999.2500      .0350      .0940   -25.0010     -.3040
 9246.0000    17.8040    52.2160   118.6500    28.6180      .6020      .6780      .6470      .6530      .6580      .6590    20.3270      .8450      .4840      .4880  -999.2500      .0350      .0260   -25.9270     -.3220
 9246.5000    18.8260    51.9570   122.1740    28.5950      .5890      .6680      .6470      .6510      .6560      .6600    20.2190      .8460      .4790      .4850  -999.2500      .0340     -.1470   -27.2670     -.3390
 9247.0000    19.7510    53.6880   127.8130    28.8100      .5820      .6610      .6470      .6530      .6610      .6670    20.0090      .8470      .4760      .4840  -999.2500      .0340     -.2350   -28.6040     -.3510
 9247.5000    20.0780    54.6940   132.2930    28.5950      .5790      .6530      .6440      .6530      .6630      .6720    20.2310      .8450      .4740      .4830      .1960      .0350     -.1450   -30.0320     -.3540
 9248.0000    20.2230    52.0000   132.1610    27.8580      .5770      .6440      .6390      .6500      .6610      .6700    20.5810      .8430      .4720      .4830      .1960      .0360     -.0380   -31.1630     -.3350
 9248.5000    20.4080    50.4670   130.0460    27.7190      .5800      .6460      .6390      .6510      .6650      .6760    20.4590      .8410      .4680      .4810      .1850      .0360     -.0900   -31.5680     -.3000
 9249.0000    20.5940    50.4820   129.0320    28.5270      .5790      .6390      .6350      .6470      .6590      .6690    20.0480      .8420      .4630      .4770      .1780      .0340     -.2140   -31.0820     -.2780
 9249.5000    20.8200    50.3630   128.8060    29.0170      .5740      .6260      .6240      .6350      .6460      .6540    20.0130      .8400      .4570      .4710      .1730      .0330     -.2670   -30.6540     -.3010
 9250.0000    20.9310    50.5050   130.4950    28.3460      .5680      .6110      .6110      .6210      .6310      .6370    20.7440      .8340      .4480      .4660      .1770      .0350     -.3190   -30.9310     -.3410
 9250.5000    21.0020    50.6780   132.5410    28.0500      .5630      .6000      .6030      .6130      .6220      .6260    22.6040      .8270      .4410      .4610      .1840      .0410     -.5110   -31.8800     -.3730
 9251.0000    21.0380    49.8400   130.5740    29.1350      .5640      .5970      .6030      .6130      .6200      .6240    23.6790      .8210      .4380      .4570      .1740      .0450     -.7720   -32.5850     -.3660
 9251.5000    21.0110    48.5500   129.1650    30.0640      .5680      .6010      .6080      .6170      .6240      .6270    23.8560      .8170      .4390      .4560      .1670      .0460    -1.0620   -32.0590     -.3530
 9252.0000    20.9050    48.2240   128.9590    29.3720      .5750      .6100      .6170      .6250      .6300      .6330    23.4600      .8180      .4420      .4570      .1680      .0450    -1.3640   -30.5780     -.3450
 9252.5000    20.4450    48.2820   128.9660    27.9740      .5820      .6190      .6260      .6330      .6360      .6380    22.9740      .8250  -999.2500      .4620      .1690      .0440    -1.5980   -29.4940     -.3480
 9253.0000    20.0360    48.7160   128.6000    27.7400      .5860      .6270      .6340      .6390      .6410      .6430    22.5910      .8310  -999.2500      .4730      .1690      .0420    -1.7460   -30.2460     -.3460
 9253.5000    19.8460    49.4810   124.6480    28.6570      .5880      .6320      .6410      .6440      .6460      .6470    22.2940      .8310  -999.2500      .4900      .1510      .0410    -1.8830   -32.7370     -.3410
 9254.0000    19.8560    50.1960   119.9560    29.0020      .5890      .6350      .6460      .6500      .6510      .6530    22.0680      .8360  -999.2500      .5100      .1310      .0410    -1.9080   -34.9010     -.3330
 9254.5000    20.0100    50.1460   117.6890    28.1560      .5900      .6360      .6490      .6520      .6540      .6550    21.4690      .8530  -999.2500      .5250      .1210      .0390    -1.7070   -35.0840     -.3250
 9255.0000    20.0490    49.2370   119.2120    27.8220      .5900      .6310      .6440      .6480      .6480      .6480    20.8480      .8770  -999.2500      .5350      .1270      .0360    -1.3090   -35.4650     -.3180
 9255.5000    20.0790    49.4370   123.6640    28.4540      .5870      .6210      .6320      .6360      .6360      .6350    20.4020      .8910  -999.2500      .5420      .1430      .0340     -.8330   -41.1870     -.3180
 9256.0000    20.2450    49.3700   125.9220    28.7710      .5820      .6090      .6180      .6230      .6230      .6200    20.2460      .8930  -999.2500      .5460      .1500      .0320     -.5160   -56.5290     -.3190
 9256.5000    20.6460    48.8770   121.6760    28.5040      .5780      .6010      .6070      .6120      .6120      .6090    20.4460      .8960  -999.2500      .5480      .1290      .0320     -.5390   -78.9760     -.3220
 9257.0000    20.8900    48.6850   114.3100    29.0530      .5750      .5970      .6010      .6070      .6070      .6050    20.7380      .9040  -999.2500      .5490      .0990      .0330     -.7560   -87.3330     -.3220
 9257.5000    20.9710    48.6710   110.2710    30.6290      .5720      .5960      .6000      .6080      .6100      .6090    20.8340      .9100  -999.2500      .5500      .0860      .0340     -.9160   -63.5100     -.3210
 9258.0000    20.8670    48.4850   111.1410    31.0090      .5680      .5950      .6020      .6120      .6170      .6170    20.3890      .9080  -999.2500      .5500      .0900      .0330     -.8580   -26.2400     -.3180
 9258.5000    20.7270    48.9620   116.6540    29.6620      .5640      .5940      .6040      .6160      .6220      .6230    19.5340      .9010  -999.2500      .5500      .1110      .0300     -.6460    -5.6700     -.3150
 9259.0000    20.7290    50.1100   122.3720    28.8420      .5640      .5950      .6050      .6170      .6230      .6250    20.0770      .8950  -999.2500      .5500      .1350      .0320     -.4840    -2.4770     -.3180
 9259.5000    21.0190    50.8240   122.6710    29.3050      .5660      .5960      .6050      .6150      .6200      .6210    21.3300      .8880  -999.2500      .5500      .1360      .0360     -.4760    -2.5180     -.3190
 9260.0000    21.2370    50.8660   121.9050    29.3920      .5700      .5970      .6030      .6110      .6140      .6140    22.3410      .8840  -999.2500      .5500      .1310      .0390     -.4630    -2.4900     -.3150
 9260.5000    21.3560    50.2280   121.6910    28.7030      .5710      .5950      .6000      .6060      .6090      .6090    21.8330      .8830  -999.2500      .5500      .1290      .0370     -.4640    -2.6940     -.3070
 9261.0000    21.4160    49.7450   120.7600    27.9170      .5700      .5920      .5970      .6020      .6040      .6040    20.8160      .8820  -999.2500      .5500      .1240      .0330     -.5980    -3.5000     -.2980
