~VERSION INFORMATION
VERS.                             2.0:   CWLS Log ASCII Standard-VERSION 2.0
WRAP.                              NO:   One line per depth step
~Well Information Block
STRT.F                      6412.0000:   Top Depth
STOP.F                      9744.0000:   Bottom Depth
STEP.F                         .50000:   Depth Increment
NULL.                        -999.250:   Null Value
FLD .                      GA BLK 273:   Field Name
WELL.       OCSG09037   005 ST00 BP00:   NAME
API .                  42706403310000:   WELL API
EDF .F                        93.0000:   ELEV DRILL FLOOR
COMP.       SEAGULL ENERGY E AND P IN:   OPERATOR
BN  .                             273:   BLOCK
CTRY.                             USA:   COUNTRY NAME
CNTY.                              GA:   COUNTY
CNTY.                        GLVSTN L:   COUNTY NAME
EGL .F                       -63.0000:   ELEV GROUND LEVEL
EKB .F                        94.0000:   ELEV KELLY BUSHING
TDD .F                       9756.000:   FINAL TD DRILLER
STAT.                           TEXAS:   STATE NAME
UWI .                  42706403310000:   WELL API
DICO.               IHS : Digitizing Company
~PARAMETER INFORMATION (zones)
#MNEM.UNIT                       Value     Description
#=========                       =====     ===========
#ZONATION                          DIL:   ZONATION NAME
#ZONE                            RUN_1:   ZONE NAME
TOP .                       6412.0000:   TOP DEPTH
BOT .                       9744.5000:   BOTTOM DEPTH
RUN .                               1:   RUN NUMBER
LCCD.                             440:   LOGGING CONTRACTOR
SRVC.                    Schlumberger:   LOGGING CONT NAME
DICO.          QC Data Collectors Ltd:   DIG COMPANY NAME
LDAT.                      03/03/1993:   DATE LOGGED
ELD .F                        94.0000:   LOG DATUM ELEVATION
TDD .F                      9756.0000:   TOTAL DEPTH DRILLER
TDL .F                      9750.0000:   TOTAL DEPTH LOGGER
BOTL.F                      9744.0000:   BOTTOM DEPTH LOGGED
TOPL.F                      6543.0000:   TOP DEPTH LOGGED
CS1 .IN                        7.6250:   CASING SIZE 1
BS1 .IN                        6.5000:   BIT SIZE 1
DDB1.F                      9756.0000:   DEPTH DRILLED BIT 1
BHF .                              99:   FLUID CODE
DPT .                   Miscellaneous:   DRILLING FLUID TYPE
MUDD.                         11.7000:   FLUID DENSITY
MUDV.                         46.0000:   FLUID VISCOSITY
DFPH.                          6.5000:   FLUID PH
FL  .                          9.6500:   FLUID LOSS
RM  .OHMM                      1.3200:   RM
RMT .DEGF                     64.0000:   RM TEMP
RMF .OHMM                      1.1100:   RMF
RMFT.DEGF                     70.0000:   RMF TEMP
FSC .                               M:   RMF CODE
RMC .OHMM                      1.6200:   RMC
RMCT.DEGF                     65.0000:   RMC TEMP
CMC .                               M:   RMC CODE
TMAX.DEGF                    186.0000:   MAX REC TEMP
TIMC.                          6.5000:   TIME SINCE CIRCLN
~Curve Information Block
#MNEM.UNIT                    API CODE    No Description
#=========                    ========    == ===========
DEPT.F                   00 001 00 00:     1  DEPTH
DTL.US/F                             :     2  Sonic Transit Time (Slowness)
GR.GAPI                              :     3  Gamma Ray
ILD.OHMM                             :     4  Deep Induction Resistivity
ILM.OHMM                             :     5  Medium Induction Resistivity
SFL.OHMM                             :     6  Medium Resistivity
SP.MV                                :     7  Spontaneous Potential
~ASCII
# ...
 9688.0000    99.7688    67.9335      .8090      .8498      .8980   -47.8842
 9688.5000   104.2512    69.5973      .7832      .7778      .7357   -48.8864
 9689.0000   108.7610    72.2839      .7534      .7259      .6511   -48.1387
 9689.5000   109.7014    69.6398      .7159      .6967      .6944   -47.1409
 9690.0000   110.0344    73.5925      .6867      .6838      .7095   -46.8932
 9690.5000   109.7175    74.1360      .6665      .6788      .7206   -46.8954
 9691.0000   109.5793    73.9546      .6520      .6746      .7366   -46.6477
 9691.5000   109.7605    72.3336      .6434      .6678      .7613   -46.4000
 9692.0000   110.0549    72.7323      .6398      .6583      .7393   -46.4022
 9692.5000   110.4387    74.3295      .6367      .6485      .6716   -45.9045
 9693.0000   110.8208    71.0586      .6337      .6406      .6590   -45.6567
 9693.5000   111.2860    67.6356      .6301      .6360      .6482   -45.9090
 9694.0000   111.8035    67.8529      .6291      .6349      .6517   -45.4113
 9694.5000   112.4645    66.8591      .6331      .6373      .6498   -45.4135
 9695.0000   113.2148    69.7378      .6384      .6433      .6522   -45.1658
 9695.5000   114.0175    68.2523      .6459      .6528      .6518   -45.1680
 9696.0000   114.8175    70.5883      .6569      .6658      .7047   -45.6703
 9696.5000   114.1504    71.2773      .6685      .6824      .7484   -46.6725
 9697.0000   106.4576    72.6378      .6771      .7012      .7578   -45.6748
 9697.5000   105.0898    70.1646      .6817      .7179      .8364   -45.1771
 9698.0000   106.3657    68.7402      .6801      .7257      .8866   -44.6793
 9698.5000   108.2715    66.8363      .6764      .7199      .8889   -44.9316
 9699.0000   110.6519    65.5540      .6693      .7019      .7577   -45.6838
 9699.5000   111.1122    67.6974      .6594      .6789      .6785   -46.1861
 9700.0000   111.3429    67.1096      .6446      .6576      .6531   -45.6884
 9700.5000   111.6128    71.6897      .6278      .6409      .6616   -46.6906
 9701.0000   111.9333    70.8829      .6150      .6280      .6577   -45.6929
 9701.5000   112.5837    72.2428      .6047      .6176      .6392   -45.6951
 9702.0000   113.1378    72.9478      .5970      .6092      .6196   -45.6974
 9702.5000   113.2532    72.6608      .5917      .6029      .6147   -44.9496
 9703.0000   113.3164    76.3063      .5878      .5992      .6130   -44.7019
 9703.5000   113.3773    74.8387      .5839      .5971      .6404   -44.4542
 9704.0000   113.5825    74.0668      .5805      .5955      .6437   -44.7064
 9704.5000   113.8789  -999.2500      .5782      .5931      .6284   -44.7087
 9705.0000   114.0801  -999.2500      .5763      .5901      .6026   -45.9609
 9705.5000   113.5018  -999.2500      .5768      .5875      .6038   -45.7132
 9706.0000   111.7079  -999.2500      .5768      .5862      .5978   -45.9655
 9706.5000   110.2356  -999.2500      .5781      .5872      .6019   -46.4677
 9707.0000   109.6095  -999.2500      .5842      .5909      .6143   -46.4700
 9707.5000   109.9152  -999.2500      .5902      .5978      .6255   -46.7222
 9708.0000   111.0718  -999.2500      .5968      .6080      .6783   -46.2245
 9708.5000   112.3762  -999.2500      .6043      .6209      .6813   -45.7267
 9709.0000   113.6410  -999.2500      .6080      .6340      .7126   -45.7290
 9709.5000   114.5627  -999.2500      .6074      .6431      .7224   -46.4813
 9710.0000   115.0474  -999.2500      .6058      .6438      .6584   -46.9835
 9710.5000  -999.2500  -999.2500      .6029      .6349      .7004   -47.2358
 9711.0000  -999.2500  -999.2500      .5959      .6190      .6304   -47.4880
 9711.5000  -999.2500  -999.2500      .5888      .6013      .6519   -48.2403
 9712.0000  -999.2500  -999.2500      .5827      .5859      .6096   -47.9926
 9712.5000  -999.2500  -999.2500      .5744      .5754      .6102   -47.4948
 9713.0000  -999.2500  -999.2500      .5676      .5702      .6014   -47.2471
 9713.5000  -999.2500  -999.2500      .5647      .5698      .5979   -47.7493
 9714.0000  -999.2500  -999.2500      .5634      .5728      .6075   -47.5016
 9714.5000  -999.2500  -999.2500      .5620      .5775      .6291   -48.0038
 9715.0000  -999.2500  -999.2500      .5646      .5819      .6372   -48.5061
 9715.5000  -999.2500  -999.2500      .5676      .5850      .6304   -48.2584
 9716.0000  -999.2500  -999.2500      .5712      .5869      .6240   -47.5106
 9716.5000  -999.2500  -999.2500      .5752      .5879      .6316   -47.2629
 9717.0000  -999.2500  -999.2500      .5782      .5888      .6213   -46.7651
 9717.5000  -999.2500  -999.2500      .5807      .5903      .6182   -46.7674
 9718.0000  -999.2500  -999.2500      .5857      .5934      .6041   -46.5197
 9718.5000  -999.2500  -999.2500      .5894      .5985      .6301   -46.5219
 9719.0000  -999.2500  -999.2500      .5929      .6050      .6471   -47.0242
 9719.5000  -999.2500  -999.2500      .5968      .6117      .6681   -47.5264
 9720.0000  -999.2500  -999.2500      .5993      .6173      .6534   -46.7787
 9720.5000  -999.2500  -999.2500      .5980      .6208      .6562   -47.2809
 9721.0000  -999.2500  -999.2500      .5935      .6205      .6964   -47.0332
 9721.5000  -999.2500  -999.2500      .5876      .6143      .7183   -46.5355
 9722.0000  -999.2500  -999.2500      .5828      .6021      .6541   -46.0377
 9722.5000  -999.2500  -999.2500      .5827      .5876      .5663   -45.5400
 9723.0000  -999.2500  -999.2500      .5855      .5766      .5424   -45.7922
 9723.5000  -999.2500  -999.2500      .5890      .5743      .5589   -46.0445
 9724.0000  -999.2500  -999.2500      .5962      .5836      .5948   -45.5468
 9724.5000  -999.2500  -999.2500      .6095      .6052      .6090   -45.5490
 9725.0000  -999.2500  -999.2500      .6266      .6375      .6527   -46.0513
 9725.5000  -999.2500  -999.2500      .6487      .6765      .7466   -45.5535
 9726.0000  -999.2500  -999.2500      .6736      .7149      .8409   -46.0558
 9726.5000  -999.2500  -999.2500      .6958      .7437      .8774   -46.0580
 9727.0000  -999.2500  -999.2500      .7139      .7577      .8626   -46.3103
 9727.5000  -999.2500  -999.2500      .7273      .7588      .8087   -46.0626
 9728.0000  -999.2500  -999.2500      .7350      .7539      .7829   -47.0648
 9728.5000  -999.2500  -999.2500      .7363      .7491      .7706   -46.0671
 9729.0000  -999.2500  -999.2500      .7333      .7469      .7845   -46.0693
 9729.5000  -999.2500  -999.2500      .7295      .7463      .7817   -45.5716
 9730.0000  -999.2500  -999.2500      .7277      .7458      .7903   -45.5739
 9730.5000  -999.2500  -999.2500      .7276      .7449      .7725   -45.0761
 9731.0000  -999.2500  -999.2500      .7288      .7445      .7786   -45.3284
 9731.5000  -999.2500  -999.2500      .7295      .7455      .7678   -44.3306
 9732.0000  -999.2500  -999.2500      .7284      .7478      .7894   -44.5829
 9732.5000  -999.2500  -999.2500      .7272      .7499      .7913   -45.0851
 9733.0000  -999.2500  -999.2500      .7274      .7500      .8158   -44.8374
 9733.5000  -999.2500  -999.2500      .7281      .7480      .7852   -45.0897
 9734.0000  -999.2500  -999.2500      .7321      .7457      .7721   -45.5919
 9734.5000  -999.2500  -999.2500      .7314      .7453      .7988   -46.3442
 9735.0000  -999.2500  -999.2500      .7313      .7475      .7786   -46.8464
 9735.5000  -999.2500  -999.2500      .7287      .7513      .7720   -46.5987
 9736.0000  -999.2500  -999.2500      .7218      .7551      .7860   -45.6010
 9736.5000  -999.2500  -999.2500      .7208      .7575      .8916   -45.6032
 9737.0000  -999.2500  -999.2500      .7262      .7565      .9396   -45.1055
 9737.5000  -999.2500  -999.2500      .7362      .7515      .8921   -45.1077
 9738.0000  -999.2500  -999.2500      .7515      .7493      .8016   -44.6100
 9738.5000  -999.2500  -999.2500      .7709      .7622      .7996   -44.6122
 9739.0000  -999.2500  -999.2500      .7899      .7992      .8116   -44.6145
 9739.5000  -999.2500  -999.2500      .7973      .8549     1.1077   -45.1168
