~VERSION INFORMATION
VERS.                             2.0:   CWLS Log ASCII Standard-VERSION 2.0
WRAP.                              NO:   One line per depth step
~Well Information Block
STRT.F                      3150.0000:   Top Depth
STOP.F                     11219.0000:   Bottom Depth
STEP.F                         .50000:   Depth Increment
NULL.                        -999.250:   Null Value
FLD .                      GA BLK 300:   Field Name
WELL.       OCSG11310   002 ST00 BP00:   NAME
API .                  42706403320000:   WELL API
EDF .F                        97.5000:   ELEV DRILL FLOOR
COMP.       SEAGULL ENERGY E AND P IN:   OPERATOR
BN  .                             300:   BLOCK
CTRY.                             USA:   COUNTRY NAME
CNTY.                              GA:   COUNTY
CNTY.                        GLVSTN L:   COUNTY NAME
EGL .F                       -56.0000:   ELEV GROUND LEVEL
EKB .F                        98.5000:   ELEV KELLY BUSHING
TDD .F                      11225.000:   FINAL TD DRILLER
STAT.                           TEXAS:   STATE NAME
UWI .                  42706403320000:   WELL API
DICO.               IHS : Digitizing Company
~PARAMETER INFORMATION (zones)
#MNEM.UNIT                       Value     Description
#=========                       =====     ===========
#ZONATION                          CNL:   ZONATION NAME
#ZONE                            RUN_2:   ZONE NAME
TOP .                       9384.0000:   TOP DEPTH
BOT .                      11168.5000:   BOTTOM DEPTH
RUN .                               2:   RUN NUMBER
LCCD.                             440:   LOGGING CONTRACTOR
SRVC.                    Schlumberger:   LOGGING CONT NAME
DICO.          QC Data Collectors Ltd:   DIG COMPANY NAME
LDAT.                      04/26/1993:   DATE LOGGED
ELD .F                        98.5000:   LOG DATUM ELEVATION
TDD .F                     11217.0000:   TOTAL DEPTH DRILLER
TDL .F                     11225.0000:   TOTAL DEPTH LOGGER
BOTL.F                     11219.0000:   BOTTOM DEPTH LOGGED
TOPL.F                      9802.0000:   TOP DEPTH LOGGED
CS1 .IN                        7.6250:   CASING SIZE 1
BS1 .IN                        6.5000:   BIT SIZE 1
DDB1.F                     11217.0000:   DEPTH DRILLED BIT 1
BHF .                              99:   FLUID CODE
DPT .                   Miscellaneous:   DRILLING FLUID TYPE
MUDD.                         13.9000:   FLUID DENSITY
MUDV.                         41.0000:   FLUID VISCOSITY
DFPH.                         10.0000:   FLUID PH
FL  .                          3.2000:   FLUID LOSS
RM  .OHMM                       .9550:   RM
RMT .DEGF                     77.0000:   RM TEMP
RMF .OHMM                       .5740:   RMF
RMFT.DEGF                     76.0000:   RMF TEMP
FSC .                               M:   RMF CODE
RMC .OHMM                      1.6900:   RMC
RMCT.DEGF                     76.0000:   RMC TEMP
CMC .                               M:   RMC CODE
TMAX.DEGF                    207.0000:   MAX REC TEMP
TIMC.                         17.0000:   TIME SINCE CIRCLN
~PARAMETER INFORMATION (zones)
#MNEM.UNIT                       Value     Description
#=========                       =====     ===========
#ZONATION                          DIL:   ZONATION NAME
#ZONE                            RUN_1:   ZONE NAME
TOP .                       3150.0000:   TOP DEPTH
BOT .                       9865.5000:   BOTTOM DEPTH
RUN .                               1:   RUN NUMBER
LCCD.                             440:   LOGGING CONTRACTOR
SRVC.                    Schlumberger:   LOGGING CONT NAME
DICO.          QC Data Collectors Ltd:   DIG COMPANY NAME
LDAT.                      04/10/1993:   DATE LOGGED
ELD .F                        98.5000:   LOG DATUM ELEVATION
TDD .F                      9878.0000:   TOTAL DEPTH DRILLER
TDL .F                      9871.0000:   TOTAL DEPTH LOGGER
BOTL.F                      9865.0000:   BOTTOM DEPTH LOGGED
TOPL.F                      3298.0000:   TOP DEPTH LOGGED
CS1 .IN                       10.7500:   CASING SIZE 1
BS1 .IN                        9.8750:   BIT SIZE 1
DDB1.F                      9878.0000:   DEPTH DRILLED BIT 1
BHF .                              99:   FLUID CODE
DPT .                   Miscellaneous:   DRILLING FLUID TYPE
MUDD.                         11.8000:   FLUID DENSITY
MUDV.                         44.0000:   FLUID VISCOSITY
DFPH.                          9.5000:   FLUID PH
FL  .                          4.6000:   FLUID LOSS
RM  .OHMM                       .8730:   RM
RMT .DEGF                     82.0000:   RM TEMP
RMF .OHMM                       .4990:   RMF
RMFT.DEGF                     82.0000:   RMF TEMP
FSC .                               M:   RMF CODE
RMC .OHMM                      1.4400:   RMC
RMCT.DEGF                     82.0000:   RMC TEMP
CMC .                               M:   RMC CODE
TMAX.DEGF                    177.0000:   MAX REC TEMP
TIMC.                         15.0000:   TIME SINCE CIRCLN
~PARAMETER INFORMATION (zones)
#MNEM.UNIT                       Value     Description
#=========                       =====     ===========
#ZONATION                          DIL:   ZONATION NAME
#ZONE                            RUN_2:   ZONE NAME
TOP .                       9802.0000:   TOP DEPTH
BOT .                      11219.5000:   BOTTOM DEPTH
RUN .                               2:   RUN NUMBER
LCCD.                             440:   LOGGING CONTRACTOR
SRVC.                    Schlumberger:   LOGGING CONT NAME
DICO.          QC Data Collectors Ltd:   DIG COMPANY NAME
LDAT.                      04/26/1993:   DATE LOGGED
ELD .F                        98.5000:   LOG DATUM ELEVATION
TDD .F                     11217.0000:   TOTAL DEPTH DRILLER
TDL .F                     11225.0000:   TOTAL DEPTH LOGGER
BOTL.F                     11219.0000:   BOTTOM DEPTH LOGGED
TOPL.F                      9802.0000:   TOP DEPTH LOGGED
CS1 .IN                        7.6250:   CASING SIZE 1
BS1 .IN                        6.5000:   BIT SIZE 1
DDB1.F                     11217.0000:   DEPTH DRILLED BIT 1
BHF .                              99:   FLUID CODE
DPT .                   Miscellaneous:   DRILLING FLUID TYPE
MUDD.                         13.9000:   FLUID DENSITY
MUDV.                         41.0000:   FLUID VISCOSITY
DFPH.                         10.0000:   FLUID PH
FL  .                          3.2000:   FLUID LOSS
RM  .OHMM                       .9550:   RM
RMT .DEGF                     77.0000:   RM TEMP
RMF .OHMM                       .5740:   RMF
RMFT.DEGF                     76.0000:   RMF TEMP
FSC .                               M:   RMF CODE
RMC .OHMM                      1.6900:   RMC
RMCT.DEGF                     76.0000:   RMC TEMP
CMC .                               M:   RMC CODE
TMAX.DEGF                    207.0000:   MAX REC TEMP
TIMC.                         17.0000:   TIME SINCE CIRCLN
~PARAMETER INFORMATION (zones)
#MNEM.UNIT                       Value     Description
#=========                       =====     ===========
#ZONATION                          LDT:   ZONATION NAME
#ZONE                            RUN_2:   ZONE NAME
TOP .                       9372.0000:   TOP DEPTH
BOT .                      11188.5000:   BOTTOM DEPTH
RUN .                               2:   RUN NUMBER
LCCD.                             440:   LOGGING CONTRACTOR
SRVC.                    Schlumberger:   LOGGING CONT NAME
DICO.          QC Data Collectors Ltd:   DIG COMPANY NAME
LDAT.                      04/26/1993:   DATE LOGGED
ELD .F                        98.5000:   LOG DATUM ELEVATION
TDD .F                     11217.0000:   TOTAL DEPTH DRILLER
TDL .F                     11225.0000:   TOTAL DEPTH LOGGER
BOTL.F                     11219.0000:   BOTTOM DEPTH LOGGED
TOPL.F                      9802.0000:   TOP DEPTH LOGGED
CS1 .IN                        7.6250:   CASING SIZE 1
BS1 .IN                        6.5000:   BIT SIZE 1
DDB1.F                     11217.0000:   DEPTH DRILLED BIT 1
BHF .                              99:   FLUID CODE
DPT .                   Miscellaneous:   DRILLING FLUID TYPE
MUDD.                         13.9000:   FLUID DENSITY
MUDV.                         41.0000:   FLUID VISCOSITY
DFPH.                         10.0000:   FLUID PH
FL  .                          3.2000:   FLUID LOSS
RM  .OHMM                       .9550:   RM
RMT .DEGF                     77.0000:   RM TEMP
RMF .OHMM                       .5740:   RMF
RMFT.DEGF                     76.0000:   RMF TEMP
FSC .                               M:   RMF CODE
RMC .OHMM                      1.6900:   RMC
RMCT.DEGF                     76.0000:   RMC TEMP
CMC .                               M:   RMC CODE
TMAX.DEGF                    207.0000:   MAX REC TEMP
TIMC.                         17.0000:   TIME SINCE CIRCLN
~Curve Information Block
#MNEM.UNIT                    API CODE    No Description
#=========                    ========    == ===========
DEPT.F                   00 001 00 00:     1  DEPTH
NPHI.%                               :     2  Neutron Porosity
DT.US/F                              :     3  Sonic Transit Time
DTL.US/F                             :     4  Sonic Transit Time (Slowness)
GR.GAPI                              :     5  Gamma Ray
ILD.OHMM                             :     6  Deep Induction Resistivity
ILM.OHMM                             :     7  Medium Induction Resistivity
SFL.OHMM                             :     8  Medium Resistivity
SP.MV                                :     9  Spontaneous Potential
DCAL.IN                              :    10  Differential Caliper
DPHI.%                               :    11  Porosity
GR.GAPI                              :    12  Gamma Ray
~ASCII
# ...
 7481.0000  -999.2500   109.0000  -999.2500    60.9688      .3525      .3193      .6187  -102.1875  -999.2500  -999.2500  -999.2500
 7481.5000  -999.2500   110.7500  -999.2500    65.1875      .3745      .3408      .5620   -96.5000  -999.2500  -999.2500  -999.2500
 7482.0000  -999.2500   113.7500  -999.2500    69.6875      .3936      .3706      .5029   -89.0625  -999.2500  -999.2500  -999.2500
 7482.5000  -999.2500   111.5000  -999.2500    70.3125      .4121      .4048      .4946   -82.4375  -999.2500  -999.2500  -999.2500
 7483.0000  -999.2500   108.8750  -999.2500    62.7812      .4355      .4346      .6558   -77.4375  -999.2500  -999.2500  -999.2500
 7483.5000  -999.2500   105.5000  -999.2500    56.9375      .4585      .4526      .8540   -76.0000  -999.2500  -999.2500  -999.2500
 7484.0000  -999.2500   106.8750  -999.2500    58.9688      .4829      .4585      .8042   -73.1563  -999.2500  -999.2500  -999.2500
 7484.5000  -999.2500   108.2500  -999.2500    69.3750      .5068      .4614      .6284   -67.2813  -999.2500  -999.2500  -999.2500
 7485.0000  -999.2500   109.6250  -999.2500    75.0000      .5229      .4697      .5361   -58.6406  -999.2500  -999.2500  -999.2500
 7485.5000  -999.2500   112.1250  -999.2500    73.6875      .5391      .4883      .5957   -49.3750  -999.2500  -999.2500  -999.2500
 7486.0000  -999.2500   105.8750  -999.2500    76.9375      .5596      .5181      .6797   -43.2617  -999.2500  -999.2500  -999.2500
 7486.5000  -999.2500   102.6250  -999.2500    79.8750      .5830      .5537      .6860   -40.2529  -999.2500  -999.2500  -999.2500
 7487.0000  -999.2500    98.2500  -999.2500    86.5000      .6021      .5874      .6826   -39.6786  -999.2500  -999.2500  -999.2500
 7487.5000  -999.2500    94.0000  -999.2500    80.8125      .6133      .6104      .7700   -40.0820  -999.2500  -999.2500  -999.2500
 7488.0000  -999.2500   105.5000  -999.2500    73.2500      .6211      .6177      .8359   -41.1709  -999.2500  -999.2500  -999.2500
 7488.5000  -999.2500   106.0000  -999.2500    66.5000      .6299      .6133      .8032   -42.5020  -999.2500  -999.2500  -999.2500
 7489.0000  -999.2500   110.5000  -999.2500    65.8750      .6401      .6060      .7363   -43.5645  -999.2500  -999.2500  -999.2500
 7489.5000  -999.2500   110.7500  -999.2500    72.6875      .6543      .6045      .7349   -43.5098  -999.2500  -999.2500  -999.2500
 7490.0000  -999.2500   103.6250  -999.2500    74.8125      .6636      .6118      .8169   -43.6855  -999.2500  -999.2500  -999.2500
 7490.5000  -999.2500   105.0000  -999.2500    78.3125      .6621      .6250      .9150   -44.3516  -999.2500  -999.2500  -999.2500
 7491.0000  -999.2500   106.0000  -999.2500    73.6875      .6675      .6377      .9346   -45.0469  -999.2500  -999.2500  -999.2500
 7491.5000  -999.2500   108.2500  -999.2500    75.8750      .6743      .6431      .8755   -45.4023  -999.2500  -999.2500  -999.2500
 7492.0000  -999.2500   114.2500  -999.2500    74.1250      .6826      .6411      .7690   -45.8242  -999.2500  -999.2500  -999.2500
 7492.5000  -999.2500   114.5000  -999.2500    74.8125      .6938      .6372      .7285   -44.7305  -999.2500  -999.2500  -999.2500
 7493.0000  -999.2500   112.5000  -999.2500    74.8125      .7041      .6372      .7266   -44.0312  -999.2500  -999.2500  -999.2500
 7493.5000  -999.2500   112.0000  -999.2500    73.4375      .7090      .6450      .7661   -43.1523  -999.2500  -999.2500  -999.2500
 7494.0000  -999.2500   112.2500  -999.2500    75.1250      .7129      .6587      .8735   -42.5645  -999.2500  -999.2500  -999.2500
 7494.5000  -999.2500   111.2500  -999.2500    75.4375      .7202      .6733      .9253   -42.8906  -999.2500  -999.2500  -999.2500
 7495.0000  -999.2500   112.7500  -999.2500    76.5000      .7329      .6846      .8696   -42.0098  -999.2500  -999.2500  -999.2500
 7495.5000  -999.2500   112.2500  -999.2500    76.5625      .7427      .6895      .8354   -42.2734  -999.2500  -999.2500  -999.2500
 7496.0000  -999.2500   112.0000  -999.2500    74.8125      .7505      .6895      .8325   -42.0977  -999.2500  -999.2500  -999.2500
 7496.5000  -999.2500   108.5000  -999.2500    80.1875      .7563      .6870      .8208   -41.9648  -999.2500  -999.2500  -999.2500
 7497.0000  -999.2500   108.8750  -999.2500    83.0625      .7617      .6870      .7749   -42.9316  -999.2500  -999.2500  -999.2500
 7497.5000  -999.2500   107.8750  -999.2500    81.8750      .7715      .6914      .7944   -42.5664  -999.2500  -999.2500  -999.2500
 7498.0000  -999.2500   107.2500  -999.2500    77.1250      .7764      .7007      .8828   -41.9209  -999.2500  -999.2500  -999.2500
 7498.5000  -999.2500   104.7500  -999.2500    78.4375      .7778      .7124      .9272   -41.1533  -999.2500  -999.2500  -999.2500
 7499.0000  -999.2500   105.0000  -999.2500    82.5000      .7832      .7231      .9375   -40.3696  -999.2500  -999.2500  -999.2500
 7499.5000  -999.2500   106.3750  -999.2500    85.0625      .7837      .7285      .9399   -39.4702  -999.2500  -999.2500  -999.2500
 7500.0000  -999.2500   109.8750  -999.2500    81.0000      .7778      .7266      .9194   -39.3198  -999.2500  -999.2500  -999.2500
 7500.5000  -999.2500   114.3750  -999.2500    77.2500      .7686      .7168      .8662   -39.3774  -999.2500  -999.2500  -999.2500
 7501.0000  -999.2500   117.7500  -999.2500    76.7500      .7598      .7026      .7739   -39.3926  -999.2500  -999.2500  -999.2500
 7501.5000  -999.2500   120.0000  -999.2500    79.8125      .7515      .6880      .6992   -39.5112  -999.2500  -999.2500  -999.2500
 7502.0000  -999.2500   114.2500  -999.2500    84.2500      .7476      .6787      .6421   -39.7334  -999.2500  -999.2500  -999.2500
 7502.5000  -999.2500   107.8750  -999.2500    84.7500      .7476      .6807      .6118   -40.7041  -999.2500  -999.2500  -999.2500
 7503.0000  -999.2500    96.5000  -999.2500    81.6875      .7446      .6953      .6426   -42.5273  -999.2500  -999.2500  -999.2500
 7503.5000  -999.2500    87.7500  -999.2500    76.1250      .7368      .7173      .7939   -47.2227  -999.2500  -999.2500  -999.2500
 7504.0000  -999.2500    90.2500  -999.2500    68.0625      .7261      .7349     1.1748   -53.6016  -999.2500  -999.2500  -999.2500
 7504.5000  -999.2500    94.3750  -999.2500    61.6250      .7187      .7349     1.4033   -56.8437  -999.2500  -999.2500  -999.2500
 7505.0000  -999.2500    99.7500  -999.2500    62.4375      .7153      .7129     1.2354   -58.7187  -999.2500  -999.2500  -999.2500
 7505.5000  -999.2500   107.0000  -999.2500    63.2188      .7046      .6812      .9980   -58.7344  -999.2500  -999.2500  -999.2500
 7506.0000  -999.2500   107.2500  -999.2500    64.8750      .6899      .6533      .8433   -58.2499  -999.2500  -999.2500  -999.2500
 7506.5000  -999.2500   109.2500  -999.2500    66.8750      .6826      .6372      .7798   -57.7656  -999.2500  -999.2500  -999.2500
 7507.0000  -999.2500   107.8750  -999.2500    72.9375      .6753      .6338      .8701   -56.9844  -999.2500  -999.2500  -999.2500
 7507.5000  -999.2500   108.5000  -999.2500    71.3750      .6694      .6387      .8755   -56.6406  -999.2500  -999.2500  -999.2500
 7508.0000  -999.2500   106.3750  -999.2500    68.7500      .6646      .6465      .8027   -57.1094  -999.2500  -999.2500  -999.2500
 7508.5000  -999.2500   105.5000  -999.2500    61.8437      .6616      .6504      .8745   -58.4375  -999.2500  -999.2500  -999.2500
 7509.0000  -999.2500   106.2500  -999.2500    60.9375      .6567      .6484      .9575   -60.3438  -999.2500  -999.2500  -999.2500
 7509.5000  -999.2500   106.8750  -999.2500    58.5000      .6475      .6396      .9512   -62.9531  -999.2500  -999.2500  -999.2500
 7510.0000  -999.2500   109.1250  -999.2500    57.6562      .6367      .6265      .9268   -66.2344  -999.2500  -999.2500  -999.2500
 7510.5000  -999.2500   109.7500  -999.2500    60.5625      .6274      .6113      .9131   -68.0156  -999.2500  -999.2500  -999.2500
 7511.0000  -999.2500   108.0000  -999.2500    59.0000      .6177      .5977      .8906   -69.3125  -999.2500  -999.2500  -999.2500
