~VERSION INFORMATION
VERS.                             2.0:   CWLS Log ASCII Standard-VERSION 2.0
WRAP.                              NO:   One line per depth step
~Well Information Block
STRT.F                      4470.0000:   Top Depth
STOP.F                     11800.5000:   Bottom Depth
STEP.F                         .50000:   Depth Increment
NULL.                        -999.250:   Null Value
FLD .                      GA BLK 315:   Field Name
WELL.       OCSG14835   001 ST00 BP00:   NAME
API .                  42706403880000:   WELL API
LOC .       993' FSL & 3018' FEL OF B:   AREA NAME
CTRY.                             USA:   COUNTRY
EGL .FT                      -66.0000:   GROUND LEVEL
EKB .FT                        0.0000:   KB ELEVATION
COMP.              APACHE CORPORATION:   OPERATOR
DREF.                             MSL:   PERM DATUM
COUN.                        OFFSHORE:   RIG NAME
STAT.                              TX:   STATE
CNTY.                        OFFSHORE:   COUNTY
DIGS.                   QC Data, Inc.:   DIG COMPANY NAME
EREF.FT                        0.0000:   ELEV DEPTH REFERENCE
UWI .                  42706403880000:   WELL API
DICO.               IHS : Digitizing Company
~PARAMETER INFORMATION (zones)
#MNEM.UNIT                       Value     Description
#=========                       =====     ===========
#ZONATION                        ZONES:   ZONATION NAME
#ZONE                             LAS1:   ZONE NAME
TOP .                       4470.0000:   TOP DEPTH
BOT .                      11816.0000:   BOTTOM DEPTH
SRVC.                   WESTERN ATLAS:   LOGGING CONTRACTOR
DATE.                         10AUG96:   RUN DATE
RW  .OHMM                      0.0000:   RW
RWT .DEGF                      0.0000:   RW TEMP
RUN .                               1:   LOG RUN
TDL .FT                     9298.0000:   FINAL TD LOGGER
TDD .FT                     9300.0000:   FINAL TD DRILLER
BOTL.FT                     9296.0000:   BOTTOM DEPTH LOGGED
TOPL.FT                     4478.0000:   TOP DEPTH LOGGED
CSGL.FT                     4494.0000:   CASING DEPTH LOGGER
CSGD.FT                     4488.0000:   CASING DEPTH DRILLER
CSGS.IN                       13.3750:   CASING SIZE
CSGW.                          0.0000:   CASING WEIGHT
BS  .IN                       12.2500:   BIT SIZE
MUD .                             MUD:   MUD TYPE
MUDD.                         14.2000:   MUD WEIGHT
MUDV.                         41.0000:   MUD VISCOSITY
FL  .                          4.4000:   FLUID LOSS
PH  .                          8.5000:   MUD PH
MUDS.                             PIT:   MUD SOURCE
RM  .OHMM                      1.3000:   RM
RMT .DEGF                     80.0000:   RM TEMP
RMF .OHMM                      0.5400:   RMF
RMFT.DEGF                     80.0000:   RMF TEMP
RMC .OHMM                      2.5000:   RMC
RMCT.DEGF                     80.0000:   RMC TEMP
MMFS.                            MEAS:   RMF SOURCE
MCFS.                            MEAS:   RMC SOURCE
RMBH.OHMM                      0.5500:   RM BH
BHT .DEGF                    182.0000:   BH TEMP
TMAX.DEGF                    182.0000:   MAX REC TEMP
SON .                          180318:   SERVICE ORDER NUM
ELMF.FT                       92.0000:   ABOVE PERM DATUM
LMF .                              DF:   LOGS MEAS FROM
DMF .                              DF:   DRILL MEAS FROM
TIMC.                            0600:   TIME SINCE CIRCLN
UNIT.8940                        8079:   UNIT NO.
BASE.                        PEARLAND:   LOG UNIT HOME BASE
ENG .                          SUTTON:   ENGINEER
WIT .                            DILL:   WITNESS
~PARAMETER INFORMATION (zones)
#MNEM.UNIT                       Value     Description
#=========                       =====     ===========
#ZONATION                        ZONES:   ZONATION NAME
#ZONE                             LAS2:   ZONE NAME
TOP .                       4470.0000:   TOP DEPTH
BOT .                      11816.0000:   BOTTOM DEPTH
SRVC.                   WESTERN ATLAS:   LOGGING CONTRACTOR
DATE.                         21AUG96:   RUN DATE
RW  .OHMM                      0.0000:   RW
RWT .DEGF                      0.0000:   RW TEMP
RUN .                               2:   LOG RUN
TDL .FT                    11503.0000:   FINAL TD LOGGER
TDD .FT                    11500.0000:   FINAL TD DRILLER
BOTL.FT                    11495.0000:   BOTTOM DEPTH LOGGED
TOPL.FT                     9240.0000:   TOP DEPTH LOGGED
CSGL.FT                     9240.0000:   CASING DEPTH LOGGER
CSGD.FT                     9250.0000:   CASING DEPTH DRILLER
CSGS.IN                        9.6250:   CASING SIZE
CSGW.                          0.0000:   CASING WEIGHT
BS  .IN                        8.5000:   BIT SIZE
MUD .                     DESCO LO-PH:   MUD TYPE
MUDD.                         16.4000:   MUD WEIGHT
MUDV.                         50.0000:   MUD VISCOSITY
FL  .                          2.8000:   FLUID LOSS
PH  .                          8.5000:   MUD PH
MUDS.                             PIT:   MUD SOURCE
RM  .OHMM                      1.0000:   RM
RMT .DEGF                     80.0000:   RM TEMP
RMF .OHMM                      0.4500:   RMF
RMFT.DEGF                     80.0000:   RMF TEMP
RMC .OHMM                      3.0000:   RMC
RMCT.DEGF                     80.0000:   RMC TEMP
MMFS.                            MEAS:   RMF SOURCE
MCFS.                            MEAS:   RMC SOURCE
RMBH.OHMM                      0.3870:   RM BH
BHT .DEGF                    230.0000:   BH TEMP
TMAX.DEGF                    230.0000:   MAX REC TEMP
SON .                          180319:   SERVICE ORDER NUM
ELMF.FT                       92.0000:   ABOVE PERM DATUM
LMF .                              DF:   LOGS MEAS FROM
DMF .                              DF:   DRILL MEAS FROM
TIMC.                            0700:   TIME SINCE CIRCLN
UNIT.8940                        8089:   UNIT NO.
BASE.                        PEARLAND:   LOG UNIT HOME BASE
ENG .                    SUTTON/DAVIS:   ENGINEER
WIT .                      MR.CAMBELL:   WITNESS
~PARAMETER INFORMATION (zones)
#MNEM.UNIT                       Value     Description
#=========                       =====     ===========
#ZONATION                        ZONES:   ZONATION NAME
#ZONE                             LAS3:   ZONE NAME
TOP .                       4470.0000:   TOP DEPTH
BOT .                      11816.0000:   BOTTOM DEPTH
SRVC.                   WESTERN ATLAS:   LOGGING CONTRACTOR
DATE.                         23AUG96:   RUN DATE
RW  .OHMM                      0.0000:   RW
RWT .DEGF                      0.0000:   RW TEMP
RUN .                               3:   LOG RUN
TDL .FT                    11800.0000:   FINAL TD LOGGER
TDD .FT                    11800.0000:   FINAL TD DRILLER
BOTL.FT                    11791.0000:   BOTTOM DEPTH LOGGED
TOPL.FT                     9240.0000:   TOP DEPTH LOGGED
CSGL.FT                     9240.0000:   CASING DEPTH LOGGER
CSGD.FT                     9250.0000:   CASING DEPTH DRILLER
CSGS.IN                        9.6250:   CASING SIZE
CSGW.                          0.0000:   CASING WEIGHT
BS  .IN                        8.5000:   BIT SIZE
MUD .                     DESCO LO-PH:   MUD TYPE
MUDD.                         16.4000:   MUD WEIGHT
MUDV.                         50.0000:   MUD VISCOSITY
FL  .                          2.8000:   FLUID LOSS
PH  .                          8.5000:   MUD PH
MUDS.                             PIT:   MUD SOURCE
RM  .OHMM                      1.0000:   RM
RMT .DEGF                     80.0000:   RM TEMP
RMF .OHMM                      0.4500:   RMF
RMFT.DEGF                     80.0000:   RMF TEMP
RMC .OHMM                      3.0000:   RMC
RMCT.DEGF                     80.0000:   RMC TEMP
MMFS.                            MEAS:   RMF SOURCE
MCFS.                            MEAS:   RMC SOURCE
RMBH.OHMM                      0.3870:   RM BH
BHT .DEGF                    232.0000:   BH TEMP
TMAX.DEGF                    232.0000:   MAX REC TEMP
SON .                          180319:   SERVICE ORDER NUM
ELMF.FT                       92.0000:   ABOVE PERM DATUM
LMF .                              DF:   LOGS MEAS FROM
DMF .                              DF:   DRILL MEAS FROM
TIMC.                            0700:   TIME SINCE CIRCLN
UNIT.8940                        8089:   UNIT NO.
BASE.                        PEARLAND:   LOG UNIT HOME BASE
ENG .                    SUTTON/DAVIS:   ENGINEER
WIT .                      BOB SHELBY:   WITNESS
~Curve Information Block
#MNEM.UNIT                    API CODE    No Description
#=========                    ========    == ===========
DEPT.F                   00 001 00 00:     1  DEPTH
CALX.IN                              :     2  Caliper
CNCF.%                               :     3  Field Normalized CNC
DT.US/F                              :     4  Sonic Transit Time
GR.GAPI                              :     5  Gamma Ray
M2R1.OHMM                            :     6  Array Resistivity Curve
M2R2.OHMM                            :     7  Array Resistivity Curve
M2R3.OHMM                            :     8  Array Resistivity Curve
M2R6.OHMM                            :     9  Array Resistivity Curve
M2R9.OHMM                            :    10  Array Resistivity Curve
M2RX.OHMM                            :    11  Array Resistivity Curve
PORZ.%                               :    12  PORZ
RFOC.OHMM                            :    13  Medium Resistivity
RILD.OHMM                            :    14  Deep Resistivity
RILM.OHMM                            :    15  Medium Resistivity
RWAA.OHMM                            :    16  RWAA
RWAZ.OHMM                            :    17  RWAZ
SP.MV                                :    18  Spontaneous Potential
TEN.LB                               :    19  TEN
ZCOR.G/CC                            :    20  Density Correction
~ASCII
# ...
11093.0000     9.2730    38.4980   118.9180    65.0860      .5780      .5380      .5180      .5120      .5090      .5090    16.6240  -999.2500  -999.2500  -999.2500      .0980      .0170     -.3650   -10.9090      .0080
11093.5000     9.2390    37.9840   119.5750    65.5860      .5760      .5350      .5150      .5080      .5040      .5040    16.5320  -999.2500  -999.2500  -999.2500      .1000      .0170     -.7990   -10.7570      .0040
11094.0000     9.2230    36.0490   118.7160    64.7810      .5860      .5440      .5230      .5160      .5110      .5110    16.3520  -999.2500  -999.2500  -999.2500      .0980      .0170      .0150    -6.5230     -.0100
11094.5000     9.2190    34.8410   116.9820    63.4140      .6050      .5610      .5390      .5320      .5280      .5280    15.9380  -999.2500  -999.2500  -999.2500      .0950      .0160     1.2420    -2.0850     -.0190
11095.0000     9.2170    34.6630   116.3560    62.6420      .6170      .5730      .5490      .5420      .5380      .5380    15.3670  -999.2500  -999.2500  -999.2500      .0950      .0150     1.8140      .4140     -.0110
11095.5000     9.2140    33.8100   116.2870    62.3460      .6110      .5670      .5430      .5350      .5310      .5320    14.8960  -999.2500  -999.2500  -999.2500      .0940      .0140     1.8990     -.2510     -.0010
11096.0000     9.2050    32.8920   116.6080    62.6900      .5960      .5540      .5310      .5220      .5170      .5170    14.7520  -999.2500  -999.2500  -999.2500      .0920      .0140     1.8140    -2.9760      .0030
11096.5000     9.1860    33.2880   117.4950    63.4710      .5860      .5460      .5230      .5140      .5090      .5090    14.9490  -999.2500  -999.2500  -999.2500      .0940      .0140     1.5950    -6.4990      .0040
11097.0000     9.1670    34.0580   118.3780    63.3420      .5790      .5410      .5190      .5110      .5060      .5050    15.1860  -999.2500  -999.2500  -999.2500      .0960      .0140     1.2290    -9.1480      .0000
11097.5000     9.1630    34.0160   118.3590    62.0840      .5700      .5320      .5120      .5050      .5010      .5000    15.1520  -999.2500  -999.2500  -999.2500      .0950      .0140      .9870    -7.5280     -.0010
11098.0000     9.1770    34.0310   118.6330    61.5830      .5640      .5260      .5070      .5010      .4980      .4980    14.9530  -999.2500  -999.2500  -999.2500      .0950      .0140     1.2030     -.3790      .0020
11098.5000     9.1960    34.4150   118.8110    61.9050      .5650      .5260      .5080      .5030      .5010      .5000    14.9520  -999.2500  -999.2500  -999.2500      .0960      .0140     1.6210     6.6620     -.0070
11099.0000     9.2080    34.3020   117.9000    61.5050      .5720      .5310      .5130      .5080      .5050      .5050    15.1890  -999.2500  -999.2500  -999.2500      .0940      .0140     1.6910     6.9260     -.0230
11099.5000     9.2060    34.1300   117.5820    60.3840      .5800      .5390      .5190      .5140      .5110      .5110    15.4570  -999.2500  -999.2500  -999.2500      .0940      .0150     1.3670      .9390     -.0230
11100.0000     9.1940    34.6040   117.1240    59.9240      .5890      .5490      .5260      .5200      .5170      .5170    15.7120  -999.2500  -999.2500  -999.2500      .0940      .0160     1.0310    -5.0150     -.0110
11100.5000     9.1790    35.1870   116.3170    60.3960      .5970      .5560      .5320      .5260      .5220      .5220    15.9940  -999.2500  -999.2500  -999.2500      .0920      .0160      .9800    -5.1190     -.0050
11101.0000     9.1690    35.0340   116.6230    60.1890      .6010      .5590      .5360      .5290      .5250      .5250    16.1320  -999.2500  -999.2500  -999.2500      .0940      .0170     1.1170      .4550     -.0060
11101.5000     9.1620    34.6080   117.4090    59.4810      .5980      .5560      .5330      .5250      .5210      .5210    15.9470  -999.2500  -999.2500  -999.2500      .0960      .0160     1.1290     5.3060     -.0030
11102.0000     9.1550    34.4560   117.8090    59.9480      .5910      .5490      .5260      .5190      .5150      .5140    15.6670  -999.2500  -999.2500  -999.2500      .0960      .0150      .9970     4.7960     -.0010
11102.5000     9.1410    34.1550   117.7990    61.3110      .5880      .5480      .5250      .5180      .5130      .5120    15.6740  -999.2500  -999.2500  -999.2500      .0950      .0150     1.0420     2.2970     -.0040
11103.0000     9.1150    33.6110   117.0420    62.0530      .5950      .5550      .5320      .5240      .5200      .5190    15.9250  -999.2500  -999.2500  -999.2500      .0940      .0160     1.2710     4.1770     -.0110
11103.5000     9.0820    33.1760   115.5310    62.2010      .6080      .5650      .5420      .5340      .5290      .5290    15.9890  -999.2500  -999.2500  -999.2500      .0910      .0170     1.3360     7.6450     -.0180
11104.0000     9.0330    33.1030   114.6930    61.8580      .6170      .5710      .5470      .5380      .5340      .5340    15.5610  -999.2500  -999.2500  -999.2500      .0890      .0160     1.2520     4.6400     -.0200
11104.5000     8.9640    33.4980   115.1950    60.8610      .6150      .5690      .5440      .5350      .5300      .5310    15.1060  -999.2500  -999.2500  -999.2500      .0900      .0150     1.3600    -6.3400     -.0160
11105.0000     8.8910    34.3100   116.5760    60.2570      .6010      .5580      .5340      .5250      .5210      .5210    15.4200  -999.2500  -999.2500  -999.2500      .0930      .0150     1.5390   -17.4460     -.0200
11105.5000     8.8620    35.3980   118.7190    60.9660      .5780      .5390      .5170      .5080      .5040      .5040    16.5570  -999.2500  -999.2500  -999.2500      .0970      .0170     1.4980   -22.8220     -.0380
11106.0000     8.9240    36.4900   120.6910    62.8650      .5530      .5150      .4950      .4870      .4830      .4820    17.7840  -999.2500  -999.2500  -999.2500      .0990      .0190     1.3220   -24.4680     -.0480
11106.5000     9.0610    37.0920   121.7210    64.4710      .5350      .4970      .4780      .4720      .4670      .4660    18.4450  -999.2500  -999.2500  -999.2500      .0990      .0200     1.0770   -26.3530     -.0360
11107.0000     9.1860    37.0690   122.3870    65.4340      .5290      .4900      .4710      .4660      .4620      .4600    18.2880  -999.2500  -999.2500  -999.2500      .1000      .0190      .6600   -28.3700     -.0240
11107.5000     9.2440    37.0010   121.7650    66.6810      .5330      .4940      .4740      .4690      .4650      .4630    17.6740  -999.2500  -999.2500  -999.2500      .0980      .0180      .2050   -27.1750     -.0290
11108.0000     9.2550    37.1460   119.6490    67.8230      .5490      .5090      .4880      .4820      .4780      .4770    17.3090  -999.2500  -999.2500  -999.2500      .0950      .0180      .0100   -22.8540     -.0370
11108.5000     9.2570    37.0150   117.9350    67.8340      .5790      .5380      .5150      .5090      .5060      .5060    17.4110  -999.2500  -999.2500  -999.2500      .0950      .0190      .1560   -19.4820     -.0370
11109.0000     9.2990    36.3720   116.0400    68.0100      .6120      .5720      .5490      .5430      .5410      .5430    17.6230  -999.2500  -999.2500  -999.2500      .0950      .0210      .4070   -20.0850     -.0430
11109.5000     9.3580    35.3360   114.6100    68.4630      .6330      .5940      .5710      .5660      .5650      .5670    17.7120  -999.2500  -999.2500  -999.2500      .0940      .0220      .5540   -22.8280     -.0560
11110.0000     9.3510    34.2900   114.0970    67.7770      .6380      .6010      .5780      .5730      .5720      .5750    17.8150  -999.2500  -999.2500  -999.2500      .0940      .0230      .6050   -24.8300     -.0610
11110.5000     9.2780    33.7510   113.1380    67.2070      .6420      .6040      .5800      .5760      .5750      .5790    18.0690  -999.2500  -999.2500  -999.2500      .0910      .0240      .6000   -25.4820     -.0510
11111.0000     9.2140    33.8390   113.2430    67.2460      .6460      .6070      .5830      .5790      .5780      .5810    18.3180  -999.2500  -999.2500  -999.2500      .0920      .0240      .2960   -26.3650     -.0400
