~VERSION INFORMATION
VERS.                             2.0:   CWLS Log ASCII Standard-VERSION 2.0
WRAP.                              NO:   One line per depth step
~Well Information Block
STRT.F                      3877.0000:   Top Depth
STOP.F                     10380.0000:   Bottom Depth
STEP.F                         .50000:   Depth Increment
NULL.                        -999.250:   Null Value
FLD .                      GA BLK 321:   Field Name
WELL.       OCSG11316   001 ST01 BP00:   NAME
API .                  42706402670100:   WELL API
EDF .F                        90.0000:   ELEV DRILL FLOOR
COMP.              SHELL OFFSHORE INC:   OPERATOR
BN  .                             321:   BLOCK
CTRY.                             USA:   COUNTRY NAME
CNTY.                        GLVSTN L:   COUNTY NAME
EKB .F                        91.0000:   ELEV KELLY BUSHING
TDD .F                      10395.000:   FINAL TD DRILLER
STAT.                           TEXAS:   STATE NAME
UWI .                  42706402670100:   WELL API
DICO.               IHS : Digitizing Company
~PARAMETER INFORMATION (zones)
#MNEM.UNIT                       Value     Description
#=========                       =====     ===========
#ZONATION                          DIL:   ZONATION NAME
#ZONE                            RUN_1:   ZONE NAME
TOP .                       3877.0000:   TOP DEPTH
BOT .                      10380.5000:   BOTTOM DEPTH
RUN .                               1:   RUN NUMBER
LCCD.                             280:   LOGGING CONTRACTOR
SRVC.                     Halliburton:   LOGGING CONT NAME
DICO.          QC Data Collectors Ltd:   DIG COMPANY NAME
LDAT.                      06/13/1990:   DATE LOGGED
ELD .F                        91.0000:   LOG DATUM ELEVATION
TDD .F                     10395.0000:   TOTAL DEPTH DRILLER
TDL .F                     10390.0000:   TOTAL DEPTH LOGGER
BOTL.F                     10380.0000:   BOTTOM DEPTH LOGGED
TOPL.F                      3954.0000:   TOP DEPTH LOGGED
CS1 .IN                       13.3750:   CASING SIZE 1
BS1 .IN                       12.2500:   BIT SIZE 1
DDB1.F                     10395.0000:   DEPTH DRILLED BIT 1
BHF .                              99:   FLUID CODE
DPT .                   Miscellaneous:   DRILLING FLUID TYPE
MUDD.                         13.4000:   FLUID DENSITY
MUDV.                         68.0000:   FLUID VISCOSITY
DFPH.                          9.0000:   FLUID PH
FL  .                          2.1000:   FLUID LOSS
RM  .OHMM                       .0700:   RM
RMT .DEGF                     77.0000:   RM TEMP
RMF .OHMM                       .0400:   RMF
RMFT.DEGF                     73.0000:   RMF TEMP
FSC .                               M:   RMF CODE
RMC .OHMM                       .1000:   RMC
RMCT.DEGF                     74.0000:   RMC TEMP
CMC .                               M:   RMC CODE
TMAX.DEGF                    209.0000:   MAX REC TEMP
TIMC.                         13.0000:   TIME SINCE CIRCLN
~Curve Information Block
#MNEM.UNIT                    API CODE    No Description
#=========                    ========    == ===========
DEPT.F                   00 001 00 00:     1  DEPTH
CALI.IN                              :     2  Caliper
DT.US/F                              :     3  Sonic Transit Time
GR.GAPI                              :     4  Gamma Ray
ILD.OHMM                             :     5  Deep Induction Resistivity
ILM.OHMM                             :     6  Medium Induction Resistivity
SFL.OHMM                             :     7  Medium Resistivity
SP.MV                                :     8  Spontaneous Potential
~ASCII
# ...
 9064.0000    14.7642    94.4730    65.3965      .9492      .8932     1.3033   -37.1868
 9064.5000    14.7538    94.8203    67.2244      .9500      .9022     1.2761   -37.5919
 9065.0000    14.7744    95.2094    69.8375      .9546      .8851     1.2434   -37.8511
 9065.5000    14.8063    95.6721    70.0090      .9590      .8711     1.1877   -37.8604
 9066.0000    14.8672    95.9672    67.8622      .9630      .8573     1.3764   -37.7381
 9066.5000    14.9378    95.8602    65.5358      .9667      .8408     1.5203   -37.4558
 9067.0000    15.0139    95.6547    63.3274      .9542      .8093     1.6156   -37.1624
 9067.5000    15.0899    96.0988    62.1977      .9316      .7716     1.4240   -36.9576
 9068.0000    15.1637    96.7631    62.7592      .9125      .7757     1.2661   -36.7526
 9068.5000    15.2220    97.5006    65.1311      .9031      .7987     1.1258   -36.5084
 9069.0000    15.2540    98.1630    66.4015      .8964      .8206     1.0503   -36.2518
 9069.5000    15.2619    98.7931    67.5178      .8911      .8289      .9982   -35.9064
 9070.0000    15.2491    99.0857    68.6689      .8887      .8235      .9528   -35.5318
 9070.5000    15.2341    98.9469    69.8428      .8863      .8099     1.1718   -34.8832
 9071.0000    15.2183    98.4855    70.9055      .8840      .7993     1.3966   -33.8969
 9071.5000    15.1654    98.0830    72.3167      .8790      .7927     1.4708   -34.1502
 9072.0000    15.1125    97.7257    73.9207      .8741      .7910     1.4955   -35.0293
 9072.5000    15.0569    97.5856    72.1826      .8692      .7979     1.5021   -35.6263
 9073.0000    14.9941    97.6431    67.7604      .8643      .7921     1.4722   -35.9615
 9073.5000    14.9362    97.9796    65.1499      .8595      .7786     1.3243   -35.8467
 9074.0000    14.9072    98.3196    64.0898      .8531      .7670     1.1296   -35.0561
 9074.5000    14.8792    98.6655    63.1063      .8447      .7569     1.0231   -34.2119
 9075.0000    14.8527    99.0115    62.0919      .8396      .7492      .9791   -33.7347
 9075.5000    14.8270    99.3588    61.2007      .8362      .7455     1.0317   -33.9180
 9076.0000    14.8023    99.6926    61.0680      .8379      .7448     1.1875   -34.3881
 9076.5000    14.7826    99.9193    61.7488      .8445      .7504     1.0139   -34.8631
 9077.0000    14.7827    99.8094    62.7699      .8574      .7637      .9089   -34.8428
 9077.5000    14.8128    99.2566    64.1877      .8739      .7787      .9551   -34.7612
 9078.0000    14.8460    98.6769    65.3890      .8774      .7851     1.1513   -34.7625
 9078.5000    14.8626    98.0847    65.6473      .8690      .7783     1.2495   -34.7836
 9079.0000    14.8791    97.9766    65.2999      .8586      .7697     1.1929   -35.2182
 9079.5000    14.8956    98.1436    64.8618      .8637      .7830     1.1134   -35.8441
 9080.0000    14.9121    98.6385    64.4236      .8861      .8061     1.0291   -36.5396
 9080.5000    14.9286    99.1331    64.6379      .9014      .8392      .9434   -37.1774
 9081.0000    14.9423    99.6267    65.1566      .8886      .8447      .9009   -37.4755
 9081.5000    14.9330    99.3993    65.7516      .8476      .8132      .8625   -37.1104
 9082.0000    14.9260    99.4703    66.3331      .8095      .7670      .9217   -36.6059
 9082.5000    14.9259    99.5414    67.0059      .7816      .7225      .9822   -36.1744
 9083.0000    14.9455    99.5132    66.8062      .7877      .6942      .9849   -35.7375
 9083.5000    14.9752    99.2307    64.4691      .8030      .6887      .9860   -35.2953
 9084.0000    15.0147    98.3148    62.2996      .8270      .7277     1.0256   -35.4995
 9084.5000    15.0543    97.3153    61.1069      .8531      .7791     1.1565   -35.5705
 9085.0000    15.0954    96.2834    59.9450      .8844      .8311     1.2229   -35.6414
 9085.5000    15.1372    95.5586    58.8542      .9160      .8812     1.2105   -35.7095
 9086.0000    15.1791    95.3108    57.5972      .9442      .9071     1.2358   -35.7600
 9086.5000    15.2207    95.6594    56.4484      .9589      .9460     1.2450   -35.8105
 9087.0000    15.2624    95.9893    56.6927      .9606      .9484     1.2713   -35.9072
 9087.5000    15.2959    96.1951    58.5433      .9602      .9003     1.2262   -36.0409
 9088.0000    15.3192    96.3479    60.6821      .9564      .8606     1.1985   -36.1747
 9088.5000    15.3430    96.3507    62.4965      .9526      .8387     1.1889   -36.3177
 9089.0000    15.3737    96.3278    63.6852      .9542      .8515     1.5486   -36.4796
 9089.5000    15.4019    96.0927    64.0082      .9563      .8792     1.6355   -36.6414
 9090.0000    15.4115    95.3866    62.0999      .9585      .8870     1.6526   -36.7601
 9090.5000    15.4088    94.8654    59.4358      .9610      .8773     1.5139   -36.8132
 9091.0000    15.3997    94.5896    58.8033      .9635      .8670     1.4113   -36.8663
 9091.5000    15.3837    94.4170    59.6047      .9644      .8779     1.4493   -36.8706
 9092.0000    15.3495    94.3894    61.3708      .9624      .9009     1.6318   -36.8715
 9092.5000    15.3074    94.4945    61.4039      .9605      .8859     1.7198   -36.8890
 9093.0000    15.2290    94.6813    61.0948      .9598      .8671     1.4862   -36.9286
 9093.5000    15.1186    94.9448    60.6861      .9606      .8509     1.2732   -36.9705
 9094.0000    14.9527    94.9462    60.8040      .9636      .8533     1.0953   -37.0203
 9094.5000    14.7133    94.6464    62.9039      .9749      .8958     1.3449   -37.0699
 9095.0000    14.5169    94.1654    64.8390      .9953      .9495     1.4430   -37.1608
 9095.5000    14.3242    93.3600    63.7455     1.0235      .9260     1.7126   -37.2806
 9096.0000    14.1781    92.4867    61.7166     1.0624      .9269     1.9577   -37.4004
 9096.5000    14.2325    91.5288    59.4841     1.0973      .9973     1.9865   -37.5237
 9097.0000    14.5681    90.8651    57.1630     1.0998      .9859     2.0077   -37.6486
 9097.5000    14.8522    90.7422    55.3003     1.0969      .9644     1.9285   -37.7656
 9098.0000    15.0256    91.0323    54.6457     1.0900      .9438     1.6768   -37.8627
 9098.5000    15.1438    91.1979    54.8601     1.0813      .9247     1.6346   -37.9421
 9099.0000    15.2330    91.3341    55.2689     1.0702      .9242     1.5783   -38.0036
 9099.5000    15.3338    91.1627    55.4218     1.0586      .9398     1.5182   -38.0605
 9100.0000    15.4110    90.8799    54.0353     1.0447      .9569     1.6457   -38.1101
 9100.5000    15.4702    90.3539    52.5666     1.0310      .9722     1.7476   -38.0424
 9101.0000    15.5278    89.7889    51.7819     1.0188      .9862     1.7477   -37.9053
 9101.5000    15.5782    89.2428    52.8346     1.0075      .9868     1.7741   -37.7875
 9102.0000    15.5856    88.8785    54.4507      .9980      .9697     1.9383   -37.6696
 9102.5000    15.5030    88.9304    56.0749      .9935      .9429     2.2177   -37.5948
 9103.0000    15.3702    89.5383    57.7232      .9892      .9154     1.9374   -37.5237
 9103.5000    15.2188    90.1692    59.0351      .9864      .8899     1.7318   -37.4526
 9104.0000    15.0828    90.8221    60.1594      .9844      .8680     1.5047   -37.3289
 9104.5000    15.0793    91.3898    60.9401      .9824      .8489     1.2888   -37.2019
 9105.0000    15.0999    91.8627    60.0696      .9816      .8333     1.2113   -37.0749
 9105.5000    15.1120    92.2751    59.1812      .9809      .8285     1.2413   -36.8420
 9106.0000    15.1161    92.6198    58.5286      .9796      .8479     1.3805   -36.6002
 9106.5000    15.0891    92.8411    57.9899      .9765      .8773     1.5518   -36.3690
 9107.0000    15.0549    93.0077    57.5972      .9735      .8736     1.6750   -36.1436
 9107.5000    15.0273    93.1478    59.1517      .9689      .8522     1.6711   -36.0106
 9108.0000    15.0215    93.3274    61.2288      .9642      .8334     1.4949   -35.9564
 9108.5000    15.0542    93.5514    62.7672      .9591      .8215     1.3422   -35.9271
 9109.0000    15.1145    93.8906    64.0015      .9539      .8393     1.3110   -35.9976
