~VERSION INFORMATION
VERS.                             2.0:   CWLS Log ASCII Standard-VERSION 2.0
WRAP.                              NO:   One line per depth step
~Well Information Block
STRT.F                      3732.0000:   Top Depth
STOP.F                      8303.0000:   Bottom Depth
STEP.F                         .50000:   Depth Increment
NULL.                        -999.250:   Null Value
FLD .                      BA BLK 415:   Field Name
WELL.       OCSG11271   001 ST00 BP00:   NAME
API .                  42704402170000:   WELL API
EDF .F                       100.0000:   ELEV DRILL FLOOR
COMP.                     APACHE CORP:   OPERATOR
BN  .                             415:   BLOCK
CTRY.                             USA:   COUNTRY NAME
CNTY.                        BRAZOS L:   COUNTY NAME
EGL .F                       -78.0000:   ELEV GROUND LEVEL
EKB .F                       101.0000:   ELEV KELLY BUSHING
TDD .F                       8311.000:   FINAL TD DRILLER
STAT.                           TEXAS:   STATE NAME
UWI .                  42704402170000:   WELL API
DICO.               IHS : Digitizing Company
~PARAMETER INFORMATION (zones)
#MNEM.UNIT                       Value     Description
#=========                       =====     ===========
#ZONATION                          CNL:   ZONATION NAME
#ZONE                            RUN_1:   ZONE NAME
TOP .                       5274.0000:   TOP DEPTH
BOT .                       8300.5000:   BOTTOM DEPTH
RUN .                               1:   RUN NUMBER
LCCD.                              99:   LOGGING CONTRACTOR
DICO.          QC Data Collectors Ltd:   DIG COMPANY NAME
LDAT.                      08/26/1990:   DATE LOGGED
ELD .F                       101.0000:   LOG DATUM ELEVATION
TDD .F                      8311.0000:   TOTAL DEPTH DRILLER
TDL .F                      8306.0000:   TOTAL DEPTH LOGGER
BOTL.F                      8303.0000:   BOTTOM DEPTH LOGGED
TOPL.F                      5257.0000:   TOP DEPTH LOGGED
CS1 .IN                       10.7500:   CASING SIZE 1
BS1 .IN                        9.8750:   BIT SIZE 1
DDB1.F                      8311.0000:   DEPTH DRILLED BIT 1
BHF .                              99:   FLUID CODE
DPT .                   Miscellaneous:   DRILLING FLUID TYPE
MUDD.                         10.0000:   FLUID DENSITY
MUDV.                         43.0000:   FLUID VISCOSITY
DFPH.                          8.1000:   FLUID PH
FL  .                          3.2000:   FLUID LOSS
RM  .OHMM                       .8800:   RM
RMT .DEGF                     75.0000:   RM TEMP
RMF .OHMM                       .7000:   RMF
RMFT.DEGF                     75.0000:   RMF TEMP
FSC .                               C:   RMF CODE
RMC .OHMM                       .9600:   RMC
RMCT.DEGF                     75.0000:   RMC TEMP
CMC .                               C:   RMC CODE
TMAX.DEGF                    166.0000:   MAX REC TEMP
TIMC.                         10.0000:   TIME SINCE CIRCLN
~PARAMETER INFORMATION (zones)
#MNEM.UNIT                       Value     Description
#=========                       =====     ===========
#ZONATION                          DIL:   ZONATION NAME
#ZONE                            RUN_1:   ZONE NAME
TOP .                       3732.0000:   TOP DEPTH
BOT .                       8303.5000:   BOTTOM DEPTH
RUN .                               1:   RUN NUMBER
LCCD.                              99:   LOGGING CONTRACTOR
DICO.          QC Data Collectors Ltd:   DIG COMPANY NAME
LDAT.                      08/26/1990:   DATE LOGGED
ELD .F                       101.0000:   LOG DATUM ELEVATION
TDD .F                      8311.0000:   TOTAL DEPTH DRILLER
TDL .F                      8306.0000:   TOTAL DEPTH LOGGER
BOTL.F                      8303.0000:   BOTTOM DEPTH LOGGED
TOPL.F                      3786.0000:   TOP DEPTH LOGGED
CS1 .IN                       10.7500:   CASING SIZE 1
BS1 .IN                        9.8750:   BIT SIZE 1
DDB1.F                      8311.0000:   DEPTH DRILLED BIT 1
BHF .                              99:   FLUID CODE
DPT .                   Miscellaneous:   DRILLING FLUID TYPE
MUDD.                         10.0000:   FLUID DENSITY
MUDV.                         43.0000:   FLUID VISCOSITY
DFPH.                          8.1000:   FLUID PH
FL  .                          3.2000:   FLUID LOSS
RM  .OHMM                       .8800:   RM
RMT .DEGF                     75.0000:   RM TEMP
RMF .OHMM                       .7000:   RMF
RMFT.DEGF                     75.0000:   RMF TEMP
FSC .                               C:   RMF CODE
RMC .OHMM                       .9600:   RMC
RMCT.DEGF                     75.0000:   RMC TEMP
CMC .                               C:   RMC CODE
TMAX.DEGF                    166.0000:   MAX REC TEMP
TIMC.                          6.0000:   TIME SINCE CIRCLN
~PARAMETER INFORMATION (zones)
#MNEM.UNIT                       Value     Description
#=========                       =====     ===========
#ZONATION                          FDC:   ZONATION NAME
#ZONE                            RUN_1:   ZONE NAME
TOP .                       5263.0000:   TOP DEPTH
BOT .                       8303.5000:   BOTTOM DEPTH
RUN .                               1:   RUN NUMBER
LCCD.                              99:   LOGGING CONTRACTOR
DICO.          QC Data Collectors Ltd:   DIG COMPANY NAME
LDAT.                      08/26/1990:   DATE LOGGED
ELD .F                       101.0000:   LOG DATUM ELEVATION
TDD .F                      8311.0000:   TOTAL DEPTH DRILLER
TDL .F                      8306.0000:   TOTAL DEPTH LOGGER
BOTL.F                      8303.0000:   BOTTOM DEPTH LOGGED
TOPL.F                      5257.0000:   TOP DEPTH LOGGED
CS1 .IN                       10.7500:   CASING SIZE 1
BS1 .IN                        9.8750:   BIT SIZE 1
DDB1.F                      8311.0000:   DEPTH DRILLED BIT 1
BHF .                              99:   FLUID CODE
DPT .                   Miscellaneous:   DRILLING FLUID TYPE
MUDD.                         10.0000:   FLUID DENSITY
MUDV.                         43.0000:   FLUID VISCOSITY
DFPH.                          8.1000:   FLUID PH
FL  .                          3.2000:   FLUID LOSS
RM  .OHMM                       .8800:   RM
RMT .DEGF                     75.0000:   RM TEMP
RMF .OHMM                       .7000:   RMF
RMFT.DEGF                     75.0000:   RMF TEMP
FSC .                               C:   RMF CODE
RMC .OHMM                       .9600:   RMC
RMCT.DEGF                     75.0000:   RMC TEMP
CMC .                               C:   RMC CODE
TMAX.DEGF                    166.0000:   MAX REC TEMP
TIMC.                         10.0000:   TIME SINCE CIRCLN
~Curve Information Block
#MNEM.UNIT                    API CODE    No Description
#=========                    ========    == ===========
DEPT.F                   00 001 00 00:     1  DEPTH
NPHI.%                               :     2  Neutron Porosity
CALI.IN                              :     3  Caliper
DT.US/F                              :     4  Sonic Transit Time
GR.GAPI                              :     5  Gamma Ray
ILD.OHMM                             :     6  Deep Induction Resistivity
ILM.OHMM                             :     7  Medium Induction Resistivity
RFOC.OHMM                            :     8  Medium Resistivity
SP.MV                                :     9  Spontaneous Potential
CALI.IN                              :    10  Caliper
DPHI.%                               :    11  Porosity
DRHO.G/C3                            :    12  Bulk Density Correction
GR.GAPI                              :    13  Gamma Ray
RHOB.G/C3                            :    14  Bulk Density
~ASCII
# ...
 4382.0000  -999.2500  -999.2500   121.6504    52.7151      .4639      .4720      .9197   -90.7263  -999.2500    40.8593  -999.2500  -999.2500  -999.2500
 4382.5000  -999.2500  -999.2500   122.9150    54.5974      .4464      .4539      .8454   -90.6116  -999.2500    41.4291  -999.2500  -999.2500  -999.2500
 4383.0000  -999.2500  -999.2500   123.4027    60.4781      .4296      .4373      .8316   -88.9994  -999.2500    41.7849  -999.2500  -999.2500  -999.2500
 4383.5000  -999.2500  -999.2500   125.4810    66.7229      .4160      .4234      .7994   -84.9528  -999.2500    43.1928  -999.2500  -999.2500  -999.2500
 4384.0000  -999.2500  -999.2500   129.3770    74.4496      .4054      .4128      .6470   -77.2339  -999.2500    45.2639  -999.2500  -999.2500  -999.2500
 4384.5000  -999.2500  -999.2500   132.4211    74.5289      .4020      .4110      .6298   -72.7739  -999.2500    46.4211  -999.2500  -999.2500  -999.2500
 4385.0000  -999.2500  -999.2500   132.9912    66.7593      .4024      .4093      .6773   -72.4988  -999.2500    47.7670  -999.2500  -999.2500  -999.2500
 4385.5000  -999.2500  -999.2500   133.0469    60.6030      .4014      .4076      .7422   -81.4457  -999.2500    47.9178  -999.2500  -999.2500  -999.2500
 4386.0000  -999.2500  -999.2500   131.3679    54.4518      .3922      .3928      .7826   -90.3110  -999.2500    46.8571  -999.2500  -999.2500  -999.2500
 4386.5000  -999.2500  -999.2500   128.2273    48.6334      .3768      .3752      .7803   -96.4882  -999.2500    45.3389  -999.2500  -999.2500  -999.2500
 4387.0000  -999.2500  -999.2500   126.3146    45.1847      .3585      .3564      .7451   -98.3730  -999.2500    43.7626  -999.2500  -999.2500  -999.2500
 4387.5000  -999.2500  -999.2500   124.9211    43.4695      .3394      .3457      .7192   -99.4059  -999.2500    42.6367  -999.2500  -999.2500  -999.2500
 4388.0000  -999.2500  -999.2500   124.1124    44.0161      .3202      .3343      .7267  -100.1721  -999.2500    42.0352  -999.2500  -999.2500  -999.2500
 4388.5000  -999.2500  -999.2500   123.7349    46.5613      .3053      .3213      .7347  -100.8599  -999.2500    41.8158  -999.2500  -999.2500  -999.2500
 4389.0000  -999.2500  -999.2500   123.4115    50.3441      .2941      .3167      .7416  -101.1104  -999.2500    41.7567  -999.2500  -999.2500  -999.2500
 4389.5000  -999.2500  -999.2500   122.9941    54.6987      .2874      .3169      .7335  -101.1379  -999.2500    41.7458  -999.2500  -999.2500  -999.2500
 4390.0000  -999.2500  -999.2500   122.2227    59.0950      .2891      .3215      .7215  -100.3281  -999.2500    41.2797  -999.2500  -999.2500  -999.2500
 4390.5000  -999.2500  -999.2500   121.6998    64.4507      .2961      .3310      .6930   -96.6858  -999.2500    40.7888  -999.2500  -999.2500  -999.2500
 4391.0000  -999.2500  -999.2500   122.2330    70.0299      .3200      .3437      .6484   -87.3524  -999.2500    41.4526  -999.2500  -999.2500  -999.2500
 4391.5000  -999.2500  -999.2500   124.7911    72.9463      .3474      .3603      .6065   -76.6567  -999.2500    43.1171  -999.2500  -999.2500  -999.2500
 4392.0000  -999.2500  -999.2500   127.4669    69.4424      .3757      .3757      .6439   -72.9026  -999.2500    44.7632  -999.2500  -999.2500  -999.2500
 4392.5000  -999.2500  -999.2500   129.1482    65.0695      .3979      .3886      .7364   -75.4764  -999.2500    45.4698  -999.2500  -999.2500  -999.2500
 4393.0000  -999.2500  -999.2500   130.2549    60.4860      .4139      .3998      .8302   -83.2759  -999.2500    45.7849  -999.2500  -999.2500  -999.2500
 4393.5000  -999.2500  -999.2500   129.1379    58.2878      .4235      .4027      .8727   -89.4895  -999.2500    46.0197  -999.2500  -999.2500  -999.2500
 4394.0000  -999.2500  -999.2500   127.3976    56.9391      .4306      .4056      .8226   -95.6875  -999.2500    44.8304  -999.2500  -999.2500  -999.2500
 4394.5000  -999.2500  -999.2500   125.4673    55.7328      .4308      .4029      .7655   -98.3107  -999.2500    43.6784  -999.2500  -999.2500  -999.2500
 4395.0000  -999.2500  -999.2500   124.4124    54.6513      .4298      .4001      .7300   -99.5859  -999.2500    42.5740  -999.2500  -999.2500  -999.2500
 4395.5000  -999.2500  -999.2500   123.4834    53.5964      .4200      .3907      .7036  -100.4403  -999.2500    41.8805  -999.2500  -999.2500  -999.2500
 4396.0000  -999.2500  -999.2500   122.7727    52.6104      .4104      .3809      .6959  -100.9340  -999.2500    41.4163  -999.2500  -999.2500  -999.2500
 4396.5000  -999.2500  -999.2500   122.4374    51.6882      .3995      .3712      .6894  -101.1440  -999.2500    41.2094  -999.2500  -999.2500  -999.2500
 4397.0000  -999.2500  -999.2500   122.3845    50.9803      .3876      .3617      .6845  -101.2678  -999.2500    41.3508  -999.2500  -999.2500  -999.2500
 4397.5000  -999.2500  -999.2500   122.5472    50.6982      .3764      .3542      .6725  -101.3549  -999.2500    41.3567  -999.2500  -999.2500  -999.2500
 4398.0000  -999.2500  -999.2500   122.4911    50.4572      .3670      .3478      .6612  -101.5033  -999.2500    41.2615  -999.2500  -999.2500  -999.2500
 4398.5000  -999.2500  -999.2500   122.2886    50.7275      .3583      .3434      .6429  -101.7018  -999.2500    41.0362  -999.2500  -999.2500  -999.2500
 4399.0000  -999.2500  -999.2500   122.1042    53.2870      .3546      .3406      .6333  -102.1315  -999.2500    40.7216  -999.2500  -999.2500  -999.2500
 4399.5000  -999.2500  -999.2500   121.9229    55.8544      .3513      .3384      .6308  -102.5712  -999.2500    40.4070  -999.2500  -999.2500  -999.2500
 4400.0000  -999.2500  -999.2500   122.2792    57.2133      .3500      .3376      .6330  -103.0226  -999.2500    40.6611  -999.2500  -999.2500  -999.2500
 4400.5000  -999.2500  -999.2500   122.6770    55.0731      .3487      .3367      .6381  -103.3521  -999.2500    40.9271  -999.2500  -999.2500  -999.2500
 4401.0000  -999.2500  -999.2500   123.1421    51.8676      .3498      .3367      .6432  -103.5319  -999.2500    41.1978  -999.2500  -999.2500  -999.2500
 4401.5000  -999.2500  -999.2500   123.5015    49.2898      .3517      .3368      .6482  -103.5441  -999.2500    41.4691  -999.2500  -999.2500  -999.2500
 4402.0000  -999.2500  -999.2500   123.7032    47.9399      .3535      .3371      .6402  -103.3654  -999.2500    41.6213  -999.2500  -999.2500  -999.2500
 4402.5000  -999.2500  -999.2500   123.7848    46.6848      .3548      .3379      .6272  -103.0974  -999.2500    41.6609  -999.2500  -999.2500  -999.2500
 4403.0000  -999.2500  -999.2500   123.8416    45.1119      .3557      .3386      .6262  -102.8401  -999.2500    41.7034  -999.2500  -999.2500  -999.2500
 4403.5000  -999.2500  -999.2500   123.9866    43.6976      .3566      .3361      .6304  -102.5979  -999.2500    41.7819  -999.2500  -999.2500  -999.2500
 4404.0000  -999.2500  -999.2500   124.1071    42.8962      .3556      .3333      .6351  -102.5187  -999.2500    41.8604  -999.2500  -999.2500  -999.2500
 4404.5000  -999.2500  -999.2500   124.1825    43.9524      .3533      .3298      .6399  -102.6545  -999.2500    42.0352  -999.2500  -999.2500  -999.2500
 4405.0000  -999.2500  -999.2500   124.2203    45.4197      .3496      .3256      .6388  -102.9348  -999.2500    42.2411  -999.2500  -999.2500  -999.2500
 4405.5000  -999.2500  -999.2500   124.2100    45.0944      .3438      .3215      .6347  -103.2692  -999.2500    42.4265  -999.2500  -999.2500  -999.2500
 4406.0000  -999.2500  -999.2500   124.1543    43.9573      .3373      .3179      .6301  -103.6091  -999.2500    42.5913  -999.2500  -999.2500  -999.2500
 4406.5000  -999.2500  -999.2500   124.1176    45.2783      .3300      .3145      .6248  -103.7900  -999.2500    42.6342  -999.2500  -999.2500  -999.2500
 4407.0000  -999.2500  -999.2500   124.1282    46.7231      .3217      .3115      .6190  -103.6307  -999.2500    42.4650  -999.2500  -999.2500  -999.2500
 4407.5000  -999.2500  -999.2500   124.0167    46.8876      .3116      .3106      .6119  -103.3112  -999.2500    42.1158  -999.2500  -999.2500  -999.2500
