~VERSION INFORMATION
VERS.                             2.0:   CWLS Log ASCII Standard-VERSION 2.0
WRAP.                              NO:   One line per depth step
~Well Information Block
STRT.F                      3877.0000:   Top Depth
STOP.F                     10380.0000:   Bottom Depth
STEP.F                         .50000:   Depth Increment
NULL.                        -999.250:   Null Value
FLD .                      GA BLK 321:   Field Name
WELL.       OCSG11316   001 ST01 BP00:   NAME
API .                  42706402670100:   WELL API
EDF .F                        90.0000:   ELEV DRILL FLOOR
COMP.              SHELL OFFSHORE INC:   OPERATOR
BN  .                             321:   BLOCK
CTRY.                             USA:   COUNTRY NAME
CNTY.                        GLVSTN L:   COUNTY NAME
EKB .F                        91.0000:   ELEV KELLY BUSHING
TDD .F                      10395.000:   FINAL TD DRILLER
STAT.                           TEXAS:   STATE NAME
UWI .                  42706402670100:   WELL API
DICO.               IHS : Digitizing Company
~PARAMETER INFORMATION (zones)
#MNEM.UNIT                       Value     Description
#=========                       =====     ===========
#ZONATION                          DIL:   ZONATION NAME
#ZONE                            RUN_1:   ZONE NAME
TOP .                       3877.0000:   TOP DEPTH
BOT .                      10380.5000:   BOTTOM DEPTH
RUN .                               1:   RUN NUMBER
LCCD.                             280:   LOGGING CONTRACTOR
SRVC.                     Halliburton:   LOGGING CONT NAME
DICO.          QC Data Collectors Ltd:   DIG COMPANY NAME
LDAT.                      06/13/1990:   DATE LOGGED
ELD .F                        91.0000:   LOG DATUM ELEVATION
TDD .F                     10395.0000:   TOTAL DEPTH DRILLER
TDL .F                     10390.0000:   TOTAL DEPTH LOGGER
BOTL.F                     10380.0000:   BOTTOM DEPTH LOGGED
TOPL.F                      3954.0000:   TOP DEPTH LOGGED
CS1 .IN                       13.3750:   CASING SIZE 1
BS1 .IN                       12.2500:   BIT SIZE 1
DDB1.F                     10395.0000:   DEPTH DRILLED BIT 1
BHF .                              99:   FLUID CODE
DPT .                   Miscellaneous:   DRILLING FLUID TYPE
MUDD.                         13.4000:   FLUID DENSITY
MUDV.                         68.0000:   FLUID VISCOSITY
DFPH.                          9.0000:   FLUID PH
FL  .                          2.1000:   FLUID LOSS
RM  .OHMM                       .0700:   RM
RMT .DEGF                     77.0000:   RM TEMP
RMF .OHMM                       .0400:   RMF
RMFT.DEGF                     73.0000:   RMF TEMP
FSC .                               M:   RMF CODE
RMC .OHMM                       .1000:   RMC
RMCT.DEGF                     74.0000:   RMC TEMP
CMC .                               M:   RMC CODE
TMAX.DEGF                    209.0000:   MAX REC TEMP
TIMC.                         13.0000:   TIME SINCE CIRCLN
~Curve Information Block
#MNEM.UNIT                    API CODE    No Description
#=========                    ========    == ===========
DEPT.F                   00 001 00 00:     1  DEPTH
CALI.IN                              :     2  Caliper
DT.US/F                              :     3  Sonic Transit Time
GR.GAPI                              :     4  Gamma Ray
ILD.OHMM                             :     5  Deep Induction Resistivity
ILM.OHMM                             :     6  Medium Induction Resistivity
SFL.OHMM                             :     7  Medium Resistivity
SP.MV                                :     8  Spontaneous Potential
~ASCII
# ...
 4377.5000    19.0361   124.0796    44.3399     1.0624      .9171     1.3973   -25.9271
 4378.0000    19.0440   125.1514    45.8563      .7382      .6979     1.1572   -26.0960
 4378.5000    19.0519   119.7627    46.1733      .5863      .5845     1.0863   -26.2648
 4379.0000    19.0565   114.5021    46.3953      .6032      .6177     1.1038   -26.3438
 4379.5000    19.0515   109.8234    47.1590      .6763      .6552     1.1458   -26.3453
 4380.0000    19.0464   102.5785    48.5292      .7643      .6588     1.2117   -26.3693
 4380.5000    19.0414    99.2457    50.1104      .8661      .6366     1.3578   -26.4710
 4381.0000    19.0370   103.9996    51.0886      .9879      .6251     1.3243   -26.6208
 4381.5000    19.0339   111.4026    51.6375     1.0968      .6074     1.1098   -26.7674
 4382.0000    19.0308   116.7437    51.8213     1.1440      .6390     1.1608   -26.8874
 4382.5000    19.0278   121.6208    51.6729     1.0497      .7284      .9152   -27.0073
 4383.0000    19.0291   123.8838    51.4283     1.0997      .8166      .8043   -27.0909
 4383.5000    19.0347   125.1949    51.7750     1.1562      .8787      .8217   -27.1028
 4384.0000    19.0403   127.5035    52.5943     1.2803      .9915      .8844   -27.1148
 4384.5000    19.0458   130.6433    52.7933     1.7898     1.2449      .9584   -27.1377
 4385.0000    19.0496   136.2847    50.5430     2.5187     1.6534     1.0366   -27.1689
 4385.5000    19.0509   139.5129    48.4357     4.5240     2.1987     1.0240   -27.1986
 4386.0000    19.0522   137.5073    46.4205     1.1446     3.2297      .9726   -27.2145
 4386.5000    19.0534   134.9307    44.4240      .7478      .4731     1.0071   -27.2304
 4387.0000    19.0547   132.5684    46.7597      .3370  -999.2500     1.0301   -27.2292
 4387.5000    19.0551   130.2249    51.0492      .4430  -999.2500     1.0433   -27.2258
 4388.0000    19.0555   127.6992    55.0542      .7116      .5602     1.0398   -27.2347
 4388.5000    19.0558   126.2125    53.8776     1.0596      .8279     1.0334   -27.3394
 4389.0000    19.0562   124.9805    51.1907     1.7729     1.1828     1.0451   -27.4442
 4389.5000    19.0547   123.6372    47.6785      .9245      .7006     1.1243   -27.5489
 4390.0000    19.0520   122.2067    44.3292      .6852      .3985     1.2700   -27.4108
 4390.5000    19.0494   120.6958    43.7356      .6139      .5060      .9383   -27.2606
 4391.0000    19.0467   119.3445    44.7772      .9265      .6574      .8971   -26.9692
 4391.5000    19.0424   117.8644    45.8189     1.0740      .6489     1.0354   -26.6646
 4392.0000    19.0352   115.8749    46.8098      .9755      .5696      .9496   -26.5237
 4392.5000    19.0279   112.3276    47.2630      .8155      .5102      .8842   -26.4273
 4393.0000    19.0207   108.5927    47.5426      .7429      .4760     1.0057   -26.4218
 4393.5000    19.0134   103.5626    47.9102      .8569      .6172     1.0287   -26.5114
 4394.0000    19.0074   104.4098    46.4633     1.2595      .8381     1.0401   -26.5559
 4394.5000    19.0017   112.9363    44.4708     1.2691     1.0601     1.0954   -26.4117
 4395.0000    18.9959   118.5830    42.4476      .7496      .8271      .9873   -26.1608
 4395.5000    18.9901   124.5836    40.4217      .6050      .5712      .8307   -25.7308
 4396.0000    18.9841   129.5762    38.2743      .5196      .3734      .8311   -25.3138
 4396.5000    18.9778   132.2881    37.4887      .4773      .2910      .8695   -25.0741
 4397.0000    18.9716   133.5022    39.4521      .4483      .3484      .8836   -24.8344
 4397.5000    18.9690   134.0310    42.5530      .7336      .4652      .9056   -24.8317
 4398.0000    18.9718   134.3477    44.2818     1.1073      .6054      .9919   -25.1522
 4398.5000    18.9746   137.9739    44.2564     1.1934      .7205     1.0827   -25.4724
 4399.0000    18.9775   144.2346    43.0084     1.0489      .6731      .9888   -25.7416
 4399.5000    18.9895   147.9160    41.7604      .9219      .5156      .9021   -25.9718
 4400.0000    19.0018   145.5269    40.6019      .8307      .4274      .8128   -26.2019
 4400.5000    19.0140   141.4863    39.5289      .7746      .3874      .7841   -26.3793
 4401.0000    19.0263   137.1453    38.4626      .7940      .4341      .8549   -26.4160
 4401.5000    19.0325   133.9170    37.9407     1.0386      .4795      .9704   -26.4528
 4402.0000    19.0295   131.9141    37.9083     1.2737      .8147     1.0736   -26.3862
 4402.5000    19.0265   130.6038    38.8245     1.4976     1.1021     1.0389   -26.2988
 4403.0000    19.0235   130.9329    39.7546     1.6925     1.2818      .9540   -26.2114
 4403.5000    19.0205   135.8716    40.3632     1.1019     1.2385      .8987   -26.2465
 4404.0000    19.0140   139.4216    40.5397      .5167      .5087      .8761   -26.2875
 4404.5000    19.0070   141.7974    41.0099      .4216      .3517      .8725   -26.3284
 4405.0000    19.0001   144.2305    41.4854      .4520      .3176      .8831   -26.3711
 4405.5000    18.9931   142.3979    41.9641      .5371      .3507      .8930   -26.4146
 4406.0000    18.9893   140.4043    42.4425      .6573      .5135      .8931   -26.2271
 4406.5000    18.9892   138.8091    42.8802      .8167      .6298      .8780   -25.9101
 4407.0000    18.9890   137.7024    43.6167      .9639      .7105      .8966   -25.8233
 4407.5000    18.9888   137.4272    44.3229     1.0033      .6093      .9436   -25.8078
 4408.0000    18.9886   136.7224    44.8186     1.0645      .5221      .8819   -25.7435
 4408.5000    18.9908   135.8569    45.3041     1.1727      .7044      .8452   -25.5535
 4409.0000    18.9939   134.8743    45.5201     1.3379      .7717      .9135   -25.3777
 4409.5000    18.9969   133.2454    45.4929     1.4545      .7742      .9284   -25.2394
 4410.0000    19.0000   131.8372    45.5460     1.4250      .6845      .9492   -25.1369
 4410.5000    19.0031   131.4033    44.2237     1.0513      .5426      .8534   -25.2613
 4411.0000    19.0012   133.5029    42.1671      .7982      .4508      .8419   -25.3857
 4411.5000    18.9933   135.6035    39.7259      .5835      .3569      .7467   -25.4711
 4412.0000    18.9854   137.0066    38.1714      .5012      .2931      .7484   -25.5397
 4412.5000    18.9774   137.8750    37.4990      .4337      .2885      .7470   -25.4865
 4413.0000    18.9698   137.0032    37.1041      .4989      .3085      .7354   -25.3990
 4413.5000    18.9684   136.3518    36.9203      .5529      .3443      .7209   -25.2522
 4414.0000    18.9670   136.7029    37.0502      .6038      .3758      .7182   -25.0188
 4414.5000    18.9656   138.1509    38.7283      .6280      .3959      .7778   -24.7113
 4415.0000    18.9706   139.6160    40.4738      .6745      .4066      .8290   -24.5821
 4415.5000    18.9813   141.0801    41.6035      .7187      .4053      .7833   -24.4837
 4416.0000    18.9920   141.0808    41.8442      .7334      .3930      .7338   -24.5820
 4416.5000    19.0027   139.9753    41.5544      .6672      .3746      .6874   -24.7581
 4417.0000    19.0134   138.5771    43.9419      .6063      .3772      .7067   -24.7011
 4417.5000    19.0216   137.1787    47.4354      .6730      .5034      .7511   -24.5692
 4418.0000    19.0263   136.1851    50.6672      .8416      .6862      .7643   -24.3598
 4418.5000    19.0310   135.7490    53.2660      .9568      .7880      .7706   -24.1354
 4419.0000    19.0357   135.4539    57.1228     1.0326      .7996      .8109   -23.9036
 4419.5000    19.0402   135.7446    60.3519     1.0116      .8513      .8455   -23.6660
 4420.0000    19.0341   136.0352    62.6809      .9771      .9298      .8903   -23.4438
 4420.5000    19.0280   136.1072    64.2554      .8763      .9279      .9522   -23.2318
 4421.0000    19.0220   135.7993    64.2902      .7561      .7061      .9998   -23.0933
 4421.5000    19.0159   135.4915    64.2921      .6451      .5752      .9933   -23.2378
 4422.0000    19.0101   135.4773    63.9717      .5784      .4804      .9843   -23.3822
 4422.5000    19.0045   135.6431    63.6174      .6682      .5270     1.0158   -23.4639
