~VERSION INFORMATION
VERS.                             2.0:   CWLS Log ASCII Standard-VERSION 2.0
WRAP.                              NO:   One line per depth step
~Well Information Block
STRT.F                      3877.0000:   Top Depth
STOP.F                     10380.0000:   Bottom Depth
STEP.F                         .50000:   Depth Increment
NULL.                        -999.250:   Null Value
FLD .                      GA BLK 321:   Field Name
WELL.       OCSG11316   001 ST01 BP00:   NAME
API .                  42706402670100:   WELL API
EDF .F                        90.0000:   ELEV DRILL FLOOR
COMP.              SHELL OFFSHORE INC:   OPERATOR
BN  .                             321:   BLOCK
CTRY.                             USA:   COUNTRY NAME
CNTY.                        GLVSTN L:   COUNTY NAME
EKB .F                        91.0000:   ELEV KELLY BUSHING
TDD .F                      10395.000:   FINAL TD DRILLER
STAT.                           TEXAS:   STATE NAME
UWI .                  42706402670100:   WELL API
DICO.               IHS : Digitizing Company
~PARAMETER INFORMATION (zones)
#MNEM.UNIT                       Value     Description
#=========                       =====     ===========
#ZONATION                          DIL:   ZONATION NAME
#ZONE                            RUN_1:   ZONE NAME
TOP .                       3877.0000:   TOP DEPTH
BOT .                      10380.5000:   BOTTOM DEPTH
RUN .                               1:   RUN NUMBER
LCCD.                             280:   LOGGING CONTRACTOR
SRVC.                     Halliburton:   LOGGING CONT NAME
DICO.          QC Data Collectors Ltd:   DIG COMPANY NAME
LDAT.                      06/13/1990:   DATE LOGGED
ELD .F                        91.0000:   LOG DATUM ELEVATION
TDD .F                     10395.0000:   TOTAL DEPTH DRILLER
TDL .F                     10390.0000:   TOTAL DEPTH LOGGER
BOTL.F                     10380.0000:   BOTTOM DEPTH LOGGED
TOPL.F                      3954.0000:   TOP DEPTH LOGGED
CS1 .IN                       13.3750:   CASING SIZE 1
BS1 .IN                       12.2500:   BIT SIZE 1
DDB1.F                     10395.0000:   DEPTH DRILLED BIT 1
BHF .                              99:   FLUID CODE
DPT .                   Miscellaneous:   DRILLING FLUID TYPE
MUDD.                         13.4000:   FLUID DENSITY
MUDV.                         68.0000:   FLUID VISCOSITY
DFPH.                          9.0000:   FLUID PH
FL  .                          2.1000:   FLUID LOSS
RM  .OHMM                       .0700:   RM
RMT .DEGF                     77.0000:   RM TEMP
RMF .OHMM                       .0400:   RMF
RMFT.DEGF                     73.0000:   RMF TEMP
FSC .                               M:   RMF CODE
RMC .OHMM                       .1000:   RMC
RMCT.DEGF                     74.0000:   RMC TEMP
CMC .                               M:   RMC CODE
TMAX.DEGF                    209.0000:   MAX REC TEMP
TIMC.                         13.0000:   TIME SINCE CIRCLN
~Curve Information Block
#MNEM.UNIT                    API CODE    No Description
#=========                    ========    == ===========
DEPT.F                   00 001 00 00:     1  DEPTH
CALI.IN                              :     2  Caliper
DT.US/F                              :     3  Sonic Transit Time
GR.GAPI                              :     4  Gamma Ray
ILD.OHMM                             :     5  Deep Induction Resistivity
ILM.OHMM                             :     6  Medium Induction Resistivity
SFL.OHMM                             :     7  Medium Resistivity
SP.MV                                :     8  Spontaneous Potential
~ASCII
# ...
 9928.5000    12.2161    89.0038    42.0995     1.1664      .8759      .7771   -83.5105
 9929.0000    12.2182    88.6415    46.0754     1.4300     1.0004     1.1154   -82.7500
 9929.5000    12.2218    88.2041    51.6993     1.5698     1.1203     1.4422   -81.9139
 9930.0000    12.2132    87.7487    57.1038     1.6801     1.2652     1.8325   -80.8826
 9930.5000    12.2202    87.2784    61.8715     1.6094     1.3170     2.2412   -79.5929
 9931.0000    12.2327    86.9507    61.9464     1.4676     1.1712     2.5646   -78.3193
 9931.5000    12.2452    86.9395    58.6556     1.3384     1.0267     2.6674   -77.0565
 9932.0000    12.2577    87.0497    53.2831     1.2240      .8479     2.0471   -75.6439
 9932.5000    12.2728    87.3817    47.1616     1.1263      .7404     1.0033   -77.8458
 9933.0000    12.2565    87.9177    44.2149     1.0397      .6630      .6309   -80.8263
 9933.5000    12.2120    88.5295    44.1791      .9634      .6000      .5388   -83.4590
 9934.0000    12.1849    88.9562    45.8586      .9025      .6251      .4886   -85.5459
 9934.5000    12.1854    89.2340    47.1442      .8738      .7302      .5027   -86.5090
 9935.0000    12.2039    89.2229    48.2064     1.0102      .8267      .5810   -84.3312
 9935.5000    12.2295    88.8562    55.6376     1.2466      .9695      .7395   -81.4952
 9936.0000    12.2728    88.2914    62.1658     1.5288     1.0954      .9479   -78.4612
 9936.5000    12.3211    87.9183    65.0045     1.5580     1.2082     1.2067   -76.3475
 9937.0000    12.3741    87.5990    67.3295     1.4047     1.1844     1.4151   -74.4373
 9937.5000    12.4340    87.7241    69.5127     1.2813     1.0878     1.5499   -72.8961
 9938.0000    12.4933    88.3524    70.4318     1.2291      .9766     1.5133   -70.6487
 9938.5000    12.5487    89.3828    70.7140     1.2185      .9214     1.1806   -66.6676
 9939.0000    12.5807    90.6172    70.9729     1.2242      .9004     1.0195   -63.1199
 9939.5000    12.5926    91.9830    71.3601     1.2334      .9345      .9336   -60.2465
 9940.0000    12.5864    93.8989    71.4391     1.2445      .9964      .9926   -57.5121
 9940.5000    12.5801    94.2535    69.7401     1.2588     1.0666     1.1373   -55.0051
 9941.0000    12.5789    93.8455    67.3723     1.2973     1.1352     1.3280   -52.9691
 9941.5000    12.5785    92.1639    64.3971     1.3008     1.1534     1.2488   -51.8159
 9942.0000    12.5782    90.1831    62.0534     1.2831     1.0931     1.1409   -50.8782
 9942.5000    12.5839    90.7338    61.6337     1.2677     1.0543     1.0664   -50.1317
 9943.0000    12.5923    95.0431    61.9618     1.2774     1.0281     1.0117   -49.5230
 9943.5000    12.5934    99.5770    62.4247     1.2860     1.0409      .9901   -49.0803
 9944.0000    12.5822   105.2657    62.8507     1.2900     1.0701     1.0971   -49.7250
 9944.5000    12.5680   110.0396    61.9437     1.2940     1.1062     1.2484   -50.2247
 9945.0000    12.5521   109.0992    60.5792     1.3102     1.1556     1.4380   -50.7244
 9945.5000    12.5362   107.4872    58.4147     1.4570     1.2128     1.8068   -51.2240
 9946.0000    12.5216   106.4126    56.0523     1.5002     1.2927     2.4123   -51.3370
 9946.5000    12.5072   107.7251    54.6744     1.4170     1.1792     2.3092   -50.1304
 9947.0000    12.4996   111.1630    57.2643     1.3143     1.0915     1.5497   -48.8060
 9947.5000    12.4962   116.3010    60.0522     1.2370     1.0412     1.3546   -47.9606
 9948.0000    12.4999   119.8137    62.5002     1.2001     1.0080     1.2091   -47.3689
 9948.5000    12.5066   119.9260    64.2955     1.1979      .9891     1.0852   -47.3586
 9949.0000    12.5151   117.3596    66.1255     1.2001      .9905      .9994   -47.3044
 9949.5000    12.5260   113.9004    68.2445     1.2428     1.0096     1.0136   -47.0101
 9950.0000    12.5349   110.8208    70.2084     1.2869     1.0205     1.1692   -46.7004
 9950.5000    12.5380   108.6821    68.0198     1.3548     1.0747     1.3610   -46.3305
 9951.0000    12.5417   107.0969    65.6493     1.3627     1.1068     1.3486   -46.2776
 9951.5000    12.5461   105.9474    63.9049     1.3556     1.0609     1.4170   -46.6763
 9952.0000    12.5505   105.1040    62.8694     1.3403     1.0180     1.5629   -47.0004
 9952.5000    12.5658   106.7467    61.9758     1.3324     1.0404     1.7562   -47.1616
 9953.0000    12.5828   109.9119    61.0742     1.3568     1.0963     1.8837   -47.2922
 9953.5000    12.5962   114.4404    60.1324     1.3835     1.1437     1.9494   -47.3545
 9954.0000    12.6083   119.8939    59.1465     1.4152     1.1611     1.8903   -47.2181
 9954.5000    12.6174   125.4971    58.2716     1.3617     1.0853     1.6938   -46.8930
 9955.0000    12.6238   130.1272    57.7443     1.2890     1.0066     1.3748   -46.5338
 9955.5000    12.6133   134.1907    58.2903     1.2337      .9441     1.1823   -46.1085
 9956.0000    12.5901   138.0989    59.9318     1.2381      .9421     1.0882   -45.7292
 9956.5000    12.5591   141.1116    62.0347     1.2696     1.0029     1.0860   -46.6362
 9957.0000    12.5265   142.1360    63.8220     1.2954     1.0549     1.1268   -48.7284
 9957.5000    12.4929   141.7427    65.5021     1.3216     1.1155     1.1843   -50.9812
 9958.0000    12.4637   139.4036    66.3315     1.3484     1.1779     1.2458   -53.2687
 9958.5000    12.4476   136.3987    65.9182     1.3686     1.0995     1.2629   -54.2640
 9959.0000    12.4316   133.0198    65.5236     1.3818     1.0386     1.1831   -55.0266
 9959.5000    12.4306   130.0684    66.1122     1.3829      .9960     1.1264   -55.6860
 9960.0000    12.4298   127.7240    66.9375     1.3628      .9834     1.0908   -56.3870
 9960.5000    12.4181   126.7214    65.8071     1.3431     1.0038     1.2280   -57.7234
 9961.0000    12.3961   126.2135    63.6667     1.3235     1.0291     1.6774   -60.7708
 9961.5000    12.3559   125.5426    61.1545     1.3043     1.0603     2.5690   -66.5713
 9962.0000    12.2944   124.9504    58.3345     1.2185     1.0967     2.9000   -71.6761
 9962.5000    12.2327   124.4181    54.6584     1.0373     1.0178      .8749   -77.3054
 9963.0000    12.1710   125.7911    52.2371      .8892      .7595      .6016   -84.3794
 9963.5000    12.1181   129.8064    49.5749      .7906      .6594      .5150   -88.7618
 9964.0000    12.0748   134.9390    46.8940      .7009      .5815      .4987   -92.6520
 9964.5000    12.0552   139.1201    43.5978      .6928      .5645      .4860   -95.6807
 9965.0000    12.0388   144.3596    40.6174      .7528      .5982      .5290   -98.8218
 9965.5000    12.0332   148.6477    37.0911      .8123      .6400      .6026  -100.9434
 9966.0000    12.0284   153.8232    35.5219      .8381      .6852      .6550  -102.0724
 9966.5000    12.0258   156.4055    35.3306      .8550      .7309      .6958  -102.5868
 9967.0000    12.0231   156.7146    36.3834      .8879      .7633      .7413  -102.7377
 9967.5000    12.0298   155.5127    37.5165      .9726      .8104      .8118  -102.8711
 9968.0000    12.0391   152.0588    39.4348     1.3170      .9312      .8981  -103.5145
 9968.5000    12.0615   149.5994    41.5698     1.3454      .9997      .9314  -105.0209
 9969.0000    12.0838   148.9390    43.6273     1.1475      .9423      .7324  -107.0409
 9969.5000    12.1040   148.4419    45.0426      .9981      .8820      .6450  -109.0448
 9970.0000    12.1217   146.5999    44.4754      .9189      .8312      .6013  -109.5529
 9970.5000    12.1340   143.5898    42.7069      .8956      .8019      .6231  -109.6138
 9971.0000    12.1441   139.9006    41.5230      .8914      .7767      .6283  -108.4241
 9971.5000    12.1542   135.5271    40.5933      .8962      .7558      .6098  -107.4769
 9972.0000    12.1543   131.2820    39.2314      .9005      .7467      .5926  -106.8666
 9972.5000    12.1531   128.9375    37.9526      .9039      .7471      .5909  -107.0773
 9973.0000    12.1501   128.4966    36.8182      .9241      .7774      .6023  -107.2864
 9973.5000    12.1469   131.2178    36.3513      .9606      .8711      .6160  -107.3633
