~VERSION INFORMATION
VERS.                             2.0:   CWLS Log ASCII Standard-VERSION 2.0
WRAP.                              NO:   One line per depth step
~Well Information Block
STRT.F                      6412.0000:   Top Depth
STOP.F                      9744.0000:   Bottom Depth
STEP.F                         .50000:   Depth Increment
NULL.                        -999.250:   Null Value
FLD .                      GA BLK 273:   Field Name
WELL.       OCSG09037   005 ST00 BP00:   NAME
API .                  42706403310000:   WELL API
EDF .F                        93.0000:   ELEV DRILL FLOOR
COMP.       SEAGULL ENERGY E AND P IN:   OPERATOR
BN  .                             273:   BLOCK
CTRY.                             USA:   COUNTRY NAME
CNTY.                              GA:   COUNTY
CNTY.                        GLVSTN L:   COUNTY NAME
EGL .F                       -63.0000:   ELEV GROUND LEVEL
EKB .F                        94.0000:   ELEV KELLY BUSHING
TDD .F                       9756.000:   FINAL TD DRILLER
STAT.                           TEXAS:   STATE NAME
UWI .                  42706403310000:   WELL API
DICO.               IHS : Digitizing Company
~PARAMETER INFORMATION (zones)
#MNEM.UNIT                       Value     Description
#=========                       =====     ===========
#ZONATION                          DIL:   ZONATION NAME
#ZONE                            RUN_1:   ZONE NAME
TOP .                       6412.0000:   TOP DEPTH
BOT .                       9744.5000:   BOTTOM DEPTH
RUN .                               1:   RUN NUMBER
LCCD.                             440:   LOGGING CONTRACTOR
SRVC.                    Schlumberger:   LOGGING CONT NAME
DICO.          QC Data Collectors Ltd:   DIG COMPANY NAME
LDAT.                      03/03/1993:   DATE LOGGED
ELD .F                        94.0000:   LOG DATUM ELEVATION
TDD .F                      9756.0000:   TOTAL DEPTH DRILLER
TDL .F                      9750.0000:   TOTAL DEPTH LOGGER
BOTL.F                      9744.0000:   BOTTOM DEPTH LOGGED
TOPL.F                      6543.0000:   TOP DEPTH LOGGED
CS1 .IN                        7.6250:   CASING SIZE 1
BS1 .IN                        6.5000:   BIT SIZE 1
DDB1.F                      9756.0000:   DEPTH DRILLED BIT 1
BHF .                              99:   FLUID CODE
DPT .                   Miscellaneous:   DRILLING FLUID TYPE
MUDD.                         11.7000:   FLUID DENSITY
MUDV.                         46.0000:   FLUID VISCOSITY
DFPH.                          6.5000:   FLUID PH
FL  .                          9.6500:   FLUID LOSS
RM  .OHMM                      1.3200:   RM
RMT .DEGF                     64.0000:   RM TEMP
RMF .OHMM                      1.1100:   RMF
RMFT.DEGF                     70.0000:   RMF TEMP
FSC .                               M:   RMF CODE
RMC .OHMM                      1.6200:   RMC
RMCT.DEGF                     65.0000:   RMC TEMP
CMC .                               M:   RMC CODE
TMAX.DEGF                    186.0000:   MAX REC TEMP
TIMC.                          6.5000:   TIME SINCE CIRCLN
~Curve Information Block
#MNEM.UNIT                    API CODE    No Description
#=========                    ========    == ===========
DEPT.F                   00 001 00 00:     1  DEPTH
DTL.US/F                             :     2  Sonic Transit Time (Slowness)
GR.GAPI                              :     3  Gamma Ray
ILD.OHMM                             :     4  Deep Induction Resistivity
ILM.OHMM                             :     5  Medium Induction Resistivity
SFL.OHMM                             :     6  Medium Resistivity
SP.MV                                :     7  Spontaneous Potential
~ASCII
# ...
 8648.0000   105.3511    97.2848      .5841      .5914      .6692   -45.1292
 8648.5000   104.4398    96.7260      .5820      .5908      .6582   -45.1557
 8649.0000   104.5480    93.2075      .5822      .5914      .6525   -45.2062
 8649.5000   105.1997    90.6125      .5832      .5914      .6466   -45.0156
 8650.0000   106.7753    88.7988      .5876      .5924      .6415   -44.4088
 8650.5000   107.9701    87.1827      .5912      .5944      .6442   -44.3115
 8651.0000   108.0105    85.8622      .5938      .5953      .6492   -44.1939
 8651.5000   107.5581    85.0270      .5955      .5947      .6532   -44.0656
 8652.0000   105.9540    84.8506      .5950      .5925      .6578   -43.9623
 8652.5000   104.4999    84.9750      .5940      .5910      .6623   -43.8351
 8653.0000   103.2307    85.1840      .5931      .5900      .6643   -44.9712
 8653.5000   102.6600    84.4475      .5942      .5904      .6636   -47.3685
 8654.0000   102.9143    83.1638      .5945      .5912      .6611   -48.3040
 8654.5000   104.3485    81.4905      .5983      .5945      .6583   -47.5034
 8655.0000   106.4725    81.7177      .6051      .5993      .6558   -46.1255
 8655.5000   108.0532    83.7142      .6144      .6063      .6537   -44.3562
 8656.0000   108.8721    86.0598      .6222      .6151      .6512   -42.6995
 8656.5000   109.5184    87.8994      .6341      .6233      .6486   -41.7659
 8657.0000   110.0990    87.7867      .6436      .6339      .6472   -41.5096
 8657.5000   110.5767    87.0221      .6490      .6409      .6478   -41.4698
 8658.0000   110.9014    87.7406      .6536      .6432      .6499   -41.5414
 8658.5000   110.9216    90.7769      .6588      .6451      .6589   -41.4813
 8659.0000   110.4799    93.2444      .6636      .6481      .6766   -41.4675
 8659.5000   110.2808    91.5267      .6667      .6515      .6934   -41.4272
 8660.0000   110.8918    89.8109      .6689      .6543      .7002   -41.3533
 8660.5000   111.8564    89.0048      .6714      .6558      .7021   -41.2459
 8661.0000   112.3601    91.5194      .6724      .6561      .7011   -41.8268
 8661.5000   112.7013    93.1659      .6707      .6556      .6995   -42.0378
 8662.0000   113.0159    92.6423      .6671      .6559      .6979   -41.7257
 8662.5000   113.2981    91.9701      .6629      .6548      .6967   -41.5682
 8663.0000   113.5735    92.3505      .6582      .6525      .6961   -41.4325
 8663.5000   113.7559    92.7817      .6532      .6493      .6964   -41.1815
 8664.0000   113.8866    91.2830      .6497      .6473      .6960   -40.9827
 8664.5000   113.3881    87.6925      .6492      .6476      .6945   -40.7620
 8665.0000   111.9650    85.1843      .6491      .6475      .6918   -40.7170
 8665.5000   111.1375    83.5360      .6493      .6470      .6895   -40.9726
 8666.0000   109.6288    83.0209      .6512      .6487      .6855   -41.3660
 8666.5000   108.2646    83.0967      .6544      .6504      .6827   -42.0226
 8667.0000   109.5718    83.4879      .6582      .6513      .6819   -42.2743
 8667.5000   111.2181    84.7429      .6600      .6504      .6834   -41.9542
 8668.0000   111.9861    87.0646      .6596      .6385      .6880   -41.2293
 8668.5000   112.4668    90.2968      .6568      .6312      .6915   -40.6365
 8669.0000   112.9084    93.2371      .6540      .6301      .6903   -40.4776
 8669.5000   113.6027    94.7866      .6505      .6347      .6835   -40.3904
 8670.0000   114.2689    94.5105      .6461      .6411      .6686   -40.5241
 8670.5000   114.4771    93.9569      .6404      .6485      .6664   -40.4656
 8671.0000   114.5286    94.0756      .6348      .6573      .6997   -40.2786
 8671.5000   114.4708    95.6528      .6336      .6659      .7518   -40.2263
 8672.0000   114.4142    97.5367      .6340      .6746      .7926   -40.1861
 8672.5000   114.5393    98.8915      .6349      .6830      .8222   -40.1849
 8673.0000   114.7742    98.4084      .6376      .6880      .8292   -40.2145
 8673.5000   115.3358    98.0326      .6426      .6885      .8296   -40.2874
 8674.0000   115.7762    97.5681      .6504      .6868      .8299   -40.5062
 8674.5000   114.9736    95.3721      .6592      .6835      .8292   -40.6725
 8675.0000   110.5320    90.9506      .6658      .6808      .8256   -41.3217
 8675.5000   106.1152    86.6527      .6706      .6803      .8220   -41.9062
 8676.0000   104.7273    85.8715      .6748      .6811      .8088   -42.3574
 8676.5000   106.4453    88.0139      .6791      .6830      .7728   -42.4559
 8677.0000   109.0730    90.4703      .6851      .6881      .7262   -42.1103
 8677.5000   111.2268    92.1501      .6914      .6940      .6883   -41.5922
 8678.0000   112.4166    89.2255      .6980      .6996      .6580   -41.4177
 8678.5000   112.8149    86.4255      .7055      .7054      .6617   -41.5962
 8679.0000   112.3174    85.0403      .7132      .7137      .6973   -41.7375
 8679.5000   111.1449    84.8594      .7173      .7238      .7176   -41.8861
 8680.0000   109.8596    86.1171      .7201      .7336      .7256   -42.0782
 8680.5000   108.9836    87.5300      .7222      .7403      .7353   -42.1033
 8681.0000   108.3677    89.2902      .7218      .7451      .7580   -42.0697
 8681.5000   108.1072    90.3862      .7160      .7479      .7791   -41.9085
 8682.0000   108.9017    89.8831      .7067      .7468      .7825   -41.5687
 8682.5000   110.2542    89.0731      .6959      .7359      .7653   -41.0779
 8683.0000   111.9191    88.2484      .6863      .7159      .7256   -40.4536
 8683.5000   113.6982    87.3840      .6797      .6965      .6641   -39.9512
 8684.0000   114.9960    87.5005      .6757      .6848      .6132   -39.5546
 8684.5000   115.0083    91.0835      .6728      .6777      .5904   -39.3240
 8685.0000   112.5419    93.9888      .6718      .6772      .5821   -39.3185
 8685.5000   107.7976    94.1642      .6721      .6880      .5814   -39.6391
 8686.0000   103.0582    89.5837      .6765      .7101      .6120   -40.4887
 8686.5000    98.3140    83.2524      .6814      .7377      .7622   -41.5858
 8687.0000    93.6740    79.3850      .6868      .7668      .9178   -43.7928
 8687.5000    93.0492    75.5840      .6923      .7868     1.0481   -46.2456
 8688.0000    93.6888    72.4885      .6960      .7944     1.1270   -48.5210
 8688.5000    96.9146    71.0073      .6976      .7898     1.1522   -51.2101
 8689.0000   101.0483    70.9685      .6979      .7696     1.0039   -53.8661
 8689.5000   102.5856    72.5328      .6976      .7433      .9311   -56.1470
 8690.0000   102.7709    75.4990      .6974      .7236      .8880   -57.7114
 8690.5000   102.1799    78.2269      .6985      .7140      .8548   -58.7540
 8691.0000   100.6836    78.5051      .7024      .7119      .8361   -58.6450
 8691.5000   101.4926    78.1924      .7075      .7110      .8144   -57.6283
 8692.0000   103.3784    78.1290      .7129      .7139      .7518   -55.4951
 8692.5000   104.3243    80.1274      .7167      .7216      .7113   -51.9083
 8693.0000   104.6401    83.3707      .7190      .7362      .6943   -48.8498
 8693.5000   104.7837    83.5166      .7213      .7539      .6993   -46.8606
 8694.0000   104.8604    82.8757      .7272      .7650      .7191   -46.0295
 8694.5000   104.7648    82.7012      .7328      .7620      .7329   -45.3582
 8695.0000   104.4292    83.5073      .7367      .7569      .7354   -44.6443
 8695.5000   104.1053    85.1622      .7410      .7536      .7359   -44.0122
 8696.0000   103.7474    86.9001      .7455      .7541      .7382   -43.6880
 8696.5000   103.4941    86.7173      .7500      .7590      .7475   -43.4036
 8697.0000   103.5669    84.3680      .7550      .7652      .7701   -43.2891
 8697.5000   103.7456    82.2330      .7612      .7722      .8012   -43.2194
 8698.0000   103.9166    81.8340      .7687      .7784      .7785   -43.2379
 8698.5000   103.9974    83.0040      .7770      .7826      .7552   -43.1772
 8699.0000   103.8275    83.2599      .7874      .7900      .7367   -43.1575
 8699.5000   103.1401    81.0436      .7984      .8024      .7337   -43.2540
