~VERSION INFORMATION
VERS.                             2.0:   CWLS Log ASCII Standard-VERSION 2.0
WRAP.                              NO:   One line per depth step
~Well Information Block
STRT.F                      3150.0000:   Top Depth
STOP.F                     11219.0000:   Bottom Depth
STEP.F                         .50000:   Depth Increment
NULL.                        -999.250:   Null Value
FLD .                      GA BLK 300:   Field Name
WELL.       OCSG11310   002 ST00 BP00:   NAME
API .                  42706403320000:   WELL API
EDF .F                        97.5000:   ELEV DRILL FLOOR
COMP.       SEAGULL ENERGY E AND P IN:   OPERATOR
BN  .                             300:   BLOCK
CTRY.                             USA:   COUNTRY NAME
CNTY.                              GA:   COUNTY
CNTY.                        GLVSTN L:   COUNTY NAME
EGL .F                       -56.0000:   ELEV GROUND LEVEL
EKB .F                        98.5000:   ELEV KELLY BUSHING
TDD .F                      11225.000:   FINAL TD DRILLER
STAT.                           TEXAS:   STATE NAME
UWI .                  42706403320000:   WELL API
DICO.               IHS : Digitizing Company
~PARAMETER INFORMATION (zones)
#MNEM.UNIT                       Value     Description
#=========                       =====     ===========
#ZONATION                          CNL:   ZONATION NAME
#ZONE                            RUN_2:   ZONE NAME
TOP .                       9384.0000:   TOP DEPTH
BOT .                      11168.5000:   BOTTOM DEPTH
RUN .                               2:   RUN NUMBER
LCCD.                             440:   LOGGING CONTRACTOR
SRVC.                    Schlumberger:   LOGGING CONT NAME
DICO.          QC Data Collectors Ltd:   DIG COMPANY NAME
LDAT.                      04/26/1993:   DATE LOGGED
ELD .F                        98.5000:   LOG DATUM ELEVATION
TDD .F                     11217.0000:   TOTAL DEPTH DRILLER
TDL .F                     11225.0000:   TOTAL DEPTH LOGGER
BOTL.F                     11219.0000:   BOTTOM DEPTH LOGGED
TOPL.F                      9802.0000:   TOP DEPTH LOGGED
CS1 .IN                        7.6250:   CASING SIZE 1
BS1 .IN                        6.5000:   BIT SIZE 1
DDB1.F                     11217.0000:   DEPTH DRILLED BIT 1
BHF .                              99:   FLUID CODE
DPT .                   Miscellaneous:   DRILLING FLUID TYPE
MUDD.                         13.9000:   FLUID DENSITY
MUDV.                         41.0000:   FLUID VISCOSITY
DFPH.                         10.0000:   FLUID PH
FL  .                          3.2000:   FLUID LOSS
RM  .OHMM                       .9550:   RM
RMT .DEGF                     77.0000:   RM TEMP
RMF .OHMM                       .5740:   RMF
RMFT.DEGF                     76.0000:   RMF TEMP
FSC .                               M:   RMF CODE
RMC .OHMM                      1.6900:   RMC
RMCT.DEGF                     76.0000:   RMC TEMP
CMC .                               M:   RMC CODE
TMAX.DEGF                    207.0000:   MAX REC TEMP
TIMC.                         17.0000:   TIME SINCE CIRCLN
~PARAMETER INFORMATION (zones)
#MNEM.UNIT                       Value     Description
#=========                       =====     ===========
#ZONATION                          DIL:   ZONATION NAME
#ZONE                            RUN_1:   ZONE NAME
TOP .                       3150.0000:   TOP DEPTH
BOT .                       9865.5000:   BOTTOM DEPTH
RUN .                               1:   RUN NUMBER
LCCD.                             440:   LOGGING CONTRACTOR
SRVC.                    Schlumberger:   LOGGING CONT NAME
DICO.          QC Data Collectors Ltd:   DIG COMPANY NAME
LDAT.                      04/10/1993:   DATE LOGGED
ELD .F                        98.5000:   LOG DATUM ELEVATION
TDD .F                      9878.0000:   TOTAL DEPTH DRILLER
TDL .F                      9871.0000:   TOTAL DEPTH LOGGER
BOTL.F                      9865.0000:   BOTTOM DEPTH LOGGED
TOPL.F                      3298.0000:   TOP DEPTH LOGGED
CS1 .IN                       10.7500:   CASING SIZE 1
BS1 .IN                        9.8750:   BIT SIZE 1
DDB1.F                      9878.0000:   DEPTH DRILLED BIT 1
BHF .                              99:   FLUID CODE
DPT .                   Miscellaneous:   DRILLING FLUID TYPE
MUDD.                         11.8000:   FLUID DENSITY
MUDV.                         44.0000:   FLUID VISCOSITY
DFPH.                          9.5000:   FLUID PH
FL  .                          4.6000:   FLUID LOSS
RM  .OHMM                       .8730:   RM
RMT .DEGF                     82.0000:   RM TEMP
RMF .OHMM                       .4990:   RMF
RMFT.DEGF                     82.0000:   RMF TEMP
FSC .                               M:   RMF CODE
RMC .OHMM                      1.4400:   RMC
RMCT.DEGF                     82.0000:   RMC TEMP
CMC .                               M:   RMC CODE
TMAX.DEGF                    177.0000:   MAX REC TEMP
TIMC.                         15.0000:   TIME SINCE CIRCLN
~PARAMETER INFORMATION (zones)
#MNEM.UNIT                       Value     Description
#=========                       =====     ===========
#ZONATION                          DIL:   ZONATION NAME
#ZONE                            RUN_2:   ZONE NAME
TOP .                       9802.0000:   TOP DEPTH
BOT .                      11219.5000:   BOTTOM DEPTH
RUN .                               2:   RUN NUMBER
LCCD.                             440:   LOGGING CONTRACTOR
SRVC.                    Schlumberger:   LOGGING CONT NAME
DICO.          QC Data Collectors Ltd:   DIG COMPANY NAME
LDAT.                      04/26/1993:   DATE LOGGED
ELD .F                        98.5000:   LOG DATUM ELEVATION
TDD .F                     11217.0000:   TOTAL DEPTH DRILLER
TDL .F                     11225.0000:   TOTAL DEPTH LOGGER
BOTL.F                     11219.0000:   BOTTOM DEPTH LOGGED
TOPL.F                      9802.0000:   TOP DEPTH LOGGED
CS1 .IN                        7.6250:   CASING SIZE 1
BS1 .IN                        6.5000:   BIT SIZE 1
DDB1.F                     11217.0000:   DEPTH DRILLED BIT 1
BHF .                              99:   FLUID CODE
DPT .                   Miscellaneous:   DRILLING FLUID TYPE
MUDD.                         13.9000:   FLUID DENSITY
MUDV.                         41.0000:   FLUID VISCOSITY
DFPH.                         10.0000:   FLUID PH
FL  .                          3.2000:   FLUID LOSS
RM  .OHMM                       .9550:   RM
RMT .DEGF                     77.0000:   RM TEMP
RMF .OHMM                       .5740:   RMF
RMFT.DEGF                     76.0000:   RMF TEMP
FSC .                               M:   RMF CODE
RMC .OHMM                      1.6900:   RMC
RMCT.DEGF                     76.0000:   RMC TEMP
CMC .                               M:   RMC CODE
TMAX.DEGF                    207.0000:   MAX REC TEMP
TIMC.                         17.0000:   TIME SINCE CIRCLN
~PARAMETER INFORMATION (zones)
#MNEM.UNIT                       Value     Description
#=========                       =====     ===========
#ZONATION                          LDT:   ZONATION NAME
#ZONE                            RUN_2:   ZONE NAME
TOP .                       9372.0000:   TOP DEPTH
BOT .                      11188.5000:   BOTTOM DEPTH
RUN .                               2:   RUN NUMBER
LCCD.                             440:   LOGGING CONTRACTOR
SRVC.                    Schlumberger:   LOGGING CONT NAME
DICO.          QC Data Collectors Ltd:   DIG COMPANY NAME
LDAT.                      04/26/1993:   DATE LOGGED
ELD .F                        98.5000:   LOG DATUM ELEVATION
TDD .F                     11217.0000:   TOTAL DEPTH DRILLER
TDL .F                     11225.0000:   TOTAL DEPTH LOGGER
BOTL.F                     11219.0000:   BOTTOM DEPTH LOGGED
TOPL.F                      9802.0000:   TOP DEPTH LOGGED
CS1 .IN                        7.6250:   CASING SIZE 1
BS1 .IN                        6.5000:   BIT SIZE 1
DDB1.F                     11217.0000:   DEPTH DRILLED BIT 1
BHF .                              99:   FLUID CODE
DPT .                   Miscellaneous:   DRILLING FLUID TYPE
MUDD.                         13.9000:   FLUID DENSITY
MUDV.                         41.0000:   FLUID VISCOSITY
DFPH.                         10.0000:   FLUID PH
FL  .                          3.2000:   FLUID LOSS
RM  .OHMM                       .9550:   RM
RMT .DEGF                     77.0000:   RM TEMP
RMF .OHMM                       .5740:   RMF
RMFT.DEGF                     76.0000:   RMF TEMP
FSC .                               M:   RMF CODE
RMC .OHMM                      1.6900:   RMC
RMCT.DEGF                     76.0000:   RMC TEMP
CMC .                               M:   RMC CODE
TMAX.DEGF                    207.0000:   MAX REC TEMP
TIMC.                         17.0000:   TIME SINCE CIRCLN
~Curve Information Block
#MNEM.UNIT                    API CODE    No Description
#=========                    ========    == ===========
DEPT.F                   00 001 00 00:     1  DEPTH
NPHI.%                               :     2  Neutron Porosity
DT.US/F                              :     3  Sonic Transit Time
DTL.US/F                             :     4  Sonic Transit Time (Slowness)
GR.GAPI                              :     5  Gamma Ray
ILD.OHMM                             :     6  Deep Induction Resistivity
ILM.OHMM                             :     7  Medium Induction Resistivity
SFL.OHMM                             :     8  Medium Resistivity
SP.MV                                :     9  Spontaneous Potential
DCAL.IN                              :    10  Differential Caliper
DPHI.%                               :    11  Porosity
GR.GAPI                              :    12  Gamma Ray
~ASCII
# ...
 6962.5000  -999.2500   106.7500  -999.2500    49.9063      .3989      .4224      .6846   -83.5625  -999.2500  -999.2500  -999.2500
 6963.0000  -999.2500   112.0000  -999.2500    52.0312      .3872      .4141      .7339   -85.1562  -999.2500  -999.2500  -999.2500
 6963.5000  -999.2500   110.0000  -999.2500    56.1875      .3779      .4097      .7393   -86.9688  -999.2500  -999.2500  -999.2500
 6964.0000  -999.2500   110.7500  -999.2500    55.2812      .3716      .4043      .7754   -89.3750  -999.2500  -999.2500  -999.2500
 6964.5000  -999.2500   108.5000  -999.2500    49.9063      .3672      .3950      .7803   -92.4375  -999.2500  -999.2500  -999.2500
 6965.0000  -999.2500   107.5000  -999.2500    49.7813      .3633      .3833      .7134   -95.1562  -999.2500  -999.2500  -999.2500
 6965.5000  -999.2500   108.1250  -999.2500    51.9688      .3569      .3711      .6479   -95.9688  -999.2500  -999.2500  -999.2500
 6966.0000  -999.2500   109.2500  -999.2500    57.0000      .3467      .3589      .7168   -94.6250  -999.2500  -999.2500  -999.2500
 6966.5000  -999.2500   110.1250  -999.2500    56.5625      .3320      .3447      .8218   -93.3437  -999.2500  -999.2500  -999.2500
 6967.0000  -999.2500   110.8750  -999.2500    52.6875      .3193      .3281      .8203   -93.9062  -999.2500  -999.2500  -999.2500
 6967.5000  -999.2500   109.7500  -999.2500    47.8750      .3115      .3101      .7388   -96.5938  -999.2500  -999.2500  -999.2500
 6968.0000  -999.2500   110.2500  -999.2500    43.2812      .3086      .2949      .6294   -98.9062  -999.2500  -999.2500  -999.2500
 6968.5000  -999.2500   108.1250  -999.2500    45.6563      .3101      .2861      .5557  -100.0000  -999.2500  -999.2500  -999.2500
 6969.0000  -999.2500   107.6250  -999.2500    47.6562      .3159      .2861      .5244   -99.3438  -999.2500  -999.2500  -999.2500
 6969.5000  -999.2500   101.3750  -999.2500    48.8125      .3276      .2974      .5635   -96.5000  -999.2500  -999.2500  -999.2500
 6970.0000  -999.2500    94.8750  -999.2500    47.9063      .3486      .3232      .6523   -92.3750  -999.2500  -999.2500  -999.2500
 6970.5000  -999.2500    87.8750  -999.2500    49.5000      .3784      .3677      .7559   -86.6875  -999.2500  -999.2500  -999.2500
 6971.0000  -999.2500    70.7500  -999.2500    51.8125      .4121      .4346      .9751   -80.7188  -999.2500  -999.2500  -999.2500
 6971.5000  -999.2500    68.1250  -999.2500    50.1875      .4536      .5220     1.4941   -77.0312  -999.2500  -999.2500  -999.2500
 6972.0000  -999.2500    74.8750  -999.2500    50.0625      .4912      .6099     2.1641   -76.4688  -999.2500  -999.2500  -999.2500
 6972.5000  -999.2500    84.5000  -999.2500    48.3750      .5112      .6611     2.4551   -77.6875  -999.2500  -999.2500  -999.2500
 6973.0000  -999.2500    93.8750  -999.2500    53.8125      .5166      .6514     1.6768   -79.1875  -999.2500  -999.2500  -999.2500
 6973.5000  -999.2500   104.1250  -999.2500    56.0000      .5029      .5972     1.1348   -80.9375  -999.2500  -999.2500  -999.2500
 6974.0000  -999.2500   107.2500  -999.2500    60.5937      .4771      .5317      .9678   -83.3125  -999.2500  -999.2500  -999.2500
 6974.5000  -999.2500   106.7500  -999.2500    56.9063      .4546      .4741      .8384   -85.4687  -999.2500  -999.2500  -999.2500
 6975.0000  -999.2500   107.6250  -999.2500    54.2500      .4385      .4316      .7261   -87.2813  -999.2500  -999.2500  -999.2500
 6975.5000  -999.2500   106.5000  -999.2500    50.9062      .4287      .4048      .6553   -87.3750  -999.2500  -999.2500  -999.2500
 6976.0000  -999.2500   103.6250  -999.2500    55.5937      .4229      .3931      .6533   -84.9062  -999.2500  -999.2500  -999.2500
 6976.5000  -999.2500   106.5000  -999.2500    57.6250      .4194      .3950      .7280   -81.0937  -999.2500  -999.2500  -999.2500
 6977.0000  -999.2500   105.8750  -999.2500    59.1563      .4194      .4087      .8657   -76.2813  -999.2500  -999.2500  -999.2500
 6977.5000  -999.2500   106.3750  -999.2500    55.0000      .4312      .4302      .9253   -73.3750  -999.2500  -999.2500  -999.2500
 6978.0000  -999.2500   105.5000  -999.2500    57.3750      .4507      .4556      .8730   -70.8125  -999.2500  -999.2500  -999.2500
 6978.5000  -999.2500   102.8750  -999.2500    56.9688      .4697      .4810      .8247   -69.1875  -999.2500  -999.2500  -999.2500
 6979.0000  -999.2500   105.6250  -999.2500    59.9687      .4868      .5039      .8555   -67.5938  -999.2500  -999.2500  -999.2500
 6979.5000  -999.2500   106.5000  -999.2500    57.8125      .4980      .5225      .8726   -66.6250  -999.2500  -999.2500  -999.2500
 6980.0000  -999.2500   107.5000  -999.2500    62.4063      .5039      .5361      .8423   -66.8594  -999.2500  -999.2500  -999.2500
 6980.5000  -999.2500   104.5000  -999.2500    65.0000      .5063      .5449      .7959   -66.8281  -999.2500  -999.2500  -999.2500
 6981.0000  -999.2500   105.7500  -999.2500    67.5000      .5034      .5469      .8643   -66.8125  -999.2500  -999.2500  -999.2500
 6981.5000  -999.2500   107.0000  -999.2500    64.5625      .4980      .5430      .9531   -68.2344  -999.2500  -999.2500  -999.2500
 6982.0000  -999.2500   106.8750  -999.2500    62.5938      .4912      .5322     1.0186   -71.2187  -999.2500  -999.2500  -999.2500
 6982.5000  -999.2500   107.8750  -999.2500    58.4062      .4819      .5161     1.0801   -74.4688  -999.2500  -999.2500  -999.2500
 6983.0000  -999.2500   108.1250  -999.2500    53.4688      .4712      .4966     1.1426   -77.4375  -999.2500  -999.2500  -999.2500
 6983.5000  -999.2500   109.5000  -999.2500    50.9062      .4609      .4780     1.0459   -78.7187  -999.2500  -999.2500  -999.2500
 6984.0000  -999.2500   109.5000  -999.2500    53.6875      .4526      .4634      .8320   -78.6250  -999.2500  -999.2500  -999.2500
 6984.5000  -999.2500   109.0000  -999.2500    60.1875      .4448      .4536      .7764   -78.6250  -999.2500  -999.2500  -999.2500
 6985.0000  -999.2500   110.7500  -999.2500    58.2812      .4380      .4473      .9131   -79.3125  -999.2500  -999.2500  -999.2500
 6985.5000  -999.2500   107.8750  -999.2500    52.2500      .4365      .4424     1.0020   -80.7188  -999.2500  -999.2500  -999.2500
 6986.0000  -999.2500   106.3750  -999.2500    49.3437      .4419      .4395      .9150   -81.8438  -999.2500  -999.2500  -999.2500
 6986.5000  -999.2500   104.2500  -999.2500    55.1250      .4526      .4414      .7925   -81.3750  -999.2500  -999.2500  -999.2500
 6987.0000  -999.2500   104.1250  -999.2500    61.7187      .4653      .4507      .8071   -79.5938  -999.2500  -999.2500  -999.2500
 6987.5000  -999.2500   102.6250  -999.2500    61.1563      .4771      .4702      .8813   -78.4688  -999.2500  -999.2500  -999.2500
 6988.0000  -999.2500   100.7500  -999.2500    60.2188      .4893      .4976      .9546   -77.1562  -999.2500  -999.2500  -999.2500
 6988.5000  -999.2500   100.1250  -999.2500    61.2813      .4990      .5278      .9692   -76.4062  -999.2500  -999.2500  -999.2500
 6989.0000  -999.2500   100.5000  -999.2500    65.3125      .5005      .5518      .9521   -74.4375  -999.2500  -999.2500  -999.2500
 6989.5000  -999.2500   102.0000  -999.2500    64.8125      .4951      .5610      .9570   -73.0937  -999.2500  -999.2500  -999.2500
 6990.0000  -999.2500   103.0000  -999.2500    60.7500      .4854      .5508     1.0215   -73.7813  -999.2500  -999.2500  -999.2500
 6990.5000  -999.2500   105.7500  -999.2500    57.0938      .4702      .5234     1.0635   -77.0625  -999.2500  -999.2500  -999.2500
 6991.0000  -999.2500   106.2500  -999.2500    51.4062      .4502      .4873     1.0527   -82.6562  -999.2500  -999.2500  -999.2500
 6991.5000  -999.2500   107.1250  -999.2500    46.5938      .4307      .4512     1.0449   -87.8750  -999.2500  -999.2500  -999.2500
 6992.0000  -999.2500   108.0000  -999.2500    46.9688      .4136      .4204     1.0664   -91.9063  -999.2500  -999.2500  -999.2500
 6992.5000  -999.2500   107.7500  -999.2500    44.8125      .3989      .3975     1.0664   -94.1875  -999.2500  -999.2500  -999.2500
