~VERSION INFORMATION
VERS.                             2.0:   CWLS Log ASCII Standard-VERSION 2.0
WRAP.                              NO:   One line per depth step
~Well Information Block
STRT.F                      3877.0000:   Top Depth
STOP.F                     10380.0000:   Bottom Depth
STEP.F                         .50000:   Depth Increment
NULL.                        -999.250:   Null Value
FLD .                      GA BLK 321:   Field Name
WELL.       OCSG11316   001 ST01 BP00:   NAME
API .                  42706402670100:   WELL API
EDF .F                        90.0000:   ELEV DRILL FLOOR
COMP.              SHELL OFFSHORE INC:   OPERATOR
BN  .                             321:   BLOCK
CTRY.                             USA:   COUNTRY NAME
CNTY.                        GLVSTN L:   COUNTY NAME
EKB .F                        91.0000:   ELEV KELLY BUSHING
TDD .F                      10395.000:   FINAL TD DRILLER
STAT.                           TEXAS:   STATE NAME
UWI .                  42706402670100:   WELL API
DICO.               IHS : Digitizing Company
~PARAMETER INFORMATION (zones)
#MNEM.UNIT                       Value     Description
#=========                       =====     ===========
#ZONATION                          DIL:   ZONATION NAME
#ZONE                            RUN_1:   ZONE NAME
TOP .                       3877.0000:   TOP DEPTH
BOT .                      10380.5000:   BOTTOM DEPTH
RUN .                               1:   RUN NUMBER
LCCD.                             280:   LOGGING CONTRACTOR
SRVC.                     Halliburton:   LOGGING CONT NAME
DICO.          QC Data Collectors Ltd:   DIG COMPANY NAME
LDAT.                      06/13/1990:   DATE LOGGED
ELD .F                        91.0000:   LOG DATUM ELEVATION
TDD .F                     10395.0000:   TOTAL DEPTH DRILLER
TDL .F                     10390.0000:   TOTAL DEPTH LOGGER
BOTL.F                     10380.0000:   BOTTOM DEPTH LOGGED
TOPL.F                      3954.0000:   TOP DEPTH LOGGED
CS1 .IN                       13.3750:   CASING SIZE 1
BS1 .IN                       12.2500:   BIT SIZE 1
DDB1.F                     10395.0000:   DEPTH DRILLED BIT 1
BHF .                              99:   FLUID CODE
DPT .                   Miscellaneous:   DRILLING FLUID TYPE
MUDD.                         13.4000:   FLUID DENSITY
MUDV.                         68.0000:   FLUID VISCOSITY
DFPH.                          9.0000:   FLUID PH
FL  .                          2.1000:   FLUID LOSS
RM  .OHMM                       .0700:   RM
RMT .DEGF                     77.0000:   RM TEMP
RMF .OHMM                       .0400:   RMF
RMFT.DEGF                     73.0000:   RMF TEMP
FSC .                               M:   RMF CODE
RMC .OHMM                       .1000:   RMC
RMCT.DEGF                     74.0000:   RMC TEMP
CMC .                               M:   RMC CODE
TMAX.DEGF                    209.0000:   MAX REC TEMP
TIMC.                         13.0000:   TIME SINCE CIRCLN
~Curve Information Block
#MNEM.UNIT                    API CODE    No Description
#=========                    ========    == ===========
DEPT.F                   00 001 00 00:     1  DEPTH
CALI.IN                              :     2  Caliper
DT.US/F                              :     3  Sonic Transit Time
GR.GAPI                              :     4  Gamma Ray
ILD.OHMM                             :     5  Deep Induction Resistivity
ILM.OHMM                             :     6  Medium Induction Resistivity
SFL.OHMM                             :     7  Medium Resistivity
SP.MV                                :     8  Spontaneous Potential
~ASCII
# ...
 8654.5000    14.0199    98.9105    62.5522      .7814      .7357      .7770   -35.0811
 8655.0000    14.0071    98.7449    62.9349      .7794      .7347      .7597   -33.8790
 8655.5000    13.9294    98.6809    66.3660      .7782      .7357      .7854   -32.8574
 8656.0000    13.8508    99.1556    69.3370      .7771      .7402      .8372   -32.6071
 8656.5000    13.8133    99.8202    72.1531      .7772      .7471      .8696   -33.0299
 8657.0000    13.7873   100.5940    75.0653      .7776      .7530      .8605   -33.1970
 8657.5000    13.7725   101.1708    74.4877      .7779      .7549      .8337   -32.9955
 8658.0000    13.7784   101.2080    73.1719      .7783      .7564      .7995   -32.7912
 8658.5000    13.7949   101.0370    71.8535      .7763      .7567      .7517   -32.5861
 8659.0000    13.8138   100.8506    70.5352      .7726      .7570      .7094   -32.5224
 8659.5000    13.8324   100.7018    69.2194      .7691      .7548      .6796   -32.5091
 8660.0000    13.8540   100.5970    67.6870      .7662      .7527      .6740   -32.6420
 8660.5000    13.8792   100.7155    65.8552      .7633      .7505      .7131   -32.7874
 8661.0000    13.9086   100.8311    65.1003      .7636      .7482      .7742   -32.9448
 8661.5000    13.9319   100.9067    64.8490      .7639      .7458      .7992   -33.0140
 8662.0000    13.9530   100.7677    66.0933      .7658      .7434      .7756   -33.0580
 8662.5000    13.9683   100.3586    67.3407      .7681      .7421      .7365   -33.1260
 8663.0000    13.9650    99.9557    68.3436      .7701      .7454      .7116   -33.2597
 8663.5000    13.9283    99.5929    69.1105      .7719      .7488      .7041   -33.3936
 8664.0000    13.8559    99.2301    69.5195      .7735      .7522      .7293   -33.3079
 8664.5000    13.8089    98.8472    69.5068      .7749      .7567      .7752   -33.0690
 8665.0000    13.7809    98.4515    69.1599      .7763      .7613      .7869   -32.8056
 8665.5000    13.7691    98.1154    68.4773      .7806      .7657      .7979   -32.7368
 8666.0000    13.7622    98.2028    67.9946      .7853      .7658      .8126   -32.8867
 8666.5000    13.7668    98.9216    67.8416      .7896      .7660      .8425   -33.1853
 8667.0000    13.7791    99.8229    68.2567      .7924      .7657      .8928   -33.5005
 8667.5000    13.7888   100.7255    68.6825      .7951      .7617      .9732   -33.7954
 8668.0000    13.7938   101.2781    69.1539      .7934      .7578      .8740   -34.0384
 8668.5000    13.8069   100.9159    69.4487      .7898      .7529      .8075   -34.2263
 8669.0000    13.8195   100.2561    69.1659      .7862      .7446      .7503   -34.2905
 8669.5000    13.8261    99.8162    68.9282      .7847      .7364      .7401   -34.1103
 8670.0000    13.8277   100.3861    69.1696      .7866      .7348      .8024   -33.8188
 8670.5000    13.8242   101.1975    70.1661      .7869      .7341      .7397   -33.4337
 8671.0000    13.8202   101.9073    71.3481      .7840      .7308      .7454   -33.0339
 8671.5000    13.8191   102.0161    72.2954      .7811      .7308      .7877   -32.7509
 8672.0000    13.8243   101.9164    71.9792      .7771      .7320      .7479   -32.6426
 8672.5000    13.8395   101.5073    71.0526      .7730      .7317      .7067   -32.8133
 8673.0000    13.8653   101.1443    70.0498      .7721      .7318      .7115   -33.0222
 8673.5000    13.8824   100.8646    68.8932      .7746      .7355      .7566   -33.3561
 8674.0000    13.8935   100.5850    67.7352      .7765      .7392      .8031   -33.6429
 8674.5000    13.8972   100.4358    66.7150      .7772      .7450      .8325   -33.6309
 8675.0000    13.8953   100.3118    65.7041      .7780      .7520      .8138   -33.5405
 8675.5000    13.8901   100.1876    64.8536      .7829      .7570      .7969   -33.4854
 8676.0000    13.8800   100.0636    65.2562      .7899      .7596      .7915   -33.3729
 8676.5000    13.8619    99.9265    66.5238      .7965      .7599      .8095   -33.2515
 8677.0000    13.8404    99.7664    67.7941      .8007      .7577      .8280   -33.3520
 8677.5000    13.8242    99.6064    68.6311      .8050      .7556      .8523   -33.5745
 8678.0000    13.8207    99.3622    69.4043      .8068      .7546      .8982   -33.8271
 8678.5000    13.8196    98.9572    69.5795      .8082      .7537      .8855   -34.0802
 8679.0000    13.8415    98.6262    69.7183      .8099      .7551      .8567   -34.3333
 8679.5000    13.8721    98.4153    69.8171      .8147      .7575      .8271   -34.6064
 8680.0000    13.9084    98.0780    70.4496      .8195      .7636      .7998   -34.9343
 8680.5000    13.9452    97.7542    70.4215      .8248      .7729      .8056   -35.0864
 8681.0000    13.9787    97.6365    70.5244      .8403      .7812      .8889   -34.8384
 8681.5000    13.9854    97.2424    71.0573      .8561      .7878      .8885   -34.5054
 8682.0000    13.9767    96.4070    70.7357      .8700      .7915      .8640   -34.1190
 8682.5000    13.9688    95.4373    68.1337      .8846      .7911      .8194   -33.7733
 8683.0000    13.9612    94.2329    65.6760      .9014      .7939      .8898   -33.6483
 8683.5000    13.9558    93.7729    63.3869      .9175      .8009      .9962   -34.0374
 8684.0000    13.9531    94.3429    60.5201      .9300      .8089     1.1394   -34.5776
 8684.5000    13.9618    95.0403    60.7367      .9422      .8178     1.0801   -35.1225
 8685.0000    13.9705    94.8351    62.0939      .9537      .8305      .9505   -35.5116
 8685.5000    13.9606    93.4979    63.1957      .9643      .8442      .8775   -35.8984
 8686.0000    13.9506    92.3895    63.9565      .9697      .8587     1.0093   -35.7966
 8686.5000    13.9412    92.0673    63.1783      .9702      .8736     1.2292   -35.6259
 8687.0000    13.9326    92.0348    60.8116      .9669      .8840     1.3344   -35.3785
 8687.5000    13.9336    92.7965    59.3514      .9638      .8906     1.1507   -35.4583
 8688.0000    13.9347    93.6119    59.6216      .9623      .8928     1.0608   -35.6151
 8688.5000    13.9338    93.8323    61.5711      .9597      .8864     1.0327   -36.0799
 8689.0000    13.9250    93.9177    63.2880      .9552      .8800     1.0483   -36.5809
 8689.5000    13.9175    93.9811    64.8256      .9506      .8703     1.0178   -36.7029
 8690.0000    13.9107    94.3583    65.0844      .9460      .8596      .9540   -36.1929
 8690.5000    13.9040    94.7928    63.8068      .9401      .8489      .9193   -35.4581
 8691.0000    13.8972    95.1885    62.9858      .9373      .8399      .9390   -34.6304
 8691.5000    13.8904    95.5225    61.6780      .9380      .8309      .9687   -34.0748
 8692.0000    13.8837    95.7853    60.3904      .9403      .8197      .9566   -33.5848
 8692.5000    13.8768    95.9188    59.7864      .9429      .8107      .9223   -33.2429
 8693.0000    13.8618    95.9514    60.6752      .9449      .8034      .9146   -33.0089
 8693.5000    13.8413    96.0271    63.2853      .9469      .8016      .9439   -32.4723
 8694.0000    13.8226    95.9771    65.3872      .9432      .7998      .9751   -31.9806
 8694.5000    13.8116    95.7927    66.5719      .9379      .7998      .9870   -31.7697
 8695.0000    13.8105    95.5167    66.4777      .9336      .8002      .9789   -32.2183
 8695.5000    13.8198    95.2998    66.0143      .9352      .8024      .9811   -33.0366
 8696.0000    13.8446    95.7538    65.5503      .9368      .8058     1.0074   -33.7900
 8696.5000    13.8726   100.3674    65.0101      .9398      .8205     1.0638   -34.0478
 8697.0000    13.8800   107.1376    64.3389      .9441      .8357     1.1123   -34.2129
 8697.5000    13.8853   111.7780    63.2799      .9485      .8490     1.1517   -34.0715
 8698.0000    13.8645   114.8948    62.3667      .9520      .8530     1.1871   -33.6644
 8698.5000    13.8320   115.0410    63.5821      .9557      .8497     1.1663   -33.0192
 8699.0000    13.7901   114.0190    65.3818      .9602      .8474     1.1302   -32.2457
 8699.5000    13.7511   112.7677    66.9730      .9595      .8599     1.0928   -31.6286
