~VERSION INFORMATION
VERS.                             2.0:   CWLS Log ASCII Standard-VERSION 2.0
WRAP.                              NO:   One line per depth step
~Well Information Block
STRT.F                      3732.0000:   Top Depth
STOP.F                      8303.0000:   Bottom Depth
STEP.F                         .50000:   Depth Increment
NULL.                        -999.250:   Null Value
FLD .                      BA BLK 415:   Field Name
WELL.       OCSG11271   001 ST00 BP00:   NAME
API .                  42704402170000:   WELL API
EDF .F                       100.0000:   ELEV DRILL FLOOR
COMP.                     APACHE CORP:   OPERATOR
BN  .                             415:   BLOCK
CTRY.                             USA:   COUNTRY NAME
CNTY.                        BRAZOS L:   COUNTY NAME
EGL .F                       -78.0000:   ELEV GROUND LEVEL
EKB .F                       101.0000:   ELEV KELLY BUSHING
TDD .F                       8311.000:   FINAL TD DRILLER
STAT.                           TEXAS:   STATE NAME
UWI .                  42704402170000:   WELL API
DICO.               IHS : Digitizing Company
~PARAMETER INFORMATION (zones)
#MNEM.UNIT                       Value     Description
#=========                       =====     ===========
#ZONATION                          CNL:   ZONATION NAME
#ZONE                            RUN_1:   ZONE NAME
TOP .                       5274.0000:   TOP DEPTH
BOT .                       8300.5000:   BOTTOM DEPTH
RUN .                               1:   RUN NUMBER
LCCD.                              99:   LOGGING CONTRACTOR
DICO.          QC Data Collectors Ltd:   DIG COMPANY NAME
LDAT.                      08/26/1990:   DATE LOGGED
ELD .F                       101.0000:   LOG DATUM ELEVATION
TDD .F                      8311.0000:   TOTAL DEPTH DRILLER
TDL .F                      8306.0000:   TOTAL DEPTH LOGGER
BOTL.F                      8303.0000:   BOTTOM DEPTH LOGGED
TOPL.F                      5257.0000:   TOP DEPTH LOGGED
CS1 .IN                       10.7500:   CASING SIZE 1
BS1 .IN                        9.8750:   BIT SIZE 1
DDB1.F                      8311.0000:   DEPTH DRILLED BIT 1
BHF .                              99:   FLUID CODE
DPT .                   Miscellaneous:   DRILLING FLUID TYPE
MUDD.                         10.0000:   FLUID DENSITY
MUDV.                         43.0000:   FLUID VISCOSITY
DFPH.                          8.1000:   FLUID PH
FL  .                          3.2000:   FLUID LOSS
RM  .OHMM                       .8800:   RM
RMT .DEGF                     75.0000:   RM TEMP
RMF .OHMM                       .7000:   RMF
RMFT.DEGF                     75.0000:   RMF TEMP
FSC .                               C:   RMF CODE
RMC .OHMM                       .9600:   RMC
RMCT.DEGF                     75.0000:   RMC TEMP
CMC .                               C:   RMC CODE
TMAX.DEGF                    166.0000:   MAX REC TEMP
TIMC.                         10.0000:   TIME SINCE CIRCLN
~PARAMETER INFORMATION (zones)
#MNEM.UNIT                       Value     Description
#=========                       =====     ===========
#ZONATION                          DIL:   ZONATION NAME
#ZONE                            RUN_1:   ZONE NAME
TOP .                       3732.0000:   TOP DEPTH
BOT .                       8303.5000:   BOTTOM DEPTH
RUN .                               1:   RUN NUMBER
LCCD.                              99:   LOGGING CONTRACTOR
DICO.          QC Data Collectors Ltd:   DIG COMPANY NAME
LDAT.                      08/26/1990:   DATE LOGGED
ELD .F                       101.0000:   LOG DATUM ELEVATION
TDD .F                      8311.0000:   TOTAL DEPTH DRILLER
TDL .F                      8306.0000:   TOTAL DEPTH LOGGER
BOTL.F                      8303.0000:   BOTTOM DEPTH LOGGED
TOPL.F                      3786.0000:   TOP DEPTH LOGGED
CS1 .IN                       10.7500:   CASING SIZE 1
BS1 .IN                        9.8750:   BIT SIZE 1
DDB1.F                      8311.0000:   DEPTH DRILLED BIT 1
BHF .                              99:   FLUID CODE
DPT .                   Miscellaneous:   DRILLING FLUID TYPE
MUDD.                         10.0000:   FLUID DENSITY
MUDV.                         43.0000:   FLUID VISCOSITY
DFPH.                          8.1000:   FLUID PH
FL  .                          3.2000:   FLUID LOSS
RM  .OHMM                       .8800:   RM
RMT .DEGF                     75.0000:   RM TEMP
RMF .OHMM                       .7000:   RMF
RMFT.DEGF                     75.0000:   RMF TEMP
FSC .                               C:   RMF CODE
RMC .OHMM                       .9600:   RMC
RMCT.DEGF                     75.0000:   RMC TEMP
CMC .                               C:   RMC CODE
TMAX.DEGF                    166.0000:   MAX REC TEMP
TIMC.                          6.0000:   TIME SINCE CIRCLN
~PARAMETER INFORMATION (zones)
#MNEM.UNIT                       Value     Description
#=========                       =====     ===========
#ZONATION                          FDC:   ZONATION NAME
#ZONE                            RUN_1:   ZONE NAME
TOP .                       5263.0000:   TOP DEPTH
BOT .                       8303.5000:   BOTTOM DEPTH
RUN .                               1:   RUN NUMBER
LCCD.                              99:   LOGGING CONTRACTOR
DICO.          QC Data Collectors Ltd:   DIG COMPANY NAME
LDAT.                      08/26/1990:   DATE LOGGED
ELD .F                       101.0000:   LOG DATUM ELEVATION
TDD .F                      8311.0000:   TOTAL DEPTH DRILLER
TDL .F                      8306.0000:   TOTAL DEPTH LOGGER
BOTL.F                      8303.0000:   BOTTOM DEPTH LOGGED
TOPL.F                      5257.0000:   TOP DEPTH LOGGED
CS1 .IN                       10.7500:   CASING SIZE 1
BS1 .IN                        9.8750:   BIT SIZE 1
DDB1.F                      8311.0000:   DEPTH DRILLED BIT 1
BHF .                              99:   FLUID CODE
DPT .                   Miscellaneous:   DRILLING FLUID TYPE
MUDD.                         10.0000:   FLUID DENSITY
MUDV.                         43.0000:   FLUID VISCOSITY
DFPH.                          8.1000:   FLUID PH
FL  .                          3.2000:   FLUID LOSS
RM  .OHMM                       .8800:   RM
RMT .DEGF                     75.0000:   RM TEMP
RMF .OHMM                       .7000:   RMF
RMFT.DEGF                     75.0000:   RMF TEMP
FSC .                               C:   RMF CODE
RMC .OHMM                       .9600:   RMC
RMCT.DEGF                     75.0000:   RMC TEMP
CMC .                               C:   RMC CODE
TMAX.DEGF                    166.0000:   MAX REC TEMP
TIMC.                         10.0000:   TIME SINCE CIRCLN
~Curve Information Block
#MNEM.UNIT                    API CODE    No Description
#=========                    ========    == ===========
DEPT.F                   00 001 00 00:     1  DEPTH
NPHI.%                               :     2  Neutron Porosity
CALI.IN                              :     3  Caliper
DT.US/F                              :     4  Sonic Transit Time
GR.GAPI                              :     5  Gamma Ray
ILD.OHMM                             :     6  Deep Induction Resistivity
ILM.OHMM                             :     7  Medium Induction Resistivity
RFOC.OHMM                            :     8  Medium Resistivity
SP.MV                                :     9  Spontaneous Potential
CALI.IN                              :    10  Caliper
DPHI.%                               :    11  Porosity
DRHO.G/C3                            :    12  Bulk Density Correction
GR.GAPI                              :    13  Gamma Ray
RHOB.G/C3                            :    14  Bulk Density
~ASCII
# ...
 4096.0000  -999.2500  -999.2500   128.2051    78.2037      .7693      .6920      .7491   -45.3133  -999.2500    45.2227  -999.2500  -999.2500  -999.2500
 4096.5000  -999.2500  -999.2500   129.3008    78.8358      .7296      .6648      .7262   -44.4915  -999.2500    45.9124  -999.2500  -999.2500  -999.2500
 4097.0000  -999.2500  -999.2500   128.1331    76.4618      .6919      .6420      .7380   -44.6088  -999.2500    45.1418  -999.2500  -999.2500  -999.2500
 4097.5000  -999.2500  -999.2500   125.4366    74.1233      .6561      .6216      .7662   -47.7831  -999.2500    43.4539  -999.2500  -999.2500  -999.2500
 4098.0000  -999.2500  -999.2500   123.7937    72.3918      .6222      .6033      .7984   -52.3224  -999.2500    41.8882  -999.2500  -999.2500  -999.2500
 4098.5000  -999.2500  -999.2500   124.8003    70.8345      .5901      .5857      .8053   -56.8617  -999.2500    42.2124  -999.2500  -999.2500  -999.2500
 4099.0000  -999.2500  -999.2500   127.2408    68.7059      .5604      .5685      .8024   -60.7615  -999.2500    43.7711  -999.2500  -999.2500  -999.2500
 4099.5000  -999.2500  -999.2500   128.3452    68.3737      .5449      .5516      .7969   -63.9254  -999.2500    44.7078  -999.2500  -999.2500  -999.2500
 4100.0000  -999.2500  -999.2500   128.5364    68.4784      .5349      .5304      .8255   -67.0894  -999.2500    44.8881  -999.2500  -999.2500  -999.2500
 4100.5000  -999.2500  -999.2500   127.3492    68.5243      .5263      .5259      .8570   -69.7659  -999.2500    44.3220  -999.2500  -999.2500  -999.2500
 4101.0000  -999.2500  -999.2500   125.6704    67.8174      .5206      .5261      .8774   -71.2764  -999.2500    43.4650  -999.2500  -999.2500  -999.2500
 4101.5000  -999.2500  -999.2500   123.9485    65.0538      .5165      .5262      .8888   -72.5211  -999.2500    42.6021  -999.2500  -999.2500  -999.2500
 4102.0000  -999.2500  -999.2500   122.8700    62.3527      .5151      .5323      .8887   -73.1301  -999.2500    41.7385  -999.2500  -999.2500  -999.2500
 4102.5000  -999.2500  -999.2500   121.7993    61.2373      .5176      .5416      .8802   -72.6433  -999.2500    40.8013  -999.2500  -999.2500  -999.2500
 4103.0000  -999.2500  -999.2500   119.6279    62.9493      .5233      .5508      .8825   -70.9086  -999.2500    39.9357  -999.2500  -999.2500  -999.2500
 4103.5000  -999.2500  -999.2500   116.7328    64.6165      .5319      .5602      .8914   -66.8372  -999.2500    38.1721  -999.2500  -999.2500  -999.2500
 4104.0000  -999.2500  -999.2500   114.1433    64.1302      .5448      .5688      .8967   -62.6333  -999.2500    36.6245  -999.2500  -999.2500  -999.2500
 4104.5000  -999.2500  -999.2500   114.6633    63.7835      .5574      .5772      .8988   -59.3107  -999.2500    36.2198  -999.2500  -999.2500  -999.2500
 4105.0000  -999.2500  -999.2500   117.6656    67.8148      .5655      .5854      .8557   -55.9726  -999.2500    38.4031  -999.2500  -999.2500  -999.2500
 4105.5000  -999.2500  -999.2500   121.0742    71.0061      .5738      .5906      .7914   -52.6370  -999.2500    40.3326  -999.2500  -999.2500  -999.2500
 4106.0000  -999.2500  -999.2500   123.6885    71.5690      .5798      .5957      .7397   -47.6531  -999.2500    42.0643  -999.2500  -999.2500  -999.2500
 4106.5000  -999.2500  -999.2500   124.5007    67.5159      .5847      .6005      .7160   -45.1371  -999.2500    42.6638  -999.2500  -999.2500  -999.2500
 4107.0000  -999.2500  -999.2500   124.3882    65.0311      .5895      .6019      .6994   -44.7907  -999.2500    42.4195  -999.2500  -999.2500  -999.2500
 4107.5000  -999.2500  -999.2500   124.3237    64.0945      .5921      .6034      .7318   -48.6333  -999.2500    42.1995  -999.2500  -999.2500  -999.2500
 4108.0000  -999.2500  -999.2500   124.6338    65.0096      .5948      .6039      .7791   -52.7228  -999.2500    42.5097  -999.2500  -999.2500  -999.2500
 4108.5000  -999.2500  -999.2500   125.2178    67.1870      .5957      .6026      .8226   -54.7377  -999.2500    43.0201  -999.2500  -999.2500  -999.2500
 4109.0000  -999.2500  -999.2500   125.2233    68.3624      .5940      .6012      .8475   -56.0616  -999.2500    43.1014  -999.2500  -999.2500  -999.2500
 4109.5000  -999.2500  -999.2500   124.5913    69.3331      .5923      .5995      .8687   -56.6386  -999.2500    42.5247  -999.2500  -999.2500  -999.2500
 4110.0000  -999.2500  -999.2500   124.2111    76.5970      .5902      .5968      .8692   -54.2229  -999.2500    41.9484  -999.2500  -999.2500  -999.2500
 4110.5000  -999.2500  -999.2500   127.2917    82.7950      .5875      .5942      .8151   -49.9462  -999.2500    44.7253  -999.2500  -999.2500  -999.2500
 4111.0000  -999.2500  -999.2500   131.3079    85.2661      .5848      .5915      .7583   -45.9139  -999.2500    48.2579  -999.2500  -999.2500  -999.2500
 4111.5000  -999.2500  -999.2500   135.9641    85.7086      .5822      .5908      .7157   -43.2634  -999.2500    50.4197  -999.2500  -999.2500  -999.2500
 4112.0000  -999.2500  -999.2500   138.9600    84.7618      .5801      .5913      .6877   -41.6332  -999.2500    51.3237  -999.2500  -999.2500  -999.2500
 4112.5000  -999.2500  -999.2500   139.8059    83.8555      .5781      .5918      .6818   -41.2090  -999.2500    51.9483  -999.2500  -999.2500  -999.2500
 4113.0000  -999.2500  -999.2500   138.8777    84.6045      .5768      .5923      .7038   -41.4070  -999.2500    51.8757  -999.2500  -999.2500  -999.2500
 4113.5000  -999.2500  -999.2500   136.1680    86.1254      .5781      .5938      .7414   -42.0992  -999.2500    50.3439  -999.2500  -999.2500  -999.2500
 4114.0000  -999.2500  -999.2500   133.7981    87.6125      .5795      .5953      .7680   -43.1457  -999.2500    48.5203  -999.2500  -999.2500  -999.2500
 4114.5000  -999.2500  -999.2500   133.3865    88.7489      .5829      .5969      .7719   -44.2389  -999.2500    47.5608  -999.2500  -999.2500  -999.2500
 4115.0000  -999.2500  -999.2500   134.8301    88.9182      .5905      .6001      .7238   -44.7305  -999.2500    48.2670  -999.2500  -999.2500  -999.2500
 4115.5000  -999.2500  -999.2500   136.1831    87.1991      .5982      .6044      .6932   -44.7621  -999.2500    49.3779  -999.2500  -999.2500  -999.2500
 4116.0000  -999.2500  -999.2500   136.5649    84.2314      .6017      .6087      .7202   -45.6695  -999.2500    50.2150  -999.2500  -999.2500  -999.2500
 4116.5000  -999.2500  -999.2500   135.6128    82.4791      .6049      .6115      .7682   -46.9736  -999.2500    49.8019  -999.2500  -999.2500  -999.2500
 4117.0000  -999.2500  -999.2500   133.6477    82.0040      .6072      .6130      .7990   -47.0092  -999.2500    48.4733  -999.2500  -999.2500  -999.2500
 4117.5000  -999.2500  -999.2500   132.5793    84.3835      .6053      .6144      .7604   -46.3233  -999.2500    47.3712  -999.2500  -999.2500  -999.2500
 4118.0000  -999.2500  -999.2500   134.1377    87.6710      .6035      .6158      .7205   -45.0682  -999.2500    47.9064  -999.2500  -999.2500  -999.2500
 4118.5000  -999.2500  -999.2500   135.6284    89.4752      .6020      .6135      .7119   -44.1622  -999.2500    49.1834  -999.2500  -999.2500  -999.2500
 4119.0000  -999.2500  -999.2500   136.6895    89.9636      .6012      .6100      .7296   -44.4482  -999.2500    49.8574  -999.2500  -999.2500  -999.2500
 4119.5000  -999.2500  -999.2500   136.9578    89.6725      .6005      .6065      .7487   -45.0364  -999.2500    49.9335  -999.2500  -999.2500  -999.2500
 4120.0000  -999.2500  -999.2500   137.4092    89.9907      .6021      .6072      .7618   -44.8993  -999.2500    50.0150  -999.2500  -999.2500  -999.2500
 4120.5000  -999.2500  -999.2500   138.6855    90.4753      .6045      .6085      .7316   -44.1616  -999.2500    51.1180  -999.2500  -999.2500  -999.2500
 4121.0000  -999.2500  -999.2500   139.6523    89.0515      .6065      .6080      .7115   -43.6838  -999.2500    51.9379  -999.2500  -999.2500  -999.2500
 4121.5000  -999.2500  -999.2500   139.4343    88.0187      .6057      .6069      .7177   -43.7469  -999.2500    51.9908  -999.2500  -999.2500  -999.2500
