~VERSION INFORMATION
VERS.                             2.0:   CWLS Log ASCII Standard-VERSION 2.0
WRAP.                              NO:   One line per depth step
~Well Information Block
STRT.F                      3150.0000:   Top Depth
STOP.F                     11219.0000:   Bottom Depth
STEP.F                         .50000:   Depth Increment
NULL.                        -999.250:   Null Value
FLD .                      GA BLK 300:   Field Name
WELL.       OCSG11310   002 ST00 BP00:   NAME
API .                  42706403320000:   WELL API
EDF .F                        97.5000:   ELEV DRILL FLOOR
COMP.       SEAGULL ENERGY E AND P IN:   OPERATOR
BN  .                             300:   BLOCK
CTRY.                             USA:   COUNTRY NAME
CNTY.                              GA:   COUNTY
CNTY.                        GLVSTN L:   COUNTY NAME
EGL .F                       -56.0000:   ELEV GROUND LEVEL
EKB .F                        98.5000:   ELEV KELLY BUSHING
TDD .F                      11225.000:   FINAL TD DRILLER
STAT.                           TEXAS:   STATE NAME
UWI .                  42706403320000:   WELL API
DICO.               IHS : Digitizing Company
~PARAMETER INFORMATION (zones)
#MNEM.UNIT                       Value     Description
#=========                       =====     ===========
#ZONATION                          CNL:   ZONATION NAME
#ZONE                            RUN_2:   ZONE NAME
TOP .                       9384.0000:   TOP DEPTH
BOT .                      11168.5000:   BOTTOM DEPTH
RUN .                               2:   RUN NUMBER
LCCD.                             440:   LOGGING CONTRACTOR
SRVC.                    Schlumberger:   LOGGING CONT NAME
DICO.          QC Data Collectors Ltd:   DIG COMPANY NAME
LDAT.                      04/26/1993:   DATE LOGGED
ELD .F                        98.5000:   LOG DATUM ELEVATION
TDD .F                     11217.0000:   TOTAL DEPTH DRILLER
TDL .F                     11225.0000:   TOTAL DEPTH LOGGER
BOTL.F                     11219.0000:   BOTTOM DEPTH LOGGED
TOPL.F                      9802.0000:   TOP DEPTH LOGGED
CS1 .IN                        7.6250:   CASING SIZE 1
BS1 .IN                        6.5000:   BIT SIZE 1
DDB1.F                     11217.0000:   DEPTH DRILLED BIT 1
BHF .                              99:   FLUID CODE
DPT .                   Miscellaneous:   DRILLING FLUID TYPE
MUDD.                         13.9000:   FLUID DENSITY
MUDV.                         41.0000:   FLUID VISCOSITY
DFPH.                         10.0000:   FLUID PH
FL  .                          3.2000:   FLUID LOSS
RM  .OHMM                       .9550:   RM
RMT .DEGF                     77.0000:   RM TEMP
RMF .OHMM                       .5740:   RMF
RMFT.DEGF                     76.0000:   RMF TEMP
FSC .                               M:   RMF CODE
RMC .OHMM                      1.6900:   RMC
RMCT.DEGF                     76.0000:   RMC TEMP
CMC .                               M:   RMC CODE
TMAX.DEGF                    207.0000:   MAX REC TEMP
TIMC.                         17.0000:   TIME SINCE CIRCLN
~PARAMETER INFORMATION (zones)
#MNEM.UNIT                       Value     Description
#=========                       =====     ===========
#ZONATION                          DIL:   ZONATION NAME
#ZONE                            RUN_1:   ZONE NAME
TOP .                       3150.0000:   TOP DEPTH
BOT .                       9865.5000:   BOTTOM DEPTH
RUN .                               1:   RUN NUMBER
LCCD.                             440:   LOGGING CONTRACTOR
SRVC.                    Schlumberger:   LOGGING CONT NAME
DICO.          QC Data Collectors Ltd:   DIG COMPANY NAME
LDAT.                      04/10/1993:   DATE LOGGED
ELD .F                        98.5000:   LOG DATUM ELEVATION
TDD .F                      9878.0000:   TOTAL DEPTH DRILLER
TDL .F                      9871.0000:   TOTAL DEPTH LOGGER
BOTL.F                      9865.0000:   BOTTOM DEPTH LOGGED
TOPL.F                      3298.0000:   TOP DEPTH LOGGED
CS1 .IN                       10.7500:   CASING SIZE 1
BS1 .IN                        9.8750:   BIT SIZE 1
DDB1.F                      9878.0000:   DEPTH DRILLED BIT 1
BHF .                              99:   FLUID CODE
DPT .                   Miscellaneous:   DRILLING FLUID TYPE
MUDD.                         11.8000:   FLUID DENSITY
MUDV.                         44.0000:   FLUID VISCOSITY
DFPH.                          9.5000:   FLUID PH
FL  .                          4.6000:   FLUID LOSS
RM  .OHMM                       .8730:   RM
RMT .DEGF                     82.0000:   RM TEMP
RMF .OHMM                       .4990:   RMF
RMFT.DEGF                     82.0000:   RMF TEMP
FSC .                               M:   RMF CODE
RMC .OHMM                      1.4400:   RMC
RMCT.DEGF                     82.0000:   RMC TEMP
CMC .                               M:   RMC CODE
TMAX.DEGF                    177.0000:   MAX REC TEMP
TIMC.                         15.0000:   TIME SINCE CIRCLN
~PARAMETER INFORMATION (zones)
#MNEM.UNIT                       Value     Description
#=========                       =====     ===========
#ZONATION                          DIL:   ZONATION NAME
#ZONE                            RUN_2:   ZONE NAME
TOP .                       9802.0000:   TOP DEPTH
BOT .                      11219.5000:   BOTTOM DEPTH
RUN .                               2:   RUN NUMBER
LCCD.                             440:   LOGGING CONTRACTOR
SRVC.                    Schlumberger:   LOGGING CONT NAME
DICO.          QC Data Collectors Ltd:   DIG COMPANY NAME
LDAT.                      04/26/1993:   DATE LOGGED
ELD .F                        98.5000:   LOG DATUM ELEVATION
TDD .F                     11217.0000:   TOTAL DEPTH DRILLER
TDL .F                     11225.0000:   TOTAL DEPTH LOGGER
BOTL.F                     11219.0000:   BOTTOM DEPTH LOGGED
TOPL.F                      9802.0000:   TOP DEPTH LOGGED
CS1 .IN                        7.6250:   CASING SIZE 1
BS1 .IN                        6.5000:   BIT SIZE 1
DDB1.F                     11217.0000:   DEPTH DRILLED BIT 1
BHF .                              99:   FLUID CODE
DPT .                   Miscellaneous:   DRILLING FLUID TYPE
MUDD.                         13.9000:   FLUID DENSITY
MUDV.                         41.0000:   FLUID VISCOSITY
DFPH.                         10.0000:   FLUID PH
FL  .                          3.2000:   FLUID LOSS
RM  .OHMM                       .9550:   RM
RMT .DEGF                     77.0000:   RM TEMP
RMF .OHMM                       .5740:   RMF
RMFT.DEGF                     76.0000:   RMF TEMP
FSC .                               M:   RMF CODE
RMC .OHMM                      1.6900:   RMC
RMCT.DEGF                     76.0000:   RMC TEMP
CMC .                               M:   RMC CODE
TMAX.DEGF                    207.0000:   MAX REC TEMP
TIMC.                         17.0000:   TIME SINCE CIRCLN
~PARAMETER INFORMATION (zones)
#MNEM.UNIT                       Value     Description
#=========                       =====     ===========
#ZONATION                          LDT:   ZONATION NAME
#ZONE                            RUN_2:   ZONE NAME
TOP .                       9372.0000:   TOP DEPTH
BOT .                      11188.5000:   BOTTOM DEPTH
RUN .                               2:   RUN NUMBER
LCCD.                             440:   LOGGING CONTRACTOR
SRVC.                    Schlumberger:   LOGGING CONT NAME
DICO.          QC Data Collectors Ltd:   DIG COMPANY NAME
LDAT.                      04/26/1993:   DATE LOGGED
ELD .F                        98.5000:   LOG DATUM ELEVATION
TDD .F                     11217.0000:   TOTAL DEPTH DRILLER
TDL .F                     11225.0000:   TOTAL DEPTH LOGGER
BOTL.F                     11219.0000:   BOTTOM DEPTH LOGGED
TOPL.F                      9802.0000:   TOP DEPTH LOGGED
CS1 .IN                        7.6250:   CASING SIZE 1
BS1 .IN                        6.5000:   BIT SIZE 1
DDB1.F                     11217.0000:   DEPTH DRILLED BIT 1
BHF .                              99:   FLUID CODE
DPT .                   Miscellaneous:   DRILLING FLUID TYPE
MUDD.                         13.9000:   FLUID DENSITY
MUDV.                         41.0000:   FLUID VISCOSITY
DFPH.                         10.0000:   FLUID PH
FL  .                          3.2000:   FLUID LOSS
RM  .OHMM                       .9550:   RM
RMT .DEGF                     77.0000:   RM TEMP
RMF .OHMM                       .5740:   RMF
RMFT.DEGF                     76.0000:   RMF TEMP
FSC .                               M:   RMF CODE
RMC .OHMM                      1.6900:   RMC
RMCT.DEGF                     76.0000:   RMC TEMP
CMC .                               M:   RMC CODE
TMAX.DEGF                    207.0000:   MAX REC TEMP
TIMC.                         17.0000:   TIME SINCE CIRCLN
~Curve Information Block
#MNEM.UNIT                    API CODE    No Description
#=========                    ========    == ===========
DEPT.F                   00 001 00 00:     1  DEPTH
NPHI.%                               :     2  Neutron Porosity
DT.US/F                              :     3  Sonic Transit Time
DTL.US/F                             :     4  Sonic Transit Time (Slowness)
GR.GAPI                              :     5  Gamma Ray
ILD.OHMM                             :     6  Deep Induction Resistivity
ILM.OHMM                             :     7  Medium Induction Resistivity
SFL.OHMM                             :     8  Medium Resistivity
SP.MV                                :     9  Spontaneous Potential
DCAL.IN                              :    10  Differential Caliper
DPHI.%                               :    11  Porosity
GR.GAPI                              :    12  Gamma Ray
~ASCII
# ...
 5407.0000  -999.2500   118.0000  -999.2500    72.8125      .4321      .3911      .5078   -71.6250  -999.2500  -999.2500  -999.2500
 5407.5000  -999.2500   120.5000  -999.2500    75.8750      .4336      .4048      .6948   -64.8281  -999.2500  -999.2500  -999.2500
 5408.0000  -999.2500   120.7500  -999.2500    77.8750      .4458      .4287      .7676   -60.7188  -999.2500  -999.2500  -999.2500
 5408.5000  -999.2500   119.7500  -999.2500    80.6875      .4609      .4561      .7300   -58.7031  -999.2500  -999.2500  -999.2500
 5409.0000  -999.2500   122.0000  -999.2500    71.6250      .4746      .4800      .7725   -57.5156  -999.2500  -999.2500  -999.2500
 5409.5000  -999.2500   121.5000  -999.2500    68.9375      .4819      .4937      .7988   -58.7031  -999.2500  -999.2500  -999.2500
 5410.0000  -999.2500   119.0000  -999.2500    65.8750      .4854      .4951      .7817   -61.0000  -999.2500  -999.2500  -999.2500
 5410.5000  -999.2500   118.5000  -999.2500    68.6875      .4897      .4878      .7305   -63.4062  -999.2500  -999.2500  -999.2500
 5411.0000  -999.2500   119.2500  -999.2500    73.8750      .4922      .4780      .6748   -62.9844  -999.2500  -999.2500  -999.2500
 5411.5000  -999.2500   121.0000  -999.2500    81.5000      .4932      .4722      .6187   -60.4374  -999.2500  -999.2500  -999.2500
 5412.0000  -999.2500   124.0000  -999.2500    86.8750      .4971      .4736      .5840   -55.7969  -999.2500  -999.2500  -999.2500
 5412.5000  -999.2500   128.2500  -999.2500    80.5625      .5005      .4819      .6113   -51.1406  -999.2500  -999.2500  -999.2500
 5413.0000  -999.2500   129.7500  -999.2500    76.5000      .5034      .4946      .6128   -48.0625  -999.2500  -999.2500  -999.2500
 5413.5000  -999.2500   127.2500  -999.2500    70.0625      .5054      .5059      .5840   -46.8047  -999.2500  -999.2500  -999.2500
 5414.0000  -999.2500   126.0000  -999.2500    76.7500      .5054      .5127      .5425   -46.7969  -999.2500  -999.2500  -999.2500
 5414.5000  -999.2500   125.7500  -999.2500    78.3750      .5010      .5127      .5264   -49.2656  -999.2500  -999.2500  -999.2500
 5415.0000  -999.2500   124.0000  -999.2500    76.0625      .4897      .5059      .5718   -54.6172  -999.2500  -999.2500  -999.2500
 5415.5000  -999.2500   120.5000  -999.2500    67.4375      .4683      .4893      .7622   -62.4844  -999.2500  -999.2500  -999.2500
 5416.0000  -999.2500   121.2500  -999.2500    54.1563      .4404      .4614      .9443   -72.1875  -999.2500  -999.2500  -999.2500
 5416.5000  -999.2500   120.7500  -999.2500    50.4687      .4102      .4229      .9512   -82.5938  -999.2500  -999.2500  -999.2500
 5417.0000  -999.2500   120.0000  -999.2500    49.6562      .3779      .3804      .8086   -90.7500  -999.2500  -999.2500  -999.2500
 5417.5000  -999.2500   119.2500  -999.2500    49.8750      .3486      .3413      .6807   -95.3125  -999.2500  -999.2500  -999.2500
 5418.0000  -999.2500   119.0000  -999.2500    52.3125      .3276      .3091      .5698   -98.3437  -999.2500  -999.2500  -999.2500
 5418.5000  -999.2500   118.5000  -999.2500    52.1562      .3096      .2847      .5205   -99.5937  -999.2500  -999.2500  -999.2500
 5419.0000  -999.2500   119.0000  -999.2500    51.3750      .2974      .2671      .4980  -100.5313  -999.2500  -999.2500  -999.2500
 5419.5000  -999.2500   119.0000  -999.2500    47.8125      .2930      .2578      .4702  -100.2500  -999.2500  -999.2500  -999.2500
 5420.0000  -999.2500   118.5000  -999.2500    46.6875      .2979      .2573      .4302   -98.0000  -999.2500  -999.2500  -999.2500
 5420.5000  -999.2500   119.2500  -999.2500    54.2500      .3096      .2676      .4048   -93.6250  -999.2500  -999.2500  -999.2500
 5421.0000  -999.2500   120.0000  -999.2500    61.7500      .3247      .2896      .4355   -87.4062  -999.2500  -999.2500  -999.2500
 5421.5000  -999.2500   119.7500  -999.2500    69.0000      .3423      .3223      .5195   -79.8125  -999.2500  -999.2500  -999.2500
 5422.0000  -999.2500   122.7500  -999.2500    71.1875      .3604      .3608      .5801   -70.9531  -999.2500  -999.2500  -999.2500
 5422.5000  -999.2500   125.5000  -999.2500    68.8125      .3774      .3950      .5830   -65.6250  -999.2500  -999.2500  -999.2500
 5423.0000  -999.2500   124.0000  -999.2500    64.6875      .3950      .4136      .6021   -65.5469  -999.2500  -999.2500  -999.2500
 5423.5000  -999.2500   121.7500  -999.2500    61.4062      .4062      .4155      .6421   -67.7656  -999.2500  -999.2500  -999.2500
 5424.0000  -999.2500   121.0000  -999.2500    66.3125      .4116      .4077      .5894   -69.1406  -999.2500  -999.2500  -999.2500
 5424.5000  -999.2500   120.7500  -999.2500    73.0000      .4155      .4004      .4863   -68.2812  -999.2500  -999.2500  -999.2500
 5425.0000  -999.2500   120.7500  -999.2500    75.2500      .4180      .3999      .4951   -65.2656  -999.2500  -999.2500  -999.2500
 5425.5000  -999.2500   122.0000  -999.2500    66.4375      .4199      .4072      .6123   -62.9063  -999.2500  -999.2500  -999.2500
 5426.0000  -999.2500   121.5000  -999.2500    60.0625      .4258      .4209      .8652   -63.9688  -999.2500  -999.2500  -999.2500
 5426.5000  -999.2500   124.2500  -999.2500    63.9062      .4346      .4365      .9019   -66.0937  -999.2500  -999.2500  -999.2500
 5427.0000  -999.2500   120.7500  -999.2500    72.5000      .4443      .4497      .6997   -65.9375  -999.2500  -999.2500  -999.2500
 5427.5000  -999.2500   120.7500  -999.2500    76.6875      .4541      .4600      .5522   -64.1406  -999.2500  -999.2500  -999.2500
 5428.0000  -999.2500   120.2500  -999.2500    76.5625      .4585      .4678      .5239   -62.5156  -999.2500  -999.2500  -999.2500
 5428.5000  -999.2500   119.0000  -999.2500    75.1875      .4561      .4746      .5532   -63.0469  -999.2500  -999.2500  -999.2500
 5429.0000  -999.2500   118.2500  -999.2500    72.3125      .4478      .4771      .6597   -67.5469  -999.2500  -999.2500  -999.2500
 5429.5000  -999.2500   120.0000  -999.2500    64.5625      .4331      .4707      .8374   -73.9062  -999.2500  -999.2500  -999.2500
 5430.0000  -999.2500   119.2500  -999.2500    59.6250      .4141      .4517     1.0225   -81.4062  -999.2500  -999.2500  -999.2500
 5430.5000  -999.2500   118.2500  -999.2500    54.7188      .3901      .4199     1.0830   -88.5937  -999.2500  -999.2500  -999.2500
 5431.0000  -999.2500   117.0000  -999.2500    57.3125      .3677      .3818     1.0049   -93.4375  -999.2500  -999.2500  -999.2500
 5431.5000  -999.2500   116.2500  -999.2500    61.4375      .3501      .3447      .8989   -96.9063  -999.2500  -999.2500  -999.2500
 5432.0000  -999.2500   116.7500  -999.2500    63.5625      .3350      .3159      .7642   -99.4688  -999.2500  -999.2500  -999.2500
 5432.5000  -999.2500   128.2500  -999.2500    59.3750      .3242      .2969      .6294  -100.5000  -999.2500  -999.2500  -999.2500
 5433.0000  -999.2500   130.2500  -999.2500    57.2813      .3188      .2891      .5317  -100.5000  -999.2500  -999.2500  -999.2500
 5433.5000  -999.2500   129.5000  -999.2500    58.4688      .3188      .2925      .4697   -97.3125  -999.2500  -999.2500  -999.2500
 5434.0000  -999.2500   115.0000  -999.2500    66.2500      .3242      .3076      .4321   -91.5313  -999.2500  -999.2500  -999.2500
 5434.5000  -999.2500   106.0000  -999.2500    65.8750      .3311      .3320      .4307   -84.0313  -999.2500  -999.2500  -999.2500
 5435.0000  -999.2500   104.7500  -999.2500    66.0000      .3398      .3623      .5249   -77.0000  -999.2500  -999.2500  -999.2500
 5435.5000  -999.2500   104.5000  -999.2500    59.4063      .3535      .3896      .7695   -73.9688  -999.2500  -999.2500  -999.2500
 5436.0000  -999.2500   111.7500  -999.2500    60.4375      .3687      .4053      .9219   -75.0938  -999.2500  -999.2500  -999.2500
 5436.5000  -999.2500   119.7500  -999.2500    57.1875      .3838      .4062      .7764   -76.9063  -999.2500  -999.2500  -999.2500
 5437.0000  -999.2500   121.7500  -999.2500    54.6250      .3975      .3994      .6035   -76.7500  -999.2500  -999.2500  -999.2500
