~VERSION INFORMATION
VERS.                             2.0:   CWLS Log ASCII Standard-VERSION 2.0
WRAP.                              NO:   One line per depth step
~Well Information Block
STRT.F                      3877.0000:   Top Depth
STOP.F                     10380.0000:   Bottom Depth
STEP.F                         .50000:   Depth Increment
NULL.                        -999.250:   Null Value
FLD .                      GA BLK 321:   Field Name
WELL.       OCSG11316   001 ST01 BP00:   NAME
API .                  42706402670100:   WELL API
EDF .F                        90.0000:   ELEV DRILL FLOOR
COMP.              SHELL OFFSHORE INC:   OPERATOR
BN  .                             321:   BLOCK
CTRY.                             USA:   COUNTRY NAME
CNTY.                        GLVSTN L:   COUNTY NAME
EKB .F                        91.0000:   ELEV KELLY BUSHING
TDD .F                      10395.000:   FINAL TD DRILLER
STAT.                           TEXAS:   STATE NAME
UWI .                  42706402670100:   WELL API
DICO.               IHS : Digitizing Company
~PARAMETER INFORMATION (zones)
#MNEM.UNIT                       Value     Description
#=========                       =====     ===========
#ZONATION                          DIL:   ZONATION NAME
#ZONE                            RUN_1:   ZONE NAME
TOP .                       3877.0000:   TOP DEPTH
BOT .                      10380.5000:   BOTTOM DEPTH
RUN .                               1:   RUN NUMBER
LCCD.                             280:   LOGGING CONTRACTOR
SRVC.                     Halliburton:   LOGGING CONT NAME
DICO.          QC Data Collectors Ltd:   DIG COMPANY NAME
LDAT.                      06/13/1990:   DATE LOGGED
ELD .F                        91.0000:   LOG DATUM ELEVATION
TDD .F                     10395.0000:   TOTAL DEPTH DRILLER
TDL .F                     10390.0000:   TOTAL DEPTH LOGGER
BOTL.F                     10380.0000:   BOTTOM DEPTH LOGGED
TOPL.F                      3954.0000:   TOP DEPTH LOGGED
CS1 .IN                       13.3750:   CASING SIZE 1
BS1 .IN                       12.2500:   BIT SIZE 1
DDB1.F                     10395.0000:   DEPTH DRILLED BIT 1
BHF .                              99:   FLUID CODE
DPT .                   Miscellaneous:   DRILLING FLUID TYPE
MUDD.                         13.4000:   FLUID DENSITY
MUDV.                         68.0000:   FLUID VISCOSITY
DFPH.                          9.0000:   FLUID PH
FL  .                          2.1000:   FLUID LOSS
RM  .OHMM                       .0700:   RM
RMT .DEGF                     77.0000:   RM TEMP
RMF .OHMM                       .0400:   RMF
RMFT.DEGF                     73.0000:   RMF TEMP
FSC .                               M:   RMF CODE
RMC .OHMM                       .1000:   RMC
RMCT.DEGF                     74.0000:   RMC TEMP
CMC .                               M:   RMC CODE
TMAX.DEGF                    209.0000:   MAX REC TEMP
TIMC.                         13.0000:   TIME SINCE CIRCLN
~Curve Information Block
#MNEM.UNIT                    API CODE    No Description
#=========                    ========    == ===========
DEPT.F                   00 001 00 00:     1  DEPTH
CALI.IN                              :     2  Caliper
DT.US/F                              :     3  Sonic Transit Time
GR.GAPI                              :     4  Gamma Ray
ILD.OHMM                             :     5  Deep Induction Resistivity
ILM.OHMM                             :     6  Medium Induction Resistivity
SFL.OHMM                             :     7  Medium Resistivity
SP.MV                                :     8  Spontaneous Potential
~ASCII
# ...
 7380.5000    15.8338   100.8292    71.2225      .8203      .7702     1.3054   -25.0779
 7381.0000    15.9766   102.1718    72.8564      .7521      .7043     1.3434   -24.9368
 7381.5000    16.1544   103.2137    73.5813      .7266      .6797     1.3844   -25.1390
 7382.0000    16.4182   104.0084    72.5254      .7258      .6728     1.0775   -25.3416
 7382.5000    16.7105   104.6803    68.5741      .7380      .6970     1.1973   -25.9156
 7383.0000    17.0829   105.2925    65.3917      .7461      .7205     1.3305   -26.4989
 7383.5000    17.5000   105.8789    63.2266      .6950      .7083     1.4287   -27.0592
 7384.0000    17.5502   106.0463    61.3924      .6134      .6461     1.0521   -27.3896
 7384.5000    17.2939   105.2965    60.0963      .5950      .5912      .9686   -27.6523
 7385.0000    17.0226   104.4248    60.1750      .6372      .6417     1.2578   -27.7848
 7385.5000    16.7391   103.3157    60.8558      .6758      .6895     1.3049   -27.9057
 7386.0000    16.3618   103.7771    63.1892      .6974      .7022     1.1248   -27.9472
 7386.5000    16.3397   105.2322    65.5813      .7020      .7032     1.1730   -27.9152
 7387.0000    16.3435   106.7758    67.5222      .6950      .6846     1.1297   -27.7654
 7387.5000    16.3394   108.1525    68.9305      .6763      .6666      .9225   -27.5338
 7388.0000    16.3112   108.7426    70.3656      .6519      .6490     1.0936   -27.2485
 7388.5000    15.9454   109.0940    70.4636      .6206      .6147     1.2609   -26.8253
 7389.0000    15.8810   108.8224    68.8251      .6036      .5689      .9088   -26.3855
 7389.5000    16.0887   106.3024    67.0229      .6288      .5481      .8510   -25.9109
 7390.0000    15.9259   101.8928    65.3303      .6684      .5738     1.0414   -25.4357
 7390.5000    15.5313    99.6396    63.8927      .7103      .6645      .6875   -25.0836
 7391.0000    15.2013    98.3401    64.2037      .7184      .7706      .9055   -24.8297
 7391.5000    14.9877    97.0205    64.9305      .7161      .8263      .9174   -25.2962
 7392.0000    14.8385    97.7634    65.6533      .7138      .7737      .7980   -26.0124
 7392.5000    14.7712    98.5869    63.9741      .7194      .7337      .8575   -26.7278
 7393.0000    14.7145    98.9778    61.5953      .7258      .7103      .7535   -27.6956
 7393.5000    14.6462    97.2150    59.2166      .7443      .6961     1.1019   -28.6781
 7394.0000    14.6259    92.2582    56.8378      .7846      .6899     1.3567   -29.6673
 7394.5000    14.6847    87.8055    54.4563      .8600      .7620     1.4997   -30.3494
 7395.0000    14.7690    83.6160    52.3525      .9654      .9698     1.4844   -30.3174
 7395.5000    14.8523    80.9283    50.7399     1.0981     1.2894     1.2267   -30.1365
 7396.0000    14.9355    76.1428    50.6972     1.2514     1.7132     1.1876   -29.7791
 7396.5000    15.0131    76.7745    53.6447     1.4335     2.0659     1.4679   -29.3589
 7397.0000    15.0510    78.2645    58.9095     1.3212     1.5520     1.7013   -28.8724
 7397.5000    15.0291    80.4570    64.0302      .8792      .8856     1.7928   -28.5517
 7398.0000    14.9697    89.0984    68.8624      .7740      .6343     1.7076   -28.2857
 7398.5000    15.0689    93.2023    71.0090      .7485      .6390     1.4267   -27.7411
 7399.0000    15.2592    95.6780    72.3212      .7531      .6555     1.1481   -26.9268
 7399.5000    15.2634    97.4979    72.2451      .7968      .6825      .9343   -26.1992
 7400.0000    15.2506    98.6405    71.3494      .8557      .7148     1.0014   -25.8898
 7400.5000    15.2710    99.6625    70.8456      .9115      .7309      .9817   -26.3542
 7401.0000    15.3183   100.8359    70.8815      .8835      .7245      .8836   -26.5269
 7401.5000    15.3381   102.6707    71.4775      .8033      .7146      .7822   -26.1278
 7402.0000    15.3237   104.2129    72.3785      .7453      .7136      .7144   -25.4704
 7402.5000    15.3067   105.3314    73.5386      .7193      .7264      .7692   -24.8984
 7403.0000    15.2969   105.9215    74.8508      .7075      .7110      .8140   -24.7525
 7403.5000    15.3018   106.4050    76.1991      .7073      .6994      .8217   -25.1246
 7404.0000    15.3110   106.9877    77.3351      .7177      .7025      .8500   -25.7921
 7404.5000    15.4077   107.8192    75.9000      .7297      .7110      .8882   -26.4589
 7405.0000    15.4959   108.6949    73.2343      .7436      .7218      .9318   -26.9331
 7405.5000    15.5693   108.8955    72.0836      .7471      .7361      .9614   -26.6144
 7406.0000    15.6185   107.8044    71.0784      .7449      .7356      .9382   -25.9683
 7406.5000    15.5602   106.0073    70.0706      .7371      .7255      .9225   -25.4917
 7407.0000    15.4696   104.1995    68.7610      .7294      .7317      .9201   -25.9596
 7407.5000    15.3745   102.8893    67.3074      .7232      .7235      .8890   -26.4255
 7408.0000    15.3836   101.7748    65.6080      .7219      .7087      .9938   -26.8907
 7408.5000    15.4573   100.9446    63.9260      .7303      .7072     1.0912   -27.2585
 7409.0000    15.5568   100.0648    63.3137      .7526      .7478     1.1535   -26.8280
 7409.5000    15.6232    98.9946    63.9341      .7767      .7915     1.2086   -26.1585
 7410.0000    15.6335    97.4832    64.7096      .8066      .8184     1.2005   -25.4123
 7410.5000    15.5855    98.3040    65.8188      .8062      .8164     1.1135   -24.6921
 7411.0000    15.5287    99.2561    66.9042      .7918      .7925     1.0019   -25.3109
 7411.5000    15.4711   100.2124    66.9532      .7814      .7759      .9688   -25.9570
 7412.0000    15.4253   101.1726    66.5244      .7782      .7589      .9405   -26.3795
 7412.5000    15.4034   102.5365    66.0798      .7811      .7402      .8920   -26.4529
 7413.0000    15.3868   104.0815    65.6354      .7789      .7112      .8231   -26.2456
 7413.5000    15.3711   105.4742    65.9470      .7507      .6960      .7470   -26.0531
 7414.0000    15.3601   106.0931    69.5513      .7274      .7125      .7928   -25.8422
 7414.5000    15.3521   105.8542    72.7764      .7206      .7201      .8126   -25.5164
 7415.0000    15.3445   105.9482    71.2306      .7313      .7264      .8151   -25.1907
 7415.5000    15.3378   106.0424    68.9852      .7351      .7297      .8121   -24.9276
 7416.0000    15.3317   103.4753    67.7131      .7358      .7322      .9042   -24.7542
 7416.5000    15.3400   101.5400    68.0361      .7330      .7307      .9547   -24.5914
 7417.0000    15.3686   100.5530    69.0974      .7305      .7190      .9961   -24.9121
 7417.5000    15.4075   101.5306    69.2148      .7283      .7041      .9203   -25.3529
 7418.0000    15.4443   103.4243    68.0455      .7233      .6939      .7239   -25.9236
 7418.5000    15.4799   104.0265    66.9843      .7176      .7140      .7125   -26.3681
 7419.0000    15.5199   103.4103    66.5623      .7242      .7481      .7587   -26.7639
 7419.5000    15.5497   102.8195    66.5981      .7322      .7766      .7951   -26.9338
 7420.0000    15.5215   102.2240    66.7567      .7276      .7497      .7722   -27.0607
 7420.5000    15.4786   101.5461    66.9312      .7171      .7210      .7157   -27.0483
 7421.0000    15.4357   100.6160    68.2592      .7909      .7361      .8601   -27.0045
 7421.5000    15.3460    98.6472    71.2172      .9985      .9835     1.2045   -26.8403
 7422.0000    15.2795    94.6667    75.4783     1.1089     1.2133     1.3877   -26.4756
 7422.5000    15.2223    90.5308    77.2336      .9058     1.0206     1.1899   -27.3406
 7423.0000    15.1817    87.2101    76.7490      .8010      .8137     1.1340   -28.7235
 7423.5000    15.2822    84.9543    73.8176      .7265      .7291     1.0668   -29.8689
 7424.0000    15.4603    87.3120    70.1226      .6702      .6664      .9895   -30.5403
 7424.5000    15.5855    91.1370    65.9791      .6679      .6343      .9553   -30.2266
 7425.0000    15.6671    93.2452    62.3909      .7121      .6929      .9400   -28.7556
 7425.5000    15.6839    94.5005    60.4446      .7609      .7491      .9380   -27.1030
