~VERSION INFORMATION
VERS.                             2.0:   CWLS Log ASCII Standard-VERSION 2.0
WRAP.                              NO:   One line per depth step
~Well Information Block
STRT.F                      3150.0000:   Top Depth
STOP.F                     11219.0000:   Bottom Depth
STEP.F                         .50000:   Depth Increment
NULL.                        -999.250:   Null Value
FLD .                      GA BLK 300:   Field Name
WELL.       OCSG11310   002 ST00 BP00:   NAME
API .                  42706403320000:   WELL API
EDF .F                        97.5000:   ELEV DRILL FLOOR
COMP.       SEAGULL ENERGY E AND P IN:   OPERATOR
BN  .                             300:   BLOCK
CTRY.                             USA:   COUNTRY NAME
CNTY.                              GA:   COUNTY
CNTY.                        GLVSTN L:   COUNTY NAME
EGL .F                       -56.0000:   ELEV GROUND LEVEL
EKB .F                        98.5000:   ELEV KELLY BUSHING
TDD .F                      11225.000:   FINAL TD DRILLER
STAT.                           TEXAS:   STATE NAME
UWI .                  42706403320000:   WELL API
DICO.               IHS : Digitizing Company
~PARAMETER INFORMATION (zones)
#MNEM.UNIT                       Value     Description
#=========                       =====     ===========
#ZONATION                          CNL:   ZONATION NAME
#ZONE                            RUN_2:   ZONE NAME
TOP .                       9384.0000:   TOP DEPTH
BOT .                      11168.5000:   BOTTOM DEPTH
RUN .                               2:   RUN NUMBER
LCCD.                             440:   LOGGING CONTRACTOR
SRVC.                    Schlumberger:   LOGGING CONT NAME
DICO.          QC Data Collectors Ltd:   DIG COMPANY NAME
LDAT.                      04/26/1993:   DATE LOGGED
ELD .F                        98.5000:   LOG DATUM ELEVATION
TDD .F                     11217.0000:   TOTAL DEPTH DRILLER
TDL .F                     11225.0000:   TOTAL DEPTH LOGGER
BOTL.F                     11219.0000:   BOTTOM DEPTH LOGGED
TOPL.F                      9802.0000:   TOP DEPTH LOGGED
CS1 .IN                        7.6250:   CASING SIZE 1
BS1 .IN                        6.5000:   BIT SIZE 1
DDB1.F                     11217.0000:   DEPTH DRILLED BIT 1
BHF .                              99:   FLUID CODE
DPT .                   Miscellaneous:   DRILLING FLUID TYPE
MUDD.                         13.9000:   FLUID DENSITY
MUDV.                         41.0000:   FLUID VISCOSITY
DFPH.                         10.0000:   FLUID PH
FL  .                          3.2000:   FLUID LOSS
RM  .OHMM                       .9550:   RM
RMT .DEGF                     77.0000:   RM TEMP
RMF .OHMM                       .5740:   RMF
RMFT.DEGF                     76.0000:   RMF TEMP
FSC .                               M:   RMF CODE
RMC .OHMM                      1.6900:   RMC
RMCT.DEGF                     76.0000:   RMC TEMP
CMC .                               M:   RMC CODE
TMAX.DEGF                    207.0000:   MAX REC TEMP
TIMC.                         17.0000:   TIME SINCE CIRCLN
~PARAMETER INFORMATION (zones)
#MNEM.UNIT                       Value     Description
#=========                       =====     ===========
#ZONATION                          DIL:   ZONATION NAME
#ZONE                            RUN_1:   ZONE NAME
TOP .                       3150.0000:   TOP DEPTH
BOT .                       9865.5000:   BOTTOM DEPTH
RUN .                               1:   RUN NUMBER
LCCD.                             440:   LOGGING CONTRACTOR
SRVC.                    Schlumberger:   LOGGING CONT NAME
DICO.          QC Data Collectors Ltd:   DIG COMPANY NAME
LDAT.                      04/10/1993:   DATE LOGGED
ELD .F                        98.5000:   LOG DATUM ELEVATION
TDD .F                      9878.0000:   TOTAL DEPTH DRILLER
TDL .F                      9871.0000:   TOTAL DEPTH LOGGER
BOTL.F                      9865.0000:   BOTTOM DEPTH LOGGED
TOPL.F                      3298.0000:   TOP DEPTH LOGGED
CS1 .IN                       10.7500:   CASING SIZE 1
BS1 .IN                        9.8750:   BIT SIZE 1
DDB1.F                      9878.0000:   DEPTH DRILLED BIT 1
BHF .                              99:   FLUID CODE
DPT .                   Miscellaneous:   DRILLING FLUID TYPE
MUDD.                         11.8000:   FLUID DENSITY
MUDV.                         44.0000:   FLUID VISCOSITY
DFPH.                          9.5000:   FLUID PH
FL  .                          4.6000:   FLUID LOSS
RM  .OHMM                       .8730:   RM
RMT .DEGF                     82.0000:   RM TEMP
RMF .OHMM                       .4990:   RMF
RMFT.DEGF                     82.0000:   RMF TEMP
FSC .                               M:   RMF CODE
RMC .OHMM                      1.4400:   RMC
RMCT.DEGF                     82.0000:   RMC TEMP
CMC .                               M:   RMC CODE
TMAX.DEGF                    177.0000:   MAX REC TEMP
TIMC.                         15.0000:   TIME SINCE CIRCLN
~PARAMETER INFORMATION (zones)
#MNEM.UNIT                       Value     Description
#=========                       =====     ===========
#ZONATION                          DIL:   ZONATION NAME
#ZONE                            RUN_2:   ZONE NAME
TOP .                       9802.0000:   TOP DEPTH
BOT .                      11219.5000:   BOTTOM DEPTH
RUN .                               2:   RUN NUMBER
LCCD.                             440:   LOGGING CONTRACTOR
SRVC.                    Schlumberger:   LOGGING CONT NAME
DICO.          QC Data Collectors Ltd:   DIG COMPANY NAME
LDAT.                      04/26/1993:   DATE LOGGED
ELD .F                        98.5000:   LOG DATUM ELEVATION
TDD .F                     11217.0000:   TOTAL DEPTH DRILLER
TDL .F                     11225.0000:   TOTAL DEPTH LOGGER
BOTL.F                     11219.0000:   BOTTOM DEPTH LOGGED
TOPL.F                      9802.0000:   TOP DEPTH LOGGED
CS1 .IN                        7.6250:   CASING SIZE 1
BS1 .IN                        6.5000:   BIT SIZE 1
DDB1.F                     11217.0000:   DEPTH DRILLED BIT 1
BHF .                              99:   FLUID CODE
DPT .                   Miscellaneous:   DRILLING FLUID TYPE
MUDD.                         13.9000:   FLUID DENSITY
MUDV.                         41.0000:   FLUID VISCOSITY
DFPH.                         10.0000:   FLUID PH
FL  .                          3.2000:   FLUID LOSS
RM  .OHMM                       .9550:   RM
RMT .DEGF                     77.0000:   RM TEMP
RMF .OHMM                       .5740:   RMF
RMFT.DEGF                     76.0000:   RMF TEMP
FSC .                               M:   RMF CODE
RMC .OHMM                      1.6900:   RMC
RMCT.DEGF                     76.0000:   RMC TEMP
CMC .                               M:   RMC CODE
TMAX.DEGF                    207.0000:   MAX REC TEMP
TIMC.                         17.0000:   TIME SINCE CIRCLN
~PARAMETER INFORMATION (zones)
#MNEM.UNIT                       Value     Description
#=========                       =====     ===========
#ZONATION                          LDT:   ZONATION NAME
#ZONE                            RUN_2:   ZONE NAME
TOP .                       9372.0000:   TOP DEPTH
BOT .                      11188.5000:   BOTTOM DEPTH
RUN .                               2:   RUN NUMBER
LCCD.                             440:   LOGGING CONTRACTOR
SRVC.                    Schlumberger:   LOGGING CONT NAME
DICO.          QC Data Collectors Ltd:   DIG COMPANY NAME
LDAT.                      04/26/1993:   DATE LOGGED
ELD .F                        98.5000:   LOG DATUM ELEVATION
TDD .F                     11217.0000:   TOTAL DEPTH DRILLER
TDL .F                     11225.0000:   TOTAL DEPTH LOGGER
BOTL.F                     11219.0000:   BOTTOM DEPTH LOGGED
TOPL.F                      9802.0000:   TOP DEPTH LOGGED
CS1 .IN                        7.6250:   CASING SIZE 1
BS1 .IN                        6.5000:   BIT SIZE 1
DDB1.F                     11217.0000:   DEPTH DRILLED BIT 1
BHF .                              99:   FLUID CODE
DPT .                   Miscellaneous:   DRILLING FLUID TYPE
MUDD.                         13.9000:   FLUID DENSITY
MUDV.                         41.0000:   FLUID VISCOSITY
DFPH.                         10.0000:   FLUID PH
FL  .                          3.2000:   FLUID LOSS
RM  .OHMM                       .9550:   RM
RMT .DEGF                     77.0000:   RM TEMP
RMF .OHMM                       .5740:   RMF
RMFT.DEGF                     76.0000:   RMF TEMP
FSC .                               M:   RMF CODE
RMC .OHMM                      1.6900:   RMC
RMCT.DEGF                     76.0000:   RMC TEMP
CMC .                               M:   RMC CODE
TMAX.DEGF                    207.0000:   MAX REC TEMP
TIMC.                         17.0000:   TIME SINCE CIRCLN
~Curve Information Block
#MNEM.UNIT                    API CODE    No Description
#=========                    ========    == ===========
DEPT.F                   00 001 00 00:     1  DEPTH
NPHI.%                               :     2  Neutron Porosity
DT.US/F                              :     3  Sonic Transit Time
DTL.US/F                             :     4  Sonic Transit Time (Slowness)
GR.GAPI                              :     5  Gamma Ray
ILD.OHMM                             :     6  Deep Induction Resistivity
ILM.OHMM                             :     7  Medium Induction Resistivity
SFL.OHMM                             :     8  Medium Resistivity
SP.MV                                :     9  Spontaneous Potential
DCAL.IN                              :    10  Differential Caliper
DPHI.%                               :    11  Porosity
GR.GAPI                              :    12  Gamma Ray
~ASCII
# ...
 3302.5000  -999.2500   159.8623  -999.2500    75.1250      .6719      .7212      .7998   -48.4922  -999.2500  -999.2500  -999.2500
 3303.0000  -999.2500   159.2275  -999.2500    75.6875      .6904      .7319      .7500   -48.0391  -999.2500  -999.2500  -999.2500
 3303.5000  -999.2500   158.9177  -999.2500    74.8750      .6846      .6436      .6665   -47.2109  -999.2500  -999.2500  -999.2500
 3304.0000  -999.2500   158.5176  -999.2500    71.5000      .6621      .5522      .6333   -46.4062  -999.2500  -999.2500  -999.2500
 3304.5000  -999.2500   157.8667  -999.2500    67.8750      .6313      .5039      .6113   -45.8711  -999.2500  -999.2500  -999.2500
 3305.0000  -999.2500   156.8086  -999.2500    70.3125      .6060      .4976      .5918   -45.5078  -999.2500  -999.2500  -999.2500
 3305.5000  -999.2500   154.7483  -999.2500    68.5000      .5962      .5229      .5835   -45.7266  -999.2500  -999.2500  -999.2500
 3306.0000  -999.2500   151.7739  -999.2500    68.1250      .6030      .5669      .6348   -46.7852  -999.2500  -999.2500  -999.2500
 3306.5000  -999.2500   149.0115  -999.2500    61.3438      .6235      .6060      .7314   -47.3125  -999.2500  -999.2500  -999.2500
 3307.0000  -999.2500   149.1572  -999.2500    61.1563      .6543      .6235      .8018   -48.3281  -999.2500  -999.2500  -999.2500
 3307.5000  -999.2500   149.5820  -999.2500    63.7187      .6904      .6226      .7832   -48.4531  -999.2500  -999.2500  -999.2500
 3308.0000  -999.2500   149.6255  -999.2500    70.0000      .7207      .6147      .7368   -48.7813  -999.2500  -999.2500  -999.2500
 3308.5000  -999.2500   148.1409  -999.2500    74.9375      .7412      .6118      .7017   -48.2031  -999.2500  -999.2500  -999.2500
 3309.0000  -999.2500   145.4050  -999.2500    76.1875      .7466      .6196      .7046   -47.7461  -999.2500  -999.2500  -999.2500
 3309.5000  -999.2500   143.1431  -999.2500    77.6250      .7422      .6367      .7383   -47.5820  -999.2500  -999.2500  -999.2500
 3310.0000  -999.2500   140.8274  -999.2500    73.8750      .7349      .6558      .7891   -47.3359  -999.2500  -999.2500  -999.2500
 3310.5000  -999.2500   139.7500  -999.2500    75.1875      .7305      .6694      .8179   -46.9023  -999.2500  -999.2500  -999.2500
 3311.0000  -999.2500   136.2500  -999.2500    79.1875      .7310      .6733      .7944   -46.7617  -999.2500  -999.2500  -999.2500
 3311.5000  -999.2500   134.0000  -999.2500    83.5000      .7378      .6689      .7363   -46.3086  -999.2500  -999.2500  -999.2500
 3312.0000  -999.2500   134.0000  -999.2500    87.2500      .7446      .6606      .7363   -46.1875  -999.2500  -999.2500  -999.2500
 3312.5000  -999.2500   134.7500  -999.2500    84.5000      .7515      .6533      .7534   -45.5313  -999.2500  -999.2500  -999.2500
 3313.0000  -999.2500   139.0000  -999.2500    90.0000      .7559      .6489      .7378   -45.3672  -999.2500  -999.2500  -999.2500
 3313.5000  -999.2500   136.2500  -999.2500    91.5625      .7593      .6465      .6777   -44.9961  -999.2500  -999.2500  -999.2500
 3314.0000  -999.2500   139.5000  -999.2500    92.1250      .7603      .6455      .6846   -44.6641  -999.2500  -999.2500  -999.2500
 3314.5000  -999.2500   142.0000  -999.2500    86.1875      .7539      .6436      .7329   -44.5234  -999.2500  -999.2500  -999.2500
 3315.0000  -999.2500   139.5000  -999.2500    80.4375      .7441      .6392      .7627   -44.3789  -999.2500  -999.2500  -999.2500
 3315.5000  -999.2500   144.2500  -999.2500    80.8125      .7363      .6318      .7227   -44.5898  -999.2500  -999.2500  -999.2500
 3316.0000  -999.2500   142.2500  -999.2500    78.6250      .7314      .6230      .6831   -44.4297  -999.2500  -999.2500  -999.2500
 3316.5000  -999.2500   142.0000  -999.2500    79.8750      .7251      .6143      .6743   -43.9199  -999.2500  -999.2500  -999.2500
 3317.0000  -999.2500   141.2500  -999.2500    87.1250      .7168      .6069      .6973   -43.9414  -999.2500  -999.2500  -999.2500
 3317.5000  -999.2500   143.7500  -999.2500    89.2500      .7100      .6011      .6963   -43.9219  -999.2500  -999.2500  -999.2500
 3318.0000  -999.2500   145.5000  -999.2500    94.8750      .7031      .5942      .6738   -43.7148  -999.2500  -999.2500  -999.2500
 3318.5000  -999.2500   145.2500  -999.2500    84.3125      .6963      .5864      .6362   -44.4023  -999.2500  -999.2500  -999.2500
 3319.0000  -999.2500   147.0000  -999.2500    86.1875      .6865      .5767      .6348   -44.4883  -999.2500  -999.2500  -999.2500
 3319.5000  -999.2500   146.7500  -999.2500    85.5625      .6768      .5659      .6226   -45.0508  -999.2500  -999.2500  -999.2500
 3320.0000  -999.2500   147.5000  -999.2500    84.8125      .6675      .5552      .6108   -45.3633  -999.2500  -999.2500  -999.2500
 3320.5000  -999.2500   146.2500  -999.2500    88.8125      .6587      .5459      .5811   -45.3672  -999.2500  -999.2500  -999.2500
 3321.0000  -999.2500   145.7500  -999.2500    87.8750      .6504      .5396      .5791   -45.8477  -999.2500  -999.2500  -999.2500
 3321.5000  -999.2500   147.2500  -999.2500    90.0625      .6450      .5361      .5635   -45.6211  -999.2500  -999.2500  -999.2500
 3322.0000  -999.2500   148.2500  -999.2500    88.5000      .6436      .5356      .5620   -45.6250  -999.2500  -999.2500  -999.2500
 3322.5000  -999.2500   149.2500  -999.2500    87.6250      .6465      .5386      .5615   -45.8789  -999.2500  -999.2500  -999.2500
 3323.0000  -999.2500   148.5000  -999.2500    86.0000      .6553      .5444      .5469   -45.6953  -999.2500  -999.2500  -999.2500
 3323.5000  -999.2500   145.5000  -999.2500    82.1875      .6655      .5547      .5425   -45.8867  -999.2500  -999.2500  -999.2500
 3324.0000  -999.2500   141.2500  -999.2500    76.8750      .6777      .5693      .5913   -45.2227  -999.2500  -999.2500  -999.2500
 3324.5000  -999.2500   136.2500  -999.2500    81.3125      .6890      .5879      .6973   -44.9766  -999.2500  -999.2500  -999.2500
 3325.0000  -999.2500   132.5000  -999.2500    80.3125      .7012      .6060      .7549   -44.9844  -999.2500  -999.2500  -999.2500
 3325.5000  -999.2500   131.0000  -999.2500    81.0625      .7183      .6211      .7612   -45.1445  -999.2500  -999.2500  -999.2500
 3326.0000  -999.2500   130.2500  -999.2500    79.5000      .7334      .6313      .7329   -45.3555  -999.2500  -999.2500  -999.2500
 3326.5000  -999.2500   130.2500  -999.2500    82.5000      .7437      .6382      .7109   -45.2344  -999.2500  -999.2500  -999.2500
 3327.0000  -999.2500   132.0000  -999.2500    81.7500      .7490      .6426      .7178   -45.1523  -999.2500  -999.2500  -999.2500
 3327.5000  -999.2500   134.0000  -999.2500    80.0625      .7500      .6440      .7485   -45.4492  -999.2500  -999.2500  -999.2500
 3328.0000  -999.2500   137.2500  -999.2500    77.2500      .7485      .6431      .7715   -45.2266  -999.2500  -999.2500  -999.2500
 3328.5000  -999.2500   140.7500  -999.2500    78.8750      .7466      .6392      .7285   -45.4805  -999.2500  -999.2500  -999.2500
 3329.0000  -999.2500   140.0000  -999.2500    79.8750      .7446      .6333      .6753   -45.4883  -999.2500  -999.2500  -999.2500
 3329.5000  -999.2500   141.0000  -999.2500    82.8125      .7412      .6279      .6616   -45.2461  -999.2500  -999.2500  -999.2500
 3330.0000  -999.2500   138.7500  -999.2500    79.8125      .7358      .6226      .6968   -45.6367  -999.2500  -999.2500  -999.2500
 3330.5000  -999.2500   138.0000  -999.2500    84.8125      .7300      .6177      .7158   -45.9531  -999.2500  -999.2500  -999.2500
 3331.0000  -999.2500   140.2500  -999.2500    84.9375      .7261      .6123      .6875   -46.2266  -999.2500  -999.2500  -999.2500
 3331.5000  -999.2500   141.5000  -999.2500    89.4375      .7246      .6079      .6460   -45.9219  -999.2500  -999.2500  -999.2500
 3332.0000  -999.2500   142.5000  -999.2500    85.2500      .7246      .6050      .6235   -45.1797  -999.2500  -999.2500  -999.2500
 3332.5000  -999.2500   141.2500  -999.2500    84.5625      .7241      .6045      .6548   -45.0430  -999.2500  -999.2500  -999.2500
