~VERSION INFORMATION
VERS.                             2.0:   CWLS Log ASCII Standard-VERSION 2.0
WRAP.                              NO:   One line per depth step
~Well Information Block
STRT.F                      3732.0000:   Top Depth
STOP.F                      8303.0000:   Bottom Depth
STEP.F                         .50000:   Depth Increment
NULL.                        -999.250:   Null Value
FLD .                      BA BLK 415:   Field Name
WELL.       OCSG11271   001 ST00 BP00:   NAME
API .                  42704402170000:   WELL API
EDF .F                       100.0000:   ELEV DRILL FLOOR
COMP.                     APACHE CORP:   OPERATOR
BN  .                             415:   BLOCK
CTRY.                             USA:   COUNTRY NAME
CNTY.                        BRAZOS L:   COUNTY NAME
EGL .F                       -78.0000:   ELEV GROUND LEVEL
EKB .F                       101.0000:   ELEV KELLY BUSHING
TDD .F                       8311.000:   FINAL TD DRILLER
STAT.                           TEXAS:   STATE NAME
UWI .                  42704402170000:   WELL API
DICO.               IHS : Digitizing Company
~PARAMETER INFORMATION (zones)
#MNEM.UNIT                       Value     Description
#=========                       =====     ===========
#ZONATION                          CNL:   ZONATION NAME
#ZONE                            RUN_1:   ZONE NAME
TOP .                       5274.0000:   TOP DEPTH
BOT .                       8300.5000:   BOTTOM DEPTH
RUN .                               1:   RUN NUMBER
LCCD.                              99:   LOGGING CONTRACTOR
DICO.          QC Data Collectors Ltd:   DIG COMPANY NAME
LDAT.                      08/26/1990:   DATE LOGGED
ELD .F                       101.0000:   LOG DATUM ELEVATION
TDD .F                      8311.0000:   TOTAL DEPTH DRILLER
TDL .F                      8306.0000:   TOTAL DEPTH LOGGER
BOTL.F                      8303.0000:   BOTTOM DEPTH LOGGED
TOPL.F                      5257.0000:   TOP DEPTH LOGGED
CS1 .IN                       10.7500:   CASING SIZE 1
BS1 .IN                        9.8750:   BIT SIZE 1
DDB1.F                      8311.0000:   DEPTH DRILLED BIT 1
BHF .                              99:   FLUID CODE
DPT .                   Miscellaneous:   DRILLING FLUID TYPE
MUDD.                         10.0000:   FLUID DENSITY
MUDV.                         43.0000:   FLUID VISCOSITY
DFPH.                          8.1000:   FLUID PH
FL  .                          3.2000:   FLUID LOSS
RM  .OHMM                       .8800:   RM
RMT .DEGF                     75.0000:   RM TEMP
RMF .OHMM                       .7000:   RMF
RMFT.DEGF                     75.0000:   RMF TEMP
FSC .                               C:   RMF CODE
RMC .OHMM                       .9600:   RMC
RMCT.DEGF                     75.0000:   RMC TEMP
CMC .                               C:   RMC CODE
TMAX.DEGF                    166.0000:   MAX REC TEMP
TIMC.                         10.0000:   TIME SINCE CIRCLN
~PARAMETER INFORMATION (zones)
#MNEM.UNIT                       Value     Description
#=========                       =====     ===========
#ZONATION                          DIL:   ZONATION NAME
#ZONE                            RUN_1:   ZONE NAME
TOP .                       3732.0000:   TOP DEPTH
BOT .                       8303.5000:   BOTTOM DEPTH
RUN .                               1:   RUN NUMBER
LCCD.                              99:   LOGGING CONTRACTOR
DICO.          QC Data Collectors Ltd:   DIG COMPANY NAME
LDAT.                      08/26/1990:   DATE LOGGED
ELD .F                       101.0000:   LOG DATUM ELEVATION
TDD .F                      8311.0000:   TOTAL DEPTH DRILLER
TDL .F                      8306.0000:   TOTAL DEPTH LOGGER
BOTL.F                      8303.0000:   BOTTOM DEPTH LOGGED
TOPL.F                      3786.0000:   TOP DEPTH LOGGED
CS1 .IN                       10.7500:   CASING SIZE 1
BS1 .IN                        9.8750:   BIT SIZE 1
DDB1.F                      8311.0000:   DEPTH DRILLED BIT 1
BHF .                              99:   FLUID CODE
DPT .                   Miscellaneous:   DRILLING FLUID TYPE
MUDD.                         10.0000:   FLUID DENSITY
MUDV.                         43.0000:   FLUID VISCOSITY
DFPH.                          8.1000:   FLUID PH
FL  .                          3.2000:   FLUID LOSS
RM  .OHMM                       .8800:   RM
RMT .DEGF                     75.0000:   RM TEMP
RMF .OHMM                       .7000:   RMF
RMFT.DEGF                     75.0000:   RMF TEMP
FSC .                               C:   RMF CODE
RMC .OHMM                       .9600:   RMC
RMCT.DEGF                     75.0000:   RMC TEMP
CMC .                               C:   RMC CODE
TMAX.DEGF                    166.0000:   MAX REC TEMP
TIMC.                          6.0000:   TIME SINCE CIRCLN
~PARAMETER INFORMATION (zones)
#MNEM.UNIT                       Value     Description
#=========                       =====     ===========
#ZONATION                          FDC:   ZONATION NAME
#ZONE                            RUN_1:   ZONE NAME
TOP .                       5263.0000:   TOP DEPTH
BOT .                       8303.5000:   BOTTOM DEPTH
RUN .                               1:   RUN NUMBER
LCCD.                              99:   LOGGING CONTRACTOR
DICO.          QC Data Collectors Ltd:   DIG COMPANY NAME
LDAT.                      08/26/1990:   DATE LOGGED
ELD .F                       101.0000:   LOG DATUM ELEVATION
TDD .F                      8311.0000:   TOTAL DEPTH DRILLER
TDL .F                      8306.0000:   TOTAL DEPTH LOGGER
BOTL.F                      8303.0000:   BOTTOM DEPTH LOGGED
TOPL.F                      5257.0000:   TOP DEPTH LOGGED
CS1 .IN                       10.7500:   CASING SIZE 1
BS1 .IN                        9.8750:   BIT SIZE 1
DDB1.F                      8311.0000:   DEPTH DRILLED BIT 1
BHF .                              99:   FLUID CODE
DPT .                   Miscellaneous:   DRILLING FLUID TYPE
MUDD.                         10.0000:   FLUID DENSITY
MUDV.                         43.0000:   FLUID VISCOSITY
DFPH.                          8.1000:   FLUID PH
FL  .                          3.2000:   FLUID LOSS
RM  .OHMM                       .8800:   RM
RMT .DEGF                     75.0000:   RM TEMP
RMF .OHMM                       .7000:   RMF
RMFT.DEGF                     75.0000:   RMF TEMP
FSC .                               C:   RMF CODE
RMC .OHMM                       .9600:   RMC
RMCT.DEGF                     75.0000:   RMC TEMP
CMC .                               C:   RMC CODE
TMAX.DEGF                    166.0000:   MAX REC TEMP
TIMC.                         10.0000:   TIME SINCE CIRCLN
~Curve Information Block
#MNEM.UNIT                    API CODE    No Description
#=========                    ========    == ===========
DEPT.F                   00 001 00 00:     1  DEPTH
NPHI.%                               :     2  Neutron Porosity
CALI.IN                              :     3  Caliper
DT.US/F                              :     4  Sonic Transit Time
GR.GAPI                              :     5  Gamma Ray
ILD.OHMM                             :     6  Deep Induction Resistivity
ILM.OHMM                             :     7  Medium Induction Resistivity
RFOC.OHMM                            :     8  Medium Resistivity
SP.MV                                :     9  Spontaneous Potential
CALI.IN                              :    10  Caliper
DPHI.%                               :    11  Porosity
DRHO.G/C3                            :    12  Bulk Density Correction
GR.GAPI                              :    13  Gamma Ray
RHOB.G/C3                            :    14  Bulk Density
~ASCII
# ...
 6488.0000    21.3874  -999.2500    88.2566    61.7707     1.1343     1.1527     1.3226   -64.3501    11.4967  -999.2500      .0502    66.2616     2.4255
 6488.5000    20.5045  -999.2500    86.1632    64.5710     1.1296     1.1559     1.2504   -64.4102    11.5016  -999.2500      .0613    64.4437     2.4383
 6489.0000    20.3266  -999.2500    85.2786    65.2555     1.1346     1.1614     1.2036   -64.2185    11.5050  -999.2500      .0790    63.8098     2.4718
 6489.5000    20.7556  -999.2500    84.1770    63.2726     1.1446     1.1669     1.2733   -64.3583    11.5060  -999.2500      .0776    64.4868     2.5077
 6490.0000    21.7118  -999.2500    80.0112    61.3887     1.1536     1.1782     1.4111   -64.9528    11.5041  -999.2500      .0550    63.4931     2.5208
 6490.5000    22.1935  -999.2500    75.9603    60.1215     1.1572     1.1922     1.5407   -65.6998    11.4940  -999.2500      .0445    62.2635     2.4982
 6491.0000    23.7757  -999.2500    72.8451    59.2128     1.1607     1.2033     1.6645   -66.1829    11.5059  -999.2500      .0448    65.2091     2.4591
 6491.5000    27.7789  -999.2500    69.2385    58.4758     1.1607     1.2010     1.7513   -66.3884    11.5431  -999.2500      .0549    71.4513     2.4148
 6492.0000    31.9316  -999.2500    66.6787    59.0720     1.1540     1.1988     1.8476   -66.0035    11.6095  -999.2500      .0619    77.4690     2.4070
 6492.5000    35.9060  -999.2500    67.6339    63.5724     1.1474     1.1862     1.8792   -65.1725    11.6625  -999.2500      .0595    82.3845     2.3955
 6493.0000    37.5475  -999.2500    74.9724    69.5226     1.1384     1.1657     1.6004   -63.2782    11.6733  -999.2500      .0567    86.3101     2.3850
 6493.5000    37.7944  -999.2500    80.8057    73.5328     1.1176     1.1454     1.2807   -60.4283    11.5915  -999.2500      .0545    89.9119     2.3736
 6494.0000    37.9034  -999.2500    88.8341    76.9955     1.0971     1.1103     1.1138   -56.2459    11.4837  -999.2500      .0570    93.1088     2.3665
 6494.5000    37.4678  -999.2500    96.8522    79.9132     1.0771     1.0644     1.0503   -53.2995    11.4075  -999.2500      .0584    93.6364     2.3646
 6495.0000    36.9547  -999.2500   102.1471    81.1948     1.0540     1.0125     1.0148   -51.3831    11.3614  -999.2500      .0575    92.4283     2.3623
 6495.5000    36.7960  -999.2500   106.2789    82.3668     1.0314      .9817      .9933   -50.2000    11.3164  -999.2500      .0520    91.2433     2.3568
 6496.0000    37.0020  -999.2500   109.6659    83.5037     1.0103      .9663      .9790   -49.5774    11.2673  -999.2500      .0510    91.5208     2.3497
 6496.5000    37.1473  -999.2500   111.1144    84.1029      .9936      .9535      .9657   -49.1931    11.2112  -999.2500      .0521    92.3500     2.3452
 6497.0000    35.2794  -999.2500   111.3340    82.3329      .9772      .9410      .9582   -48.9428    11.1865  -999.2500      .0661    92.4701     2.3472
 6497.5000    33.7819  -999.2500   110.9955    80.5299      .9685      .9331      .9498   -48.8574    11.2016  -999.2500      .0787    89.0604     2.3558
 6498.0000    34.2426  -999.2500   111.8207    80.3445      .9618      .9263      .9398   -48.7835    11.2473  -999.2500      .0746    86.3049     2.3647
 6498.5000    35.9899  -999.2500   113.1549    81.8245      .9565      .9202      .9335   -48.7209    11.3068  -999.2500      .0714    85.5317     2.3670
 6499.0000    37.1616  -999.2500   113.6686    82.7579      .9593      .9226      .9399   -48.4445    11.3614  -999.2500      .0839    87.7310     2.3626
 6499.5000    37.4538  -999.2500   110.9282    80.8832      .9620      .9250      .9874   -48.8486    11.4112  -999.2500      .0866    88.0195     2.3592
 6500.0000    37.8516  -999.2500   104.5984    78.6199      .9754      .9339     1.0860   -50.0507    11.4472  -999.2500      .0714    85.1348     2.3583
 6500.5000    38.0859  -999.2500   100.8521    76.9576      .9902      .9480     1.1462   -51.0307    11.4796  -999.2500      .0616    83.7140     2.3627
 6501.0000    38.1566  -999.2500   100.5267    78.5182     1.0039      .9622     1.0945   -51.3315    11.5082  -999.2500      .0586    84.8879     2.3652
 6501.5000    37.8060  -999.2500   103.3596    80.7606     1.0102      .9767     1.0477   -50.7181    11.5206  -999.2500      .0591    85.6931     2.3634
 6502.0000    36.6113  -999.2500   106.6343    82.0846     1.0165      .9914     1.0048   -50.0761    11.5261  -999.2500      .0617    86.4792     2.3619
 6502.5000    34.9950  -999.2500   108.6127    82.4023     1.0163     1.0002      .9833   -49.4008    11.5321  -999.2500      .0636    87.2909     2.3662
 6503.0000    32.5136  -999.2500   110.0017    82.2523     1.0105     1.0005      .9751   -48.9725    11.5384  -999.2500      .0583    86.5034     2.3823
 6503.5000    29.1422  -999.2500   110.6934    82.2825     1.0045     1.0009      .9777   -48.7584    11.5440  -999.2500      .0565    83.6042     2.4226
 6504.0000    27.3896  -999.2500   111.1847    82.3441      .9977      .9974      .9933   -48.4028    11.5444  -999.2500      .0638    80.9741     2.4394
 6504.5000    28.3819  -999.2500   111.3362    82.4246      .9947      .9939     1.0163   -47.7828    11.5422  -999.2500      .0590    82.0894     2.4410
 6505.0000    32.0784  -999.2500   110.1964    81.7358      .9971      .9936     1.0386   -47.4937    11.4528  -999.2500      .0517    84.7064     2.4083
 6505.5000    35.7015  -999.2500   106.8198    80.0201     1.0009      .9966     1.0565   -47.3456    11.4081  -999.2500      .0476    85.4276     2.3573
 6506.0000    38.8311  -999.2500    99.3716    78.3735     1.0059      .9996     1.1557   -47.4843    11.3527  -999.2500      .0528    85.1217     2.3458
 6506.5000    39.0022  -999.2500    96.4785    77.4955     1.0104     1.0017     1.2692   -47.7359    11.3170  -999.2500      .0604    84.7561     2.3424
 6507.0000    38.0872  -999.2500    96.0708    78.6538     1.0046     1.0032     1.1817   -48.2737    11.3243  -999.2500      .0614    85.3333     2.3407
 6507.5000    36.9744  -999.2500   102.8057    81.6315      .9989     1.0047     1.0574   -48.4022    11.3453  -999.2500      .0600    88.5641     2.3411
 6508.0000    35.9323  -999.2500   110.9021    84.0695      .9932     1.0050     1.0180   -48.3693    11.3698  -999.2500      .0581    93.0944     2.3503
 6508.5000    35.4996  -999.2500   115.2195    85.0952      .9877     1.0006      .9835   -48.3977    11.3927  -999.2500      .0571    93.9896     2.3718
 6509.0000    35.5872  -999.2500   116.4530    84.0499      .9821      .9963      .9651   -48.5602    11.3853  -999.2500      .0564    92.5942     2.3855
 6509.5000    35.8134  -999.2500   115.2300    81.6523      .9766      .9920      .9588   -48.2991    11.3473  -999.2500      .0572    90.0737     2.3743
 6510.0000    35.9871  -999.2500   111.8848    79.3878      .9673      .9864      .9704   -47.6257    11.2791  -999.2500      .0686    88.2997     2.3536
 6510.5000    36.0592  -999.2500   108.6440    78.8312      .9714      .9796      .9967   -46.6428    11.2361  -999.2500      .0712    87.8954     2.3459
 6511.0000    36.2698  -999.2500   107.1805    78.6956      .9708      .9728     1.0282   -45.8735    11.1811  -999.2500      .0473    88.9481     2.3445
 6511.5000    37.3479  -999.2500   109.2137    81.9757      .9704      .9663     1.0505   -45.2676    11.1954  -999.2500      .0332    90.5009     2.3463
 6512.0000    39.0251  -999.2500   111.9135    83.8048      .9714      .9603     1.0381   -45.0724    11.2947  -999.2500      .0350    92.2076     2.3364
 6512.5000    39.4439  -999.2500   114.1715    83.7123      .9724      .9543     1.0098   -45.2471    11.3558  -999.2500      .0462    92.5087     2.3244
 6513.0000    39.5714  -999.2500   113.7533    82.1387      .9699      .9504      .9844   -45.5479    11.3340  -999.2500      .0552    91.8185     2.3193
 6513.5000    39.3036  -999.2500   111.8351    80.7887      .9627      .9494      .9917   -45.8067    11.3532  -999.2500      .0575    91.9725     2.3193
