~VERSION INFORMATION
VERS.                             2.0:   CWLS Log ASCII Standard-VERSION 2.0
WRAP.                              NO:   One line per depth step
~Well Information Block
STRT.F                      3150.0000:   Top Depth
STOP.F                     11219.0000:   Bottom Depth
STEP.F                         .50000:   Depth Increment
NULL.                        -999.250:   Null Value
FLD .                      GA BLK 300:   Field Name
WELL.       OCSG11310   002 ST00 BP00:   NAME
API .                  42706403320000:   WELL API
EDF .F                        97.5000:   ELEV DRILL FLOOR
COMP.       SEAGULL ENERGY E AND P IN:   OPERATOR
BN  .                             300:   BLOCK
CTRY.                             USA:   COUNTRY NAME
CNTY.                              GA:   COUNTY
CNTY.                        GLVSTN L:   COUNTY NAME
EGL .F                       -56.0000:   ELEV GROUND LEVEL
EKB .F                        98.5000:   ELEV KELLY BUSHING
TDD .F                      11225.000:   FINAL TD DRILLER
STAT.                           TEXAS:   STATE NAME
UWI .                  42706403320000:   WELL API
DICO.               IHS : Digitizing Company
~PARAMETER INFORMATION (zones)
#MNEM.UNIT                       Value     Description
#=========                       =====     ===========
#ZONATION                          CNL:   ZONATION NAME
#ZONE                            RUN_2:   ZONE NAME
TOP .                       9384.0000:   TOP DEPTH
BOT .                      11168.5000:   BOTTOM DEPTH
RUN .                               2:   RUN NUMBER
LCCD.                             440:   LOGGING CONTRACTOR
SRVC.                    Schlumberger:   LOGGING CONT NAME
DICO.          QC Data Collectors Ltd:   DIG COMPANY NAME
LDAT.                      04/26/1993:   DATE LOGGED
ELD .F                        98.5000:   LOG DATUM ELEVATION
TDD .F                     11217.0000:   TOTAL DEPTH DRILLER
TDL .F                     11225.0000:   TOTAL DEPTH LOGGER
BOTL.F                     11219.0000:   BOTTOM DEPTH LOGGED
TOPL.F                      9802.0000:   TOP DEPTH LOGGED
CS1 .IN                        7.6250:   CASING SIZE 1
BS1 .IN                        6.5000:   BIT SIZE 1
DDB1.F                     11217.0000:   DEPTH DRILLED BIT 1
BHF .                              99:   FLUID CODE
DPT .                   Miscellaneous:   DRILLING FLUID TYPE
MUDD.                         13.9000:   FLUID DENSITY
MUDV.                         41.0000:   FLUID VISCOSITY
DFPH.                         10.0000:   FLUID PH
FL  .                          3.2000:   FLUID LOSS
RM  .OHMM                       .9550:   RM
RMT .DEGF                     77.0000:   RM TEMP
RMF .OHMM                       .5740:   RMF
RMFT.DEGF                     76.0000:   RMF TEMP
FSC .                               M:   RMF CODE
RMC .OHMM                      1.6900:   RMC
RMCT.DEGF                     76.0000:   RMC TEMP
CMC .                               M:   RMC CODE
TMAX.DEGF                    207.0000:   MAX REC TEMP
TIMC.                         17.0000:   TIME SINCE CIRCLN
~PARAMETER INFORMATION (zones)
#MNEM.UNIT                       Value     Description
#=========                       =====     ===========
#ZONATION                          DIL:   ZONATION NAME
#ZONE                            RUN_1:   ZONE NAME
TOP .                       3150.0000:   TOP DEPTH
BOT .                       9865.5000:   BOTTOM DEPTH
RUN .                               1:   RUN NUMBER
LCCD.                             440:   LOGGING CONTRACTOR
SRVC.                    Schlumberger:   LOGGING CONT NAME
DICO.          QC Data Collectors Ltd:   DIG COMPANY NAME
LDAT.                      04/10/1993:   DATE LOGGED
ELD .F                        98.5000:   LOG DATUM ELEVATION
TDD .F                      9878.0000:   TOTAL DEPTH DRILLER
TDL .F                      9871.0000:   TOTAL DEPTH LOGGER
BOTL.F                      9865.0000:   BOTTOM DEPTH LOGGED
TOPL.F                      3298.0000:   TOP DEPTH LOGGED
CS1 .IN                       10.7500:   CASING SIZE 1
BS1 .IN                        9.8750:   BIT SIZE 1
DDB1.F                      9878.0000:   DEPTH DRILLED BIT 1
BHF .                              99:   FLUID CODE
DPT .                   Miscellaneous:   DRILLING FLUID TYPE
MUDD.                         11.8000:   FLUID DENSITY
MUDV.                         44.0000:   FLUID VISCOSITY
DFPH.                          9.5000:   FLUID PH
FL  .                          4.6000:   FLUID LOSS
RM  .OHMM                       .8730:   RM
RMT .DEGF                     82.0000:   RM TEMP
RMF .OHMM                       .4990:   RMF
RMFT.DEGF                     82.0000:   RMF TEMP
FSC .                               M:   RMF CODE
RMC .OHMM                      1.4400:   RMC
RMCT.DEGF                     82.0000:   RMC TEMP
CMC .                               M:   RMC CODE
TMAX.DEGF                    177.0000:   MAX REC TEMP
TIMC.                         15.0000:   TIME SINCE CIRCLN
~PARAMETER INFORMATION (zones)
#MNEM.UNIT                       Value     Description
#=========                       =====     ===========
#ZONATION                          DIL:   ZONATION NAME
#ZONE                            RUN_2:   ZONE NAME
TOP .                       9802.0000:   TOP DEPTH
BOT .                      11219.5000:   BOTTOM DEPTH
RUN .                               2:   RUN NUMBER
LCCD.                             440:   LOGGING CONTRACTOR
SRVC.                    Schlumberger:   LOGGING CONT NAME
DICO.          QC Data Collectors Ltd:   DIG COMPANY NAME
LDAT.                      04/26/1993:   DATE LOGGED
ELD .F                        98.5000:   LOG DATUM ELEVATION
TDD .F                     11217.0000:   TOTAL DEPTH DRILLER
TDL .F                     11225.0000:   TOTAL DEPTH LOGGER
BOTL.F                     11219.0000:   BOTTOM DEPTH LOGGED
TOPL.F                      9802.0000:   TOP DEPTH LOGGED
CS1 .IN                        7.6250:   CASING SIZE 1
BS1 .IN                        6.5000:   BIT SIZE 1
DDB1.F                     11217.0000:   DEPTH DRILLED BIT 1
BHF .                              99:   FLUID CODE
DPT .                   Miscellaneous:   DRILLING FLUID TYPE
MUDD.                         13.9000:   FLUID DENSITY
MUDV.                         41.0000:   FLUID VISCOSITY
DFPH.                         10.0000:   FLUID PH
FL  .                          3.2000:   FLUID LOSS
RM  .OHMM                       .9550:   RM
RMT .DEGF                     77.0000:   RM TEMP
RMF .OHMM                       .5740:   RMF
RMFT.DEGF                     76.0000:   RMF TEMP
FSC .                               M:   RMF CODE
RMC .OHMM                      1.6900:   RMC
RMCT.DEGF                     76.0000:   RMC TEMP
CMC .                               M:   RMC CODE
TMAX.DEGF                    207.0000:   MAX REC TEMP
TIMC.                         17.0000:   TIME SINCE CIRCLN
~PARAMETER INFORMATION (zones)
#MNEM.UNIT                       Value     Description
#=========                       =====     ===========
#ZONATION                          LDT:   ZONATION NAME
#ZONE                            RUN_2:   ZONE NAME
TOP .                       9372.0000:   TOP DEPTH
BOT .                      11188.5000:   BOTTOM DEPTH
RUN .                               2:   RUN NUMBER
LCCD.                             440:   LOGGING CONTRACTOR
SRVC.                    Schlumberger:   LOGGING CONT NAME
DICO.          QC Data Collectors Ltd:   DIG COMPANY NAME
LDAT.                      04/26/1993:   DATE LOGGED
ELD .F                        98.5000:   LOG DATUM ELEVATION
TDD .F                     11217.0000:   TOTAL DEPTH DRILLER
TDL .F                     11225.0000:   TOTAL DEPTH LOGGER
BOTL.F                     11219.0000:   BOTTOM DEPTH LOGGED
TOPL.F                      9802.0000:   TOP DEPTH LOGGED
CS1 .IN                        7.6250:   CASING SIZE 1
BS1 .IN                        6.5000:   BIT SIZE 1
DDB1.F                     11217.0000:   DEPTH DRILLED BIT 1
BHF .                              99:   FLUID CODE
DPT .                   Miscellaneous:   DRILLING FLUID TYPE
MUDD.                         13.9000:   FLUID DENSITY
MUDV.                         41.0000:   FLUID VISCOSITY
DFPH.                         10.0000:   FLUID PH
FL  .                          3.2000:   FLUID LOSS
RM  .OHMM                       .9550:   RM
RMT .DEGF                     77.0000:   RM TEMP
RMF .OHMM                       .5740:   RMF
RMFT.DEGF                     76.0000:   RMF TEMP
FSC .                               M:   RMF CODE
RMC .OHMM                      1.6900:   RMC
RMCT.DEGF                     76.0000:   RMC TEMP
CMC .                               M:   RMC CODE
TMAX.DEGF                    207.0000:   MAX REC TEMP
TIMC.                         17.0000:   TIME SINCE CIRCLN
~Curve Information Block
#MNEM.UNIT                    API CODE    No Description
#=========                    ========    == ===========
DEPT.F                   00 001 00 00:     1  DEPTH
NPHI.%                               :     2  Neutron Porosity
DT.US/F                              :     3  Sonic Transit Time
DTL.US/F                             :     4  Sonic Transit Time (Slowness)
GR.GAPI                              :     5  Gamma Ray
ILD.OHMM                             :     6  Deep Induction Resistivity
ILM.OHMM                             :     7  Medium Induction Resistivity
SFL.OHMM                             :     8  Medium Resistivity
SP.MV                                :     9  Spontaneous Potential
DCAL.IN                              :    10  Differential Caliper
DPHI.%                               :    11  Porosity
GR.GAPI                              :    12  Gamma Ray
~ASCII
# ...
 7999.5000  -999.2500   101.8750  -999.2500    35.5937      .2744      .2646      .5518  -105.5625  -999.2500  -999.2500  -999.2500
 8000.0000  -999.2500   101.6250  -999.2500    38.2813      .2671      .2588      .6104  -106.6250  -999.2500  -999.2500  -999.2500
 8000.5000  -999.2500   101.2500  -999.2500    37.9688      .2617      .2524      .6206  -107.3125  -999.2500  -999.2500  -999.2500
 8001.0000  -999.2500   101.2500  -999.2500    41.1875      .2573      .2461      .5796  -107.3750  -999.2500  -999.2500  -999.2500
 8001.5000  -999.2500   101.3750  -999.2500    45.4375      .2554      .2417      .5020  -107.6250  -999.2500  -999.2500  -999.2500
 8002.0000  -999.2500   102.0000  -999.2500    45.8750      .2554      .2393      .4517  -108.1250  -999.2500  -999.2500  -999.2500
 8002.5000  -999.2500   101.8750  -999.2500    44.3125      .2588      .2402      .4272  -107.9375  -999.2500  -999.2500  -999.2500
 8003.0000  -999.2500   102.5000  -999.2500    42.2813      .2646      .2461      .3799  -107.5000  -999.2500  -999.2500  -999.2500
 8003.5000  -999.2500   102.8750  -999.2500    43.4062      .2720      .2583      .3589  -106.0625  -999.2500  -999.2500  -999.2500
 8004.0000  -999.2500   102.5000  -999.2500    44.9687      .2803      .2764      .4380  -103.9375  -999.2500  -999.2500  -999.2500
 8004.5000  -999.2500   101.1250  -999.2500    47.9063      .2891      .3003      .6997  -101.4062  -999.2500  -999.2500  -999.2500
 8005.0000  -999.2500   101.2500  -999.2500    54.3437      .2974      .3252     1.0313   -99.5312  -999.2500  -999.2500  -999.2500
 8005.5000  -999.2500   101.0000  -999.2500    59.2813      .3062      .3442     1.2891   -98.8750  -999.2500  -999.2500  -999.2500
 8006.0000  -999.2500   101.5000  -999.2500    60.0625      .3125      .3516     1.3633   -98.8750  -999.2500  -999.2500  -999.2500
 8006.5000  -999.2500   102.0000  -999.2500    52.1250      .3149      .3452     1.2627   -99.7188  -999.2500  -999.2500  -999.2500
 8007.0000  -999.2500   102.2500  -999.2500    44.8750      .3130      .3311     1.0391  -100.5937  -999.2500  -999.2500  -999.2500
 8007.5000  -999.2500   102.7500  -999.2500    41.8437      .3062      .3135      .7817  -101.9063  -999.2500  -999.2500  -999.2500
 8008.0000  -999.2500   102.3750  -999.2500    47.0000      .2979      .2974      .6416  -103.6563  -999.2500  -999.2500  -999.2500
 8008.5000  -999.2500   102.3750  -999.2500    48.5625      .2905      .2827      .5918  -105.1875  -999.2500  -999.2500  -999.2500
 8009.0000  -999.2500   102.1250  -999.2500    46.0937      .2837      .2705      .5693  -106.0625  -999.2500  -999.2500  -999.2500
 8009.5000  -999.2500   102.1250  -999.2500    45.6563      .2788      .2612      .5215  -106.6875  -999.2500  -999.2500  -999.2500
 8010.0000  -999.2500   102.1250  -999.2500    47.2188      .2798      .2563      .4395  -106.5625  -999.2500  -999.2500  -999.2500
 8010.5000  -999.2500   101.5000  -999.2500    49.0000      .2881      .2583      .3750  -105.4375  -999.2500  -999.2500  -999.2500
 8011.0000  -999.2500   100.1250  -999.2500    51.1250      .2988      .2690      .3511  -103.3438  -999.2500  -999.2500  -999.2500
 8011.5000  -999.2500    99.0000  -999.2500    54.5938      .3125      .2905      .4185  -100.0313  -999.2500  -999.2500  -999.2500
 8012.0000  -999.2500    98.1250  -999.2500    57.2813      .3267      .3218      .6689   -96.7187  -999.2500  -999.2500  -999.2500
 8012.5000  -999.2500    98.8750  -999.2500    57.9375      .3418      .3589     1.0762   -93.4063  -999.2500  -999.2500  -999.2500
 8013.0000  -999.2500    99.2500  -999.2500    58.1875      .3579      .3955     1.3525   -91.0937  -999.2500  -999.2500  -999.2500
 8013.5000  -999.2500    99.2500  -999.2500    58.7500      .3755      .4238     1.4082   -90.4063  -999.2500  -999.2500  -999.2500
 8014.0000  -999.2500    98.7500  -999.2500    58.8750      .3882      .4404     1.3867   -90.5000  -999.2500  -999.2500  -999.2500
 8014.5000  -999.2500    99.2500  -999.2500    58.2188      .3936      .4473     1.3398   -91.4687  -999.2500  -999.2500  -999.2500
 8015.0000  -999.2500   100.2500  -999.2500    57.0938      .3921      .4473     1.3018   -93.5625  -999.2500  -999.2500  -999.2500
 8015.5000  -999.2500   101.6250  -999.2500    51.0313      .3838      .4414     1.2988   -95.6875  -999.2500  -999.2500  -999.2500
 8016.0000  -999.2500   102.8750  -999.2500    48.3438      .3721      .4292     1.2861   -98.6250  -999.2500  -999.2500  -999.2500
 8016.5000  -999.2500   103.7500  -999.2500    44.5312      .3594      .4092     1.1855  -101.0938  -999.2500  -999.2500  -999.2500
 8017.0000  -999.2500   104.2500  -999.2500    45.8750      .3472      .3838     1.0107  -103.6563  -999.2500  -999.2500  -999.2500
 8017.5000  -999.2500   104.2500  -999.2500    43.8750      .3335      .3564      .8633  -105.6875  -999.2500  -999.2500  -999.2500
 8018.0000  -999.2500   104.6250  -999.2500    46.5312      .3203      .3315      .7520  -106.8125  -999.2500  -999.2500  -999.2500
 8018.5000  -999.2500   102.3750  -999.2500    47.6562      .3091      .3105      .6870  -108.0000  -999.2500  -999.2500  -999.2500
 8019.0000  -999.2500   102.0000  -999.2500    47.4375      .2983      .2944      .6504  -108.5625  -999.2500  -999.2500  -999.2500
 8019.5000  -999.2500   101.7500  -999.2500    49.4375      .2886      .2822      .6328  -109.0625  -999.2500  -999.2500  -999.2500
 8020.0000  -999.2500   103.3750  -999.2500    46.9688      .2798      .2729      .6245  -109.2500  -999.2500  -999.2500  -999.2500
 8020.5000  -999.2500   101.3750  -999.2500    48.8750      .2734      .2651      .6191  -109.3750  -999.2500  -999.2500  -999.2500
 8021.0000  -999.2500   100.8750  -999.2500    44.7500      .2676      .2593      .6221  -109.4375  -999.2500  -999.2500  -999.2500
 8021.5000  -999.2500   101.1250  -999.2500    44.0625      .2637      .2539      .6338  -109.5000  -999.2500  -999.2500  -999.2500
 8022.0000  -999.2500   102.2500  -999.2500    44.3125      .2607      .2500      .6445  -109.7500  -999.2500  -999.2500  -999.2500
 8022.5000  -999.2500   102.8750  -999.2500    43.6250      .2588      .2466      .6470  -109.5625  -999.2500  -999.2500  -999.2500
 8023.0000  -999.2500   101.7500  -999.2500    43.8438      .2573      .2446      .6440  -110.0625  -999.2500  -999.2500  -999.2500
 8023.5000  -999.2500   101.8750  -999.2500    41.2813      .2568      .2437      .6484  -110.0625  -999.2500  -999.2500  -999.2500
 8024.0000  -999.2500   101.3750  -999.2500    42.5313      .2578      .2441      .6455  -109.4375  -999.2500  -999.2500  -999.2500
 8024.5000  -999.2500   100.5000  -999.2500    41.6250      .2603      .2466      .6216  -109.5625  -999.2500  -999.2500  -999.2500
 8025.0000  -999.2500    98.6250  -999.2500    41.7500      .2642      .2524      .5859  -109.6250  -999.2500  -999.2500  -999.2500
 8025.5000  -999.2500    96.2500  -999.2500    43.1875      .2705      .2617      .5703  -109.1875  -999.2500  -999.2500  -999.2500
 8026.0000  -999.2500    84.0000  -999.2500    46.5625      .2769      .2759      .6030  -108.8750  -999.2500  -999.2500  -999.2500
 8026.5000  -999.2500    70.5000  -999.2500    47.9063      .2817      .2930      .6978  -108.6875  -999.2500  -999.2500  -999.2500
 8027.0000  -999.2500    60.6250  -999.2500    51.6563      .2871      .3101      .8774  -108.3750  -999.2500  -999.2500  -999.2500
 8027.5000  -999.2500    51.3750  -999.2500    45.8125      .2896      .3232     1.0146  -108.3750  -999.2500  -999.2500  -999.2500
 8028.0000  -999.2500    59.3750  -999.2500    46.2813      .2886      .3262     1.0283  -108.8125  -999.2500  -999.2500  -999.2500
 8028.5000  -999.2500    68.3750  -999.2500    41.1563      .2847      .3179      .9146  -109.0000  -999.2500  -999.2500  -999.2500
 8029.0000  -999.2500    82.1250  -999.2500    46.0000      .2803      .3003      .7676  -109.1250  -999.2500  -999.2500  -999.2500
 8029.5000  -999.2500    96.6250  -999.2500    45.4063      .2778      .2803      .6562  -109.9375  -999.2500  -999.2500  -999.2500
