~VERSION INFORMATION
VERS.                             2.0:   CWLS Log ASCII Standard-VERSION 2.0
WRAP.                              NO:   One line per depth step
~Well Information Block
STRT.F                      3150.0000:   Top Depth
STOP.F                     11219.0000:   Bottom Depth
STEP.F                         .50000:   Depth Increment
NULL.                        -999.250:   Null Value
FLD .                      GA BLK 300:   Field Name
WELL.       OCSG11310   002 ST00 BP00:   NAME
API .                  42706403320000:   WELL API
EDF .F                        97.5000:   ELEV DRILL FLOOR
COMP.       SEAGULL ENERGY E AND P IN:   OPERATOR
BN  .                             300:   BLOCK
CTRY.                             USA:   COUNTRY NAME
CNTY.                              GA:   COUNTY
CNTY.                        GLVSTN L:   COUNTY NAME
EGL .F                       -56.0000:   ELEV GROUND LEVEL
EKB .F                        98.5000:   ELEV KELLY BUSHING
TDD .F                      11225.000:   FINAL TD DRILLER
STAT.                           TEXAS:   STATE NAME
UWI .                  42706403320000:   WELL API
DICO.               IHS : Digitizing Company
~PARAMETER INFORMATION (zones)
#MNEM.UNIT                       Value     Description
#=========                       =====     ===========
#ZONATION                          CNL:   ZONATION NAME
#ZONE                            RUN_2:   ZONE NAME
TOP .                       9384.0000:   TOP DEPTH
BOT .                      11168.5000:   BOTTOM DEPTH
RUN .                               2:   RUN NUMBER
LCCD.                             440:   LOGGING CONTRACTOR
SRVC.                    Schlumberger:   LOGGING CONT NAME
DICO.          QC Data Collectors Ltd:   DIG COMPANY NAME
LDAT.                      04/26/1993:   DATE LOGGED
ELD .F                        98.5000:   LOG DATUM ELEVATION
TDD .F                     11217.0000:   TOTAL DEPTH DRILLER
TDL .F                     11225.0000:   TOTAL DEPTH LOGGER
BOTL.F                     11219.0000:   BOTTOM DEPTH LOGGED
TOPL.F                      9802.0000:   TOP DEPTH LOGGED
CS1 .IN                        7.6250:   CASING SIZE 1
BS1 .IN                        6.5000:   BIT SIZE 1
DDB1.F                     11217.0000:   DEPTH DRILLED BIT 1
BHF .                              99:   FLUID CODE
DPT .                   Miscellaneous:   DRILLING FLUID TYPE
MUDD.                         13.9000:   FLUID DENSITY
MUDV.                         41.0000:   FLUID VISCOSITY
DFPH.                         10.0000:   FLUID PH
FL  .                          3.2000:   FLUID LOSS
RM  .OHMM                       .9550:   RM
RMT .DEGF                     77.0000:   RM TEMP
RMF .OHMM                       .5740:   RMF
RMFT.DEGF                     76.0000:   RMF TEMP
FSC .                               M:   RMF CODE
RMC .OHMM                      1.6900:   RMC
RMCT.DEGF                     76.0000:   RMC TEMP
CMC .                               M:   RMC CODE
TMAX.DEGF                    207.0000:   MAX REC TEMP
TIMC.                         17.0000:   TIME SINCE CIRCLN
~PARAMETER INFORMATION (zones)
#MNEM.UNIT                       Value     Description
#=========                       =====     ===========
#ZONATION                          DIL:   ZONATION NAME
#ZONE                            RUN_1:   ZONE NAME
TOP .                       3150.0000:   TOP DEPTH
BOT .                       9865.5000:   BOTTOM DEPTH
RUN .                               1:   RUN NUMBER
LCCD.                             440:   LOGGING CONTRACTOR
SRVC.                    Schlumberger:   LOGGING CONT NAME
DICO.          QC Data Collectors Ltd:   DIG COMPANY NAME
LDAT.                      04/10/1993:   DATE LOGGED
ELD .F                        98.5000:   LOG DATUM ELEVATION
TDD .F                      9878.0000:   TOTAL DEPTH DRILLER
TDL .F                      9871.0000:   TOTAL DEPTH LOGGER
BOTL.F                      9865.0000:   BOTTOM DEPTH LOGGED
TOPL.F                      3298.0000:   TOP DEPTH LOGGED
CS1 .IN                       10.7500:   CASING SIZE 1
BS1 .IN                        9.8750:   BIT SIZE 1
DDB1.F                      9878.0000:   DEPTH DRILLED BIT 1
BHF .                              99:   FLUID CODE
DPT .                   Miscellaneous:   DRILLING FLUID TYPE
MUDD.                         11.8000:   FLUID DENSITY
MUDV.                         44.0000:   FLUID VISCOSITY
DFPH.                          9.5000:   FLUID PH
FL  .                          4.6000:   FLUID LOSS
RM  .OHMM                       .8730:   RM
RMT .DEGF                     82.0000:   RM TEMP
RMF .OHMM                       .4990:   RMF
RMFT.DEGF                     82.0000:   RMF TEMP
FSC .                               M:   RMF CODE
RMC .OHMM                      1.4400:   RMC
RMCT.DEGF                     82.0000:   RMC TEMP
CMC .                               M:   RMC CODE
TMAX.DEGF                    177.0000:   MAX REC TEMP
TIMC.                         15.0000:   TIME SINCE CIRCLN
~PARAMETER INFORMATION (zones)
#MNEM.UNIT                       Value     Description
#=========                       =====     ===========
#ZONATION                          DIL:   ZONATION NAME
#ZONE                            RUN_2:   ZONE NAME
TOP .                       9802.0000:   TOP DEPTH
BOT .                      11219.5000:   BOTTOM DEPTH
RUN .                               2:   RUN NUMBER
LCCD.                             440:   LOGGING CONTRACTOR
SRVC.                    Schlumberger:   LOGGING CONT NAME
DICO.          QC Data Collectors Ltd:   DIG COMPANY NAME
LDAT.                      04/26/1993:   DATE LOGGED
ELD .F                        98.5000:   LOG DATUM ELEVATION
TDD .F                     11217.0000:   TOTAL DEPTH DRILLER
TDL .F                     11225.0000:   TOTAL DEPTH LOGGER
BOTL.F                     11219.0000:   BOTTOM DEPTH LOGGED
TOPL.F                      9802.0000:   TOP DEPTH LOGGED
CS1 .IN                        7.6250:   CASING SIZE 1
BS1 .IN                        6.5000:   BIT SIZE 1
DDB1.F                     11217.0000:   DEPTH DRILLED BIT 1
BHF .                              99:   FLUID CODE
DPT .                   Miscellaneous:   DRILLING FLUID TYPE
MUDD.                         13.9000:   FLUID DENSITY
MUDV.                         41.0000:   FLUID VISCOSITY
DFPH.                         10.0000:   FLUID PH
FL  .                          3.2000:   FLUID LOSS
RM  .OHMM                       .9550:   RM
RMT .DEGF                     77.0000:   RM TEMP
RMF .OHMM                       .5740:   RMF
RMFT.DEGF                     76.0000:   RMF TEMP
FSC .                               M:   RMF CODE
RMC .OHMM                      1.6900:   RMC
RMCT.DEGF                     76.0000:   RMC TEMP
CMC .                               M:   RMC CODE
TMAX.DEGF                    207.0000:   MAX REC TEMP
TIMC.                         17.0000:   TIME SINCE CIRCLN
~PARAMETER INFORMATION (zones)
#MNEM.UNIT                       Value     Description
#=========                       =====     ===========
#ZONATION                          LDT:   ZONATION NAME
#ZONE                            RUN_2:   ZONE NAME
TOP .                       9372.0000:   TOP DEPTH
BOT .                      11188.5000:   BOTTOM DEPTH
RUN .                               2:   RUN NUMBER
LCCD.                             440:   LOGGING CONTRACTOR
SRVC.                    Schlumberger:   LOGGING CONT NAME
DICO.          QC Data Collectors Ltd:   DIG COMPANY NAME
LDAT.                      04/26/1993:   DATE LOGGED
ELD .F                        98.5000:   LOG DATUM ELEVATION
TDD .F                     11217.0000:   TOTAL DEPTH DRILLER
TDL .F                     11225.0000:   TOTAL DEPTH LOGGER
BOTL.F                     11219.0000:   BOTTOM DEPTH LOGGED
TOPL.F                      9802.0000:   TOP DEPTH LOGGED
CS1 .IN                        7.6250:   CASING SIZE 1
BS1 .IN                        6.5000:   BIT SIZE 1
DDB1.F                     11217.0000:   DEPTH DRILLED BIT 1
BHF .                              99:   FLUID CODE
DPT .                   Miscellaneous:   DRILLING FLUID TYPE
MUDD.                         13.9000:   FLUID DENSITY
MUDV.                         41.0000:   FLUID VISCOSITY
DFPH.                         10.0000:   FLUID PH
FL  .                          3.2000:   FLUID LOSS
RM  .OHMM                       .9550:   RM
RMT .DEGF                     77.0000:   RM TEMP
RMF .OHMM                       .5740:   RMF
RMFT.DEGF                     76.0000:   RMF TEMP
FSC .                               M:   RMF CODE
RMC .OHMM                      1.6900:   RMC
RMCT.DEGF                     76.0000:   RMC TEMP
CMC .                               M:   RMC CODE
TMAX.DEGF                    207.0000:   MAX REC TEMP
TIMC.                         17.0000:   TIME SINCE CIRCLN
~Curve Information Block
#MNEM.UNIT                    API CODE    No Description
#=========                    ========    == ===========
DEPT.F                   00 001 00 00:     1  DEPTH
NPHI.%                               :     2  Neutron Porosity
DT.US/F                              :     3  Sonic Transit Time
DTL.US/F                             :     4  Sonic Transit Time (Slowness)
GR.GAPI                              :     5  Gamma Ray
ILD.OHMM                             :     6  Deep Induction Resistivity
ILM.OHMM                             :     7  Medium Induction Resistivity
SFL.OHMM                             :     8  Medium Resistivity
SP.MV                                :     9  Spontaneous Potential
DCAL.IN                              :    10  Differential Caliper
DPHI.%                               :    11  Porosity
GR.GAPI                              :    12  Gamma Ray
~ASCII
# ...
 6444.0000  -999.2500   105.8750  -999.2500    65.1250      .6602      .6309     1.1318   -67.7812  -999.2500  -999.2500  -999.2500
 6444.5000  -999.2500   100.6250  -999.2500    54.4063      .6729      .6445     1.1797   -68.3750  -999.2500  -999.2500  -999.2500
 6445.0000  -999.2500    97.7500  -999.2500    53.0313      .6841      .6626     1.2285   -68.0937  -999.2500  -999.2500  -999.2500
 6445.5000  -999.2500    96.3750  -999.2500    50.7812      .6934      .6812     1.2764   -66.8750  -999.2500  -999.2500  -999.2500
 6446.0000  -999.2500    97.0000  -999.2500    53.9062      .7021      .6934     1.2383   -64.8906  -999.2500  -999.2500  -999.2500
 6446.5000  -999.2500   106.7500  -999.2500    57.0625      .7104      .6958     1.0664   -61.1250  -999.2500  -999.2500  -999.2500
 6447.0000  -999.2500   112.8750  -999.2500    68.8750      .7158      .6885      .8442   -56.6719  -999.2500  -999.2500  -999.2500
 6447.5000  -999.2500   116.1250  -999.2500    72.4375      .7192      .6787      .6719   -51.5703  -999.2500  -999.2500  -999.2500
 6448.0000  -999.2500   116.7500  -999.2500    80.5000      .7183      .6724      .6084   -47.4883  -999.2500  -999.2500  -999.2500
 6448.5000  -999.2500   113.3750  -999.2500    73.0000      .7153      .6738      .6235   -46.5312  -999.2500  -999.2500  -999.2500
 6449.0000  -999.2500   110.2500  -999.2500    69.1250      .7168      .6826      .6836   -46.7852  -999.2500  -999.2500  -999.2500
 6449.5000  -999.2500   108.2500  -999.2500    61.2813      .7192      .6963      .7661   -47.9531  -999.2500  -999.2500  -999.2500
 6450.0000  -999.2500   107.3750  -999.2500    64.3750      .7236      .7104      .8960   -50.9922  -999.2500  -999.2500  -999.2500
 6450.5000  -999.2500   107.5000  -999.2500    67.3750      .7295      .7212     1.0654   -53.5156  -999.2500  -999.2500  -999.2500
 6451.0000  -999.2500   105.8750  -999.2500    63.8438      .7329      .7251     1.2207   -56.7187  -999.2500  -999.2500  -999.2500
 6451.5000  -999.2500   104.8750  -999.2500    58.7187      .7354      .7227     1.2158   -59.5781  -999.2500  -999.2500  -999.2500
 6452.0000  -999.2500   102.2500  -999.2500    57.8125      .7378      .7173     1.1543   -61.6719  -999.2500  -999.2500  -999.2500
 6452.5000  -999.2500   101.5000  -999.2500    60.4375      .7378      .7129     1.0967   -62.6562  -999.2500  -999.2500  -999.2500
 6453.0000  -999.2500    99.7500  -999.2500    64.3750      .7354      .7139     1.0557   -62.9374  -999.2500  -999.2500  -999.2500
 6453.5000  -999.2500    99.1250  -999.2500    60.0938      .7319      .7192     1.0342   -63.3125  -999.2500  -999.2500  -999.2500
 6454.0000  -999.2500    96.7500  -999.2500    60.1875      .7241      .7280     1.0273   -63.5313  -999.2500  -999.2500  -999.2500
 6454.5000  -999.2500    94.2500  -999.2500    60.4375      .7124      .7358     1.0400   -64.4375  -999.2500  -999.2500  -999.2500
 6455.0000  -999.2500    95.2500  -999.2500    61.2187      .6973      .7378     1.0684   -64.8437  -999.2500  -999.2500  -999.2500
 6455.5000  -999.2500    98.0000  -999.2500    58.8750      .6792      .7295     1.1074   -66.2500  -999.2500  -999.2500  -999.2500
 6456.0000  -999.2500   102.1250  -999.2500    62.4687      .6567      .7095     1.1514   -67.7188  -999.2500  -999.2500  -999.2500
 6456.5000  -999.2500   106.7500  -999.2500    62.9687      .6328      .6797     1.1895   -69.6562  -999.2500  -999.2500  -999.2500
 6457.0000  -999.2500   110.0000  -999.2500    61.8437      .6060      .6431     1.1992   -72.5313  -999.2500  -999.2500  -999.2500
 6457.5000  -999.2500   111.6250  -999.2500    55.0000      .5806      .6055     1.1846   -74.8750  -999.2500  -999.2500  -999.2500
 6458.0000  -999.2500   111.7500  -999.2500    53.1250      .5586      .5703     1.1523   -77.4063  -999.2500  -999.2500  -999.2500
 6458.5000  -999.2500   110.7500  -999.2500    51.4375      .5430      .5410     1.1133   -79.4375  -999.2500  -999.2500  -999.2500
 6459.0000  -999.2500   110.8750  -999.2500    47.5313      .5337      .5200     1.0771   -81.0000  -999.2500  -999.2500  -999.2500
 6459.5000  -999.2500   111.0000  -999.2500    46.3125      .5288      .5088     1.0459   -82.4688  -999.2500  -999.2500  -999.2500
 6460.0000  -999.2500   108.2500  -999.2500    42.8125      .5288      .5083     1.0166   -83.3437  -999.2500  -999.2500  -999.2500
 6460.5000  -999.2500   103.8750  -999.2500    45.5313      .5352      .5186      .9541   -82.8125  -999.2500  -999.2500  -999.2500
 6461.0000  -999.2500   102.3750  -999.2500    49.8750      .5430      .5405      .8647   -81.7500  -999.2500  -999.2500  -999.2500
 6461.5000  -999.2500    99.6250  -999.2500    59.3125      .5522      .5708      .8379   -79.9687  -999.2500  -999.2500  -999.2500
 6462.0000  -999.2500    98.6250  -999.2500    62.0000      .5625      .6040      .9771   -78.7187  -999.2500  -999.2500  -999.2500
 6462.5000  -999.2500    99.2500  -999.2500    58.4375      .5708      .6318     1.1836   -78.7187  -999.2500  -999.2500  -999.2500
 6463.0000  -999.2500   100.1250  -999.2500    53.9375      .5757      .6460     1.4131   -80.3125  -999.2500  -999.2500  -999.2500
 6463.5000  -999.2500   100.3750  -999.2500    52.3125      .5786      .6450     1.4795   -81.6563  -999.2500  -999.2500  -999.2500
 6464.0000  -999.2500   100.1250  -999.2500    50.6250      .5781      .6348     1.4961   -83.1250  -999.2500  -999.2500  -999.2500
 6464.5000  -999.2500   102.5000  -999.2500    47.0625      .5742      .6216     1.4951   -84.4063  -999.2500  -999.2500  -999.2500
 6465.0000  -999.2500   102.5000  -999.2500    43.7813      .5688      .6104     1.4561   -84.7188  -999.2500  -999.2500  -999.2500
 6465.5000  -999.2500   102.8750  -999.2500    44.0000      .5625      .6025     1.4111   -85.5938  -999.2500  -999.2500  -999.2500
 6466.0000  -999.2500   100.5000  -999.2500    41.6875      .5557      .5977     1.3789   -85.5625  -999.2500  -999.2500  -999.2500
 6466.5000  -999.2500   100.1250  -999.2500    44.3437      .5488      .5937     1.3691   -85.5000  -999.2500  -999.2500  -999.2500
 6467.0000  -999.2500    99.2500  -999.2500    42.3125      .5410      .5889     1.3770   -85.8125  -999.2500  -999.2500  -999.2500
 6467.5000  -999.2500    97.8750  -999.2500    48.0000      .5317      .5825     1.3945   -85.7812  -999.2500  -999.2500  -999.2500
 6468.0000  -999.2500    97.5000  -999.2500    45.0938      .5205      .5732     1.4111   -86.0313  -999.2500  -999.2500  -999.2500
 6468.5000  -999.2500    99.1250  -999.2500    46.1250      .5088      .5605     1.3955   -86.4062  -999.2500  -999.2500  -999.2500
 6469.0000  -999.2500   104.5000  -999.2500    39.7188      .4956      .5454     1.3271   -87.3750  -999.2500  -999.2500  -999.2500
 6469.5000  -999.2500   104.8750  -999.2500    40.2812      .4805      .5273     1.2422   -88.3125  -999.2500  -999.2500  -999.2500
 6470.0000  -999.2500   106.7500  -999.2500    40.8125      .4658      .5083     1.1719   -89.0625  -999.2500  -999.2500  -999.2500
 6470.5000  -999.2500   108.0000  -999.2500    44.3750      .4531      .4893     1.1152   -90.4687  -999.2500  -999.2500  -999.2500
 6471.0000  -999.2500   107.7500  -999.2500    40.7812      .4409      .4707     1.0781   -92.0312  -999.2500  -999.2500  -999.2500
 6471.5000  -999.2500   107.6250  -999.2500    42.8125      .4277      .4541     1.0527   -95.2813  -999.2500  -999.2500  -999.2500
 6472.0000  -999.2500   108.6250  -999.2500    44.5938      .4141      .4395     1.0400   -95.9688  -999.2500  -999.2500  -999.2500
 6472.5000  -999.2500   109.5000  -999.2500    45.0313      .4009      .4248     1.0303   -97.0000  -999.2500  -999.2500  -999.2500
 6473.0000  -999.2500   110.5000  -999.2500    40.7812      .3877      .4092     1.0098   -98.2500  -999.2500  -999.2500  -999.2500
 6473.5000  -999.2500   111.2500  -999.2500    34.6875      .3735      .3906      .9697   -99.2500  -999.2500  -999.2500  -999.2500
 6474.0000  -999.2500   112.5000  -999.2500    33.0000      .3618      .3696      .8755  -101.0938  -999.2500  -999.2500  -999.2500
