~VERSION INFORMATION
VERS.                             2.0:   CWLS Log ASCII Standard-VERSION 2.0
WRAP.                              NO:   One line per depth step
~Well Information Block
STRT.F                      3150.0000:   Top Depth
STOP.F                     11219.0000:   Bottom Depth
STEP.F                         .50000:   Depth Increment
NULL.                        -999.250:   Null Value
FLD .                      GA BLK 300:   Field Name
WELL.       OCSG11310   002 ST00 BP00:   NAME
API .                  42706403320000:   WELL API
EDF .F                        97.5000:   ELEV DRILL FLOOR
COMP.       SEAGULL ENERGY E AND P IN:   OPERATOR
BN  .                             300:   BLOCK
CTRY.                             USA:   COUNTRY NAME
CNTY.                              GA:   COUNTY
CNTY.                        GLVSTN L:   COUNTY NAME
EGL .F                       -56.0000:   ELEV GROUND LEVEL
EKB .F                        98.5000:   ELEV KELLY BUSHING
TDD .F                      11225.000:   FINAL TD DRILLER
STAT.                           TEXAS:   STATE NAME
UWI .                  42706403320000:   WELL API
DICO.               IHS : Digitizing Company
~PARAMETER INFORMATION (zones)
#MNEM.UNIT                       Value     Description
#=========                       =====     ===========
#ZONATION                          CNL:   ZONATION NAME
#ZONE                            RUN_2:   ZONE NAME
TOP .                       9384.0000:   TOP DEPTH
BOT .                      11168.5000:   BOTTOM DEPTH
RUN .                               2:   RUN NUMBER
LCCD.                             440:   LOGGING CONTRACTOR
SRVC.                    Schlumberger:   LOGGING CONT NAME
DICO.          QC Data Collectors Ltd:   DIG COMPANY NAME
LDAT.                      04/26/1993:   DATE LOGGED
ELD .F                        98.5000:   LOG DATUM ELEVATION
TDD .F                     11217.0000:   TOTAL DEPTH DRILLER
TDL .F                     11225.0000:   TOTAL DEPTH LOGGER
BOTL.F                     11219.0000:   BOTTOM DEPTH LOGGED
TOPL.F                      9802.0000:   TOP DEPTH LOGGED
CS1 .IN                        7.6250:   CASING SIZE 1
BS1 .IN                        6.5000:   BIT SIZE 1
DDB1.F                     11217.0000:   DEPTH DRILLED BIT 1
BHF .                              99:   FLUID CODE
DPT .                   Miscellaneous:   DRILLING FLUID TYPE
MUDD.                         13.9000:   FLUID DENSITY
MUDV.                         41.0000:   FLUID VISCOSITY
DFPH.                         10.0000:   FLUID PH
FL  .                          3.2000:   FLUID LOSS
RM  .OHMM                       .9550:   RM
RMT .DEGF                     77.0000:   RM TEMP
RMF .OHMM                       .5740:   RMF
RMFT.DEGF                     76.0000:   RMF TEMP
FSC .                               M:   RMF CODE
RMC .OHMM                      1.6900:   RMC
RMCT.DEGF                     76.0000:   RMC TEMP
CMC .                               M:   RMC CODE
TMAX.DEGF                    207.0000:   MAX REC TEMP
TIMC.                         17.0000:   TIME SINCE CIRCLN
~PARAMETER INFORMATION (zones)
#MNEM.UNIT                       Value     Description
#=========                       =====     ===========
#ZONATION                          DIL:   ZONATION NAME
#ZONE                            RUN_1:   ZONE NAME
TOP .                       3150.0000:   TOP DEPTH
BOT .                       9865.5000:   BOTTOM DEPTH
RUN .                               1:   RUN NUMBER
LCCD.                             440:   LOGGING CONTRACTOR
SRVC.                    Schlumberger:   LOGGING CONT NAME
DICO.          QC Data Collectors Ltd:   DIG COMPANY NAME
LDAT.                      04/10/1993:   DATE LOGGED
ELD .F                        98.5000:   LOG DATUM ELEVATION
TDD .F                      9878.0000:   TOTAL DEPTH DRILLER
TDL .F                      9871.0000:   TOTAL DEPTH LOGGER
BOTL.F                      9865.0000:   BOTTOM DEPTH LOGGED
TOPL.F                      3298.0000:   TOP DEPTH LOGGED
CS1 .IN                       10.7500:   CASING SIZE 1
BS1 .IN                        9.8750:   BIT SIZE 1
DDB1.F                      9878.0000:   DEPTH DRILLED BIT 1
BHF .                              99:   FLUID CODE
DPT .                   Miscellaneous:   DRILLING FLUID TYPE
MUDD.                         11.8000:   FLUID DENSITY
MUDV.                         44.0000:   FLUID VISCOSITY
DFPH.                          9.5000:   FLUID PH
FL  .                          4.6000:   FLUID LOSS
RM  .OHMM                       .8730:   RM
RMT .DEGF                     82.0000:   RM TEMP
RMF .OHMM                       .4990:   RMF
RMFT.DEGF                     82.0000:   RMF TEMP
FSC .                               M:   RMF CODE
RMC .OHMM                      1.4400:   RMC
RMCT.DEGF                     82.0000:   RMC TEMP
CMC .                               M:   RMC CODE
TMAX.DEGF                    177.0000:   MAX REC TEMP
TIMC.                         15.0000:   TIME SINCE CIRCLN
~PARAMETER INFORMATION (zones)
#MNEM.UNIT                       Value     Description
#=========                       =====     ===========
#ZONATION                          DIL:   ZONATION NAME
#ZONE                            RUN_2:   ZONE NAME
TOP .                       9802.0000:   TOP DEPTH
BOT .                      11219.5000:   BOTTOM DEPTH
RUN .                               2:   RUN NUMBER
LCCD.                             440:   LOGGING CONTRACTOR
SRVC.                    Schlumberger:   LOGGING CONT NAME
DICO.          QC Data Collectors Ltd:   DIG COMPANY NAME
LDAT.                      04/26/1993:   DATE LOGGED
ELD .F                        98.5000:   LOG DATUM ELEVATION
TDD .F                     11217.0000:   TOTAL DEPTH DRILLER
TDL .F                     11225.0000:   TOTAL DEPTH LOGGER
BOTL.F                     11219.0000:   BOTTOM DEPTH LOGGED
TOPL.F                      9802.0000:   TOP DEPTH LOGGED
CS1 .IN                        7.6250:   CASING SIZE 1
BS1 .IN                        6.5000:   BIT SIZE 1
DDB1.F                     11217.0000:   DEPTH DRILLED BIT 1
BHF .                              99:   FLUID CODE
DPT .                   Miscellaneous:   DRILLING FLUID TYPE
MUDD.                         13.9000:   FLUID DENSITY
MUDV.                         41.0000:   FLUID VISCOSITY
DFPH.                         10.0000:   FLUID PH
FL  .                          3.2000:   FLUID LOSS
RM  .OHMM                       .9550:   RM
RMT .DEGF                     77.0000:   RM TEMP
RMF .OHMM                       .5740:   RMF
RMFT.DEGF                     76.0000:   RMF TEMP
FSC .                               M:   RMF CODE
RMC .OHMM                      1.6900:   RMC
RMCT.DEGF                     76.0000:   RMC TEMP
CMC .                               M:   RMC CODE
TMAX.DEGF                    207.0000:   MAX REC TEMP
TIMC.                         17.0000:   TIME SINCE CIRCLN
~PARAMETER INFORMATION (zones)
#MNEM.UNIT                       Value     Description
#=========                       =====     ===========
#ZONATION                          LDT:   ZONATION NAME
#ZONE                            RUN_2:   ZONE NAME
TOP .                       9372.0000:   TOP DEPTH
BOT .                      11188.5000:   BOTTOM DEPTH
RUN .                               2:   RUN NUMBER
LCCD.                             440:   LOGGING CONTRACTOR
SRVC.                    Schlumberger:   LOGGING CONT NAME
DICO.          QC Data Collectors Ltd:   DIG COMPANY NAME
LDAT.                      04/26/1993:   DATE LOGGED
ELD .F                        98.5000:   LOG DATUM ELEVATION
TDD .F                     11217.0000:   TOTAL DEPTH DRILLER
TDL .F                     11225.0000:   TOTAL DEPTH LOGGER
BOTL.F                     11219.0000:   BOTTOM DEPTH LOGGED
TOPL.F                      9802.0000:   TOP DEPTH LOGGED
CS1 .IN                        7.6250:   CASING SIZE 1
BS1 .IN                        6.5000:   BIT SIZE 1
DDB1.F                     11217.0000:   DEPTH DRILLED BIT 1
BHF .                              99:   FLUID CODE
DPT .                   Miscellaneous:   DRILLING FLUID TYPE
MUDD.                         13.9000:   FLUID DENSITY
MUDV.                         41.0000:   FLUID VISCOSITY
DFPH.                         10.0000:   FLUID PH
FL  .                          3.2000:   FLUID LOSS
RM  .OHMM                       .9550:   RM
RMT .DEGF                     77.0000:   RM TEMP
RMF .OHMM                       .5740:   RMF
RMFT.DEGF                     76.0000:   RMF TEMP
FSC .                               M:   RMF CODE
RMC .OHMM                      1.6900:   RMC
RMCT.DEGF                     76.0000:   RMC TEMP
CMC .                               M:   RMC CODE
TMAX.DEGF                    207.0000:   MAX REC TEMP
TIMC.                         17.0000:   TIME SINCE CIRCLN
~Curve Information Block
#MNEM.UNIT                    API CODE    No Description
#=========                    ========    == ===========
DEPT.F                   00 001 00 00:     1  DEPTH
NPHI.%                               :     2  Neutron Porosity
DT.US/F                              :     3  Sonic Transit Time
DTL.US/F                             :     4  Sonic Transit Time (Slowness)
GR.GAPI                              :     5  Gamma Ray
ILD.OHMM                             :     6  Deep Induction Resistivity
ILM.OHMM                             :     7  Medium Induction Resistivity
SFL.OHMM                             :     8  Medium Resistivity
SP.MV                                :     9  Spontaneous Potential
DCAL.IN                              :    10  Differential Caliper
DPHI.%                               :    11  Porosity
GR.GAPI                              :    12  Gamma Ray
~ASCII
# ...
11141.0000    42.0313  -999.2500   110.9833  -999.2500      .6160      .6116      .6137   -54.4542     -.0469    16.6898  -999.2500
11141.5000    41.9396  -999.2500   109.6572  -999.2500      .6207      .6188      .6240   -54.1193     -.0332    16.0945  -999.2500
11142.0000    42.0024  -999.2500   109.0315  -999.2500      .6266      .6261      .6381   -53.8445     -.0099    15.7783  -999.2500
11142.5000    42.3717  -999.2500   108.6788  -999.2500      .6339      .6343      .6535   -53.9266      .0171    15.6152  -999.2500
11143.0000    42.7582  -999.2500   108.3785  -999.2500      .6420      .6430      .6690   -54.1049      .0403    15.5369  -999.2500
11143.5000    42.4506  -999.2500   108.0725  -999.2500      .6506      .6499      .6823   -54.1194      .0554    15.5327  -999.2500
11144.0000    42.2384  -999.2500   107.7291  -999.2500      .6590      .6581      .6964   -53.8206      .0730    15.5655  -999.2500
11144.5000    42.3085  -999.2500   107.4285  -999.2500      .6651      .6648      .7078   -53.6969      .1015    15.6397  -999.2500
11145.0000    42.3021  -999.2500   107.3076  -999.2500      .6672      .6692      .7179   -53.7632      .1184    15.7452  -999.2500
11145.5000    42.2746  -999.2500   107.4661  -999.2500      .6682      .6691      .7252   -53.5975      .0831    15.9078  -999.2500
11146.0000    42.5473  -999.2500   107.5319  -999.2500      .6654      .6679      .7328   -53.3065      .0414    16.1957  -999.2500
11146.5000    42.8940  -999.2500   107.4558  -999.2500      .6606      .6642      .7351   -53.0083      .0122    16.4959  -999.2500
11147.0000    42.0101  -999.2500   107.4177  -999.2500      .6523      .6573      .7235   -53.0405     -.0044    16.7645  -999.2500
11147.5000    41.2720  -999.2500   107.5463  -999.2500      .6444      .6440      .7029   -53.2037      .0107    17.0393  -999.2500
11148.0000    40.8843  -999.2500   107.9954  -999.2500      .6367      .6361      .6899   -53.1749      .0133    17.1482  -999.2500
11148.5000    40.4907  -999.2500   108.6597  -999.2500      .6287      .6280      .6772   -53.0375      .0143    17.0495  -999.2500
11149.0000    40.1815  -999.2500   109.6199  -999.2500      .6207      .6209      .6572   -52.8801      .0285    16.8363  -999.2500
11149.5000    40.3538  -999.2500   111.9858  -999.2500      .6128      .6118      .6206   -52.6844      .0320    16.8015  -999.2500
11150.0000    40.2953  -999.2500   113.1365  -999.2500      .6049      .6038      .5921   -52.3200      .0326    16.4612  -999.2500
11150.5000    40.5588  -999.2500   113.6515  -999.2500      .5971      .5955      .5810   -51.9495      .0084    16.3021  -999.2500
11151.0000    40.9047  -999.2500   113.9419  -999.2500      .5913      .5914      .5941   -51.9857     -.0026    16.0020  -999.2500
11151.5000    41.2673  -999.2500   114.1428  -999.2500      .5864      .5861      .6079   -52.0860     -.0196    15.8421  -999.2500
11152.0000    41.5163  -999.2500   114.4358  -999.2500      .5821      .5784      .6167   -52.1617     -.0289    16.1508  -999.2500
11152.5000    41.8305  -999.2500   114.8829  -999.2500      .5791      .5732      .6189   -52.1838     -.0252    16.9118  -999.2500
11153.0000    42.2167  -999.2500   115.3488  -999.2500      .5757      .5689      .6176   -52.1633     -.0393    17.8138  -999.2500
11153.5000    42.4855  -999.2500   115.8258  -999.2500      .5728      .5643      .6118   -52.1673     -.0541    18.4624  -999.2500
11154.0000    42.2584  -999.2500   116.2811  -999.2500      .5701      .5596      .6010   -52.1298     -.0816    18.7080  -999.2500
11154.5000    41.8894  -999.2500   116.4695  -999.2500      .5666      .5560      .5678   -52.0308     -.1447    18.7640  -999.2500
11155.0000    41.7659  -999.2500   116.2363  -999.2500      .5639      .5545      .5378   -51.9326     -.2231    18.6703  -999.2500
11155.5000    41.7227  -999.2500   115.9142  -999.2500      .5631      .5559      .5293   -51.8280     -.2810    18.4720  -999.2500
11156.0000    41.7828  -999.2500   115.5280  -999.2500      .5629      .5574      .5279   -51.5048     -.3278    18.3612  -999.2500
11156.5000    42.1622  -999.2500   114.9127  -999.2500      .5634      .5600      .5305   -51.3271     -.3207    18.4978  -999.2500
11157.0000    42.6095  -999.2500   113.7970  -999.2500      .5644      .5646      .5381   -51.1866     -.3071    18.6182  -999.2500
11157.5000    42.6926  -999.2500   112.4137  -999.2500      .5663      .5717      .5689   -51.1587     -.2978    18.4978  -999.2500
11158.0000    42.2346  -999.2500   111.6213  -999.2500      .5700      .5803      .6211   -51.3446     -.2772    18.2533  -999.2500
11158.5000    41.6360  -999.2500   110.3489  -999.2500      .5745      .5897      .6563   -51.8428     -.2794    18.1489  -999.2500
11159.0000    41.2781  -999.2500   109.0590  -999.2500      .5797      .5989      .6708   -52.4096     -.2993    18.3133  -999.2500
11159.5000    41.1400  -999.2500   108.4344  -999.2500      .5850      .6086      .6803   -52.6183     -.3326    18.5801  -999.2500
11160.0000    41.0649  -999.2500   108.4294  -999.2500      .5896      .6174      .6822   -52.2611     -.4206    18.8485  -999.2500
11160.5000    40.4694  -999.2500   109.0391  -999.2500      .5963      .6211      .6800   -51.8575     -.6672    19.0804  -999.2500
11161.0000    39.7388  -999.2500   109.4156  -999.2500      .6026      .6190      .6759   -51.5446    -1.2856    19.3472  -999.2500
11161.5000    41.0299  -999.2500   109.5897  -999.2500      .6117      .6156      .6627   -51.4515    -1.7895    19.6353  -999.2500
11162.0000    41.6915  -999.2500   109.5905  -999.2500      .6177      .6144      .6421   -51.3134    -1.8900    19.9197  -999.2500
11162.5000    41.7621  -999.2500   109.5975  -999.2500      .6212      .6149      .6224   -51.0796    -1.9046    20.2015  -999.2500
11163.0000    41.8566  -999.2500   109.7736  -999.2500      .6225      .6147      .6123   -50.8226    -1.8986    20.5794  -999.2500
11163.5000    42.3889  -999.2500   110.0205  -999.2500      .6232      .6162      .6344   -50.7071    -1.9020    20.8787  -999.2500
11164.0000    42.5225  -999.2500   110.2886  -999.2500      .6229      .6178      .6618   -50.6896    -1.8954    21.1057  -999.2500
11164.5000    42.4518  -999.2500   110.5883  -999.2500      .6214      .6188      .6676   -50.7454    -1.9011    21.1553  -999.2500
11165.0000    42.2390  -999.2500   111.1002  -999.2500      .6197      .6188      .6540   -50.8020    -1.9046    21.1253  -999.2500
11165.5000    42.1512  -999.2500   112.4163  -999.2500      .6179      .6178      .6365   -50.8497    -1.9108    20.9320  -999.2500
11166.0000    42.4634  -999.2500   112.4561  -999.2500      .6170      .6175      .6244   -50.8754    -1.9168    20.5943  -999.2500
11166.5000    42.8920  -999.2500   111.1475  -999.2500      .6181      .6196      .6172   -50.9661    -1.9232    20.3267  -999.2500
11167.0000    43.3237  -999.2500   110.3973  -999.2500      .6208      .6219      .6176   -51.1103    -1.9166    20.1472  -999.2500
11167.5000    43.7627  -999.2500   110.3177  -999.2500      .6244      .6243      .6255   -51.2802    -1.9071    20.0615  -999.2500
11168.0000    44.0475  -999.2500   111.0267  -999.2500      .6289      .6282      .6380   -51.5158    -1.8841    20.0099  -999.2500
11168.5000  -999.2500  -999.2500   111.7993  -999.2500      .6346      .6311      .6521   -51.8599  -999.2500    19.9648  -999.2500
11169.0000  -999.2500  -999.2500   112.0751  -999.2500      .6371      .6326      .6689   -52.2108  -999.2500    19.9237  -999.2500
11169.5000  -999.2500  -999.2500   111.9684  -999.2500      .6390      .6324      .6827   -52.4752  -999.2500    19.9263  -999.2500
11170.0000  -999.2500  -999.2500   111.5580  -999.2500      .6400      .6315      .6840   -52.7274  -999.2500    20.0349  -999.2500
11170.5000  -999.2500  -999.2500   111.0255  -999.2500      .6404      .6305      .6665   -52.5758  -999.2500    20.2664  -999.2500
11171.0000  -999.2500  -999.2500   110.5814  -999.2500      .6403      .6296      .6471   -52.2004  -999.2500    20.3871  -999.2500
