~VERSION INFORMATION
VERS.                             2.0:   CWLS Log ASCII Standard-VERSION 2.0
WRAP.                              NO:   One line per depth step
~Well Information Block
STRT.F                      3150.0000:   Top Depth
STOP.F                     11219.0000:   Bottom Depth
STEP.F                         .50000:   Depth Increment
NULL.                        -999.250:   Null Value
FLD .                      GA BLK 300:   Field Name
WELL.       OCSG11310   002 ST00 BP00:   NAME
API .                  42706403320000:   WELL API
EDF .F                        97.5000:   ELEV DRILL FLOOR
COMP.       SEAGULL ENERGY E AND P IN:   OPERATOR
BN  .                             300:   BLOCK
CTRY.                             USA:   COUNTRY NAME
CNTY.                              GA:   COUNTY
CNTY.                        GLVSTN L:   COUNTY NAME
EGL .F                       -56.0000:   ELEV GROUND LEVEL
EKB .F                        98.5000:   ELEV KELLY BUSHING
TDD .F                      11225.000:   FINAL TD DRILLER
STAT.                           TEXAS:   STATE NAME
UWI .                  42706403320000:   WELL API
DICO.               IHS : Digitizing Company
~PARAMETER INFORMATION (zones)
#MNEM.UNIT                       Value     Description
#=========                       =====     ===========
#ZONATION                          CNL:   ZONATION NAME
#ZONE                            RUN_2:   ZONE NAME
TOP .                       9384.0000:   TOP DEPTH
BOT .                      11168.5000:   BOTTOM DEPTH
RUN .                               2:   RUN NUMBER
LCCD.                             440:   LOGGING CONTRACTOR
SRVC.                    Schlumberger:   LOGGING CONT NAME
DICO.          QC Data Collectors Ltd:   DIG COMPANY NAME
LDAT.                      04/26/1993:   DATE LOGGED
ELD .F                        98.5000:   LOG DATUM ELEVATION
TDD .F                     11217.0000:   TOTAL DEPTH DRILLER
TDL .F                     11225.0000:   TOTAL DEPTH LOGGER
BOTL.F                     11219.0000:   BOTTOM DEPTH LOGGED
TOPL.F                      9802.0000:   TOP DEPTH LOGGED
CS1 .IN                        7.6250:   CASING SIZE 1
BS1 .IN                        6.5000:   BIT SIZE 1
DDB1.F                     11217.0000:   DEPTH DRILLED BIT 1
BHF .                              99:   FLUID CODE
DPT .                   Miscellaneous:   DRILLING FLUID TYPE
MUDD.                         13.9000:   FLUID DENSITY
MUDV.                         41.0000:   FLUID VISCOSITY
DFPH.                         10.0000:   FLUID PH
FL  .                          3.2000:   FLUID LOSS
RM  .OHMM                       .9550:   RM
RMT .DEGF                     77.0000:   RM TEMP
RMF .OHMM                       .5740:   RMF
RMFT.DEGF                     76.0000:   RMF TEMP
FSC .                               M:   RMF CODE
RMC .OHMM                      1.6900:   RMC
RMCT.DEGF                     76.0000:   RMC TEMP
CMC .                               M:   RMC CODE
TMAX.DEGF                    207.0000:   MAX REC TEMP
TIMC.                         17.0000:   TIME SINCE CIRCLN
~PARAMETER INFORMATION (zones)
#MNEM.UNIT                       Value     Description
#=========                       =====     ===========
#ZONATION                          DIL:   ZONATION NAME
#ZONE                            RUN_1:   ZONE NAME
TOP .                       3150.0000:   TOP DEPTH
BOT .                       9865.5000:   BOTTOM DEPTH
RUN .                               1:   RUN NUMBER
LCCD.                             440:   LOGGING CONTRACTOR
SRVC.                    Schlumberger:   LOGGING CONT NAME
DICO.          QC Data Collectors Ltd:   DIG COMPANY NAME
LDAT.                      04/10/1993:   DATE LOGGED
ELD .F                        98.5000:   LOG DATUM ELEVATION
TDD .F                      9878.0000:   TOTAL DEPTH DRILLER
TDL .F                      9871.0000:   TOTAL DEPTH LOGGER
BOTL.F                      9865.0000:   BOTTOM DEPTH LOGGED
TOPL.F                      3298.0000:   TOP DEPTH LOGGED
CS1 .IN                       10.7500:   CASING SIZE 1
BS1 .IN                        9.8750:   BIT SIZE 1
DDB1.F                      9878.0000:   DEPTH DRILLED BIT 1
BHF .                              99:   FLUID CODE
DPT .                   Miscellaneous:   DRILLING FLUID TYPE
MUDD.                         11.8000:   FLUID DENSITY
MUDV.                         44.0000:   FLUID VISCOSITY
DFPH.                          9.5000:   FLUID PH
FL  .                          4.6000:   FLUID LOSS
RM  .OHMM                       .8730:   RM
RMT .DEGF                     82.0000:   RM TEMP
RMF .OHMM                       .4990:   RMF
RMFT.DEGF                     82.0000:   RMF TEMP
FSC .                               M:   RMF CODE
RMC .OHMM                      1.4400:   RMC
RMCT.DEGF                     82.0000:   RMC TEMP
CMC .                               M:   RMC CODE
TMAX.DEGF                    177.0000:   MAX REC TEMP
TIMC.                         15.0000:   TIME SINCE CIRCLN
~PARAMETER INFORMATION (zones)
#MNEM.UNIT                       Value     Description
#=========                       =====     ===========
#ZONATION                          DIL:   ZONATION NAME
#ZONE                            RUN_2:   ZONE NAME
TOP .                       9802.0000:   TOP DEPTH
BOT .                      11219.5000:   BOTTOM DEPTH
RUN .                               2:   RUN NUMBER
LCCD.                             440:   LOGGING CONTRACTOR
SRVC.                    Schlumberger:   LOGGING CONT NAME
DICO.          QC Data Collectors Ltd:   DIG COMPANY NAME
LDAT.                      04/26/1993:   DATE LOGGED
ELD .F                        98.5000:   LOG DATUM ELEVATION
TDD .F                     11217.0000:   TOTAL DEPTH DRILLER
TDL .F                     11225.0000:   TOTAL DEPTH LOGGER
BOTL.F                     11219.0000:   BOTTOM DEPTH LOGGED
TOPL.F                      9802.0000:   TOP DEPTH LOGGED
CS1 .IN                        7.6250:   CASING SIZE 1
BS1 .IN                        6.5000:   BIT SIZE 1
DDB1.F                     11217.0000:   DEPTH DRILLED BIT 1
BHF .                              99:   FLUID CODE
DPT .                   Miscellaneous:   DRILLING FLUID TYPE
MUDD.                         13.9000:   FLUID DENSITY
MUDV.                         41.0000:   FLUID VISCOSITY
DFPH.                         10.0000:   FLUID PH
FL  .                          3.2000:   FLUID LOSS
RM  .OHMM                       .9550:   RM
RMT .DEGF                     77.0000:   RM TEMP
RMF .OHMM                       .5740:   RMF
RMFT.DEGF                     76.0000:   RMF TEMP
FSC .                               M:   RMF CODE
RMC .OHMM                      1.6900:   RMC
RMCT.DEGF                     76.0000:   RMC TEMP
CMC .                               M:   RMC CODE
TMAX.DEGF                    207.0000:   MAX REC TEMP
TIMC.                         17.0000:   TIME SINCE CIRCLN
~PARAMETER INFORMATION (zones)
#MNEM.UNIT                       Value     Description
#=========                       =====     ===========
#ZONATION                          LDT:   ZONATION NAME
#ZONE                            RUN_2:   ZONE NAME
TOP .                       9372.0000:   TOP DEPTH
BOT .                      11188.5000:   BOTTOM DEPTH
RUN .                               2:   RUN NUMBER
LCCD.                             440:   LOGGING CONTRACTOR
SRVC.                    Schlumberger:   LOGGING CONT NAME
DICO.          QC Data Collectors Ltd:   DIG COMPANY NAME
LDAT.                      04/26/1993:   DATE LOGGED
ELD .F                        98.5000:   LOG DATUM ELEVATION
TDD .F                     11217.0000:   TOTAL DEPTH DRILLER
TDL .F                     11225.0000:   TOTAL DEPTH LOGGER
BOTL.F                     11219.0000:   BOTTOM DEPTH LOGGED
TOPL.F                      9802.0000:   TOP DEPTH LOGGED
CS1 .IN                        7.6250:   CASING SIZE 1
BS1 .IN                        6.5000:   BIT SIZE 1
DDB1.F                     11217.0000:   DEPTH DRILLED BIT 1
BHF .                              99:   FLUID CODE
DPT .                   Miscellaneous:   DRILLING FLUID TYPE
MUDD.                         13.9000:   FLUID DENSITY
MUDV.                         41.0000:   FLUID VISCOSITY
DFPH.                         10.0000:   FLUID PH
FL  .                          3.2000:   FLUID LOSS
RM  .OHMM                       .9550:   RM
RMT .DEGF                     77.0000:   RM TEMP
RMF .OHMM                       .5740:   RMF
RMFT.DEGF                     76.0000:   RMF TEMP
FSC .                               M:   RMF CODE
RMC .OHMM                      1.6900:   RMC
RMCT.DEGF                     76.0000:   RMC TEMP
CMC .                               M:   RMC CODE
TMAX.DEGF                    207.0000:   MAX REC TEMP
TIMC.                         17.0000:   TIME SINCE CIRCLN
~Curve Information Block
#MNEM.UNIT                    API CODE    No Description
#=========                    ========    == ===========
DEPT.F                   00 001 00 00:     1  DEPTH
NPHI.%                               :     2  Neutron Porosity
DT.US/F                              :     3  Sonic Transit Time
DTL.US/F                             :     4  Sonic Transit Time (Slowness)
GR.GAPI                              :     5  Gamma Ray
ILD.OHMM                             :     6  Deep Induction Resistivity
ILM.OHMM                             :     7  Medium Induction Resistivity
SFL.OHMM                             :     8  Medium Resistivity
SP.MV                                :     9  Spontaneous Potential
DCAL.IN                              :    10  Differential Caliper
DPHI.%                               :    11  Porosity
GR.GAPI                              :    12  Gamma Ray
~ASCII
# ...
 9585.5000    56.4088   108.0000  -999.2500    92.7500      .7788      .7085      .8477   -32.3788  -999.2500  -999.2500    48.8255
 9586.0000    58.0344   109.7500  -999.2500    90.0000      .7832      .7129      .8398   -32.4609  -999.2500  -999.2500    46.8708
 9586.5000    58.7894   109.2500  -999.2500    88.0000      .7925      .7153      .8369   -32.8164  -999.2500  -999.2500    45.2239
 9587.0000    58.4504   108.5000  -999.2500    88.4375      .8018      .7173      .8433   -32.8164  -999.2500  -999.2500    45.8723
 9587.5000    57.0455   109.0000  -999.2500    83.1875      .8105      .7192      .8389   -33.2344  -999.2500  -999.2500    48.7426
 9588.0000    56.1030   107.5000  -999.2500    79.3750      .8115      .7222      .8149   -33.5234  -999.2500  -999.2500    49.8917
 9588.5000    55.5341   107.8750  -999.2500    74.1875      .8101      .7266      .8364   -33.8594  -999.2500  -999.2500    49.8272
 9589.0000    57.1365   107.3750  -999.2500    75.9375      .8135      .7329      .8848   -33.8789  -999.2500  -999.2500    49.5605
 9589.5000    57.6179   107.2500  -999.2500    81.2500      .8135      .7383      .8408   -34.1484  -999.2500  -999.2500    50.0727
 9590.0000    57.6645   108.2500  -999.2500    84.5000      .8159      .7407      .8530   -34.4023  -999.2500  -999.2500    51.0040
 9590.5000    58.0836   106.3750  -999.2500    82.4375      .8193      .7388      .8716   -34.0039  -999.2500  -999.2500    50.6677
 9591.0000    58.5242   107.3750  -999.2500    78.4375      .8159      .7334      .8862   -34.2343  -999.2500  -999.2500    48.7021
 9591.5000    58.1895   107.2500  -999.2500    79.5000      .8149      .7271      .8799   -34.1523  -999.2500  -999.2500    46.8690
 9592.0000    56.7234   107.2500  -999.2500    81.8125      .8135      .7222      .8716   -34.1719  -999.2500  -999.2500    46.4471
 9592.5000    56.3069   107.2500  -999.2500    74.5625      .8135      .7192      .8403   -34.5273  -999.2500  -999.2500    48.3557
 9593.0000    56.2085   106.6250  -999.2500    72.1875      .8159      .7187      .8218   -35.0273  -999.2500  -999.2500    50.6659
 9593.5000    55.4289   105.2500  -999.2500    70.6875      .8218      .7217      .8228   -35.5508  -999.2500  -999.2500    52.1047
 9594.0000    54.2462   104.0000  -999.2500    76.8750      .8301      .7300      .8374   -36.3632  -999.2500  -999.2500    50.4559
 9594.5000    53.8980   103.7500  -999.2500    77.4375      .8457      .7466      .8472   -37.0098  -999.2500  -999.2500    48.9637
 9595.0000    54.3431    99.2500  -999.2500    79.3750      .8643      .7720      .8833   -37.5742  -999.2500  -999.2500    48.5814
 9595.5000    54.6813    98.0000  -999.2500    86.5000      .8765      .8018      .9463   -38.3252  -999.2500  -999.2500    49.2418
 9596.0000    52.9547    97.5000  -999.2500    89.0000      .8813      .8271     1.0527   -38.5977  -999.2500  -999.2500    50.2192
 9596.5000    50.9532    99.5000  -999.2500    84.7500      .8848      .8354     1.1504   -38.8290  -999.2500  -999.2500    50.7258
 9597.0000    50.7296   103.5000  -999.2500    80.6875      .8872      .8237     1.1045   -37.8730  -999.2500  -999.2500    51.3383
 9597.5000    52.4357   103.2500  -999.2500    74.6875      .8887      .7993      .9497   -37.7715  -999.2500  -999.2500    52.4990
 9598.0000    54.9442   104.1250  -999.2500    75.8750      .8848      .7744      .9014   -38.0449  -999.2500  -999.2500    53.8254
 9598.5000    56.9247   104.8750  -999.2500    70.3750      .8691      .7559      .8804   -38.2783  -999.2500  -999.2500    54.4472
 9599.0000    56.6652   105.7500  -999.2500    76.6250      .8438      .7427      .8848   -38.6152  -999.2500  -999.2500    53.4956
 9599.5000    52.5789   106.2500  -999.2500    76.4375      .8198      .7300      .8730   -38.8135  -999.2500  -999.2500    51.9417
 9600.0000    51.0368   107.3750  -999.2500    79.2500      .8013      .7158      .8745   -39.3755  -999.2500  -999.2500    51.9315
 9600.5000    50.9219   110.3750  -999.2500    81.5000      .7886      .7002      .8516   -39.2505  -999.2500  -999.2500    53.4993
 9601.0000    51.5558   110.1250  -999.2500    84.0000      .7847      .6880      .8320   -39.1670  -999.2500  -999.2500    54.1650
 9601.5000    51.5632   110.0000  -999.2500    87.2500      .7822      .6816      .8135   -39.3340  -999.2500  -999.2500    53.8079
 9602.0000    51.2344   109.7500  -999.2500    81.9375      .7793      .6826      .8062   -39.1879  -999.2500  -999.2500    53.2202
 9602.5000    50.3701   108.5000  -999.2500    85.6875      .7798      .6885      .8115   -39.2505  -999.2500  -999.2500    53.3685
 9603.0000    49.4037   108.1250  -999.2500    88.0000      .7827      .6978      .8315   -39.4380  -999.2500  -999.2500    54.1515
 9603.5000    48.5834   107.8750  -999.2500    87.6875      .7891      .7080      .8574   -39.2090  -999.2500  -999.2500    54.2915
 9604.0000    48.1506   107.5000  -999.2500    85.3750      .7979      .7187      .8936   -39.0634  -999.2500  -999.2500    53.6182
 9604.5000    47.9405   105.8750  -999.2500    84.3750      .8081      .7295      .9238   -39.2510  -999.2500  -999.2500    53.6237
 9605.0000    48.1852   106.2500  -999.2500    85.8750      .8169      .7402      .9277   -39.1885  -999.2500  -999.2500    54.6286
 9605.5000    49.1457   105.2500  -999.2500    93.2500      .8262      .7500      .9316   -39.1260  -999.2500  -999.2500    55.6124
 9606.0000    50.5968   105.3750  -999.2500    90.2500      .8345      .7568      .9482   -39.6469  -999.2500  -999.2500    56.1190
 9606.5000    50.9576   106.0000  -999.2500    87.4375      .8418      .7612      .9692   -39.4390  -999.2500  -999.2500    56.0163
 9607.0000    51.0435   106.0000  -999.2500    82.6875      .8486      .7627      .9751   -38.9814  -999.2500  -999.2500    55.2071
 9607.5000    52.2866   106.0000  -999.2500    84.4375      .8530      .7642      .9624   -39.0020  -999.2500  -999.2500    53.6135
 9608.0000    53.4797   105.5000  -999.2500    87.8750      .8525      .7661      .9658   -38.9189  -999.2500  -999.2500    51.4047
 9608.5000    53.0024   105.5000  -999.2500    84.5625      .8467      .7681      .9863   -39.0439  -999.2500  -999.2500    50.3500
 9609.0000    51.7183   106.5000  -999.2500    83.0625      .8389      .7661     1.0000   -38.8154  -999.2500  -999.2500    49.8979
 9609.5000    52.3820   108.5000  -999.2500    80.4375      .8340      .7588      .9639   -38.7529  -999.2500  -999.2500    50.8077
 9610.0000    52.7563   109.0000  -999.2500    77.1250      .8306      .7466      .8989   -38.3163  -999.2500  -999.2500    52.0366
 9610.5000    52.8490   109.1250  -999.2500    75.6875      .8267      .7339      .8525   -38.4414  -999.2500  -999.2500    53.0829
 9611.0000    52.7254   109.5000  -999.2500    72.5625      .8228      .7251      .8345   -37.9004  -999.2500  -999.2500    51.5576
 9611.5000    52.5121   107.7500  -999.2500    75.9375      .8184      .7231      .8467   -37.9219  -999.2500  -999.2500    50.0875
 9612.0000    52.3272   107.8750  -999.2500    78.6875      .8149      .7266      .8691   -37.9023  -999.2500  -999.2500    49.6223
 9612.5000    52.0565   107.1250  -999.2500    79.2500      .8145      .7329      .9014   -37.7363  -999.2500  -999.2500    49.3369
 9613.0000    51.7228   105.8750  -999.2500    79.4375      .8120      .7383      .9531   -37.9043  -999.2500  -999.2500    49.1401
 9613.5000    51.2941   108.5000  -999.2500    77.4375      .8062      .7383      .9727   -37.4472  -999.2500  -999.2500    48.9772
 9614.0000    50.8481   108.3750  -999.2500    78.4375      .8018      .7314      .9380   -37.0313  -999.2500  -999.2500    49.0599
 9614.5000    50.8079   110.2500  -999.2500    73.1250      .7949      .7183      .8794   -36.7207  -999.2500  -999.2500    49.4961
 9615.0000    52.3820   110.5000  -999.2500    81.1875      .7852      .7031      .8584   -36.6582  -999.2500  -999.2500    51.0233
 9615.5000    54.3566   111.3750  -999.2500    84.8750      .7783      .6895      .8462   -36.7441  -999.2500  -999.2500    52.4308
