~VERSION INFORMATION
VERS.                             2.0:   CWLS Log ASCII Standard-VERSION 2.0
WRAP.                              NO:   One line per depth step
~Well Information Block
STRT.F                      4470.0000:   Top Depth
STOP.F                     11800.5000:   Bottom Depth
STEP.F                         .50000:   Depth Increment
NULL.                        -999.250:   Null Value
FLD .                      GA BLK 315:   Field Name
WELL.       OCSG14835   001 ST00 BP00:   NAME
API .                  42706403880000:   WELL API
LOC .       993' FSL & 3018' FEL OF B:   AREA NAME
CTRY.                             USA:   COUNTRY
EGL .FT                      -66.0000:   GROUND LEVEL
EKB .FT                        0.0000:   KB ELEVATION
COMP.              APACHE CORPORATION:   OPERATOR
DREF.                             MSL:   PERM DATUM
COUN.                        OFFSHORE:   RIG NAME
STAT.                              TX:   STATE
CNTY.                        OFFSHORE:   COUNTY
DIGS.                   QC Data, Inc.:   DIG COMPANY NAME
EREF.FT                        0.0000:   ELEV DEPTH REFERENCE
UWI .                  42706403880000:   WELL API
DICO.               IHS : Digitizing Company
~PARAMETER INFORMATION (zones)
#MNEM.UNIT                       Value     Description
#=========                       =====     ===========
#ZONATION                        ZONES:   ZONATION NAME
#ZONE                             LAS1:   ZONE NAME
TOP .                       4470.0000:   TOP DEPTH
BOT .                      11816.0000:   BOTTOM DEPTH
SRVC.                   WESTERN ATLAS:   LOGGING CONTRACTOR
DATE.                         10AUG96:   RUN DATE
RW  .OHMM                      0.0000:   RW
RWT .DEGF                      0.0000:   RW TEMP
RUN .                               1:   LOG RUN
TDL .FT                     9298.0000:   FINAL TD LOGGER
TDD .FT                     9300.0000:   FINAL TD DRILLER
BOTL.FT                     9296.0000:   BOTTOM DEPTH LOGGED
TOPL.FT                     4478.0000:   TOP DEPTH LOGGED
CSGL.FT                     4494.0000:   CASING DEPTH LOGGER
CSGD.FT                     4488.0000:   CASING DEPTH DRILLER
CSGS.IN                       13.3750:   CASING SIZE
CSGW.                          0.0000:   CASING WEIGHT
BS  .IN                       12.2500:   BIT SIZE
MUD .                             MUD:   MUD TYPE
MUDD.                         14.2000:   MUD WEIGHT
MUDV.                         41.0000:   MUD VISCOSITY
FL  .                          4.4000:   FLUID LOSS
PH  .                          8.5000:   MUD PH
MUDS.                             PIT:   MUD SOURCE
RM  .OHMM                      1.3000:   RM
RMT .DEGF                     80.0000:   RM TEMP
RMF .OHMM                      0.5400:   RMF
RMFT.DEGF                     80.0000:   RMF TEMP
RMC .OHMM                      2.5000:   RMC
RMCT.DEGF                     80.0000:   RMC TEMP
MMFS.                            MEAS:   RMF SOURCE
MCFS.                            MEAS:   RMC SOURCE
RMBH.OHMM                      0.5500:   RM BH
BHT .DEGF                    182.0000:   BH TEMP
TMAX.DEGF                    182.0000:   MAX REC TEMP
SON .                          180318:   SERVICE ORDER NUM
ELMF.FT                       92.0000:   ABOVE PERM DATUM
LMF .                              DF:   LOGS MEAS FROM
DMF .                              DF:   DRILL MEAS FROM
TIMC.                            0600:   TIME SINCE CIRCLN
UNIT.8940                        8079:   UNIT NO.
BASE.                        PEARLAND:   LOG UNIT HOME BASE
ENG .                          SUTTON:   ENGINEER
WIT .                            DILL:   WITNESS
~PARAMETER INFORMATION (zones)
#MNEM.UNIT                       Value     Description
#=========                       =====     ===========
#ZONATION                        ZONES:   ZONATION NAME
#ZONE                             LAS2:   ZONE NAME
TOP .                       4470.0000:   TOP DEPTH
BOT .                      11816.0000:   BOTTOM DEPTH
SRVC.                   WESTERN ATLAS:   LOGGING CONTRACTOR
DATE.                         21AUG96:   RUN DATE
RW  .OHMM                      0.0000:   RW
RWT .DEGF                      0.0000:   RW TEMP
RUN .                               2:   LOG RUN
TDL .FT                    11503.0000:   FINAL TD LOGGER
TDD .FT                    11500.0000:   FINAL TD DRILLER
BOTL.FT                    11495.0000:   BOTTOM DEPTH LOGGED
TOPL.FT                     9240.0000:   TOP DEPTH LOGGED
CSGL.FT                     9240.0000:   CASING DEPTH LOGGER
CSGD.FT                     9250.0000:   CASING DEPTH DRILLER
CSGS.IN                        9.6250:   CASING SIZE
CSGW.                          0.0000:   CASING WEIGHT
BS  .IN                        8.5000:   BIT SIZE
MUD .                     DESCO LO-PH:   MUD TYPE
MUDD.                         16.4000:   MUD WEIGHT
MUDV.                         50.0000:   MUD VISCOSITY
FL  .                          2.8000:   FLUID LOSS
PH  .                          8.5000:   MUD PH
MUDS.                             PIT:   MUD SOURCE
RM  .OHMM                      1.0000:   RM
RMT .DEGF                     80.0000:   RM TEMP
RMF .OHMM                      0.4500:   RMF
RMFT.DEGF                     80.0000:   RMF TEMP
RMC .OHMM                      3.0000:   RMC
RMCT.DEGF                     80.0000:   RMC TEMP
MMFS.                            MEAS:   RMF SOURCE
MCFS.                            MEAS:   RMC SOURCE
RMBH.OHMM                      0.3870:   RM BH
BHT .DEGF                    230.0000:   BH TEMP
TMAX.DEGF                    230.0000:   MAX REC TEMP
SON .                          180319:   SERVICE ORDER NUM
ELMF.FT                       92.0000:   ABOVE PERM DATUM
LMF .                              DF:   LOGS MEAS FROM
DMF .                              DF:   DRILL MEAS FROM
TIMC.                            0700:   TIME SINCE CIRCLN
UNIT.8940                        8089:   UNIT NO.
BASE.                        PEARLAND:   LOG UNIT HOME BASE
ENG .                    SUTTON/DAVIS:   ENGINEER
WIT .                      MR.CAMBELL:   WITNESS
~PARAMETER INFORMATION (zones)
#MNEM.UNIT                       Value     Description
#=========                       =====     ===========
#ZONATION                        ZONES:   ZONATION NAME
#ZONE                             LAS3:   ZONE NAME
TOP .                       4470.0000:   TOP DEPTH
BOT .                      11816.0000:   BOTTOM DEPTH
SRVC.                   WESTERN ATLAS:   LOGGING CONTRACTOR
DATE.                         23AUG96:   RUN DATE
RW  .OHMM                      0.0000:   RW
RWT .DEGF                      0.0000:   RW TEMP
RUN .                               3:   LOG RUN
TDL .FT                    11800.0000:   FINAL TD LOGGER
TDD .FT                    11800.0000:   FINAL TD DRILLER
BOTL.FT                    11791.0000:   BOTTOM DEPTH LOGGED
TOPL.FT                     9240.0000:   TOP DEPTH LOGGED
CSGL.FT                     9240.0000:   CASING DEPTH LOGGER
CSGD.FT                     9250.0000:   CASING DEPTH DRILLER
CSGS.IN                        9.6250:   CASING SIZE
CSGW.                          0.0000:   CASING WEIGHT
BS  .IN                        8.5000:   BIT SIZE
MUD .                     DESCO LO-PH:   MUD TYPE
MUDD.                         16.4000:   MUD WEIGHT
MUDV.                         50.0000:   MUD VISCOSITY
FL  .                          2.8000:   FLUID LOSS
PH  .                          8.5000:   MUD PH
MUDS.                             PIT:   MUD SOURCE
RM  .OHMM                      1.0000:   RM
RMT .DEGF                     80.0000:   RM TEMP
RMF .OHMM                      0.4500:   RMF
RMFT.DEGF                     80.0000:   RMF TEMP
RMC .OHMM                      3.0000:   RMC
RMCT.DEGF                     80.0000:   RMC TEMP
MMFS.                            MEAS:   RMF SOURCE
MCFS.                            MEAS:   RMC SOURCE
RMBH.OHMM                      0.3870:   RM BH
BHT .DEGF                    232.0000:   BH TEMP
TMAX.DEGF                    232.0000:   MAX REC TEMP
SON .                          180319:   SERVICE ORDER NUM
ELMF.FT                       92.0000:   ABOVE PERM DATUM
LMF .                              DF:   LOGS MEAS FROM
DMF .                              DF:   DRILL MEAS FROM
TIMC.                            0700:   TIME SINCE CIRCLN
UNIT.8940                        8089:   UNIT NO.
BASE.                        PEARLAND:   LOG UNIT HOME BASE
ENG .                    SUTTON/DAVIS:   ENGINEER
WIT .                      BOB SHELBY:   WITNESS
~Curve Information Block
#MNEM.UNIT                    API CODE    No Description
#=========                    ========    == ===========
DEPT.F                   00 001 00 00:     1  DEPTH
CALX.IN                              :     2  Caliper
CNCF.%                               :     3  Field Normalized CNC
DT.US/F                              :     4  Sonic Transit Time
GR.GAPI                              :     5  Gamma Ray
M2R1.OHMM                            :     6  Array Resistivity Curve
M2R2.OHMM                            :     7  Array Resistivity Curve
M2R3.OHMM                            :     8  Array Resistivity Curve
M2R6.OHMM                            :     9  Array Resistivity Curve
M2R9.OHMM                            :    10  Array Resistivity Curve
M2RX.OHMM                            :    11  Array Resistivity Curve
PORZ.%                               :    12  PORZ
RFOC.OHMM                            :    13  Medium Resistivity
RILD.OHMM                            :    14  Deep Resistivity
RILM.OHMM                            :    15  Medium Resistivity
RWAA.OHMM                            :    16  RWAA
RWAZ.OHMM                            :    17  RWAZ
SP.MV                                :    18  Spontaneous Potential
TEN.LB                               :    19  TEN
ZCOR.G/CC                            :    20  Density Correction
~ASCII
# ...
 9742.5000    11.0680    40.7800   134.1520    68.7970      .5300      .5070      .4870      .4820      .4780      .4790    21.6390  -999.2500  -999.2500  -999.2500      .1470      .0290    -3.2520   -24.1860      .0080
 9743.0000    11.0730    40.3860   132.0460    67.7360      .5380      .5150      .4950      .4900      .4870      .4890    21.2500  -999.2500  -999.2500  -999.2500      .1420      .0280    -2.8870   -21.3740      .0070
 9743.5000    11.0720    40.4260   130.0140    66.8390      .5410      .5160      .4950      .4900      .4870      .4880    21.3850  -999.2500  -999.2500  -999.2500      .1340      .0290    -2.4900   -19.4160      .0030
 9744.0000    11.0640    40.9270   129.9440    67.1720      .5390      .5130      .4910      .4850      .4810      .4820    21.8210  -999.2500  -999.2500  -999.2500      .1320      .0290    -2.3640   -19.7900     -.0020
 9744.5000    11.0600    41.5690   130.9810    68.3450      .5330      .5060      .4840      .4770      .4730      .4730    22.3580  -999.2500  -999.2500  -999.2500      .1330      .0300    -2.4030   -21.4750     -.0060
 9745.0000    11.0600    42.1050   131.3660    69.5100      .5240      .4980      .4750      .4680      .4630      .4630    22.8530  -999.2500  -999.2500  -999.2500      .1320      .0310    -2.4880   -23.0640     -.0080
 9745.5000    11.0560    41.9960   131.0300    70.3280      .5170      .4910      .4690      .4620      .4580      .4580    22.9230  -999.2500  -999.2500  -999.2500      .1290      .0310    -2.6670   -23.4230     -.0080
 9746.0000    11.0510    41.4980   131.6710    70.0600      .5110      .4860      .4660      .4590      .4550      .4550    22.7610  -999.2500  -999.2500  -999.2500      .1310      .0300    -2.8710   -22.3740     -.0060
 9746.5000    11.0420    41.3070   132.4050    69.4640      .5010      .4750      .4570      .4510      .4470      .4470    22.6700  -999.2500  -999.2500  -999.2500      .1310      .0300    -2.8500   -21.1670     -.0020
 9747.0000    11.0400    41.3680   132.6380    69.3700      .4860      .4590      .4420      .4360      .4320      .4320    22.9930  -999.2500  -999.2500  -999.2500      .1270      .0300    -2.5180   -21.1410      .0030
 9747.5000    11.0490    41.5660   133.8210    69.3570      .4720      .4440      .4280      .4220      .4170      .4170    23.5250  -999.2500  -999.2500  -999.2500      .1270      .0300    -2.1480   -22.2410      .0080
 9748.0000    11.0630    41.8300   134.2700    70.1000      .4610      .4350      .4180      .4120      .4080      .4070    24.0670  -999.2500  -999.2500  -999.2500      .1260      .0310    -2.0410   -23.9700      .0140
 9748.5000    11.0840    42.2700   133.6390    72.3720      .4550      .4290      .4130      .4070      .4030      .4020    24.4180  -999.2500  -999.2500  -999.2500      .1220      .0310    -2.1620   -26.9250      .0180
 9749.0000    11.0960    42.7050   133.8350    74.0640      .4530      .4250      .4090      .4030      .3990      .3980    24.4890  -999.2500  -999.2500  -999.2500      .1210      .0310    -2.2840   -30.2600      .0170
 9749.5000    11.1010    42.7790   134.7030    73.4880      .4530      .4230      .4070      .4010      .3960      .3960    24.3360  -999.2500  -999.2500  -999.2500      .1230      .0310    -2.2870   -31.6100      .0140
 9750.0000    11.0890    42.7330   135.9690    72.2450      .4540      .4230      .4070      .4000      .3950      .3940    24.1610  -999.2500  -999.2500  -999.2500      .1270      .0300    -2.2740   -30.9350      .0090
 9750.5000    11.0690    42.7720   136.4840    71.9220      .4560      .4260      .4100      .4020      .3970      .3950    24.1250  -999.2500  -999.2500  -999.2500      .1290      .0300    -2.3070   -30.3240      .0010
 9751.0000    11.0400    42.7650   135.5840    72.0730      .4620      .4320      .4150      .4060      .4010      .4000    24.2890  -999.2500  -999.2500  -999.2500      .1280      .0310    -2.3600   -30.2230     -.0070
 9751.5000    10.9720    42.7300   134.4730    71.5840      .4680      .4380      .4210      .4120      .4070      .4060    24.3370  -999.2500  -999.2500  -999.2500      .1260      .0310    -2.5080   -31.7210     -.0050
 9752.0000    10.8980    42.9770   133.2770    70.7230      .4670      .4380      .4220      .4140      .4080      .4070    24.2050  -999.2500  -999.2500  -999.2500      .1220      .0310    -2.7610   -34.8460      .0030
 9752.5000    10.8310    43.4110   133.0540    70.5140      .4570      .4300      .4140      .4070      .4010      .4010    24.3650  -999.2500  -999.2500  -999.2500      .1190      .0310    -2.8630   -36.2810      .0090
 9753.0000    10.7770    43.7960   133.6960    70.6770      .4430      .4170      .4020      .3950      .3900      .3890    25.0460  -999.2500  -999.2500  -999.2500      .1180      .0320    -2.6520   -35.5890      .0120
 9753.5000    10.7430    44.0130   133.6640    69.4750      .4340      .4080      .3940      .3860      .3810      .3800    25.7700  -999.2500  -999.2500  -999.2500      .1150      .0330    -2.4060   -35.1040      .0100
 9754.0000    10.7270    44.0910   133.5900    67.9570      .4300      .4050      .3900      .3830      .3770      .3750    26.2770  -999.2500  -999.2500  -999.2500      .1140      .0340    -2.3130   -32.2900      .0070
 9754.5000    10.7290    43.9650   133.4340    68.9810      .4330      .4070      .3920      .3840      .3790      .3770    26.4110  -999.2500  -999.2500  -999.2500      .1140      .0350    -2.2280   -24.4320      .0020
 9755.0000    10.7490    43.6640   132.8100    72.1520      .4410      .4140      .3980      .3910      .3860      .3850    26.3730  -999.2500  -999.2500  -999.2500      .1140      .0350    -2.1740   -16.5530      .0000
 9755.5000    10.7670    43.5630   132.2720    73.7620      .4520      .4250      .4090      .4030      .3990      .3980    26.0370  -999.2500  -999.2500  -999.2500      .1160      .0360    -2.3820   -14.5910      .0030
 9756.0000    10.7820    43.6850   131.7730    72.4930      .4600      .4340      .4190      .4140      .4110      .4100    25.4240  -999.2500  -999.2500  -999.2500      .1180      .0350    -2.7660   -17.7210      .0040
 9756.5000    10.7920    43.7680   131.6780    70.2680      .4620      .4360      .4220      .4170      .4150      .4150    25.2040  -999.2500  -999.2500  -999.2500      .1190      .0350    -2.9010   -22.0630      .0010
 9757.0000    10.7970    43.6980   132.0050    69.6030      .4600      .4350      .4210      .4160      .4140      .4130    25.2450  -999.2500  -999.2500  -999.2500      .1200      .0350    -2.6910   -25.8950     -.0040
 9757.5000    10.7920    43.5500   131.9380    70.5400      .4610      .4360      .4210      .4160      .4130      .4120    25.3740  -999.2500  -999.2500  -999.2500      .1190      .0350    -2.5150   -29.2710     -.0090
 9758.0000    10.7770    43.1880   131.3450    71.0950      .4650      .4410      .4250      .4190      .4160      .4150    25.4460  -999.2500  -999.2500  -999.2500      .1180      .0350    -2.4880   -31.3080     -.0060
 9758.5000    10.7510    42.6540   131.2340    70.3230      .4720      .4490      .4320      .4260      .4220      .4210    25.5150  -999.2500  -999.2500  -999.2500      .1190      .0360    -2.3820   -31.8850     -.0040
 9759.0000    10.7340    42.1370   131.3400    69.0450      .4780      .4560      .4390      .4330      .4290      .4290    25.5920  -999.2500  -999.2500  -999.2500      .1220      .0370    -2.2880   -32.8220     -.0050
 9759.5000    10.7270    41.7730   131.0020    67.0490      .4860      .4630      .4460      .4400      .4370      .4370    25.3100  -999.2500  -999.2500  -999.2500      .1230      .0370    -2.4950   -34.5680     -.0110
 9760.0000    10.7480    41.3830   130.0620    64.2360      .4970      .4730      .4560      .4500      .4460      .4470    24.5130  -999.2500  -999.2500  -999.2500      .1220      .0350    -2.8970   -35.5580     -.0120
 9760.5000    10.7860    41.1390   128.8610    62.5200      .5100      .4840      .4660      .4600      .4560      .4570    23.8460  -999.2500  -999.2500  -999.2500      .1210      .0340    -3.1370   -35.9290     -.0080
