~VERSION INFORMATION
VERS.                             2.0:   CWLS Log ASCII Standard-VERSION 2.0
WRAP.                              NO:   One line per depth step
~Well Information Block
STRT.F                      3877.0000:   Top Depth
STOP.F                     10380.0000:   Bottom Depth
STEP.F                         .50000:   Depth Increment
NULL.                        -999.250:   Null Value
FLD .                      GA BLK 321:   Field Name
WELL.       OCSG11316   001 ST01 BP00:   NAME
API .                  42706402670100:   WELL API
EDF .F                        90.0000:   ELEV DRILL FLOOR
COMP.              SHELL OFFSHORE INC:   OPERATOR
BN  .                             321:   BLOCK
CTRY.                             USA:   COUNTRY NAME
CNTY.                        GLVSTN L:   COUNTY NAME
EKB .F                        91.0000:   ELEV KELLY BUSHING
TDD .F                      10395.000:   FINAL TD DRILLER
STAT.                           TEXAS:   STATE NAME
UWI .                  42706402670100:   WELL API
DICO.               IHS : Digitizing Company
~PARAMETER INFORMATION (zones)
#MNEM.UNIT                       Value     Description
#=========                       =====     ===========
#ZONATION                          DIL:   ZONATION NAME
#ZONE                            RUN_1:   ZONE NAME
TOP .                       3877.0000:   TOP DEPTH
BOT .                      10380.5000:   BOTTOM DEPTH
RUN .                               1:   RUN NUMBER
LCCD.                             280:   LOGGING CONTRACTOR
SRVC.                     Halliburton:   LOGGING CONT NAME
DICO.          QC Data Collectors Ltd:   DIG COMPANY NAME
LDAT.                      06/13/1990:   DATE LOGGED
ELD .F                        91.0000:   LOG DATUM ELEVATION
TDD .F                     10395.0000:   TOTAL DEPTH DRILLER
TDL .F                     10390.0000:   TOTAL DEPTH LOGGER
BOTL.F                     10380.0000:   BOTTOM DEPTH LOGGED
TOPL.F                      3954.0000:   TOP DEPTH LOGGED
CS1 .IN                       13.3750:   CASING SIZE 1
BS1 .IN                       12.2500:   BIT SIZE 1
DDB1.F                     10395.0000:   DEPTH DRILLED BIT 1
BHF .                              99:   FLUID CODE
DPT .                   Miscellaneous:   DRILLING FLUID TYPE
MUDD.                         13.4000:   FLUID DENSITY
MUDV.                         68.0000:   FLUID VISCOSITY
DFPH.                          9.0000:   FLUID PH
FL  .                          2.1000:   FLUID LOSS
RM  .OHMM                       .0700:   RM
RMT .DEGF                     77.0000:   RM TEMP
RMF .OHMM                       .0400:   RMF
RMFT.DEGF                     73.0000:   RMF TEMP
FSC .                               M:   RMF CODE
RMC .OHMM                       .1000:   RMC
RMCT.DEGF                     74.0000:   RMC TEMP
CMC .                               M:   RMC CODE
TMAX.DEGF                    209.0000:   MAX REC TEMP
TIMC.                         13.0000:   TIME SINCE CIRCLN
~Curve Information Block
#MNEM.UNIT                    API CODE    No Description
#=========                    ========    == ===========
DEPT.F                   00 001 00 00:     1  DEPTH
CALI.IN                              :     2  Caliper
DT.US/F                              :     3  Sonic Transit Time
GR.GAPI                              :     4  Gamma Ray
ILD.OHMM                             :     5  Deep Induction Resistivity
ILM.OHMM                             :     6  Medium Induction Resistivity
SFL.OHMM                             :     7  Medium Resistivity
SP.MV                                :     8  Spontaneous Potential
~ASCII
# ...
 4832.5000    15.3369   133.0979    72.0818      .7223      .6252      .5822   -19.9584
 4833.0000    15.3274   132.0269    73.2550      .7312      .6681      .6119   -20.0241
 4833.5000    15.3179   130.6714    71.5803      .7428      .7328      .7242   -20.0995
 4834.0000    15.3334   129.3027    69.5504      .7670      .7938      .7745   -20.4070
 4834.5000    15.3543   128.7319    66.7994      .7872      .8148      .8110   -20.7142
 4835.0000    15.3266   129.0974    64.0858      .6961      .7475      .7226   -21.1666
 4835.5000    15.3028   129.7637    61.4363      .6364      .7039      .6053   -21.4847
 4836.0000    15.3171   130.4268    59.9673      .5875      .6860      .5288   -21.1408
 4836.5000    15.3276   131.0549    60.0521      .5914      .6849      .5161   -20.6631
 4837.0000    15.3298   131.6836    60.3589      .6071      .7001      .5045   -20.2458
 4837.5000    15.3319   131.3606    60.5911      .6233      .7238      .5104   -19.9510
 4838.0000    15.3090   129.4622    60.6831      .6584      .7483      .5855   -19.8076
 4838.5000    15.2829   127.1871    60.4005      .6972      .7790      .6673   -19.9127
 4839.0000    15.2128   125.3464    60.1371      .7223      .8003      .7039   -20.0939
 4839.5000    15.1034   123.6063    60.8407      .7360      .7980      .7218   -20.1097
 4840.0000    14.9768   122.5319    63.8107      .7290      .7761      .7272   -20.1138
 4840.5000    14.8556   122.5948    65.2277      .7202      .7368      .7169   -20.0554
 4841.0000    14.7588   123.2484    66.2953      .7087      .7092      .6883   -19.9969
 4841.5000    14.6987   124.0608    66.2699      .6975      .6949      .6287   -19.8864
 4842.0000    14.6621   125.2566    65.4807      .6897      .6803      .5874   -19.7638
 4842.5000    14.6778   126.4512    64.6914      .6988      .6322      .5610   -19.6368
 4843.0000    14.6765   127.7823    63.9643      .7084      .6170      .5619   -19.4994
 4843.5000    14.6752   129.0237    63.3443      .7185      .6238      .5607   -19.3620
 4844.0000    14.6539   128.6404    63.2131      .7357      .6880      .5699   -19.4101
 4844.5000    14.6113   126.7822    64.0264      .7547      .7367      .5913   -19.5258
 4845.0000    14.5878   125.4457    63.8882      .7746      .7701      .6050   -19.6415
 4845.5000    14.6047   124.2076    62.8693      .7951      .8050      .6026   -19.7670
 4846.0000    14.6441   123.2437    61.6406      .8168      .7862      .6157   -19.8939
 4846.5000    14.6405   122.9749    60.8748      .8077      .7127      .6255   -20.0208
 4847.0000    14.6119   125.8304    61.9204      .7794      .6550      .5966   -20.0842
 4847.5000    14.5648   128.7959    62.7851      .7519      .6091      .5673   -20.3509
 4848.0000    14.4868   132.1836    62.9978      .7276      .5941      .5571   -20.7766
 4848.5000    14.4033   134.2107    62.6622      .7110      .6164      .5622   -21.0370
 4849.0000    14.3198   135.7349    62.2429      .7282      .6363      .5651   -21.2517
 4849.5000    14.1888   132.6543    60.5562      .7776      .6473      .5630   -21.4735
 4850.0000    14.1046   127.4794    58.6091      .8292      .7160      .5764   -21.6340
 4850.5000    14.0527   122.7604    56.6915      .8772      .8511      .5828   -21.7320
 4851.0000    14.0544   120.0657    54.7537      .9116      .8973      .5994   -21.8298
 4851.5000    14.1208   118.4703    54.8325      .9207      .8223      .5979   -21.5044
 4852.0000    14.2010   119.6689    56.1292      .8235      .6994      .6120   -21.1545
 4852.5000    14.2919   121.7817    57.3832      .7602      .6532      .5958   -20.8047
 4853.0000    14.3341   124.2780    58.6158      .7178      .6680      .5947   -20.4910
 4853.5000    14.3727   127.1737    59.8725      .7053      .6668      .6160   -20.2135
 4854.0000    14.3996   129.2744    61.7261      .6930      .6587      .5478   -19.9361
 4854.5000    14.3857   130.8672    62.9924      .6997      .6381      .4770   -19.6587
 4855.0000    14.3757   131.7351    62.1868      .7076      .6297      .4841   -19.4240
 4855.5000    14.3888   129.6833    61.1746      .7159      .7000      .5028   -19.2377
 4856.0000    14.4196   127.4580    60.8287      .7263      .7666      .5304   -19.0512
 4856.5000    14.4689   125.7915    62.0733      .7368      .7100      .5621   -18.9407
 4857.0000    14.4830   126.3392    63.1190      .7317      .6501      .5245   -18.9212
 4857.5000    14.4851   126.9291    63.5947      .7197      .5997      .5017   -18.9017
 4858.0000    14.4884   127.4292    62.4646      .7107      .6259      .5269   -18.6875
 4858.5000    14.4926   127.4728    62.1080      .7253      .7327      .5612   -18.5535
 4859.0000    14.4943   127.2307    63.0949      .7402      .7180      .5362   -18.4759
 4859.5000    14.4922   126.5135    64.5078      .7427      .6598      .5113   -18.4840
 4860.0000    14.4815   126.6388    65.5742      .7397      .6082      .5293   -18.5025
 4860.5000    14.4623   126.6871    64.3035      .7385      .6244      .5698   -18.5776
 4861.0000    14.4465   125.8894    62.9841      .7410      .6559      .6029   -18.6657
 4861.5000    14.4669   124.7512    61.6647      .7561      .6890      .6208   -18.7537
 4862.0000    14.4728   123.0128    60.6677      .7826      .7257      .6245   -18.9275
 4862.5000    14.4786   123.5376    59.9583      .8100      .7668      .5761   -19.1041
 4863.0000    14.5206   124.0621    59.1113      .8382      .7806      .5328   -19.3593
 4863.5000    14.5769   124.6896    57.4193      .8675      .7922      .5266   -19.7680
 4864.0000    14.6413   125.3948    55.8141      .8984      .8242      .6092   -20.1803
 4864.5000    14.6963   125.5428    53.1218      .9306      .8033      .6948   -20.6728
 4865.0000    14.7193   123.5715    51.3463      .9513      .6969      .7751   -21.1652
 4865.5000    14.7168   121.5592    50.2612      .9749      .6913      .9290   -21.3307
 4866.0000    14.7075   120.2574    49.7711      .9995      .7584     1.0567   -21.4162
 4866.5000    14.6945   119.7319    51.4819     1.0002      .8182      .7636   -21.4680
 4867.0000    14.6427   120.6624    54.3958      .9883      .7865      .6796   -21.5250
 4867.5000    14.5744   121.5927    60.1917      .9818      .8384      .6188   -21.7336
 4868.0000    14.4705   122.4889    63.2872      .9788      .9237      .5477   -21.9872
 4868.5000    14.4013   123.3650    64.0569      .9794      .9939      .5509   -22.4088
 4869.0000    14.3547   124.2411    63.3934     1.0002      .9295      .5956   -22.9193
 4869.5000    14.3608   125.0509    62.4319     1.0215      .7657      .6484   -23.5684
 4870.0000    14.3920   125.3831    60.7419     1.0617      .7064      .8699   -24.4731
 4870.5000    14.3234   125.7889    58.5731     1.1126      .8240      .9715   -25.6370
 4871.0000    14.0659   126.2313    55.8594     1.1784      .9820      .9685   -27.0939
 4871.5000    13.7593   126.2139    52.3445     1.2168     1.0769      .6828   -28.7953
 4872.0000    13.5018   126.2419    50.5684     1.1934     1.0109      .6280   -30.9641
 4872.5000    13.3274   126.3232    49.1469     1.0904      .8905      .6031   -32.2508
 4873.0000    13.1749   126.1749    47.7726      .9867      .8016      .5819   -32.8984
 4873.5000    13.1419   125.8894    48.4397      .9301      .7449      .5461   -33.3198
 4874.0000    13.2441   125.1909    52.0988      .8894      .7099      .5617   -33.7084
 4874.5000    13.3453   123.7645    56.4043      .8938      .7293      .6327   -33.2463
 4875.0000    13.3945   121.8514    60.3626      .9309      .8000      .6936   -33.1290
 4875.5000    13.4133   119.3579    62.6475      .9702      .8777      .7527   -33.1102
 4876.0000    13.3566   117.7772    61.2761     1.0120      .9540      .8250   -33.2133
 4876.5000    13.2862   116.8214    59.8511     1.0611     1.0355      .7315   -33.7131
 4877.0000    13.2395   119.0549    58.5918     1.1187     1.0710      .6484   -34.4355
 4877.5000    13.2105   123.1036    57.4279     1.1853     1.0507      .7346   -35.3156
