~VERSION INFORMATION
VERS.                             2.0:   CWLS Log ASCII Standard-VERSION 2.0
WRAP.                              NO:   One line per depth step
~Well Information Block
STRT.F                      3877.0000:   Top Depth
STOP.F                     10380.0000:   Bottom Depth
STEP.F                         .50000:   Depth Increment
NULL.                        -999.250:   Null Value
FLD .                      GA BLK 321:   Field Name
WELL.       OCSG11316   001 ST01 BP00:   NAME
API .                  42706402670100:   WELL API
EDF .F                        90.0000:   ELEV DRILL FLOOR
COMP.              SHELL OFFSHORE INC:   OPERATOR
BN  .                             321:   BLOCK
CTRY.                             USA:   COUNTRY NAME
CNTY.                        GLVSTN L:   COUNTY NAME
EKB .F                        91.0000:   ELEV KELLY BUSHING
TDD .F                      10395.000:   FINAL TD DRILLER
STAT.                           TEXAS:   STATE NAME
UWI .                  42706402670100:   WELL API
DICO.               IHS : Digitizing Company
~PARAMETER INFORMATION (zones)
#MNEM.UNIT                       Value     Description
#=========                       =====     ===========
#ZONATION                          DIL:   ZONATION NAME
#ZONE                            RUN_1:   ZONE NAME
TOP .                       3877.0000:   TOP DEPTH
BOT .                      10380.5000:   BOTTOM DEPTH
RUN .                               1:   RUN NUMBER
LCCD.                             280:   LOGGING CONTRACTOR
SRVC.                     Halliburton:   LOGGING CONT NAME
DICO.          QC Data Collectors Ltd:   DIG COMPANY NAME
LDAT.                      06/13/1990:   DATE LOGGED
ELD .F                        91.0000:   LOG DATUM ELEVATION
TDD .F                     10395.0000:   TOTAL DEPTH DRILLER
TDL .F                     10390.0000:   TOTAL DEPTH LOGGER
BOTL.F                     10380.0000:   BOTTOM DEPTH LOGGED
TOPL.F                      3954.0000:   TOP DEPTH LOGGED
CS1 .IN                       13.3750:   CASING SIZE 1
BS1 .IN                       12.2500:   BIT SIZE 1
DDB1.F                     10395.0000:   DEPTH DRILLED BIT 1
BHF .                              99:   FLUID CODE
DPT .                   Miscellaneous:   DRILLING FLUID TYPE
MUDD.                         13.4000:   FLUID DENSITY
MUDV.                         68.0000:   FLUID VISCOSITY
DFPH.                          9.0000:   FLUID PH
FL  .                          2.1000:   FLUID LOSS
RM  .OHMM                       .0700:   RM
RMT .DEGF                     77.0000:   RM TEMP
RMF .OHMM                       .0400:   RMF
RMFT.DEGF                     73.0000:   RMF TEMP
FSC .                               M:   RMF CODE
RMC .OHMM                       .1000:   RMC
RMCT.DEGF                     74.0000:   RMC TEMP
CMC .                               M:   RMC CODE
TMAX.DEGF                    209.0000:   MAX REC TEMP
TIMC.                         13.0000:   TIME SINCE CIRCLN
~Curve Information Block
#MNEM.UNIT                    API CODE    No Description
#=========                    ========    == ===========
DEPT.F                   00 001 00 00:     1  DEPTH
CALI.IN                              :     2  Caliper
DT.US/F                              :     3  Sonic Transit Time
GR.GAPI                              :     4  Gamma Ray
ILD.OHMM                             :     5  Deep Induction Resistivity
ILM.OHMM                             :     6  Medium Induction Resistivity
SFL.OHMM                             :     7  Medium Resistivity
SP.MV                                :     8  Spontaneous Potential
~ASCII
# ...
 6516.0000    16.5455   110.9739    72.4065      .6514      .6249      .7713   -23.9960
 6516.5000    16.5244   110.9351    74.1417      .6472      .6070      .7470   -24.1277
 6517.0000    16.4093   112.1180    75.8142      .6430      .6030      .7091   -24.2992
 6517.5000    16.3200   112.9479    77.7842      .6389      .6069      .6514   -24.5393
 6518.0000    16.3058   113.5317    79.9875      .6348      .6159      .6175   -24.8708
 6518.5000    16.3415   114.0485    79.5875      .6307      .6226      .6755   -25.3069
 6519.0000    16.3835   114.3967    77.7042      .6266      .6258      .7158   -25.7464
 6519.5000    16.4013   114.5144    76.2064      .6226      .6226      .7210   -26.0368
 6520.0000    16.3911   114.5875    75.6848      .6239      .6208      .7131   -25.5136
 6520.5000    16.3503   114.6300    75.4808      .6264      .6240      .7084   -24.7294
 6521.0000    16.3095   114.6589    74.9686      .6273      .6250      .7210   -24.1055
 6521.5000    16.2777   114.7631    74.2351      .6275      .6222      .7362   -23.8318
 6522.0000    16.2468   115.3643    73.3507      .6276      .6194      .7426   -23.5779
 6522.5000    16.2483   116.0359    72.2317      .6231      .6083      .7275   -23.4729
 6523.0000    16.2649   116.6298    71.8716      .6159      .5970      .7097   -23.3678
 6523.5000    16.2922   117.0541    73.3308      .6059      .5971      .6879   -23.6834
 6524.0000    16.2879   116.9296    74.8766      .6020      .6071      .6623   -24.0185
 6524.5000    16.2792   116.7935    75.7529      .5988      .6083      .6316   -24.3906
 6525.0000    16.2744   116.7225    76.3931      .5980      .6094      .6286   -24.7787
 6525.5000    16.2919   116.5610    76.8679      .5982      .6038      .6303   -25.0978
 6526.0000    16.2912   116.2142    77.1377      .5984      .5946      .6558   -25.0341
 6526.5000    16.2607   115.6438    77.4071      .6006      .6032      .6929   -24.7547
 6527.0000    16.2105   114.9071    77.8556      .6078      .6212      .7118   -24.2805
 6527.5000    16.1535   114.4025    78.3337      .6295      .6501      .7153   -23.9158
 6528.0000    16.0974   114.1042    78.8639      .6403      .6388      .7039   -23.7227
 6528.5000    16.0510   114.1492    79.5128      .6250      .6283      .7240   -24.5467
 6529.0000    16.0691   114.3533    80.6545      .6174      .6188      .7638   -25.7030
 6529.5000    16.1012   114.7422    81.7081      .6112      .6095      .7498   -26.8327
 6530.0000    16.1298   115.2369    82.8298      .6089      .6087      .6618   -27.6683
 6530.5000    16.1557   115.6334    83.7135      .6065      .6080      .6355   -27.7807
 6531.0000    16.1882   115.7863    83.0553      .6076      .6074      .6675   -27.0688
 6531.5000    16.2226   115.3881    82.2677      .6107      .6068      .6912   -26.0511
 6532.0000    16.2355   114.9628    81.0867      .6122      .6062      .7327   -24.9828
 6532.5000    16.2488   114.4929    78.9259      .6118      .6055      .8121   -23.9878
 6533.0000    16.2592   114.0070    76.9346      .6114      .6047      .7710   -23.9891
 6533.5000    16.2444   113.8230    75.6288      .6109      .6042      .7305   -24.6754
 6534.0000    16.2117   113.6743    75.0166      .6105      .6073      .6859   -25.5003
 6534.5000    16.2029   113.7148    74.8333      .6100      .6104      .6383   -25.5203
 6535.0000    16.2318   113.8340    75.0959      .6094      .6136      .5922   -24.9655
 6535.5000    16.2957   114.0807    75.6241      .6117      .6263      .5860   -24.4219
 6536.0000    16.3817   113.5156    75.4221      .6388      .6534      .6528   -24.3039
 6536.5000    16.4692   111.8586    74.5365      .6871      .6876      .7613   -24.1859
 6537.0000    16.5182   109.9845    73.6495      .7216      .7161      .8548   -24.1812
 6537.5000    16.5186   108.0327    72.7639      .7249      .7311      .9635   -24.1924
 6538.0000    16.4465   106.8690    72.8552      .7181      .7201     1.0879   -24.1957
 6538.5000    16.3713   106.6663    73.8163      .7051      .7059      .9518   -24.1893
 6539.0000    16.2752   107.0406    74.8079      .6924      .6905      .8328   -24.1829
 6539.5000    16.1792   107.5997    75.4135      .6854      .6809      .7277   -24.2109
 6540.0000    16.1104   107.9154    74.5898      .6804      .6731      .8300   -24.2547
 6540.5000    16.0695   107.9999    73.4601      .6797      .6653      .9413   -24.2917
 6541.0000    16.0363   107.9348    72.0356      .6941      .6563      .8955   -24.2853
 6541.5000    16.0158   107.7887    70.4658      .7170      .6605      .8650   -24.2789
 6542.0000    16.0032   108.0049    72.2731      .7542      .6906      .8909   -24.2725
 6542.5000    15.9959   108.3336    74.8579      .7824      .7319      .9523   -24.2366
 6543.0000    15.9839   108.9456    74.5538      .7985      .7683      .9734   -24.1405
 6543.5000    15.9665   109.2673    72.0837      .7732      .7840      .9876   -24.0697
 6544.0000    15.9894   109.3303    69.2854      .7226      .7417     1.0089   -24.0738
 6544.5000    15.9927   109.0840    66.9860      .6812      .7002     1.0781   -24.1453
 6545.0000    15.9960   108.6802    66.9274      .6596      .6744     1.0943   -24.2328
 6545.5000    15.9993   107.8497    69.3041      .6486      .6536      .9915   -24.3189
 6546.0000    15.9700   107.3214    71.4208      .6497      .6362      .7885   -24.3705
 6546.5000    15.9325   107.3645    71.1993      .6615      .6419      .6903   -24.3856
 6547.0000    16.0137   107.5642    70.1897      .6741      .6480      .6489   -24.3764
 6547.5000    16.2284   107.8457    69.0840      .6810      .6625      .6619   -24.3313
 6548.0000    16.4520   107.1741    68.2144      .6870      .6841      .7437   -24.2862
 6548.5000    16.3983   106.3698    69.2467      .6952      .6953      .8047   -24.2018
 6549.0000    16.3173   105.5693    72.2170      .7043      .6997      .8496   -24.1114
 6549.5000    16.1852   105.2567    73.7682      .7104      .6970      .9145   -23.9799
 6550.0000    15.8254   105.9548    74.4628      .7086      .7012     1.1349   -23.9271
 6550.5000    15.6867   107.5139    74.6492      .7067      .7095     1.0226   -24.1599
 6551.0000    15.6678   108.6493    75.1747      .7067      .7138      .8841   -24.4269
 6551.5000    15.6421   109.1873    76.6611      .7075      .7117      .7574   -24.7751
 6552.0000    15.6261   107.8571    78.6619      .7086      .6999      .6181   -25.1212
 6552.5000    15.6127   106.5205    79.7836      .7100      .6762      .6148   -25.4109
 6553.0000    15.6018   105.2362    78.2377      .7114      .6486      .8462   -25.7007
 6553.5000    15.5837   103.9774    75.8263      .7173      .6270     1.1368   -25.9414
 6554.0000    15.5448   102.8125    72.3345      .7244      .6147     1.2602   -26.1768
 6554.5000    15.4681   101.6663    69.6936      .7388      .6287      .9505   -26.4366
 6555.0000    15.3679   101.0349    67.6555      .7534      .6556      .9684   -26.7537
 6555.5000    15.2591   100.9130    66.2498      .7641      .6850      .9664   -27.0708
 6556.0000    15.1980   102.2334    65.5482      .7565      .7011      .9115   -27.7664
 6556.5000    15.2733   104.1155    65.3820      .7156      .6452      .8847   -28.8881
 6557.0000    15.4002   106.0031    65.2478      .5926      .5450      .8501   -30.5926
 6557.5000    15.5853   109.0381    64.9387      .4565      .4628      .6433   -32.6760
 6558.0000    15.6557   111.6375    64.4219      .4214      .3753      .2751   -34.2952
 6558.5000    15.4695   112.5369    63.2768      .4041      .3233  -999.2500   -35.4649
 6559.0000    15.2852   111.9579    61.9030      .3907      .3197  -999.2500   -36.2651
 6559.5000    15.1210   110.6575    60.2972      .4101      .3630  -999.2500   -36.6478
 6560.0000    14.9875   109.3773    60.3759      .5096      .4482      .5320   -36.1791
 6560.5000    14.9187   108.5085    64.3212      .6041      .5404      .8915   -35.3555
 6561.0000    14.8556   107.6399    66.8660      .6345      .5956     1.0362   -34.4592
