~VERSION INFORMATION
VERS.                             2.0:   CWLS Log ASCII Standard-VERSION 2.0
WRAP.                              NO:   One line per depth step
~Well Information Block
STRT.F                      6412.0000:   Top Depth
STOP.F                      9744.0000:   Bottom Depth
STEP.F                         .50000:   Depth Increment
NULL.                        -999.250:   Null Value
FLD .                      GA BLK 273:   Field Name
WELL.       OCSG09037   005 ST00 BP00:   NAME
API .                  42706403310000:   WELL API
EDF .F                        93.0000:   ELEV DRILL FLOOR
COMP.       SEAGULL ENERGY E AND P IN:   OPERATOR
BN  .                             273:   BLOCK
CTRY.                             USA:   COUNTRY NAME
CNTY.                              GA:   COUNTY
CNTY.                        GLVSTN L:   COUNTY NAME
EGL .F                       -63.0000:   ELEV GROUND LEVEL
EKB .F                        94.0000:   ELEV KELLY BUSHING
TDD .F                       9756.000:   FINAL TD DRILLER
STAT.                           TEXAS:   STATE NAME
UWI .                  42706403310000:   WELL API
DICO.               IHS : Digitizing Company
~PARAMETER INFORMATION (zones)
#MNEM.UNIT                       Value     Description
#=========                       =====     ===========
#ZONATION                          DIL:   ZONATION NAME
#ZONE                            RUN_1:   ZONE NAME
TOP .                       6412.0000:   TOP DEPTH
BOT .                       9744.5000:   BOTTOM DEPTH
RUN .                               1:   RUN NUMBER
LCCD.                             440:   LOGGING CONTRACTOR
SRVC.                    Schlumberger:   LOGGING CONT NAME
DICO.          QC Data Collectors Ltd:   DIG COMPANY NAME
LDAT.                      03/03/1993:   DATE LOGGED
ELD .F                        94.0000:   LOG DATUM ELEVATION
TDD .F                      9756.0000:   TOTAL DEPTH DRILLER
TDL .F                      9750.0000:   TOTAL DEPTH LOGGER
BOTL.F                      9744.0000:   BOTTOM DEPTH LOGGED
TOPL.F                      6543.0000:   TOP DEPTH LOGGED
CS1 .IN                        7.6250:   CASING SIZE 1
BS1 .IN                        6.5000:   BIT SIZE 1
DDB1.F                      9756.0000:   DEPTH DRILLED BIT 1
BHF .                              99:   FLUID CODE
DPT .                   Miscellaneous:   DRILLING FLUID TYPE
MUDD.                         11.7000:   FLUID DENSITY
MUDV.                         46.0000:   FLUID VISCOSITY
DFPH.                          6.5000:   FLUID PH
FL  .                          9.6500:   FLUID LOSS
RM  .OHMM                      1.3200:   RM
RMT .DEGF                     64.0000:   RM TEMP
RMF .OHMM                      1.1100:   RMF
RMFT.DEGF                     70.0000:   RMF TEMP
FSC .                               M:   RMF CODE
RMC .OHMM                      1.6200:   RMC
RMCT.DEGF                     65.0000:   RMC TEMP
CMC .                               M:   RMC CODE
TMAX.DEGF                    186.0000:   MAX REC TEMP
TIMC.                          6.5000:   TIME SINCE CIRCLN
~Curve Information Block
#MNEM.UNIT                    API CODE    No Description
#=========                    ========    == ===========
DEPT.F                   00 001 00 00:     1  DEPTH
DTL.US/F                             :     2  Sonic Transit Time (Slowness)
GR.GAPI                              :     3  Gamma Ray
ILD.OHMM                             :     4  Deep Induction Resistivity
ILM.OHMM                             :     5  Medium Induction Resistivity
SFL.OHMM                             :     6  Medium Resistivity
SP.MV                                :     7  Spontaneous Potential
~ASCII
# ...
 7140.0000   115.9000   102.2117      .7504      .7323      .7240   -45.3759
 7140.5000   116.7000    94.7920      .7507      .7372      .7350   -45.3781
 7141.0000   116.8999    93.9899      .7498      .7405      .7589   -45.3804
 7141.5000   116.2000    92.8356      .7482      .7408      .7693   -45.6326
 7142.0000   116.2999   100.2319      .7466      .7375      .7445   -45.6349
 7142.5000   116.8999   102.8700      .7448      .7315      .6970   -45.3871
 7143.0000   118.6000   105.5717      .7437      .7250      .6942   -44.6394
 7143.5000   119.5000   107.7386      .7425      .7208      .6777   -44.3917
 7144.0000   118.7999   106.5845      .7442      .7210      .6603   -44.1439
 7144.5000   117.7000   104.2344      .7478      .7264      .6712   -44.6462
 7145.0000   116.7999    99.9474      .7531      .7370      .7135   -44.6484
 7145.5000   115.0000    96.6497      .7605      .7512      .7534   -44.6507
 7146.0000   114.2999    94.8142      .7707      .7674      .7696   -45.4030
 7146.5000   114.1000    95.4738      .7850      .7834      .7745   -45.9052
 7147.0000   114.2000    95.4532      .7982      .7976      .8267   -46.1575
 7147.5000   113.7000    95.9479      .8081      .8087      .8180   -47.1597
 7148.0000   112.2999    93.6395      .8186      .8173      .8016   -47.1620
 7148.5000   112.1000    93.6600      .8293      .8247      .7893   -47.4142
 7149.0000   111.1000    94.4845      .8379      .8325      .8204   -46.1665
 7149.5000   110.2000    94.6283      .8446      .8412      .8692   -45.9188
 7150.0000   110.1000    95.1229      .8495      .8496      .8590   -46.4210
 7150.5000   108.6000    95.6176      .8502      .8551      .8630   -46.4233
 7151.0000   109.1000    93.0005      .8496      .8554      .8909   -46.1755
 7151.5000   110.1000    94.1331      .8480      .8500      .8562   -45.6778
 7152.0000   111.6000    94.6904      .8468      .8411      .8178   -44.9300
 7152.5000   111.6000    96.5042      .8462      .8319      .7675   -44.9323
 7153.0000   112.2000    98.1746      .8405      .8255      .8007   -44.4346
 7153.5000   112.0000    93.6600      .8341      .8226      .7883   -44.6868
 7154.0000   111.7999    94.1547      .8291      .8217      .8078   -44.4390
 7154.5000   112.3999    91.6603      .8216      .8196      .8355   -44.4413
 7155.0000   112.7000    90.8359      .8124      .8130      .8470   -44.9436
 7155.5000   113.7999    87.8679      .8018      .8002      .8365   -44.9458
 7156.0000   114.7000    89.0870      .7924      .7827      .7827   -44.9481
 7156.5000   117.0000    90.0571      .7845      .7646      .7269   -45.2004
 7157.0000   117.1000    98.7960      .7781      .7501      .6817   -44.7026
 7157.5000   116.5000   103.3689      .7692      .7419      .6799   -44.2049
 7158.0000   116.3999   109.1591      .7618      .7399      .6963   -43.9572
 7158.5000   116.3999   105.5316      .7584      .7424      .7185   -43.4594
 7159.0000   117.2000   100.2339      .7582      .7471      .7299   -44.2117
 7159.5000   116.7000    99.0797      .7609      .7524      .7520   -44.4639
 7160.0000   115.6000    97.5958      .7654      .7576      .7573   -44.9661
 7160.5000   114.6000    99.7579      .7717      .7625      .7661   -44.9684
 7161.0000   111.8999    99.5930      .7786      .7674      .7636   -44.4706
 7161.5000   110.2000   102.7258      .7828      .7724      .7735   -44.9730
 7162.0000   113.0000   102.3762      .7865      .7779      .7502   -44.9752
 7162.5000   114.2999    99.9030      .7890      .7834      .7395   -44.9775
 7163.0000   115.2999    95.7809      .7875      .7862      .8122   -44.4797
 7163.5000   116.3999    94.9790      .7839      .7828      .8986   -44.2320
 7164.0000   118.1000    98.4187      .7812      .7723      .7951   -44.2342
 7164.5000   118.7999    98.0890      .7823      .7585      .6755   -44.7365
 7165.0000   118.8999    97.5944      .7862      .7481      .6368   -44.9888
 7165.5000   117.3999    92.1760      .7850      .7462      .6935   -45.2410
 7166.0000   117.1000    95.1439      .7804      .7527      .7456   -45.2433
 7166.5000   116.2000    96.2756      .7797      .7631      .7919   -45.4955
 7167.0000   115.8999   103.7438      .7838      .7723      .7942   -45.7478
 7167.5000   114.7999   107.2063      .7883      .7777      .7791   -45.5001
 7168.0000   113.7000   108.3953      .7930      .7795      .7549   -45.7523
 7168.5000   114.5000   104.2247      .7925      .7788      .7833   -45.5046
 7169.0000   115.7000    97.7738      .7883      .7756      .7930   -45.5068
 7169.5000   117.0000    96.1128      .7862      .7698      .7885   -45.7591
 7170.0000   118.0000    93.3097      .7849      .7625      .7356   -45.5114
 7170.5000   116.7000    98.1118      .7822      .7563      .7162   -45.7636
 7171.0000   115.6000    98.4415      .7802      .7534      .7154   -45.0159
 7171.5000   116.9000   105.6721      .7770      .7542      .7337   -44.5181
 7172.0000   116.2000   100.5607      .7746      .7571      .7477   -44.5204
 7172.5000   117.0000   106.8263      .7758      .7599      .7740   -44.2726
 7173.0000   117.1000   103.0583      .7764      .7612      .7687   -44.2749
 7173.5000   116.7999   106.6631      .7771      .7606      .7536   -44.7771
 7174.0000   116.7999   103.8601      .7786      .7591      .7467   -44.7794
 7174.5000   116.7999   103.8601      .7781      .7579      .7407   -44.7817
 7175.0000   116.7000   105.6613      .7760      .7575      .7515   -44.5339
 7175.5000   116.1000   105.6613      .7746      .7577      .7645   -44.0362
 7176.0000   115.7000   108.4642      .7723      .7578      .7640   -44.7885
 7176.5000   115.2999   108.4757      .7693      .7569      .7584   -44.2907
 7177.0000   115.8999   107.6512      .7675      .7546      .7544   -44.5430
 7177.5000   116.6000   100.3964      .7642      .7508      .7415   -43.5452
 7178.0000   117.2999    96.2981      .7609      .7460      .7279   -43.0474
 7178.5000   117.8999    95.1205      .7584      .7413      .7161   -43.5497
 7179.0000   117.7999   101.7158      .7554      .7376      .7263   -43.3019
 7179.5000   117.2999   103.5295      .7532      .7356      .7332   -43.3043
 7180.0000   117.2000   103.0583      .7516      .7356      .7378   -43.0565
 7180.5000   117.7000   102.5270      .7488      .7365      .7300   -43.0588
 7181.0000   118.2999   104.5841      .7469      .7372      .7378   -43.3110
 7181.5000   117.7999   100.6270      .7430      .7360      .7543   -43.5633
 7182.0000   118.6000    97.8606      .7377      .7319      .7472   -43.3156
 7182.5000   119.2000    94.7631      .7349      .7249      .7181   -43.3177
 7183.0000   119.3999    97.0714      .7311      .7167      .6813   -43.3200
 7183.5000   118.5000   102.3231      .7266      .7092      .6819   -42.8223
 7184.0000   119.1000    99.0765      .7214      .7037      .6997   -42.8245
 7184.5000   118.7999    97.9222      .7158      .7001      .6997   -42.3268
 7185.0000   119.0000    94.1545      .7125      .6980      .6787   -42.8291
 7185.5000   119.4000    97.4523      .7131      .6972      .6707   -41.8314
 7186.0000   118.8999    93.8060      .7135      .6977      .6758   -41.5836
 7186.5000   118.0000    93.3114      .7141      .6996      .6919   -41.0859
 7187.0000   117.2000    94.4656      .7161      .7031      .7008   -41.0881
 7187.5000   116.7999    97.7820      .7204      .7079      .6980   -41.0904
 7188.0000   116.7000   102.0444      .7242      .7137      .6959   -41.5927
 7188.5000   116.6000   103.6932      .7276      .7201      .7139   -41.5949
 7189.0000   117.4000   102.0444      .7362      .7268      .6997   -42.0971
 7189.5000   117.6000    95.4736      .7474      .7343      .6865   -42.3494
 7190.0000   118.2999    90.0325      .7615      .7441      .6863   -42.3516
 7190.5000   117.4000    93.4728      .7783      .7588      .7382   -42.1039
 7191.0000   112.7000    94.4204      .7935      .7804      .7512   -42.1062
 7191.5000   109.7999    93.4261      .8071      .8077      .8563   -42.1085
