~VERSION INFORMATION
VERS.                             2.0:   CWLS Log ASCII Standard-VERSION 2.0
WRAP.                              NO:   One line per depth step
~Well Information Block
STRT.F                      3877.0000:   Top Depth
STOP.F                     10380.0000:   Bottom Depth
STEP.F                         .50000:   Depth Increment
NULL.                        -999.250:   Null Value
FLD .                      GA BLK 321:   Field Name
WELL.       OCSG11316   001 ST01 BP00:   NAME
API .                  42706402670100:   WELL API
EDF .F                        90.0000:   ELEV DRILL FLOOR
COMP.              SHELL OFFSHORE INC:   OPERATOR
BN  .                             321:   BLOCK
CTRY.                             USA:   COUNTRY NAME
CNTY.                        GLVSTN L:   COUNTY NAME
EKB .F                        91.0000:   ELEV KELLY BUSHING
TDD .F                      10395.000:   FINAL TD DRILLER
STAT.                           TEXAS:   STATE NAME
UWI .                  42706402670100:   WELL API
DICO.               IHS : Digitizing Company
~PARAMETER INFORMATION (zones)
#MNEM.UNIT                       Value     Description
#=========                       =====     ===========
#ZONATION                          DIL:   ZONATION NAME
#ZONE                            RUN_1:   ZONE NAME
TOP .                       3877.0000:   TOP DEPTH
BOT .                      10380.5000:   BOTTOM DEPTH
RUN .                               1:   RUN NUMBER
LCCD.                             280:   LOGGING CONTRACTOR
SRVC.                     Halliburton:   LOGGING CONT NAME
DICO.          QC Data Collectors Ltd:   DIG COMPANY NAME
LDAT.                      06/13/1990:   DATE LOGGED
ELD .F                        91.0000:   LOG DATUM ELEVATION
TDD .F                     10395.0000:   TOTAL DEPTH DRILLER
TDL .F                     10390.0000:   TOTAL DEPTH LOGGER
BOTL.F                     10380.0000:   BOTTOM DEPTH LOGGED
TOPL.F                      3954.0000:   TOP DEPTH LOGGED
CS1 .IN                       13.3750:   CASING SIZE 1
BS1 .IN                       12.2500:   BIT SIZE 1
DDB1.F                     10395.0000:   DEPTH DRILLED BIT 1
BHF .                              99:   FLUID CODE
DPT .                   Miscellaneous:   DRILLING FLUID TYPE
MUDD.                         13.4000:   FLUID DENSITY
MUDV.                         68.0000:   FLUID VISCOSITY
DFPH.                          9.0000:   FLUID PH
FL  .                          2.1000:   FLUID LOSS
RM  .OHMM                       .0700:   RM
RMT .DEGF                     77.0000:   RM TEMP
RMF .OHMM                       .0400:   RMF
RMFT.DEGF                     73.0000:   RMF TEMP
FSC .                               M:   RMF CODE
RMC .OHMM                       .1000:   RMC
RMCT.DEGF                     74.0000:   RMC TEMP
CMC .                               M:   RMC CODE
TMAX.DEGF                    209.0000:   MAX REC TEMP
TIMC.                         13.0000:   TIME SINCE CIRCLN
~Curve Information Block
#MNEM.UNIT                    API CODE    No Description
#=========                    ========    == ===========
DEPT.F                   00 001 00 00:     1  DEPTH
CALI.IN                              :     2  Caliper
DT.US/F                              :     3  Sonic Transit Time
GR.GAPI                              :     4  Gamma Ray
ILD.OHMM                             :     5  Deep Induction Resistivity
ILM.OHMM                             :     6  Medium Induction Resistivity
SFL.OHMM                             :     7  Medium Resistivity
SP.MV                                :     8  Spontaneous Potential
~ASCII
# ...
 7790.0000    16.3901   102.0492    66.7751      .7730      .7757     1.0171   -29.9879
 7790.5000    16.4449   104.0208    67.9974      .7429      .7426     1.0734   -30.0379
 7791.0000    16.4588   102.0895    68.0460      .7048      .7056     1.0650   -29.9515
 7791.5000    16.3633    99.4554    67.8478      .6821      .6795     1.0434   -29.8808
 7792.0000    16.2441    96.8562    67.8121      .7258      .6748     1.0275   -29.8607
 7792.5000    16.0858    94.5709    67.6954      .7763      .7110     1.0891   -29.8311
 7793.0000    15.9879    93.8870    67.2839      .8302      .7636     1.1025   -29.7977
 7793.5000    15.9450    93.6388    65.5209      .8879      .8239     1.0736   -29.6716
 7794.0000    16.0810    93.4784    62.6675      .9078      .8983     1.2634   -29.4969
 7794.5000    16.0739    94.9009    59.9745      .8556      .8412     1.3651   -29.3259
 7795.0000    15.9704    96.6953    58.1266      .7907      .7691     1.2867   -29.1574
 7795.5000    15.7638    98.4897    56.3898      .7141      .7136     1.2472   -29.0217
 7796.0000    15.5322   100.2736    55.6530      .6833      .6802     1.2197   -28.9388
 7796.5000    15.3454   101.0399    57.3083      .7105      .6973     1.1284   -28.9706
 7797.0000    15.3668    99.5493    59.4344      .7527      .7441      .8777   -29.0180
 7797.5000    15.4108    98.0592    61.8385      .7619      .7856      .7950   -29.0807
 7798.0000    15.4449    99.1979    63.6409      .7359      .7406      .8387   -28.8167
 7798.5000    15.4838   100.3325    64.7159      .7160      .6920      .9923   -28.4991
 7799.0000    15.4581   101.6549    64.2266      .6997      .6635     1.0838   -28.0531
 7799.5000    15.4404   103.2428    62.8828      .6821      .6347     1.1786   -27.6146
 7800.0000    15.4322   104.7047    61.5390      .6596      .6178     1.2726   -27.2041
 7800.5000    15.4414   105.7213    60.3195      .6363      .6107      .8011   -26.9661
 7801.0000    15.4554   106.1982    60.8758      .6298      .6146      .7248   -27.6199
 7801.5000    15.4809   106.2813    62.7317      .6504      .6371      .6459   -28.2724
 7802.0000    15.5075   106.8418    64.8844      .6861      .6659      .8952   -28.9611
 7802.5000    15.5356   107.3146    66.3071      .7265      .7057     1.0203   -29.6563
 7803.0000    15.5760   107.6223    66.6388      .7473      .7398     1.0735   -30.0274
 7803.5000    15.6191   107.5292    65.4072      .7607      .7276     1.1001   -30.0829
 7804.0000    15.6461   105.8300    64.1744      .7594      .7228     1.1290   -29.7219
 7804.5000    15.6581   104.4606    63.0673      .7574      .7454     1.1426   -29.0105
 7805.0000    15.6550   103.4856    62.2925      .7589      .7564     1.1195   -28.0398
 7805.5000    15.6461   102.5172    62.5900      .7423      .7026     1.0867   -27.0383
 7806.0000    15.6436   101.9238    63.2866      .7082      .6512      .9562   -26.3029
 7806.5000    15.7146   101.3276    63.8776      .7010      .6272      .8870   -26.4499
 7807.0000    15.7866   100.7187    64.3744      .7134      .7071      .8407   -27.0877
 7807.5000    15.8587   100.1475    64.4144      .7402      .7711      .7814   -27.7256
 7808.0000    15.9306    99.6914    64.1213      .7957      .8369      .9955   -28.1524
 7808.5000    16.0078    99.2723    63.7720      .8107      .8218     1.1653   -28.2579
 7809.0000    16.0522    98.8928    63.7042      .7441      .7363     1.1556   -28.1853
 7809.5000    16.0189    98.5287    63.7558      .6885      .6644     1.0523   -28.2921
 7810.0000    15.8790    98.1763    64.1049      .6841      .6235      .9563   -28.3958
 7810.5000    15.7630    98.3002    64.4061      .7300      .6801      .8307   -28.4936
 7811.0000    15.6598    98.4564    64.9874      .7645      .7303      .9154   -28.5469
 7811.5000    15.5777    98.3744    65.8779      .8007      .7536     1.0145   -28.8397
 7812.0000    15.5213    98.4456    67.7191      .8291      .7687     1.1298   -29.0613
 7812.5000    15.4897    98.9921    70.1794      .8228      .7830     1.1347   -29.1432
 7813.0000    15.4761    99.3746    68.7501      .8008      .7543     1.0340   -29.2429
 7813.5000    15.4754    99.1656    67.1736      .7772      .7175      .9742   -29.3518
 7814.0000    15.5637    98.4873    65.2000      .7518      .6903     1.2573   -29.4291
 7814.5000    15.5920    98.0525    62.3627      .7168      .6699      .9809   -29.4821
 7815.0000    15.5684    97.3931    60.6458      .6851      .6544      .9155   -29.5351
 7815.5000    15.5629    97.9801    58.7444      .6632      .6491      .9099   -29.5182
 7816.0000    15.5945    99.5814    56.5328      .6541      .6455      .9042   -29.4817
 7816.5000    15.7352   101.4900    55.0914      .6735      .6603      .9043   -29.4451
 7817.0000    16.0020   102.5233    54.5489      .7046      .6964      .9258   -29.3848
 7817.5000    16.3572   102.2544    55.4471      .7417      .7181      .9756   -29.3194
 7818.0000    16.6749   100.9930    56.6920      .7834      .7227     1.0348   -29.2540
 7818.5000    16.9142   100.2701    57.9368      .7973      .7184     1.1110   -29.2641
 7819.0000    16.8787   100.0146    59.1830      .7448      .7125     1.0883   -29.2863
 7819.5000    16.5829   100.4492    60.4198      .6979      .7040      .9347   -29.3085
 7820.0000    16.3518   101.1547    61.5724      .6974      .6822      .8054   -29.3302
 7820.5000    16.1746   101.9832    61.8285      .7212      .6711      .7572   -29.3520
 7821.0000    15.9887   102.1766    61.6622      .7369      .6608      .8412   -29.3628
 7821.5000    15.7721   101.3920    61.8161      .7361      .6567      .9335   -29.3322
 7822.0000    15.5630   100.6638    62.6836      .7352      .6610     1.0062   -29.3016
 7822.5000    15.3629   100.1769    64.4298      .7278      .6686     1.0070   -29.2710
 7823.0000    15.1859   100.3080    65.6506      .7180      .6900      .9679   -29.2784
 7823.5000    15.0393   100.5118    66.0179      .7053      .6880      .9431   -29.2965
 7824.0000    15.0566   100.6941    66.3566      .6986      .6734      .9545   -29.3145
 7824.5000    15.1296   100.7792    66.6888      .6954      .6549      .9839   -29.3326
 7825.0000    15.2030   100.7349    67.4945      .6963      .6395      .8900   -29.3975
 7825.5000    15.2766   100.6097    69.3745      .6971      .6265      .7849   -29.4641
 7826.0000    15.3478   100.7322    70.6569      .6963      .6184      .7159   -29.5228
 7826.5000    15.4162   100.9105    69.6714      .6955      .6400      .7303   -29.5104
 7827.0000    15.4778   101.3538    68.1979      .6922      .6710      .8364   -29.4981
 7827.5000    15.5345   101.7415    66.6467      .6870      .6914      .9084   -29.3130
 7828.0000    15.5812   102.0747    65.3457      .6848      .7001      .8523   -29.1024
 7828.5000    15.6186   102.4596    64.4944      .6874      .6892      .7983   -29.0164
 7829.0000    15.6309   102.8888    64.8638      .6871      .6700      .7552   -29.0503
 7829.5000    15.5941   103.3173    65.2728      .6839      .6512      .8258   -29.1236
 7830.0000    15.5524   103.5822    65.5521      .6792      .6265     1.0262   -29.2091
 7830.5000    15.5213   103.4111    65.5785      .6738      .6128      .9110   -29.3943
 7831.0000    15.5102   102.8754    65.5422      .6776      .6239      .9482   -29.5795
 7831.5000    15.5152   102.4012    65.8766      .6906      .6392      .9358   -29.7646
 7832.0000    15.5389   102.0358    66.5479      .7194      .6726      .9758   -29.7441
 7832.5000    15.5671   101.9567    66.3098      .7527      .7060     1.1680   -29.7157
 7833.0000    15.6039   102.1941    63.1943      .7886      .7434     1.1552   -29.6873
 7833.5000    15.7018   102.4314    61.0630      .7976      .7707     1.1314   -29.6313
 7834.0000    15.8073   102.5880    59.8127      .7789      .7700     1.1109   -29.5160
 7834.5000    15.9218   102.7317    60.4960      .7470      .7211     1.0907   -29.4006
 7835.0000    16.0676   102.5763    61.4507      .7176      .6739     1.0684   -29.2855
