~VERSION INFORMATION
VERS.                             2.0:   CWLS Log ASCII Standard-VERSION 2.0
WRAP.                              NO:   One line per depth step
~Well Information Block
STRT.F                      4470.0000:   Top Depth
STOP.F                     11800.5000:   Bottom Depth
STEP.F                         .50000:   Depth Increment
NULL.                        -999.250:   Null Value
FLD .                      GA BLK 315:   Field Name
WELL.       OCSG14835   001 ST00 BP00:   NAME
API .                  42706403880000:   WELL API
LOC .       993' FSL & 3018' FEL OF B:   AREA NAME
CTRY.                             USA:   COUNTRY
EGL .FT                      -66.0000:   GROUND LEVEL
EKB .FT                        0.0000:   KB ELEVATION
COMP.              APACHE CORPORATION:   OPERATOR
DREF.                             MSL:   PERM DATUM
COUN.                        OFFSHORE:   RIG NAME
STAT.                              TX:   STATE
CNTY.                        OFFSHORE:   COUNTY
DIGS.                   QC Data, Inc.:   DIG COMPANY NAME
EREF.FT                        0.0000:   ELEV DEPTH REFERENCE
UWI .                  42706403880000:   WELL API
DICO.               IHS : Digitizing Company
~PARAMETER INFORMATION (zones)
#MNEM.UNIT                       Value     Description
#=========                       =====     ===========
#ZONATION                        ZONES:   ZONATION NAME
#ZONE                             LAS1:   ZONE NAME
TOP .                       4470.0000:   TOP DEPTH
BOT .                      11816.0000:   BOTTOM DEPTH
SRVC.                   WESTERN ATLAS:   LOGGING CONTRACTOR
DATE.                         10AUG96:   RUN DATE
RW  .OHMM                      0.0000:   RW
RWT .DEGF                      0.0000:   RW TEMP
RUN .                               1:   LOG RUN
TDL .FT                     9298.0000:   FINAL TD LOGGER
TDD .FT                     9300.0000:   FINAL TD DRILLER
BOTL.FT                     9296.0000:   BOTTOM DEPTH LOGGED
TOPL.FT                     4478.0000:   TOP DEPTH LOGGED
CSGL.FT                     4494.0000:   CASING DEPTH LOGGER
CSGD.FT                     4488.0000:   CASING DEPTH DRILLER
CSGS.IN                       13.3750:   CASING SIZE
CSGW.                          0.0000:   CASING WEIGHT
BS  .IN                       12.2500:   BIT SIZE
MUD .                             MUD:   MUD TYPE
MUDD.                         14.2000:   MUD WEIGHT
MUDV.                         41.0000:   MUD VISCOSITY
FL  .                          4.4000:   FLUID LOSS
PH  .                          8.5000:   MUD PH
MUDS.                             PIT:   MUD SOURCE
RM  .OHMM                      1.3000:   RM
RMT .DEGF                     80.0000:   RM TEMP
RMF .OHMM                      0.5400:   RMF
RMFT.DEGF                     80.0000:   RMF TEMP
RMC .OHMM                      2.5000:   RMC
RMCT.DEGF                     80.0000:   RMC TEMP
MMFS.                            MEAS:   RMF SOURCE
MCFS.                            MEAS:   RMC SOURCE
RMBH.OHMM                      0.5500:   RM BH
BHT .DEGF                    182.0000:   BH TEMP
TMAX.DEGF                    182.0000:   MAX REC TEMP
SON .                          180318:   SERVICE ORDER NUM
ELMF.FT                       92.0000:   ABOVE PERM DATUM
LMF .                              DF:   LOGS MEAS FROM
DMF .                              DF:   DRILL MEAS FROM
TIMC.                            0600:   TIME SINCE CIRCLN
UNIT.8940                        8079:   UNIT NO.
BASE.                        PEARLAND:   LOG UNIT HOME BASE
ENG .                          SUTTON:   ENGINEER
WIT .                            DILL:   WITNESS
~PARAMETER INFORMATION (zones)
#MNEM.UNIT                       Value     Description
#=========                       =====     ===========
#ZONATION                        ZONES:   ZONATION NAME
#ZONE                             LAS2:   ZONE NAME
TOP .                       4470.0000:   TOP DEPTH
BOT .                      11816.0000:   BOTTOM DEPTH
SRVC.                   WESTERN ATLAS:   LOGGING CONTRACTOR
DATE.                         21AUG96:   RUN DATE
RW  .OHMM                      0.0000:   RW
RWT .DEGF                      0.0000:   RW TEMP
RUN .                               2:   LOG RUN
TDL .FT                    11503.0000:   FINAL TD LOGGER
TDD .FT                    11500.0000:   FINAL TD DRILLER
BOTL.FT                    11495.0000:   BOTTOM DEPTH LOGGED
TOPL.FT                     9240.0000:   TOP DEPTH LOGGED
CSGL.FT                     9240.0000:   CASING DEPTH LOGGER
CSGD.FT                     9250.0000:   CASING DEPTH DRILLER
CSGS.IN                        9.6250:   CASING SIZE
CSGW.                          0.0000:   CASING WEIGHT
BS  .IN                        8.5000:   BIT SIZE
MUD .                     DESCO LO-PH:   MUD TYPE
MUDD.                         16.4000:   MUD WEIGHT
MUDV.                         50.0000:   MUD VISCOSITY
FL  .                          2.8000:   FLUID LOSS
PH  .                          8.5000:   MUD PH
MUDS.                             PIT:   MUD SOURCE
RM  .OHMM                      1.0000:   RM
RMT .DEGF                     80.0000:   RM TEMP
RMF .OHMM                      0.4500:   RMF
RMFT.DEGF                     80.0000:   RMF TEMP
RMC .OHMM                      3.0000:   RMC
RMCT.DEGF                     80.0000:   RMC TEMP
MMFS.                            MEAS:   RMF SOURCE
MCFS.                            MEAS:   RMC SOURCE
RMBH.OHMM                      0.3870:   RM BH
BHT .DEGF                    230.0000:   BH TEMP
TMAX.DEGF                    230.0000:   MAX REC TEMP
SON .                          180319:   SERVICE ORDER NUM
ELMF.FT                       92.0000:   ABOVE PERM DATUM
LMF .                              DF:   LOGS MEAS FROM
DMF .                              DF:   DRILL MEAS FROM
TIMC.                            0700:   TIME SINCE CIRCLN
UNIT.8940                        8089:   UNIT NO.
BASE.                        PEARLAND:   LOG UNIT HOME BASE
ENG .                    SUTTON/DAVIS:   ENGINEER
WIT .                      MR.CAMBELL:   WITNESS
~PARAMETER INFORMATION (zones)
#MNEM.UNIT                       Value     Description
#=========                       =====     ===========
#ZONATION                        ZONES:   ZONATION NAME
#ZONE                             LAS3:   ZONE NAME
TOP .                       4470.0000:   TOP DEPTH
BOT .                      11816.0000:   BOTTOM DEPTH
SRVC.                   WESTERN ATLAS:   LOGGING CONTRACTOR
DATE.                         23AUG96:   RUN DATE
RW  .OHMM                      0.0000:   RW
RWT .DEGF                      0.0000:   RW TEMP
RUN .                               3:   LOG RUN
TDL .FT                    11800.0000:   FINAL TD LOGGER
TDD .FT                    11800.0000:   FINAL TD DRILLER
BOTL.FT                    11791.0000:   BOTTOM DEPTH LOGGED
TOPL.FT                     9240.0000:   TOP DEPTH LOGGED
CSGL.FT                     9240.0000:   CASING DEPTH LOGGER
CSGD.FT                     9250.0000:   CASING DEPTH DRILLER
CSGS.IN                        9.6250:   CASING SIZE
CSGW.                          0.0000:   CASING WEIGHT
BS  .IN                        8.5000:   BIT SIZE
MUD .                     DESCO LO-PH:   MUD TYPE
MUDD.                         16.4000:   MUD WEIGHT
MUDV.                         50.0000:   MUD VISCOSITY
FL  .                          2.8000:   FLUID LOSS
PH  .                          8.5000:   MUD PH
MUDS.                             PIT:   MUD SOURCE
RM  .OHMM                      1.0000:   RM
RMT .DEGF                     80.0000:   RM TEMP
RMF .OHMM                      0.4500:   RMF
RMFT.DEGF                     80.0000:   RMF TEMP
RMC .OHMM                      3.0000:   RMC
RMCT.DEGF                     80.0000:   RMC TEMP
MMFS.                            MEAS:   RMF SOURCE
MCFS.                            MEAS:   RMC SOURCE
RMBH.OHMM                      0.3870:   RM BH
BHT .DEGF                    232.0000:   BH TEMP
TMAX.DEGF                    232.0000:   MAX REC TEMP
SON .                          180319:   SERVICE ORDER NUM
ELMF.FT                       92.0000:   ABOVE PERM DATUM
LMF .                              DF:   LOGS MEAS FROM
DMF .                              DF:   DRILL MEAS FROM
TIMC.                            0700:   TIME SINCE CIRCLN
UNIT.8940                        8089:   UNIT NO.
BASE.                        PEARLAND:   LOG UNIT HOME BASE
ENG .                    SUTTON/DAVIS:   ENGINEER
WIT .                      BOB SHELBY:   WITNESS
~Curve Information Block
#MNEM.UNIT                    API CODE    No Description
#=========                    ========    == ===========
DEPT.F                   00 001 00 00:     1  DEPTH
CALX.IN                              :     2  Caliper
CNCF.%                               :     3  Field Normalized CNC
DT.US/F                              :     4  Sonic Transit Time
GR.GAPI                              :     5  Gamma Ray
M2R1.OHMM                            :     6  Array Resistivity Curve
M2R2.OHMM                            :     7  Array Resistivity Curve
M2R3.OHMM                            :     8  Array Resistivity Curve
M2R6.OHMM                            :     9  Array Resistivity Curve
M2R9.OHMM                            :    10  Array Resistivity Curve
M2RX.OHMM                            :    11  Array Resistivity Curve
PORZ.%                               :    12  PORZ
RFOC.OHMM                            :    13  Medium Resistivity
RILD.OHMM                            :    14  Deep Resistivity
RILM.OHMM                            :    15  Medium Resistivity
RWAA.OHMM                            :    16  RWAA
RWAZ.OHMM                            :    17  RWAZ
SP.MV                                :    18  Spontaneous Potential
TEN.LB                               :    19  TEN
ZCOR.G/CC                            :    20  Density Correction
~ASCII
# ...
11259.5000     9.3040    31.5840   114.6140    56.3650      .6920      .6470      .6180      .6130      .6110      .6130    15.5200  -999.2500  -999.2500  -999.2500      .1020      .0180     2.2060   -15.3160     -.0110
11260.0000     9.3050    31.7860   116.0860    57.7190      .6730      .6290      .6020      .5980      .5950      .5960    15.9030  -999.2500  -999.2500  -999.2500      .1050      .0180     2.0300   -17.1810     -.0100
11260.5000     9.2980    31.3240   114.4000    58.1900      .6760      .6280      .5990      .5950      .5930      .5940    15.7640  -999.2500  -999.2500  -999.2500      .0980      .0180     2.1230   -18.0360     -.0050
11261.0000     9.2840    30.9370   112.4830    59.0120      .6850      .6290      .5990      .5940      .5910      .5920    15.5050  -999.2500  -999.2500  -999.2500      .0910      .0170     2.3360   -17.6930     -.0040
11261.5000     9.2700    31.0130   112.0780    59.0490      .6820      .6240      .5940      .5880      .5850      .5860    15.4450  -999.2500  -999.2500  -999.2500      .0890      .0170     2.2130   -18.7300     -.0070
11262.0000     9.2620    31.4740   113.3060    58.9660      .6620      .6090      .5820      .5750      .5710      .5720    15.6460  -999.2500  -999.2500  -999.2500      .0910      .0170     1.8900   -21.2560     -.0050
11262.5000     9.2590    32.0340   115.4210    60.2000      .6330      .5880      .5640      .5570      .5530      .5540    15.8920  -999.2500  -999.2500  -999.2500      .0950      .0170     1.9030   -21.8940      .0030
11263.0000     9.2560    32.6340   117.4790    61.6720      .6130      .5730      .5510      .5440      .5410      .5420    16.0150  -999.2500  -999.2500  -999.2500      .1000      .0170     2.1540   -20.0900      .0130
11263.5000     9.2550    33.2550   118.4700    62.0950      .6060      .5690      .5470      .5410      .5380      .5390    15.9520  -999.2500  -999.2500  -999.2500      .1030      .0170     2.0310   -17.9050      .0160
11264.0000     9.2620    33.6730   118.1610    62.1230      .6060      .5680      .5470      .5420      .5390      .5390    15.7850  -999.2500  -999.2500  -999.2500      .1020      .0160     1.5600   -17.1920      .0130
11264.5000     9.2800    33.5200   118.1470    62.3380      .6050      .5640      .5430      .5380      .5340      .5350    15.7390  -999.2500  -999.2500  -999.2500      .1010      .0160     1.3900   -18.0650      .0080
11265.0000     9.3000    33.6110   118.6550    63.8000      .6000      .5560      .5350      .5280      .5240      .5230    15.9980  -999.2500  -999.2500  -999.2500      .1000      .0160     1.6810   -20.4990      .0040
11265.5000     9.3090    33.9540   118.7420    66.2530      .5970      .5500      .5270      .5200      .5140      .5130    16.3910  -999.2500  -999.2500  -999.2500      .0990      .0170     1.9010   -24.6110      .0010
11266.0000     9.3080    34.0090   118.5900    66.9920      .6010      .5540      .5290      .5210      .5160      .5140    16.5580  -999.2500  -999.2500  -999.2500      .0980      .0170     1.5700   -27.9020      .0020
11266.5000     9.3040    33.9950   117.6730    64.4360      .6150      .5680      .5430      .5350      .5300      .5290    16.3840  -999.2500  -999.2500  -999.2500      .0980      .0170     1.0330   -25.1430      .0050
11267.0000     9.3000    33.6330   116.3250    61.2040      .6340      .5870      .5610      .5540      .5500      .5500    16.1070  -999.2500  -999.2500  -999.2500      .0970      .0180      .9860   -17.0460      .0010
11267.5000     9.2970    32.9460   115.7760    60.4690      .6420      .5950      .5700      .5630      .5590      .5600    16.0640  -999.2500  -999.2500  -999.2500      .0970      .0180     1.3840   -11.5610     -.0070
11268.0000     9.2990    32.3800   115.8330    61.8720      .6370      .5900      .5660      .5590      .5550      .5550    16.2130  -999.2500  -999.2500  -999.2500      .0960      .0180     1.7690   -11.3140     -.0130
11268.5000     9.3020    32.4150   116.2850    62.0700      .6290      .5840      .5600      .5530      .5490      .5480    16.1520  -999.2500  -999.2500  -999.2500      .0970      .0180     2.0780    -9.9900     -.0090
11269.0000     9.3040    32.8900   116.9420    59.8000      .6260      .5830      .5590      .5530      .5480      .5460    15.8570  -999.2500  -999.2500  -999.2500      .0990      .0170     2.3220    -6.1550      .0010
11269.5000     9.3040    33.1190   116.9370    57.5670      .6290      .5850      .5600      .5550      .5510      .5490    15.7280  -999.2500  -999.2500  -999.2500      .0990      .0170     2.2070    -5.2300      .0050
11270.0000     9.3080    32.7960   116.2830    56.7990      .6320      .5860      .5600      .5560      .5530      .5520    15.7590  -999.2500  -999.2500  -999.2500      .0970      .0170     1.6800    -9.1300      .0000
11270.5000     9.3200    32.4230   115.9730    56.2070      .6350      .5880      .5620      .5580      .5550      .5550    15.5850  -999.2500  -999.2500  -999.2500      .0970      .0160     1.1790   -15.4160     -.0030
11271.0000     9.3340    32.6030   116.3490    56.5550      .6330      .5860      .5610      .5560      .5530      .5530    15.3250  -999.2500  -999.2500  -999.2500      .0980      .0160      .9690   -22.9630      .0010
11271.5000     9.3430    33.3720   117.0990    58.8060      .6220      .5760      .5510      .5430      .5400      .5400    15.5300  -999.2500  -999.2500  -999.2500      .0980      .0160      .8870   -30.3540      .0010
11272.0000     9.3490    34.1800   118.1370    60.3740      .6070      .5630      .5370      .5280      .5230      .5220    16.2450  -999.2500  -999.2500  -999.2500      .0980      .0170      .9030   -34.7400      .0000
11272.5000     9.3490    34.6850   119.0010    60.5020      .5960      .5530      .5270      .5170      .5110      .5100    16.8560  -999.2500  -999.2500  -999.2500      .0990      .0180     1.0940   -34.4750      .0060
11273.0000     9.3460    34.7560   119.0390    60.7710      .5870      .5450      .5210      .5110      .5050      .5030    16.9900  -999.2500  -999.2500  -999.2500      .0980      .0180     1.2480   -28.5150      .0120
11273.5000     9.3430    34.6060   119.1070    62.2360      .5800      .5380      .5160      .5070      .5020      .5000    16.7820  -999.2500  -999.2500  -999.2500      .0970      .0170     1.2390   -17.4210      .0110
11274.0000     9.3440    34.6530   120.1880    64.2590      .5700      .5290      .5100      .5020      .4970      .4950    16.5030  -999.2500  -999.2500  -999.2500      .1000      .0170     1.3450    -5.6930      .0080
11274.5000     9.3440    34.9690   121.1210    65.5000      .5630      .5210      .5020      .4940      .4890      .4870    16.4780  -999.2500  -999.2500  -999.2500      .1010      .0160     1.6480    -1.0090      .0070
11275.0000     9.3430    35.1900   120.5970    64.8250      .5670      .5230      .5020      .4940      .4890      .4870    16.7370  -999.2500  -999.2500  -999.2500      .1000      .0170     1.8080    -6.1990      .0010
11275.5000     9.3370    34.8900   118.8630    63.6260      .5930      .5460      .5210      .5130      .5080      .5060    16.7780  -999.2500  -999.2500  -999.2500      .0980      .0180     1.6580   -14.5090     -.0060
11276.0000     9.3320    34.2560   116.3640    63.1680      .6360      .5860      .5570      .5490      .5450      .5440    16.4040  -999.2500  -999.2500  -999.2500      .0960      .0180     1.4680   -18.5890     -.0100
11276.5000     9.3300    33.7790   114.6290    62.9610      .6710      .6170      .5850      .5770      .5730      .5730    16.0520  -999.2500  -999.2500  -999.2500      .0950      .0180     1.3960   -17.1280     -.0090
11277.0000     9.3300    33.6910   114.9700    62.8200      .6690      .6130      .5830      .5740      .5700      .5700    15.9150  -999.2500  -999.2500  -999.2500      .0960      .0180     1.2130   -12.9710      .0000
11277.5000     9.3330    33.9100   116.6420    62.7010      .6430      .5910      .5630      .5540      .5500      .5490    15.8520  -999.2500  -999.2500  -999.2500      .0980      .0170      .8310    -8.9210      .0090
