~VERSION INFORMATION
VERS.                             2.0:   CWLS Log ASCII Standard-VERSION 2.0
WRAP.                              NO:   One line per depth step
~Well Information Block
STRT.F                      3732.0000:   Top Depth
STOP.F                      8303.0000:   Bottom Depth
STEP.F                         .50000:   Depth Increment
NULL.                        -999.250:   Null Value
FLD .                      BA BLK 415:   Field Name
WELL.       OCSG11271   001 ST00 BP00:   NAME
API .                  42704402170000:   WELL API
EDF .F                       100.0000:   ELEV DRILL FLOOR
COMP.                     APACHE CORP:   OPERATOR
BN  .                             415:   BLOCK
CTRY.                             USA:   COUNTRY NAME
CNTY.                        BRAZOS L:   COUNTY NAME
EGL .F                       -78.0000:   ELEV GROUND LEVEL
EKB .F                       101.0000:   ELEV KELLY BUSHING
TDD .F                       8311.000:   FINAL TD DRILLER
STAT.                           TEXAS:   STATE NAME
UWI .                  42704402170000:   WELL API
DICO.               IHS : Digitizing Company
~PARAMETER INFORMATION (zones)
#MNEM.UNIT                       Value     Description
#=========                       =====     ===========
#ZONATION                          CNL:   ZONATION NAME
#ZONE                            RUN_1:   ZONE NAME
TOP .                       5274.0000:   TOP DEPTH
BOT .                       8300.5000:   BOTTOM DEPTH
RUN .                               1:   RUN NUMBER
LCCD.                              99:   LOGGING CONTRACTOR
DICO.          QC Data Collectors Ltd:   DIG COMPANY NAME
LDAT.                      08/26/1990:   DATE LOGGED
ELD .F                       101.0000:   LOG DATUM ELEVATION
TDD .F                      8311.0000:   TOTAL DEPTH DRILLER
TDL .F                      8306.0000:   TOTAL DEPTH LOGGER
BOTL.F                      8303.0000:   BOTTOM DEPTH LOGGED
TOPL.F                      5257.0000:   TOP DEPTH LOGGED
CS1 .IN                       10.7500:   CASING SIZE 1
BS1 .IN                        9.8750:   BIT SIZE 1
DDB1.F                      8311.0000:   DEPTH DRILLED BIT 1
BHF .                              99:   FLUID CODE
DPT .                   Miscellaneous:   DRILLING FLUID TYPE
MUDD.                         10.0000:   FLUID DENSITY
MUDV.                         43.0000:   FLUID VISCOSITY
DFPH.                          8.1000:   FLUID PH
FL  .                          3.2000:   FLUID LOSS
RM  .OHMM                       .8800:   RM
RMT .DEGF                     75.0000:   RM TEMP
RMF .OHMM                       .7000:   RMF
RMFT.DEGF                     75.0000:   RMF TEMP
FSC .                               C:   RMF CODE
RMC .OHMM                       .9600:   RMC
RMCT.DEGF                     75.0000:   RMC TEMP
CMC .                               C:   RMC CODE
TMAX.DEGF                    166.0000:   MAX REC TEMP
TIMC.                         10.0000:   TIME SINCE CIRCLN
~PARAMETER INFORMATION (zones)
#MNEM.UNIT                       Value     Description
#=========                       =====     ===========
#ZONATION                          DIL:   ZONATION NAME
#ZONE                            RUN_1:   ZONE NAME
TOP .                       3732.0000:   TOP DEPTH
BOT .                       8303.5000:   BOTTOM DEPTH
RUN .                               1:   RUN NUMBER
LCCD.                              99:   LOGGING CONTRACTOR
DICO.          QC Data Collectors Ltd:   DIG COMPANY NAME
LDAT.                      08/26/1990:   DATE LOGGED
ELD .F                       101.0000:   LOG DATUM ELEVATION
TDD .F                      8311.0000:   TOTAL DEPTH DRILLER
TDL .F                      8306.0000:   TOTAL DEPTH LOGGER
BOTL.F                      8303.0000:   BOTTOM DEPTH LOGGED
TOPL.F                      3786.0000:   TOP DEPTH LOGGED
CS1 .IN                       10.7500:   CASING SIZE 1
BS1 .IN                        9.8750:   BIT SIZE 1
DDB1.F                      8311.0000:   DEPTH DRILLED BIT 1
BHF .                              99:   FLUID CODE
DPT .                   Miscellaneous:   DRILLING FLUID TYPE
MUDD.                         10.0000:   FLUID DENSITY
MUDV.                         43.0000:   FLUID VISCOSITY
DFPH.                          8.1000:   FLUID PH
FL  .                          3.2000:   FLUID LOSS
RM  .OHMM                       .8800:   RM
RMT .DEGF                     75.0000:   RM TEMP
RMF .OHMM                       .7000:   RMF
RMFT.DEGF                     75.0000:   RMF TEMP
FSC .                               C:   RMF CODE
RMC .OHMM                       .9600:   RMC
RMCT.DEGF                     75.0000:   RMC TEMP
CMC .                               C:   RMC CODE
TMAX.DEGF                    166.0000:   MAX REC TEMP
TIMC.                          6.0000:   TIME SINCE CIRCLN
~PARAMETER INFORMATION (zones)
#MNEM.UNIT                       Value     Description
#=========                       =====     ===========
#ZONATION                          FDC:   ZONATION NAME
#ZONE                            RUN_1:   ZONE NAME
TOP .                       5263.0000:   TOP DEPTH
BOT .                       8303.5000:   BOTTOM DEPTH
RUN .                               1:   RUN NUMBER
LCCD.                              99:   LOGGING CONTRACTOR
DICO.          QC Data Collectors Ltd:   DIG COMPANY NAME
LDAT.                      08/26/1990:   DATE LOGGED
ELD .F                       101.0000:   LOG DATUM ELEVATION
TDD .F                      8311.0000:   TOTAL DEPTH DRILLER
TDL .F                      8306.0000:   TOTAL DEPTH LOGGER
BOTL.F                      8303.0000:   BOTTOM DEPTH LOGGED
TOPL.F                      5257.0000:   TOP DEPTH LOGGED
CS1 .IN                       10.7500:   CASING SIZE 1
BS1 .IN                        9.8750:   BIT SIZE 1
DDB1.F                      8311.0000:   DEPTH DRILLED BIT 1
BHF .                              99:   FLUID CODE
DPT .                   Miscellaneous:   DRILLING FLUID TYPE
MUDD.                         10.0000:   FLUID DENSITY
MUDV.                         43.0000:   FLUID VISCOSITY
DFPH.                          8.1000:   FLUID PH
FL  .                          3.2000:   FLUID LOSS
RM  .OHMM                       .8800:   RM
RMT .DEGF                     75.0000:   RM TEMP
RMF .OHMM                       .7000:   RMF
RMFT.DEGF                     75.0000:   RMF TEMP
FSC .                               C:   RMF CODE
RMC .OHMM                       .9600:   RMC
RMCT.DEGF                     75.0000:   RMC TEMP
CMC .                               C:   RMC CODE
TMAX.DEGF                    166.0000:   MAX REC TEMP
TIMC.                         10.0000:   TIME SINCE CIRCLN
~Curve Information Block
#MNEM.UNIT                    API CODE    No Description
#=========                    ========    == ===========
DEPT.F                   00 001 00 00:     1  DEPTH
NPHI.%                               :     2  Neutron Porosity
CALI.IN                              :     3  Caliper
DT.US/F                              :     4  Sonic Transit Time
GR.GAPI                              :     5  Gamma Ray
ILD.OHMM                             :     6  Deep Induction Resistivity
ILM.OHMM                             :     7  Medium Induction Resistivity
RFOC.OHMM                            :     8  Medium Resistivity
SP.MV                                :     9  Spontaneous Potential
CALI.IN                              :    10  Caliper
DPHI.%                               :    11  Porosity
DRHO.G/C3                            :    12  Bulk Density Correction
GR.GAPI                              :    13  Gamma Ray
RHOB.G/C3                            :    14  Bulk Density
~ASCII
# ...
 6774.0000    36.8660  -999.2500   113.9924    84.8347      .8433      .8576      .9284   -47.7137    11.0077  -999.2500      .0526    93.0300     2.3480
 6774.5000    36.7972  -999.2500   114.7069    84.0004      .8513      .8717      .9208   -47.4250    11.0135  -999.2500      .0474    93.1138     2.3510
 6775.0000    37.0627  -999.2500   113.7847    80.7711      .8594      .8843      .9164   -46.7112    11.0211  -999.2500      .0454    94.7782     2.3424
 6775.5000    37.5068  -999.2500   112.0898    78.1949      .8676      .8885      .9137   -46.0319    11.0396  -999.2500      .0482    95.6436     2.3294
 6776.0000    37.7341  -999.2500   110.7982    76.7086      .8760      .8928      .9250   -45.6765    11.0612  -999.2500      .0551    93.7318     2.3217
 6776.5000    37.8057  -999.2500   110.4363    79.0710      .8844      .8959      .9394   -46.0574    11.0677  -999.2500      .0634    92.5146     2.3193
 6777.0000    37.9005  -999.2500   110.9688    82.1426      .8919      .8983      .9534   -47.1994    11.0728  -999.2500      .0510    91.9073     2.3185
 6777.5000    38.0331  -999.2500   111.7043    84.1777      .8955      .9007      .9676   -48.4021    11.0685  -999.2500      .0377    91.9631     2.3225
 6778.0000    37.9540  -999.2500   111.4862    84.7233      .8992      .9025      .9610   -48.7266    11.0643  -999.2500      .0331    93.1884     2.3265
 6778.5000    37.2920  -999.2500   110.8680    84.4169      .9023      .9037      .9517   -48.4484    11.0569  -999.2500      .0399    93.3086     2.3254
 6779.0000    36.6833  -999.2500   111.4796    85.8895      .9036      .9049      .9385   -47.8278    11.0485  -999.2500      .0471    92.9949     2.3233
 6779.5000    36.3686  -999.2500   113.8788    87.2362      .9049      .9061      .9233   -46.9491    11.0414  -999.2500      .0537    93.3865     2.3216
 6780.0000    36.2083  -999.2500   115.1646    87.4723      .9060      .9079      .9102   -46.2549    11.0425  -999.2500      .0541    94.8721     2.3199
 6780.5000    35.1630  -999.2500   115.5295    88.8254      .9046      .9096      .8986   -45.7158    11.0437  -999.2500      .0538    93.7513     2.3169
 6781.0000    34.1505  -999.2500   115.7399    90.1096      .9032      .9114      .8944   -45.6821    11.0449  -999.2500      .0528    91.9764     2.3129
 6781.5000    33.7026  -999.2500   115.2672    88.0836      .9018      .9106      .8901   -46.0261    11.0460  -999.2500      .0537    91.1561     2.3123
 6782.0000    34.0294  -999.2500   114.0957    86.7030      .9029      .9090      .8963   -46.9765    11.0472  -999.2500      .0555    91.4604     2.3213
 6782.5000    34.3516  -999.2500   112.2898    87.1378      .9047      .9074      .9046   -48.0168    11.0484  -999.2500      .0581    92.8887     2.3350
 6783.0000    34.3386  -999.2500   110.7021    87.0980      .9064      .9097      .9128   -48.8408    11.0295  -999.2500      .0597    94.8643     2.3476
 6783.5000    34.3941  -999.2500   109.5392    86.2115      .9087      .9126      .9204   -48.9989    11.0041  -999.2500      .0582    98.3854     2.3549
 6784.0000    34.9711  -999.2500   109.1403    85.2406      .9117      .9161      .9282   -48.7580    10.9781  -999.2500      .0570    99.8618     2.3568
 6784.5000    35.5303  -999.2500   109.1504    85.6249      .9147      .9208      .9328   -48.4568    10.9558  -999.2500      .0560    97.0405     2.3538
 6785.0000    35.9135  -999.2500   109.5415    86.3470      .9172      .9255      .9357   -48.6414    10.9497  -999.2500      .0560    93.8999     2.3503
 6785.5000    35.7759  -999.2500   109.9200    86.8164      .9185      .9297      .9300   -49.2668    10.9437  -999.2500      .0565    92.8339     2.3481
 6786.0000    35.2995  -999.2500   110.0922    87.0459      .9198      .9316      .9237   -49.8948    10.9392  -999.2500      .0591    92.1049     2.3521
 6786.5000    35.5405  -999.2500   110.2007    86.6665      .9209      .9334      .9239   -50.1576    10.9349  -999.2500      .0662    91.4500     2.3613
 6787.0000    35.8630  -999.2500   110.0181    83.4176      .9199      .9352      .9412   -49.4418    10.9338  -999.2500      .0719    90.9609     2.3696
 6787.5000    35.8894  -999.2500   109.2948    82.0148      .9189      .9278      .9654   -48.1172    10.9350  -999.2500      .0734    90.8544     2.3729
 6788.0000    35.5248  -999.2500   108.4238    84.4736      .9174      .9184      .9815   -47.1134    10.9374  -999.2500      .0603    91.8669     2.3704
 6788.5000    35.6397  -999.2500   108.2981    87.2766      .9134      .9099      .9721   -46.6124    10.9429  -999.2500      .0524    93.3057     2.3663
 6789.0000    37.0307  -999.2500   108.3141    87.2323      .9089      .9039      .9561   -46.6323    10.9392  -999.2500      .0496    93.8394     2.3633
 6789.5000    37.9279  -999.2500   107.3047    86.1007      .8992      .8977      .9635   -47.3813    10.9201  -999.2500      .0469    94.3247     2.3618
 6790.0000    37.7000  -999.2500   107.3517    86.3301      .8896      .8904      .9910   -48.1890    10.8988  -999.2500      .0471    94.8643     2.3597
 6790.5000    35.4459  -999.2500   108.3918    87.5009      .8774      .8822      .9984   -48.5589    10.8757  -999.2500      .0484    95.9901     2.3619
 6791.0000    32.6954  -999.2500   109.2151    87.1593      .8653      .8687      .9678   -48.4001    10.8609  -999.2500      .0503    95.9615     2.3734
 6791.5000    31.2258  -999.2500   110.2092    81.2091      .8532      .8560      .9380   -47.7216    10.8555  -999.2500      .0557    93.1624     2.3762
 6792.0000    34.2042  -999.2500   106.3024    79.3578      .8413      .8439      .9363   -47.0977    10.8575  -999.2500      .0614    91.1229     2.3666
 6792.5000    36.5631  -999.2500   103.7883    78.7947      .8288      .8365      .9850   -46.8093    10.8658  -999.2500      .0669    90.6588     2.3525
 6793.0000    37.0209  -999.2500   103.6915    81.1205      .8183      .8302     1.0035   -47.1534    10.8746  -999.2500      .0691    89.7063     2.3482
 6793.5000    36.8054  -999.2500   106.8461    84.3068      .8209      .8355      .9557   -47.4677    10.8832  -999.2500      .0686    86.9071     2.3468
 6794.0000    35.2180  -999.2500   112.1801    86.4423      .8250      .8432      .9129   -47.4582    10.8897  -999.2500      .0665    85.7239     2.3523
 6794.5000    34.4924  -999.2500   113.9036    85.7043      .8359      .8542      .8993   -47.2894    10.8977  -999.2500      .0628    89.9878     2.3616
 6795.0000    35.8244  -999.2500   114.0680    85.2422      .8470      .8690      .9244   -47.6895    10.9065  -999.2500      .0613    94.6896     2.3669
 6795.5000    37.0621  -999.2500   112.9758    87.1984      .8556      .8842      .9702   -47.8570    10.9201  -999.2500      .0617    96.7200     2.3663
 6796.0000    39.2272  -999.2500   111.6267    89.0405      .8628      .8976      .9925   -47.6459    10.9402  -999.2500      .0572    96.3967     2.3553
 6796.5000    39.7939  -999.2500   111.5842    88.5256      .8700      .9067      .9814   -47.0156    10.9746  -999.2500      .0540    93.5428     2.3460
 6797.0000    39.2861  -999.2500   113.0608    88.9714      .8752      .9158      .9690   -46.4315    11.0077  -999.2500      .0537    91.3972     2.3429
 6797.5000    37.2363  -999.2500   115.0470    91.6024      .8804      .9236      .9511   -45.9374    11.0352  -999.2500      .0568    91.5243     2.3491
 6798.0000    35.8129  -999.2500   116.5132    92.3560      .8862      .9303      .9330   -45.4991    11.0626  -999.2500      .0588    92.7101     2.3640
 6798.5000    35.7720  -999.2500   116.6451    90.4447      .8924      .9370      .9205   -45.4933    11.0536  -999.2500      .0604    93.6641     2.3742
 6799.0000    36.0595  -999.2500   115.3057    89.3762      .8990      .9412      .9221   -45.5577    11.0430  -999.2500      .0618    94.3606     2.3775
 6799.5000    35.7484  -999.2500   113.4541    90.4133      .9081      .9449      .9375   -45.5975    11.0278  -999.2500      .0644    94.8518     2.3753
