~VERSION INFORMATION
VERS.                             2.0:   CWLS Log ASCII Standard-VERSION 2.0
WRAP.                              NO:   One line per depth step
~Well Information Block
STRT.F                      3732.0000:   Top Depth
STOP.F                      8303.0000:   Bottom Depth
STEP.F                         .50000:   Depth Increment
NULL.                        -999.250:   Null Value
FLD .                      BA BLK 415:   Field Name
WELL.       OCSG11271   001 ST00 BP00:   NAME
API .                  42704402170000:   WELL API
EDF .F                       100.0000:   ELEV DRILL FLOOR
COMP.                     APACHE CORP:   OPERATOR
BN  .                             415:   BLOCK
CTRY.                             USA:   COUNTRY NAME
CNTY.                        BRAZOS L:   COUNTY NAME
EGL .F                       -78.0000:   ELEV GROUND LEVEL
EKB .F                       101.0000:   ELEV KELLY BUSHING
TDD .F                       8311.000:   FINAL TD DRILLER
STAT.                           TEXAS:   STATE NAME
UWI .                  42704402170000:   WELL API
DICO.               IHS : Digitizing Company
~PARAMETER INFORMATION (zones)
#MNEM.UNIT                       Value     Description
#=========                       =====     ===========
#ZONATION                          CNL:   ZONATION NAME
#ZONE                            RUN_1:   ZONE NAME
TOP .                       5274.0000:   TOP DEPTH
BOT .                       8300.5000:   BOTTOM DEPTH
RUN .                               1:   RUN NUMBER
LCCD.                              99:   LOGGING CONTRACTOR
DICO.          QC Data Collectors Ltd:   DIG COMPANY NAME
LDAT.                      08/26/1990:   DATE LOGGED
ELD .F                       101.0000:   LOG DATUM ELEVATION
TDD .F                      8311.0000:   TOTAL DEPTH DRILLER
TDL .F                      8306.0000:   TOTAL DEPTH LOGGER
BOTL.F                      8303.0000:   BOTTOM DEPTH LOGGED
TOPL.F                      5257.0000:   TOP DEPTH LOGGED
CS1 .IN                       10.7500:   CASING SIZE 1
BS1 .IN                        9.8750:   BIT SIZE 1
DDB1.F                      8311.0000:   DEPTH DRILLED BIT 1
BHF .                              99:   FLUID CODE
DPT .                   Miscellaneous:   DRILLING FLUID TYPE
MUDD.                         10.0000:   FLUID DENSITY
MUDV.                         43.0000:   FLUID VISCOSITY
DFPH.                          8.1000:   FLUID PH
FL  .                          3.2000:   FLUID LOSS
RM  .OHMM                       .8800:   RM
RMT .DEGF                     75.0000:   RM TEMP
RMF .OHMM                       .7000:   RMF
RMFT.DEGF                     75.0000:   RMF TEMP
FSC .                               C:   RMF CODE
RMC .OHMM                       .9600:   RMC
RMCT.DEGF                     75.0000:   RMC TEMP
CMC .                               C:   RMC CODE
TMAX.DEGF                    166.0000:   MAX REC TEMP
TIMC.                         10.0000:   TIME SINCE CIRCLN
~PARAMETER INFORMATION (zones)
#MNEM.UNIT                       Value     Description
#=========                       =====     ===========
#ZONATION                          DIL:   ZONATION NAME
#ZONE                            RUN_1:   ZONE NAME
TOP .                       3732.0000:   TOP DEPTH
BOT .                       8303.5000:   BOTTOM DEPTH
RUN .                               1:   RUN NUMBER
LCCD.                              99:   LOGGING CONTRACTOR
DICO.          QC Data Collectors Ltd:   DIG COMPANY NAME
LDAT.                      08/26/1990:   DATE LOGGED
ELD .F                       101.0000:   LOG DATUM ELEVATION
TDD .F                      8311.0000:   TOTAL DEPTH DRILLER
TDL .F                      8306.0000:   TOTAL DEPTH LOGGER
BOTL.F                      8303.0000:   BOTTOM DEPTH LOGGED
TOPL.F                      3786.0000:   TOP DEPTH LOGGED
CS1 .IN                       10.7500:   CASING SIZE 1
BS1 .IN                        9.8750:   BIT SIZE 1
DDB1.F                      8311.0000:   DEPTH DRILLED BIT 1
BHF .                              99:   FLUID CODE
DPT .                   Miscellaneous:   DRILLING FLUID TYPE
MUDD.                         10.0000:   FLUID DENSITY
MUDV.                         43.0000:   FLUID VISCOSITY
DFPH.                          8.1000:   FLUID PH
FL  .                          3.2000:   FLUID LOSS
RM  .OHMM                       .8800:   RM
RMT .DEGF                     75.0000:   RM TEMP
RMF .OHMM                       .7000:   RMF
RMFT.DEGF                     75.0000:   RMF TEMP
FSC .                               C:   RMF CODE
RMC .OHMM                       .9600:   RMC
RMCT.DEGF                     75.0000:   RMC TEMP
CMC .                               C:   RMC CODE
TMAX.DEGF                    166.0000:   MAX REC TEMP
TIMC.                          6.0000:   TIME SINCE CIRCLN
~PARAMETER INFORMATION (zones)
#MNEM.UNIT                       Value     Description
#=========                       =====     ===========
#ZONATION                          FDC:   ZONATION NAME
#ZONE                            RUN_1:   ZONE NAME
TOP .                       5263.0000:   TOP DEPTH
BOT .                       8303.5000:   BOTTOM DEPTH
RUN .                               1:   RUN NUMBER
LCCD.                              99:   LOGGING CONTRACTOR
DICO.          QC Data Collectors Ltd:   DIG COMPANY NAME
LDAT.                      08/26/1990:   DATE LOGGED
ELD .F                       101.0000:   LOG DATUM ELEVATION
TDD .F                      8311.0000:   TOTAL DEPTH DRILLER
TDL .F                      8306.0000:   TOTAL DEPTH LOGGER
BOTL.F                      8303.0000:   BOTTOM DEPTH LOGGED
TOPL.F                      5257.0000:   TOP DEPTH LOGGED
CS1 .IN                       10.7500:   CASING SIZE 1
BS1 .IN                        9.8750:   BIT SIZE 1
DDB1.F                      8311.0000:   DEPTH DRILLED BIT 1
BHF .                              99:   FLUID CODE
DPT .                   Miscellaneous:   DRILLING FLUID TYPE
MUDD.                         10.0000:   FLUID DENSITY
MUDV.                         43.0000:   FLUID VISCOSITY
DFPH.                          8.1000:   FLUID PH
FL  .                          3.2000:   FLUID LOSS
RM  .OHMM                       .8800:   RM
RMT .DEGF                     75.0000:   RM TEMP
RMF .OHMM                       .7000:   RMF
RMFT.DEGF                     75.0000:   RMF TEMP
FSC .                               C:   RMF CODE
RMC .OHMM                       .9600:   RMC
RMCT.DEGF                     75.0000:   RMC TEMP
CMC .                               C:   RMC CODE
TMAX.DEGF                    166.0000:   MAX REC TEMP
TIMC.                         10.0000:   TIME SINCE CIRCLN
~Curve Information Block
#MNEM.UNIT                    API CODE    No Description
#=========                    ========    == ===========
DEPT.F                   00 001 00 00:     1  DEPTH
NPHI.%                               :     2  Neutron Porosity
CALI.IN                              :     3  Caliper
DT.US/F                              :     4  Sonic Transit Time
GR.GAPI                              :     5  Gamma Ray
ILD.OHMM                             :     6  Deep Induction Resistivity
ILM.OHMM                             :     7  Medium Induction Resistivity
RFOC.OHMM                            :     8  Medium Resistivity
SP.MV                                :     9  Spontaneous Potential
CALI.IN                              :    10  Caliper
DPHI.%                               :    11  Porosity
DRHO.G/C3                            :    12  Bulk Density Correction
GR.GAPI                              :    13  Gamma Ray
RHOB.G/C3                            :    14  Bulk Density
~ASCII
# ...
 7372.0000    29.3072    11.0264   105.7142    82.9464     1.1766     1.1875     1.2672   -45.2277    11.0635  -999.2500      .0532    79.0139     2.3995
 7372.5000    32.9498    10.9989   109.0314    84.1943     1.1178     1.1352     1.1703   -44.9284    11.0647  -999.2500      .0709    84.8506     2.3774
 7373.0000    35.0045    10.9909   110.6729    84.8846     1.0835     1.1028     1.1125   -44.9379    11.0638  -999.2500      .0759    89.6780     2.3703
 7373.5000    35.7535    10.9855   110.9689    82.9308     1.0668     1.0769     1.0794   -45.2665    11.0628  -999.2500      .0774    91.4518     2.3692
 7374.0000    36.2117    10.9806   110.3821    81.3585     1.0554     1.0586     1.0601   -45.5491    11.0694  -999.2500      .0747    92.4181     2.3724
 7374.5000    36.3106    10.9759   108.9294    82.3186     1.0465     1.0463     1.0475   -45.8191    11.0763  -999.2500      .0720    93.2029     2.3759
 7375.0000    36.0299    10.9770   107.2120    85.5934     1.0507     1.0342     1.0412   -45.4524    11.0740  -999.2500      .0712    93.2419     2.3797
 7375.5000    34.3865    10.9834   105.2097    86.9601     1.0635     1.0398     1.0482   -45.0330    11.0693  -999.2500      .0705    91.5558     2.3908
 7376.0000    33.3566    10.9859   103.2283    85.2755     1.0775     1.0474     1.0631   -44.3862    11.0671  -999.2500      .0693    90.7300     2.4060
 7376.5000    33.0671    10.9812   102.5774    83.7410     1.0962     1.0550     1.0821   -44.1514    11.0662  -999.2500      .0658    90.7067     2.4132
 7377.0000    33.4713    10.9765   103.2021    83.8126     1.1152     1.0772     1.0854   -44.1312    11.0731  -999.2500      .0588    91.2788     2.4100
 7377.5000    34.4700    10.9716   103.7550    84.6112     1.1304     1.1003     1.0840   -44.2191    11.0861  -999.2500      .0533    91.6891     2.4037
 7378.0000    34.8676    10.9668   103.3956    83.8218     1.1415     1.1102     1.0788   -44.2241    11.0805  -999.2500      .0558    91.0747     2.3989
 7378.5000    34.7261    10.9551   101.7809    83.4824     1.1388     1.1144     1.0814   -44.3865    11.0624  -999.2500      .0649    88.1720     2.3987
 7379.0000    33.8312    10.9421   101.0522    83.4567     1.1349     1.1190     1.0947   -44.6581    11.0256  -999.2500      .0734    87.1011     2.4049
 7379.5000    33.0182    10.9170   100.7261    83.3082     1.1299     1.1287     1.1144   -44.9183    11.0047  -999.2500      .0731    87.2837     2.4159
 7380.0000    32.4062    10.8871   101.2345    84.2855     1.1395     1.1390     1.0991   -44.6669    10.9898  -999.2500      .0574    89.0406     2.4244
 7380.5000    32.2056    10.8662   102.2063    87.5525     1.1541     1.1561     1.0801   -43.8828    10.9804  -999.2500      .0421    90.6403     2.4282
 7381.0000    33.4127    10.8490   102.9303    89.6678     1.1792     1.1735     1.0953   -43.4972    10.9761  -999.2500      .0369    91.6547     2.4247
 7381.5000    33.9436    10.8603   103.3126    90.1964     1.2014     1.1877     1.1325   -44.1915    10.9729  -999.2500      .0381    92.4453     2.4204
 7382.0000    33.7347    10.8758   102.9291    89.3384     1.2208     1.2021     1.1386   -46.0803    10.9797  -999.2500      .0449    92.6171     2.4207
 7382.5000    33.5648    10.9105   101.9448    87.9276     1.2366     1.2132     1.1093   -47.0696    10.9879  -999.2500      .0528    90.5935     2.4258
 7383.0000    33.4961    10.9452   100.9274    86.4739     1.2523     1.2158     1.1090   -47.3129    11.0078  -999.2500      .0628    88.2292     2.4255
 7383.5000    33.0437    10.9552    99.9269    84.1656     1.2585     1.2184     1.1395   -46.6899    11.0276  -999.2500      .0673    87.1609     2.4237
 7384.0000    32.1350    10.9610    98.7520    80.6382     1.2644     1.2171     1.1698   -45.4576    11.0444  -999.2500      .0608    87.0482     2.4278
 7384.5000    31.3763    10.9621    97.8737    78.5723     1.2627     1.2127     1.1982   -44.1863    11.0613  -999.2500      .0526    87.7012     2.4402
 7385.0000    30.8039    10.9534    98.3983    77.2019     1.2602     1.2083     1.2159   -43.2073    11.0636  -999.2500      .0539    88.4496     2.4482
 7385.5000    30.3245    10.9448    99.7714    77.0508     1.2574     1.2129     1.2192   -42.7057    11.0647  -999.2500      .0648    88.3931     2.4518
 7386.0000    30.6018    10.9372   101.4208    79.7212     1.2530     1.2184     1.1906   -42.5976    11.0659  -999.2500      .0752    86.0912     2.4470
 7386.5000    32.5327    10.9297   102.5396    82.2222     1.2454     1.2197     1.1526   -42.8062    11.0690  -999.2500      .0658    84.5170     2.4319
 7387.0000    34.1258    10.9225   103.2990    82.0841     1.2363     1.2197     1.1304   -43.1064    11.0740  -999.2500      .0540    84.7673     2.4200
 7387.5000    34.5690    10.9156   103.0238    80.9012     1.2225     1.2085     1.1248   -43.3376    11.0751  -999.2500      .0459    87.3319     2.4161
 7388.0000    34.1754    10.9093   102.1670    81.8783     1.1965     1.1956     1.1336   -43.5679    11.0693  -999.2500      .0437    89.0082     2.4187
 7388.5000    33.1610    10.9153   100.9406    85.6246     1.1758     1.1787     1.1553   -43.8401    11.0635  -999.2500      .0468    88.7910     2.4264
 7389.0000    32.6747    10.9212   100.7714    87.2762     1.1581     1.1645     1.1675   -43.8945    11.0564  -999.2500      .0519    86.5984     2.4331
 7389.5000    33.0620    10.9293   101.4991    85.9268     1.1507     1.1635     1.1726   -43.5382    11.0493  -999.2500      .0546    85.9290     2.4363
 7390.0000    34.0782    10.9388   102.4885    84.6854     1.1478     1.1629     1.1603   -42.7957    11.0421  -999.2500      .0543    87.4515     2.4334
 7390.5000    34.2822    10.9462   103.5537    89.4595     1.1504     1.1674     1.1248   -42.2780    11.0397  -999.2500      .0554    90.7743     2.4243
 7391.0000    34.0867    10.9454   104.5288    91.0989     1.1570     1.1719     1.1032   -41.9588    11.0376  -999.2500      .0580    91.6326     2.4162
 7391.5000    33.9586    10.9446   105.0078    86.6875     1.1662     1.1748     1.1006   -42.1773    11.0372  -999.2500      .0588    92.8628     2.4105
 7392.0000    33.6688    10.9436   102.1749    80.1692     1.1693     1.1765     1.1180   -42.4991    11.0402  -999.2500      .0553    93.4633     2.4091
 7392.5000    32.7465    10.9426    99.6342    77.5405     1.1694     1.1783     1.1568   -42.8058    11.0438  -999.2500      .0531    92.3947     2.4154
 7393.0000    31.4062    10.9431    99.4329    76.4724     1.1504     1.1556     1.1712   -42.9111    11.0510  -999.2500      .0543    91.7964     2.4308
 7393.5000    30.5099    10.9457   101.2731    78.8615     1.1196     1.1315     1.1618   -42.9119    11.0576  -999.2500      .0593    90.2943     2.4424
 7394.0000    30.6057    10.9456   103.1133    84.1448     1.0921     1.1033     1.1361   -42.9182    11.0569  -999.2500      .0560    89.0107     2.4408
 7394.5000    32.2654    10.9377   104.9535    86.5107     1.0729     1.0791     1.1014   -43.2953    11.0562  -999.2500      .0443    88.3950     2.4236
 7395.0000    33.0887    10.9298   106.4840    86.0115     1.0569     1.0599     1.0702   -43.7635    11.0569  -999.2500      .0392    90.1903     2.4120
 7395.5000    33.4462    10.9337   107.5309    85.1550     1.0402     1.0523     1.0437   -44.0710    11.0581  -999.2500      .0461    91.9213     2.4044
 7396.0000    34.2092    10.9391   108.2831    85.7914     1.0258     1.0447     1.0201   -44.0778    11.0566  -999.2500      .0536    90.8691     2.3999
 7396.5000    35.7255    10.9445   108.6660    87.5785     1.0127     1.0396     1.0083   -43.7180    11.0518  -999.2500      .0613    88.6661     2.3963
 7397.0000    36.2991    10.9411   108.6018    88.8727     1.0118     1.0359      .9970   -43.4791    11.0471  -999.2500      .0639    89.4802     2.3926
 7397.5000    36.4720    10.9377   107.9910    87.9067     1.0225     1.0322     1.0139   -43.5822    11.0408  -999.2500      .0646    92.1072     2.3903
