~VERSION INFORMATION
VERS.                             2.0:   CWLS Log ASCII Standard-VERSION 2.0
WRAP.                              NO:   One line per depth step
~Well Information Block
STRT.F                      3732.0000:   Top Depth
STOP.F                      8303.0000:   Bottom Depth
STEP.F                         .50000:   Depth Increment
NULL.                        -999.250:   Null Value
FLD .                      BA BLK 415:   Field Name
WELL.       OCSG11271   001 ST00 BP00:   NAME
API .                  42704402170000:   WELL API
EDF .F                       100.0000:   ELEV DRILL FLOOR
COMP.                     APACHE CORP:   OPERATOR
BN  .                             415:   BLOCK
CTRY.                             USA:   COUNTRY NAME
CNTY.                        BRAZOS L:   COUNTY NAME
EGL .F                       -78.0000:   ELEV GROUND LEVEL
EKB .F                       101.0000:   ELEV KELLY BUSHING
TDD .F                       8311.000:   FINAL TD DRILLER
STAT.                           TEXAS:   STATE NAME
UWI .                  42704402170000:   WELL API
DICO.               IHS : Digitizing Company
~PARAMETER INFORMATION (zones)
#MNEM.UNIT                       Value     Description
#=========                       =====     ===========
#ZONATION                          CNL:   ZONATION NAME
#ZONE                            RUN_1:   ZONE NAME
TOP .                       5274.0000:   TOP DEPTH
BOT .                       8300.5000:   BOTTOM DEPTH
RUN .                               1:   RUN NUMBER
LCCD.                              99:   LOGGING CONTRACTOR
DICO.          QC Data Collectors Ltd:   DIG COMPANY NAME
LDAT.                      08/26/1990:   DATE LOGGED
ELD .F                       101.0000:   LOG DATUM ELEVATION
TDD .F                      8311.0000:   TOTAL DEPTH DRILLER
TDL .F                      8306.0000:   TOTAL DEPTH LOGGER
BOTL.F                      8303.0000:   BOTTOM DEPTH LOGGED
TOPL.F                      5257.0000:   TOP DEPTH LOGGED
CS1 .IN                       10.7500:   CASING SIZE 1
BS1 .IN                        9.8750:   BIT SIZE 1
DDB1.F                      8311.0000:   DEPTH DRILLED BIT 1
BHF .                              99:   FLUID CODE
DPT .                   Miscellaneous:   DRILLING FLUID TYPE
MUDD.                         10.0000:   FLUID DENSITY
MUDV.                         43.0000:   FLUID VISCOSITY
DFPH.                          8.1000:   FLUID PH
FL  .                          3.2000:   FLUID LOSS
RM  .OHMM                       .8800:   RM
RMT .DEGF                     75.0000:   RM TEMP
RMF .OHMM                       .7000:   RMF
RMFT.DEGF                     75.0000:   RMF TEMP
FSC .                               C:   RMF CODE
RMC .OHMM                       .9600:   RMC
RMCT.DEGF                     75.0000:   RMC TEMP
CMC .                               C:   RMC CODE
TMAX.DEGF                    166.0000:   MAX REC TEMP
TIMC.                         10.0000:   TIME SINCE CIRCLN
~PARAMETER INFORMATION (zones)
#MNEM.UNIT                       Value     Description
#=========                       =====     ===========
#ZONATION                          DIL:   ZONATION NAME
#ZONE                            RUN_1:   ZONE NAME
TOP .                       3732.0000:   TOP DEPTH
BOT .                       8303.5000:   BOTTOM DEPTH
RUN .                               1:   RUN NUMBER
LCCD.                              99:   LOGGING CONTRACTOR
DICO.          QC Data Collectors Ltd:   DIG COMPANY NAME
LDAT.                      08/26/1990:   DATE LOGGED
ELD .F                       101.0000:   LOG DATUM ELEVATION
TDD .F                      8311.0000:   TOTAL DEPTH DRILLER
TDL .F                      8306.0000:   TOTAL DEPTH LOGGER
BOTL.F                      8303.0000:   BOTTOM DEPTH LOGGED
TOPL.F                      3786.0000:   TOP DEPTH LOGGED
CS1 .IN                       10.7500:   CASING SIZE 1
BS1 .IN                        9.8750:   BIT SIZE 1
DDB1.F                      8311.0000:   DEPTH DRILLED BIT 1
BHF .                              99:   FLUID CODE
DPT .                   Miscellaneous:   DRILLING FLUID TYPE
MUDD.                         10.0000:   FLUID DENSITY
MUDV.                         43.0000:   FLUID VISCOSITY
DFPH.                          8.1000:   FLUID PH
FL  .                          3.2000:   FLUID LOSS
RM  .OHMM                       .8800:   RM
RMT .DEGF                     75.0000:   RM TEMP
RMF .OHMM                       .7000:   RMF
RMFT.DEGF                     75.0000:   RMF TEMP
FSC .                               C:   RMF CODE
RMC .OHMM                       .9600:   RMC
RMCT.DEGF                     75.0000:   RMC TEMP
CMC .                               C:   RMC CODE
TMAX.DEGF                    166.0000:   MAX REC TEMP
TIMC.                          6.0000:   TIME SINCE CIRCLN
~PARAMETER INFORMATION (zones)
#MNEM.UNIT                       Value     Description
#=========                       =====     ===========
#ZONATION                          FDC:   ZONATION NAME
#ZONE                            RUN_1:   ZONE NAME
TOP .                       5263.0000:   TOP DEPTH
BOT .                       8303.5000:   BOTTOM DEPTH
RUN .                               1:   RUN NUMBER
LCCD.                              99:   LOGGING CONTRACTOR
DICO.          QC Data Collectors Ltd:   DIG COMPANY NAME
LDAT.                      08/26/1990:   DATE LOGGED
ELD .F                       101.0000:   LOG DATUM ELEVATION
TDD .F                      8311.0000:   TOTAL DEPTH DRILLER
TDL .F                      8306.0000:   TOTAL DEPTH LOGGER
BOTL.F                      8303.0000:   BOTTOM DEPTH LOGGED
TOPL.F                      5257.0000:   TOP DEPTH LOGGED
CS1 .IN                       10.7500:   CASING SIZE 1
BS1 .IN                        9.8750:   BIT SIZE 1
DDB1.F                      8311.0000:   DEPTH DRILLED BIT 1
BHF .                              99:   FLUID CODE
DPT .                   Miscellaneous:   DRILLING FLUID TYPE
MUDD.                         10.0000:   FLUID DENSITY
MUDV.                         43.0000:   FLUID VISCOSITY
DFPH.                          8.1000:   FLUID PH
FL  .                          3.2000:   FLUID LOSS
RM  .OHMM                       .8800:   RM
RMT .DEGF                     75.0000:   RM TEMP
RMF .OHMM                       .7000:   RMF
RMFT.DEGF                     75.0000:   RMF TEMP
FSC .                               C:   RMF CODE
RMC .OHMM                       .9600:   RMC
RMCT.DEGF                     75.0000:   RMC TEMP
CMC .                               C:   RMC CODE
TMAX.DEGF                    166.0000:   MAX REC TEMP
TIMC.                         10.0000:   TIME SINCE CIRCLN
~Curve Information Block
#MNEM.UNIT                    API CODE    No Description
#=========                    ========    == ===========
DEPT.F                   00 001 00 00:     1  DEPTH
NPHI.%                               :     2  Neutron Porosity
CALI.IN                              :     3  Caliper
DT.US/F                              :     4  Sonic Transit Time
GR.GAPI                              :     5  Gamma Ray
ILD.OHMM                             :     6  Deep Induction Resistivity
ILM.OHMM                             :     7  Medium Induction Resistivity
RFOC.OHMM                            :     8  Medium Resistivity
SP.MV                                :     9  Spontaneous Potential
CALI.IN                              :    10  Caliper
DPHI.%                               :    11  Porosity
DRHO.G/C3                            :    12  Bulk Density Correction
GR.GAPI                              :    13  Gamma Ray
RHOB.G/C3                            :    14  Bulk Density
~ASCII
# ...
 7684.0000    25.3622    10.1895    76.9041    53.0280      .9084     1.0569     1.3006   -66.0676    10.3413  -999.2500      .0574    65.2029     2.4459
 7684.5000    26.9996    10.2108    79.9509    59.5775     1.0496     1.1261     1.3377   -58.5958    10.3211  -999.2500      .0520    71.0498     2.4478
 7685.0000    29.3907    10.2196    83.6785    61.5054     1.2041     1.1928     1.3242   -52.6142    10.3018  -999.2500      .0522    78.1400     2.4228
 7685.5000    32.1467    10.2209    86.2271    64.9807     1.3447     1.2520     1.3078   -48.3703    10.2872  -999.2500      .0578    80.8060     2.4025
 7686.0000    33.1349    10.2199    88.6136    72.2441     1.4353     1.2838     1.1904   -46.2131    10.2800  -999.2500      .0592    82.9467     2.3972
 7686.5000    31.6644    10.2041    92.3621    75.4850     1.4739     1.2980     1.0321   -44.9131    10.2702  -999.2500      .0551    83.4103     2.4051
 7687.0000    29.5028    10.1884    97.0934    76.6105     1.4876     1.2935      .9735   -44.0039    10.2595  -999.2500      .0511    82.4915     2.4222
 7687.5000    28.0948    10.1770    98.7689    73.9115     1.4932     1.3027      .9754   -43.4959    10.2509  -999.2500      .0590    80.2754     2.4311
 7688.0000    26.8432    10.1675    98.1284    70.4413     1.4966     1.3270     1.0223   -43.2858    10.2582  -999.2500      .0756    77.8488     2.4354
 7688.5000    25.6324    10.1620    95.3158    69.1157     1.4896     1.3410     1.0784   -43.5375    10.2812  -999.2500      .0762    70.5817     2.4433
 7689.0000    25.8315    10.1632    92.3254    70.4022     1.4550     1.2781     1.1126   -44.8141    10.2966  -999.2500      .0680    64.6046     2.4399
 7689.5000    28.4337    10.1644    90.3925    70.7722     1.3943     1.1772     1.2200   -46.7316    10.3110  -999.2500      .0533    62.8873     2.3904
 7690.0000    29.9904    10.1657    90.0856    64.4285     1.2565     1.0963     1.2829   -49.3107    10.3097  -999.2500      .0347    61.9985     2.3199
 7690.5000    30.6703    10.1669    90.4323    59.3535     1.1323     1.0308     1.1843   -52.4631    10.3083  -999.2500      .0172    59.0035     2.2716
 7691.0000    30.6468    10.1806    92.1372    55.0496      .9983      .9619     1.0664   -57.5016    10.2918  -999.2500      .0139    57.4325     2.2400
 7691.5000    30.3505    10.1956    95.0753    51.0845      .8925      .8884      .9865   -68.1726    10.2732  -999.2500      .0284    56.7845     2.2329
 7692.0000    30.7022    10.2053    97.7129    47.9634      .8074      .8213      .9548   -78.4789    10.2643  -999.2500      .0441    62.4771     2.2942
 7692.5000    33.2341    10.2096    99.6942    48.0728      .7608      .7752      .9468   -81.7107    10.2594  -999.2500      .0508    74.3999     2.3383
 7693.0000    36.1257    10.2138   100.7463    55.2268      .7342      .7446      .9336   -78.9061    10.2589  -999.2500      .0423    82.8374     2.3582
 7693.5000    36.8760    10.2091   100.7686    63.9387      .7270      .7289      .9124   -65.9321    10.2636  -999.2500      .0349    91.0669     2.3649
 7694.0000    35.5443    10.2008   101.2319    72.9110      .7487      .7404      .8910   -52.9373    10.2675  -999.2500      .0465    93.8785     2.3690
 7694.5000    33.0724    10.1939   102.6951    80.6278      .7940      .7938      .8783   -47.5131    10.2704  -999.2500      .0623    93.0643     2.3817
 7695.0000    30.9082    10.1988   103.9263    84.4158      .8555      .9102      .8736   -45.5827    10.2718  -999.2500      .0645    89.1317     2.3911
 7695.5000    28.8379    10.2037   104.3337    85.7828      .9217      .9904      .8751   -45.3339    10.2723  -999.2500      .0537    82.1924     2.3752
 7696.0000    26.9188    10.2083   103.1055    84.1135      .9919     1.0396      .8876   -46.6534    10.2711  -999.2500      .0443    71.2423     2.3536
 7696.5000    25.4195    10.2130    99.9583    77.2357     1.0483     1.0581      .9656   -50.9052    10.2693  -999.2500      .0407    68.7844     2.3517
 7697.0000    22.1824    10.2148    96.8633    70.5455     1.0831     1.0827     1.0874   -56.9910    10.2520  -999.2500      .0459    67.9794     2.3856
 7697.5000    21.6037    10.2122    93.9827    59.6870     1.1017     1.1127     1.2194   -63.7958    10.2475  -999.2500      .0421    67.1379     2.4215
 7698.0000    22.5970    10.2080    90.5271    55.9094     1.1185     1.1366     1.4022   -67.4041    10.2464  -999.2500      .0326    62.8178     2.4307
 7698.5000    23.5017    10.1983    85.7225    55.4026     1.1344     1.1595     1.5486   -69.6550    10.2332  -999.2500      .0255    61.2858     2.3935
 7699.0000    24.0910    10.1886    80.7195    55.4158     1.1297     1.1573     1.6326   -72.3202    10.1964  -999.2500      .0312    61.9360     2.3806
 7699.5000    24.5714    10.1749    77.3501    55.4293     1.1200     1.1289     1.6085   -74.9514    10.1690  -999.2500      .0411    62.4777     2.3757
 7700.0000    25.7494    10.1609    77.3082    54.6862     1.0829     1.0788     1.5251   -77.6648    10.1522  -999.2500      .0338    63.7672     2.3733
 7700.5000    26.9723    10.1369    79.1720    55.9745     1.0427     1.0539     1.4224   -78.1462    10.1409  -999.2500      .0234    67.1223     2.3686
 7701.0000    27.7636    10.1095    82.8210    58.6084     1.0090     1.0296     1.3289   -77.2258    10.1330  -999.2500      .0127    68.8585     2.3327
 7701.5000    28.2528    10.0939    85.1554    60.1891      .9786     1.0058     1.2491   -75.9883    10.1311  -999.2500      .0073    69.3757     2.3067
 7702.0000    28.4150    10.0804    87.0792    58.4677      .9636      .9818     1.2208   -75.4972    10.1391  -999.2500      .0104    68.9092     2.3029
 7702.5000    28.4232    10.0695    89.0724    55.5863      .9493      .9552     1.2220   -76.3491    10.1493  -999.2500      .0194    69.3260     2.3149
 7703.0000    29.5386    10.0600    90.1873    55.5915      .9356      .9351     1.2143   -74.9254    10.1546  -999.2500      .0247    70.5283     2.3247
 7703.5000    30.0171    10.0547    90.6185    60.7616      .9180      .9236     1.1917   -73.1421    10.1599  -999.2500      .0234    71.5635     2.3191
 7704.0000    29.2003    10.0494    90.7634    63.4509      .9259      .9269     1.1247   -72.8256    10.1655  -999.2500      .0200    70.5297     2.3092
 7704.5000    24.7911    10.0470    90.9570    62.2766      .9418      .9420     1.1031   -75.2588    10.1665  -999.2500      .0298    68.6934     2.3034
 7705.0000    20.7365    10.0476    92.0105    58.2124      .9814      .9739     1.0661   -80.4120    10.1602  -999.2500      .0435    64.9896     2.3250
 7705.5000    20.1375    10.0483    92.8296    54.7266     1.0449     1.0456     1.0749   -84.1349    10.1606  -999.2500      .0418    59.6784     2.4043
 7706.0000    20.1290    10.0490    90.5166    52.6007     1.1415     1.1449     1.2002   -86.2529    10.1535  -999.2500      .0179    53.8782     2.4302
 7706.5000    22.8199    10.0496    80.0503    46.2335     1.2168     1.2175     2.0626   -87.6298    10.1384  -999.2500     -.0045    52.5328     2.4179
 7707.0000    26.2200    10.0503    73.5885    43.0382     1.2505     1.2479     2.6266   -88.3462    10.1193  -999.2500     -.0055    54.0213     2.3364
 7707.5000    29.2616    10.0278    71.3784    43.0265     1.2366     1.1568     2.2964   -90.3640    10.1054  -999.2500      .0019    55.3023     2.2839
 7708.0000    29.6667    10.0183    74.2263    45.3947     1.1699      .9888     1.6480   -92.2384    10.0927  -999.2500      .0152    57.1503     2.2510
 7708.5000    29.9095    10.0125    83.7307    48.1510     1.0757      .8737     1.2197   -93.5892    10.0989  -999.2500      .0248    59.1765     2.2402
 7709.0000    30.1022    10.0065    91.8864    50.4123      .9075      .7818     1.1104   -94.5101    10.1055  -999.2500      .0297    59.4572     2.2326
 7709.5000    30.2028    10.0076    94.6676    51.7488      .7659      .6983     1.0597   -95.0951    10.1194  -999.2500      .0275    58.7993     2.2240
