~VERSION INFORMATION
VERS.                             2.0:   CWLS Log ASCII Standard-VERSION 2.0
WRAP.                              NO:   One line per depth step
~Well Information Block
STRT.F                      3150.0000:   Top Depth
STOP.F                     11219.0000:   Bottom Depth
STEP.F                         .50000:   Depth Increment
NULL.                        -999.250:   Null Value
FLD .                      GA BLK 300:   Field Name
WELL.       OCSG11310   002 ST00 BP00:   NAME
API .                  42706403320000:   WELL API
EDF .F                        97.5000:   ELEV DRILL FLOOR
COMP.       SEAGULL ENERGY E AND P IN:   OPERATOR
BN  .                             300:   BLOCK
CTRY.                             USA:   COUNTRY NAME
CNTY.                              GA:   COUNTY
CNTY.                        GLVSTN L:   COUNTY NAME
EGL .F                       -56.0000:   ELEV GROUND LEVEL
EKB .F                        98.5000:   ELEV KELLY BUSHING
TDD .F                      11225.000:   FINAL TD DRILLER
STAT.                           TEXAS:   STATE NAME
UWI .                  42706403320000:   WELL API
DICO.               IHS : Digitizing Company
~PARAMETER INFORMATION (zones)
#MNEM.UNIT                       Value     Description
#=========                       =====     ===========
#ZONATION                          CNL:   ZONATION NAME
#ZONE                            RUN_2:   ZONE NAME
TOP .                       9384.0000:   TOP DEPTH
BOT .                      11168.5000:   BOTTOM DEPTH
RUN .                               2:   RUN NUMBER
LCCD.                             440:   LOGGING CONTRACTOR
SRVC.                    Schlumberger:   LOGGING CONT NAME
DICO.          QC Data Collectors Ltd:   DIG COMPANY NAME
LDAT.                      04/26/1993:   DATE LOGGED
ELD .F                        98.5000:   LOG DATUM ELEVATION
TDD .F                     11217.0000:   TOTAL DEPTH DRILLER
TDL .F                     11225.0000:   TOTAL DEPTH LOGGER
BOTL.F                     11219.0000:   BOTTOM DEPTH LOGGED
TOPL.F                      9802.0000:   TOP DEPTH LOGGED
CS1 .IN                        7.6250:   CASING SIZE 1
BS1 .IN                        6.5000:   BIT SIZE 1
DDB1.F                     11217.0000:   DEPTH DRILLED BIT 1
BHF .                              99:   FLUID CODE
DPT .                   Miscellaneous:   DRILLING FLUID TYPE
MUDD.                         13.9000:   FLUID DENSITY
MUDV.                         41.0000:   FLUID VISCOSITY
DFPH.                         10.0000:   FLUID PH
FL  .                          3.2000:   FLUID LOSS
RM  .OHMM                       .9550:   RM
RMT .DEGF                     77.0000:   RM TEMP
RMF .OHMM                       .5740:   RMF
RMFT.DEGF                     76.0000:   RMF TEMP
FSC .                               M:   RMF CODE
RMC .OHMM                      1.6900:   RMC
RMCT.DEGF                     76.0000:   RMC TEMP
CMC .                               M:   RMC CODE
TMAX.DEGF                    207.0000:   MAX REC TEMP
TIMC.                         17.0000:   TIME SINCE CIRCLN
~PARAMETER INFORMATION (zones)
#MNEM.UNIT                       Value     Description
#=========                       =====     ===========
#ZONATION                          DIL:   ZONATION NAME
#ZONE                            RUN_1:   ZONE NAME
TOP .                       3150.0000:   TOP DEPTH
BOT .                       9865.5000:   BOTTOM DEPTH
RUN .                               1:   RUN NUMBER
LCCD.                             440:   LOGGING CONTRACTOR
SRVC.                    Schlumberger:   LOGGING CONT NAME
DICO.          QC Data Collectors Ltd:   DIG COMPANY NAME
LDAT.                      04/10/1993:   DATE LOGGED
ELD .F                        98.5000:   LOG DATUM ELEVATION
TDD .F                      9878.0000:   TOTAL DEPTH DRILLER
TDL .F                      9871.0000:   TOTAL DEPTH LOGGER
BOTL.F                      9865.0000:   BOTTOM DEPTH LOGGED
TOPL.F                      3298.0000:   TOP DEPTH LOGGED
CS1 .IN                       10.7500:   CASING SIZE 1
BS1 .IN                        9.8750:   BIT SIZE 1
DDB1.F                      9878.0000:   DEPTH DRILLED BIT 1
BHF .                              99:   FLUID CODE
DPT .                   Miscellaneous:   DRILLING FLUID TYPE
MUDD.                         11.8000:   FLUID DENSITY
MUDV.                         44.0000:   FLUID VISCOSITY
DFPH.                          9.5000:   FLUID PH
FL  .                          4.6000:   FLUID LOSS
RM  .OHMM                       .8730:   RM
RMT .DEGF                     82.0000:   RM TEMP
RMF .OHMM                       .4990:   RMF
RMFT.DEGF                     82.0000:   RMF TEMP
FSC .                               M:   RMF CODE
RMC .OHMM                      1.4400:   RMC
RMCT.DEGF                     82.0000:   RMC TEMP
CMC .                               M:   RMC CODE
TMAX.DEGF                    177.0000:   MAX REC TEMP
TIMC.                         15.0000:   TIME SINCE CIRCLN
~PARAMETER INFORMATION (zones)
#MNEM.UNIT                       Value     Description
#=========                       =====     ===========
#ZONATION                          DIL:   ZONATION NAME
#ZONE                            RUN_2:   ZONE NAME
TOP .                       9802.0000:   TOP DEPTH
BOT .                      11219.5000:   BOTTOM DEPTH
RUN .                               2:   RUN NUMBER
LCCD.                             440:   LOGGING CONTRACTOR
SRVC.                    Schlumberger:   LOGGING CONT NAME
DICO.          QC Data Collectors Ltd:   DIG COMPANY NAME
LDAT.                      04/26/1993:   DATE LOGGED
ELD .F                        98.5000:   LOG DATUM ELEVATION
TDD .F                     11217.0000:   TOTAL DEPTH DRILLER
TDL .F                     11225.0000:   TOTAL DEPTH LOGGER
BOTL.F                     11219.0000:   BOTTOM DEPTH LOGGED
TOPL.F                      9802.0000:   TOP DEPTH LOGGED
CS1 .IN                        7.6250:   CASING SIZE 1
BS1 .IN                        6.5000:   BIT SIZE 1
DDB1.F                     11217.0000:   DEPTH DRILLED BIT 1
BHF .                              99:   FLUID CODE
DPT .                   Miscellaneous:   DRILLING FLUID TYPE
MUDD.                         13.9000:   FLUID DENSITY
MUDV.                         41.0000:   FLUID VISCOSITY
DFPH.                         10.0000:   FLUID PH
FL  .                          3.2000:   FLUID LOSS
RM  .OHMM                       .9550:   RM
RMT .DEGF                     77.0000:   RM TEMP
RMF .OHMM                       .5740:   RMF
RMFT.DEGF                     76.0000:   RMF TEMP
FSC .                               M:   RMF CODE
RMC .OHMM                      1.6900:   RMC
RMCT.DEGF                     76.0000:   RMC TEMP
CMC .                               M:   RMC CODE
TMAX.DEGF                    207.0000:   MAX REC TEMP
TIMC.                         17.0000:   TIME SINCE CIRCLN
~PARAMETER INFORMATION (zones)
#MNEM.UNIT                       Value     Description
#=========                       =====     ===========
#ZONATION                          LDT:   ZONATION NAME
#ZONE                            RUN_2:   ZONE NAME
TOP .                       9372.0000:   TOP DEPTH
BOT .                      11188.5000:   BOTTOM DEPTH
RUN .                               2:   RUN NUMBER
LCCD.                             440:   LOGGING CONTRACTOR
SRVC.                    Schlumberger:   LOGGING CONT NAME
DICO.          QC Data Collectors Ltd:   DIG COMPANY NAME
LDAT.                      04/26/1993:   DATE LOGGED
ELD .F                        98.5000:   LOG DATUM ELEVATION
TDD .F                     11217.0000:   TOTAL DEPTH DRILLER
TDL .F                     11225.0000:   TOTAL DEPTH LOGGER
BOTL.F                     11219.0000:   BOTTOM DEPTH LOGGED
TOPL.F                      9802.0000:   TOP DEPTH LOGGED
CS1 .IN                        7.6250:   CASING SIZE 1
BS1 .IN                        6.5000:   BIT SIZE 1
DDB1.F                     11217.0000:   DEPTH DRILLED BIT 1
BHF .                              99:   FLUID CODE
DPT .                   Miscellaneous:   DRILLING FLUID TYPE
MUDD.                         13.9000:   FLUID DENSITY
MUDV.                         41.0000:   FLUID VISCOSITY
DFPH.                         10.0000:   FLUID PH
FL  .                          3.2000:   FLUID LOSS
RM  .OHMM                       .9550:   RM
RMT .DEGF                     77.0000:   RM TEMP
RMF .OHMM                       .5740:   RMF
RMFT.DEGF                     76.0000:   RMF TEMP
FSC .                               M:   RMF CODE
RMC .OHMM                      1.6900:   RMC
RMCT.DEGF                     76.0000:   RMC TEMP
CMC .                               M:   RMC CODE
TMAX.DEGF                    207.0000:   MAX REC TEMP
TIMC.                         17.0000:   TIME SINCE CIRCLN
~Curve Information Block
#MNEM.UNIT                    API CODE    No Description
#=========                    ========    == ===========
DEPT.F                   00 001 00 00:     1  DEPTH
NPHI.%                               :     2  Neutron Porosity
DT.US/F                              :     3  Sonic Transit Time
DTL.US/F                             :     4  Sonic Transit Time (Slowness)
GR.GAPI                              :     5  Gamma Ray
ILD.OHMM                             :     6  Deep Induction Resistivity
ILM.OHMM                             :     7  Medium Induction Resistivity
SFL.OHMM                             :     8  Medium Resistivity
SP.MV                                :     9  Spontaneous Potential
DCAL.IN                              :    10  Differential Caliper
DPHI.%                               :    11  Porosity
GR.GAPI                              :    12  Gamma Ray
~ASCII
# ...
 4858.0000  -999.2500   122.7500  -999.2500    52.4687      .3872      .3848      .7061   -79.2500  -999.2500  -999.2500  -999.2500
 4858.5000  -999.2500   121.7500  -999.2500    60.7188      .3887      .3936      .5410   -73.1563  -999.2500  -999.2500  -999.2500
 4859.0000  -999.2500   121.3750  -999.2500    63.1875      .3901      .4048      .5723   -70.0469  -999.2500  -999.2500  -999.2500
 4859.5000  -999.2500   119.0000  -999.2500    52.9375      .3936      .4141      .6714   -70.8281  -999.2500  -999.2500  -999.2500
 4860.0000  -999.2500   120.5000  -999.2500    43.7500      .3965      .4165      .7686   -75.8438  -999.2500  -999.2500  -999.2500
 4860.5000  -999.2500   119.7500  -999.2500    37.1562      .3931      .4092      .7720   -83.1563  -999.2500  -999.2500  -999.2500
 4861.0000  -999.2500   119.7500  -999.2500    37.9063      .3818      .3936      .6660   -89.4375  -999.2500  -999.2500  -999.2500
 4861.5000  -999.2500   119.1250  -999.2500    40.3125      .3672      .3721      .5791   -93.3437  -999.2500  -999.2500  -999.2500
 4862.0000  -999.2500   119.1250  -999.2500    43.0000      .3525      .3481      .5322   -95.5938  -999.2500  -999.2500  -999.2500
 4862.5000  -999.2500   118.3750  -999.2500    44.1250      .3379      .3242      .5098   -97.0312  -999.2500  -999.2500  -999.2500
 4863.0000  -999.2500   119.7500  -999.2500    42.2188      .3223      .3022      .4941   -98.0625  -999.2500  -999.2500  -999.2500
 4863.5000  -999.2500   138.8750  -999.2500    41.1250      .3052      .2827      .4912   -98.9062  -999.2500  -999.2500  -999.2500
 4864.0000  -999.2500   127.3750  -999.2500    38.8125      .2900      .2671      .4678   -99.4688  -999.2500  -999.2500  -999.2500
 4864.5000  -999.2500   118.5000  -999.2500    37.2500      .2788      .2544      .4180   -99.2812  -999.2500  -999.2500  -999.2500
 4865.0000  -999.2500   118.3750  -999.2500    35.9688      .2705      .2451      .3638   -99.1875  -999.2500  -999.2500  -999.2500
 4865.5000  -999.2500   121.5000  -999.2500    36.0000      .2642      .2393      .3730   -98.8750  -999.2500  -999.2500  -999.2500
 4866.0000  -999.2500   115.5000  -999.2500    37.1875      .2598      .2354      .4028   -98.8125  -999.2500  -999.2500  -999.2500
 4866.5000  -999.2500   116.7500  -999.2500    38.6875      .2563      .2334      .4004   -98.9375  -999.2500  -999.2500  -999.2500
 4867.0000  -999.2500   121.7500  -999.2500    38.6250      .2539      .2329      .3916   -98.5625  -999.2500  -999.2500  -999.2500
 4867.5000  -999.2500   120.0000  -999.2500    38.2500      .2520      .2324      .4072   -98.7813  -999.2500  -999.2500  -999.2500
 4868.0000  -999.2500   120.7500  -999.2500    41.1250      .2515      .2324      .4370   -98.8438  -999.2500  -999.2500  -999.2500
 4868.5000  -999.2500   118.5000  -999.2500    41.4375      .2510      .2319      .4561   -99.5937  -999.2500  -999.2500  -999.2500
 4869.0000  -999.2500   118.5000  -999.2500    43.3125      .2510      .2319      .4668  -100.3125  -999.2500  -999.2500  -999.2500
 4869.5000  -999.2500   111.0000  -999.2500    43.0000      .2500      .2319      .4673   -99.9375  -999.2500  -999.2500  -999.2500
 4870.0000  -999.2500   110.2500  -999.2500    46.2500      .2500      .2319      .4243   -99.9688  -999.2500  -999.2500  -999.2500
 4870.5000  -999.2500   109.5000  -999.2500    47.8125      .2500      .2319      .4165   -99.5625  -999.2500  -999.2500  -999.2500
 4871.0000  -999.2500   120.2500  -999.2500    45.7812      .2510      .2314      .4595   -99.6250  -999.2500  -999.2500  -999.2500
 4871.5000  -999.2500   119.0000  -999.2500    42.7500      .2515      .2314      .4849   -99.7813  -999.2500  -999.2500  -999.2500
 4872.0000  -999.2500   118.0000  -999.2500    37.9375      .2524      .2314      .4712   -99.7500  -999.2500  -999.2500  -999.2500
 4872.5000  -999.2500   118.2500  -999.2500    38.7187      .2539      .2314      .4360   -99.5000  -999.2500  -999.2500  -999.2500
 4873.0000  -999.2500   119.2500  -999.2500    40.3438      .2554      .2319      .4409   -99.2500  -999.2500  -999.2500  -999.2500
 4873.5000  -999.2500   120.0000  -999.2500    46.2813      .2578      .2324      .4512   -98.6250  -999.2500  -999.2500  -999.2500
 4874.0000  -999.2500   121.5000  -999.2500    47.7188      .2612      .2334      .4712   -98.1875  -999.2500  -999.2500  -999.2500
 4874.5000  -999.2500   122.2500  -999.2500    49.1250      .2656      .2354      .4756   -97.3750  -999.2500  -999.2500  -999.2500
 4875.0000  -999.2500   121.2500  -999.2500    46.0937      .2725      .2397      .4678   -97.0625  -999.2500  -999.2500  -999.2500
 4875.5000  -999.2500   120.2500  -999.2500    42.5313      .2817      .2471      .4565   -96.5313  -999.2500  -999.2500  -999.2500
 4876.0000  -999.2500   121.0000  -999.2500    44.7500      .2930      .2583      .4873   -95.2500  -999.2500  -999.2500  -999.2500
 4876.5000  -999.2500   119.5000  -999.2500    50.5937      .3057      .2744      .5029   -92.7813  -999.2500  -999.2500  -999.2500
 4877.0000  -999.2500   113.5000  -999.2500    54.0625      .3203      .2939      .5210   -87.8438  -999.2500  -999.2500  -999.2500
 4877.5000  -999.2500   113.7500  -999.2500    60.0313      .3350      .3154      .5063   -80.6563  -999.2500  -999.2500  -999.2500
 4878.0000  -999.2500   113.7500  -999.2500    63.2500      .3486      .3369      .4995   -72.8438  -999.2500  -999.2500  -999.2500
 4878.5000  -999.2500   123.5000  -999.2500    72.3125      .3643      .3560      .4927   -66.3750  -999.2500  -999.2500  -999.2500
 4879.0000  -999.2500   130.5000  -999.2500    70.8750      .3774      .3701      .4956   -63.8281  -999.2500  -999.2500  -999.2500
 4879.5000  -999.2500   139.1250  -999.2500    65.1875      .3848      .3779      .5132   -66.1563  -999.2500  -999.2500  -999.2500
 4880.0000  -999.2500   123.6455  -999.2500    55.2188      .3862      .3794      .6270   -71.1250  -999.2500  -999.2500  -999.2500
 4880.5000  -999.2500   114.4960  -999.2500    46.3438      .3818      .3750      .7070   -77.7812  -999.2500  -999.2500  -999.2500
 4881.0000  -999.2500   109.5793  -999.2500    49.6250      .3750      .3662      .6870   -82.5938  -999.2500  -999.2500  -999.2500
 4881.5000  -999.2500   107.4310  -999.2500    52.9687      .3687      .3555      .5718   -83.2812  -999.2500  -999.2500  -999.2500
 4882.0000  -999.2500   108.1276  -999.2500    51.8437      .3638      .3447      .5386   -82.4688  -999.2500  -999.2500  -999.2500
 4882.5000  -999.2500   115.6134  -999.2500    45.7812      .3623      .3359      .5273   -81.6563  -999.2500  -999.2500  -999.2500
 4883.0000  -999.2500   121.7897  -999.2500    45.5000      .3672      .3325      .5029   -84.0625  -999.2500  -999.2500  -999.2500
 4883.5000  -999.2500   124.0216  -999.2500    46.0937      .3745      .3374      .4858   -87.3750  -999.2500  -999.2500  -999.2500
 4884.0000  -999.2500   127.0380  -999.2500    46.4062      .3789      .3525      .5317   -89.4063  -999.2500  -999.2500  -999.2500
 4884.5000  -999.2500   176.9844  -999.2500    44.0000      .3784      .3779      .6714   -90.0625  -999.2500  -999.2500  -999.2500
 4885.0000  -999.2500   253.9778  -999.2500    45.7812      .3726      .4048      .8589   -89.9688  -999.2500  -999.2500  -999.2500
 4885.5000  -999.2500   277.2061  -999.2500    50.5625      .3682      .4209      .9473   -91.0000  -999.2500  -999.2500  -999.2500
 4886.0000  -999.2500   268.1064  -999.2500    53.1563      .3667      .4155      .7881   -92.0937  -999.2500  -999.2500  -999.2500
 4886.5000  -999.2500   173.7737  -999.2500    53.3750      .3647      .3931      .6030   -93.9062  -999.2500  -999.2500  -999.2500
 4887.0000  -999.2500    83.1407  -999.2500    49.3437      .3618      .3682      .4800   -95.3438  -999.2500  -999.2500  -999.2500
 4887.5000  -999.2500    49.6776  -999.2500    43.7187      .3589      .3511      .4922   -95.5000  -999.2500  -999.2500  -999.2500
 4888.0000  -999.2500    50.4259  -999.2500    43.7187      .3560      .3467      .9727   -95.8125  -999.2500  -999.2500  -999.2500
