~VERSION INFORMATION
VERS.                             2.0:   CWLS Log ASCII Standard-VERSION 2.0
WRAP.                              NO:   One line per depth step
~Well Information Block
STRT.F                      3150.0000:   Top Depth
STOP.F                     11219.0000:   Bottom Depth
STEP.F                         .50000:   Depth Increment
NULL.                        -999.250:   Null Value
FLD .                      GA BLK 300:   Field Name
WELL.       OCSG11310   002 ST00 BP00:   NAME
API .                  42706403320000:   WELL API
EDF .F                        97.5000:   ELEV DRILL FLOOR
COMP.       SEAGULL ENERGY E AND P IN:   OPERATOR
BN  .                             300:   BLOCK
CTRY.                             USA:   COUNTRY NAME
CNTY.                              GA:   COUNTY
CNTY.                        GLVSTN L:   COUNTY NAME
EGL .F                       -56.0000:   ELEV GROUND LEVEL
EKB .F                        98.5000:   ELEV KELLY BUSHING
TDD .F                      11225.000:   FINAL TD DRILLER
STAT.                           TEXAS:   STATE NAME
UWI .                  42706403320000:   WELL API
DICO.               IHS : Digitizing Company
~PARAMETER INFORMATION (zones)
#MNEM.UNIT                       Value     Description
#=========                       =====     ===========
#ZONATION                          CNL:   ZONATION NAME
#ZONE                            RUN_2:   ZONE NAME
TOP .                       9384.0000:   TOP DEPTH
BOT .                      11168.5000:   BOTTOM DEPTH
RUN .                               2:   RUN NUMBER
LCCD.                             440:   LOGGING CONTRACTOR
SRVC.                    Schlumberger:   LOGGING CONT NAME
DICO.          QC Data Collectors Ltd:   DIG COMPANY NAME
LDAT.                      04/26/1993:   DATE LOGGED
ELD .F                        98.5000:   LOG DATUM ELEVATION
TDD .F                     11217.0000:   TOTAL DEPTH DRILLER
TDL .F                     11225.0000:   TOTAL DEPTH LOGGER
BOTL.F                     11219.0000:   BOTTOM DEPTH LOGGED
TOPL.F                      9802.0000:   TOP DEPTH LOGGED
CS1 .IN                        7.6250:   CASING SIZE 1
BS1 .IN                        6.5000:   BIT SIZE 1
DDB1.F                     11217.0000:   DEPTH DRILLED BIT 1
BHF .                              99:   FLUID CODE
DPT .                   Miscellaneous:   DRILLING FLUID TYPE
MUDD.                         13.9000:   FLUID DENSITY
MUDV.                         41.0000:   FLUID VISCOSITY
DFPH.                         10.0000:   FLUID PH
FL  .                          3.2000:   FLUID LOSS
RM  .OHMM                       .9550:   RM
RMT .DEGF                     77.0000:   RM TEMP
RMF .OHMM                       .5740:   RMF
RMFT.DEGF                     76.0000:   RMF TEMP
FSC .                               M:   RMF CODE
RMC .OHMM                      1.6900:   RMC
RMCT.DEGF                     76.0000:   RMC TEMP
CMC .                               M:   RMC CODE
TMAX.DEGF                    207.0000:   MAX REC TEMP
TIMC.                         17.0000:   TIME SINCE CIRCLN
~PARAMETER INFORMATION (zones)
#MNEM.UNIT                       Value     Description
#=========                       =====     ===========
#ZONATION                          DIL:   ZONATION NAME
#ZONE                            RUN_1:   ZONE NAME
TOP .                       3150.0000:   TOP DEPTH
BOT .                       9865.5000:   BOTTOM DEPTH
RUN .                               1:   RUN NUMBER
LCCD.                             440:   LOGGING CONTRACTOR
SRVC.                    Schlumberger:   LOGGING CONT NAME
DICO.          QC Data Collectors Ltd:   DIG COMPANY NAME
LDAT.                      04/10/1993:   DATE LOGGED
ELD .F                        98.5000:   LOG DATUM ELEVATION
TDD .F                      9878.0000:   TOTAL DEPTH DRILLER
TDL .F                      9871.0000:   TOTAL DEPTH LOGGER
BOTL.F                      9865.0000:   BOTTOM DEPTH LOGGED
TOPL.F                      3298.0000:   TOP DEPTH LOGGED
CS1 .IN                       10.7500:   CASING SIZE 1
BS1 .IN                        9.8750:   BIT SIZE 1
DDB1.F                      9878.0000:   DEPTH DRILLED BIT 1
BHF .                              99:   FLUID CODE
DPT .                   Miscellaneous:   DRILLING FLUID TYPE
MUDD.                         11.8000:   FLUID DENSITY
MUDV.                         44.0000:   FLUID VISCOSITY
DFPH.                          9.5000:   FLUID PH
FL  .                          4.6000:   FLUID LOSS
RM  .OHMM                       .8730:   RM
RMT .DEGF                     82.0000:   RM TEMP
RMF .OHMM                       .4990:   RMF
RMFT.DEGF                     82.0000:   RMF TEMP
FSC .                               M:   RMF CODE
RMC .OHMM                      1.4400:   RMC
RMCT.DEGF                     82.0000:   RMC TEMP
CMC .                               M:   RMC CODE
TMAX.DEGF                    177.0000:   MAX REC TEMP
TIMC.                         15.0000:   TIME SINCE CIRCLN
~PARAMETER INFORMATION (zones)
#MNEM.UNIT                       Value     Description
#=========                       =====     ===========
#ZONATION                          DIL:   ZONATION NAME
#ZONE                            RUN_2:   ZONE NAME
TOP .                       9802.0000:   TOP DEPTH
BOT .                      11219.5000:   BOTTOM DEPTH
RUN .                               2:   RUN NUMBER
LCCD.                             440:   LOGGING CONTRACTOR
SRVC.                    Schlumberger:   LOGGING CONT NAME
DICO.          QC Data Collectors Ltd:   DIG COMPANY NAME
LDAT.                      04/26/1993:   DATE LOGGED
ELD .F                        98.5000:   LOG DATUM ELEVATION
TDD .F                     11217.0000:   TOTAL DEPTH DRILLER
TDL .F                     11225.0000:   TOTAL DEPTH LOGGER
BOTL.F                     11219.0000:   BOTTOM DEPTH LOGGED
TOPL.F                      9802.0000:   TOP DEPTH LOGGED
CS1 .IN                        7.6250:   CASING SIZE 1
BS1 .IN                        6.5000:   BIT SIZE 1
DDB1.F                     11217.0000:   DEPTH DRILLED BIT 1
BHF .                              99:   FLUID CODE
DPT .                   Miscellaneous:   DRILLING FLUID TYPE
MUDD.                         13.9000:   FLUID DENSITY
MUDV.                         41.0000:   FLUID VISCOSITY
DFPH.                         10.0000:   FLUID PH
FL  .                          3.2000:   FLUID LOSS
RM  .OHMM                       .9550:   RM
RMT .DEGF                     77.0000:   RM TEMP
RMF .OHMM                       .5740:   RMF
RMFT.DEGF                     76.0000:   RMF TEMP
FSC .                               M:   RMF CODE
RMC .OHMM                      1.6900:   RMC
RMCT.DEGF                     76.0000:   RMC TEMP
CMC .                               M:   RMC CODE
TMAX.DEGF                    207.0000:   MAX REC TEMP
TIMC.                         17.0000:   TIME SINCE CIRCLN
~PARAMETER INFORMATION (zones)
#MNEM.UNIT                       Value     Description
#=========                       =====     ===========
#ZONATION                          LDT:   ZONATION NAME
#ZONE                            RUN_2:   ZONE NAME
TOP .                       9372.0000:   TOP DEPTH
BOT .                      11188.5000:   BOTTOM DEPTH
RUN .                               2:   RUN NUMBER
LCCD.                             440:   LOGGING CONTRACTOR
SRVC.                    Schlumberger:   LOGGING CONT NAME
DICO.          QC Data Collectors Ltd:   DIG COMPANY NAME
LDAT.                      04/26/1993:   DATE LOGGED
ELD .F                        98.5000:   LOG DATUM ELEVATION
TDD .F                     11217.0000:   TOTAL DEPTH DRILLER
TDL .F                     11225.0000:   TOTAL DEPTH LOGGER
BOTL.F                     11219.0000:   BOTTOM DEPTH LOGGED
TOPL.F                      9802.0000:   TOP DEPTH LOGGED
CS1 .IN                        7.6250:   CASING SIZE 1
BS1 .IN                        6.5000:   BIT SIZE 1
DDB1.F                     11217.0000:   DEPTH DRILLED BIT 1
BHF .                              99:   FLUID CODE
DPT .                   Miscellaneous:   DRILLING FLUID TYPE
MUDD.                         13.9000:   FLUID DENSITY
MUDV.                         41.0000:   FLUID VISCOSITY
DFPH.                         10.0000:   FLUID PH
FL  .                          3.2000:   FLUID LOSS
RM  .OHMM                       .9550:   RM
RMT .DEGF                     77.0000:   RM TEMP
RMF .OHMM                       .5740:   RMF
RMFT.DEGF                     76.0000:   RMF TEMP
FSC .                               M:   RMF CODE
RMC .OHMM                      1.6900:   RMC
RMCT.DEGF                     76.0000:   RMC TEMP
CMC .                               M:   RMC CODE
TMAX.DEGF                    207.0000:   MAX REC TEMP
TIMC.                         17.0000:   TIME SINCE CIRCLN
~Curve Information Block
#MNEM.UNIT                    API CODE    No Description
#=========                    ========    == ===========
DEPT.F                   00 001 00 00:     1  DEPTH
NPHI.%                               :     2  Neutron Porosity
DT.US/F                              :     3  Sonic Transit Time
DTL.US/F                             :     4  Sonic Transit Time (Slowness)
GR.GAPI                              :     5  Gamma Ray
ILD.OHMM                             :     6  Deep Induction Resistivity
ILM.OHMM                             :     7  Medium Induction Resistivity
SFL.OHMM                             :     8  Medium Resistivity
SP.MV                                :     9  Spontaneous Potential
DCAL.IN                              :    10  Differential Caliper
DPHI.%                               :    11  Porosity
GR.GAPI                              :    12  Gamma Ray
~ASCII
# ...
 4339.5000  -999.2500   241.7683  -999.2500    38.6250      .4907      .5571     1.4463   -93.1563  -999.2500  -999.2500  -999.2500
 4340.0000  -999.2500   261.8437  -999.2500    41.6563      .4917      .5479     1.5068   -92.7500  -999.2500  -999.2500  -999.2500
 4340.5000  -999.2500   168.7625  -999.2500    41.8125      .4917      .5342     1.3682   -92.2188  -999.2500  -999.2500  -999.2500
 4341.0000  -999.2500   121.8329  -999.2500    41.1563      .4902      .5229     1.1689   -92.2500  -999.2500  -999.2500  -999.2500
 4341.5000  -999.2500   122.7583  -999.2500    39.8750      .4897      .5186     1.1025   -92.1875  -999.2500  -999.2500  -999.2500
 4342.0000  -999.2500   119.0460  -999.2500    38.5938      .4902      .5220     1.0479   -92.9063  -999.2500  -999.2500  -999.2500
 4342.5000  -999.2500   117.5364  -999.2500    39.6875      .4897      .5303     1.0225   -92.8750  -999.2500  -999.2500  -999.2500
 4343.0000  -999.2500   113.6548  -999.2500    35.9375      .4907      .5400     1.0527   -93.1875  -999.2500  -999.2500  -999.2500
 4343.5000  -999.2500  -999.2500  -999.2500    35.5625      .4922      .5483     1.1396   -92.7500  -999.2500  -999.2500  -999.2500
 4344.0000  -999.2500  -999.2500  -999.2500    32.9375      .4941      .5552     1.2451   -92.5313  -999.2500  -999.2500  -999.2500
 4344.5000  -999.2500  -999.2500  -999.2500    33.3438      .4976      .5605     1.2871   -92.9375  -999.2500  -999.2500  -999.2500
 4345.0000  -999.2500  -999.2500  -999.2500    33.3438      .5024      .5645     1.2822   -92.6562  -999.2500  -999.2500  -999.2500
 4345.5000  -999.2500  -999.2500  -999.2500    34.6875      .5044      .5669     1.2412   -92.7813  -999.2500  -999.2500  -999.2500
 4346.0000  -999.2500  -999.2500  -999.2500    38.5313      .5054      .5674     1.2676   -92.2188  -999.2500  -999.2500  -999.2500
 4346.5000  -999.2500  -999.2500  -999.2500    37.0625      .5083      .5645     1.2500   -92.4688  -999.2500  -999.2500  -999.2500
 4347.0000  -999.2500  -999.2500  -999.2500    35.0000      .5142      .5605     1.2217   -92.4375  -999.2500  -999.2500  -999.2500
 4347.5000  -999.2500  -999.2500  -999.2500    30.5625      .5244      .5591     1.1982   -92.5000  -999.2500  -999.2500  -999.2500
 4348.0000  -999.2500  -999.2500  -999.2500    30.2031      .5400      .5674     1.1602   -92.5313  -999.2500  -999.2500  -999.2500
 4348.5000  -999.2500  -999.2500  -999.2500    36.6563      .5625      .5928     1.1484   -92.5313  -999.2500  -999.2500  -999.2500
 4349.0000  -999.2500  -999.2500  -999.2500    35.6563      .5889      .6426     1.2139   -92.2500  -999.2500  -999.2500  -999.2500
 4349.5000  -999.2500  -999.2500  -999.2500    38.8750      .6113      .7183     1.5000   -92.3125  -999.2500  -999.2500  -999.2500
 4350.0000  -999.2500  -999.2500  -999.2500    34.2813      .6216      .8037     1.8262   -92.3750  -999.2500  -999.2500  -999.2500
 4350.5000  -999.2500  -999.2500  -999.2500    36.7188      .6201      .8569     2.1719   -92.7187  -999.2500  -999.2500  -999.2500
 4351.0000  -999.2500   108.8759  -999.2500    33.3125      .6084      .8394     2.1016   -93.1563  -999.2500  -999.2500  -999.2500
 4351.5000  -999.2500   119.5234  -999.2500    30.3750      .5869      .7598     1.5273   -94.7813  -999.2500  -999.2500  -999.2500
 4352.0000  -999.2500   120.1208  -999.2500    27.9063      .5562      .6606     1.1221   -97.0625  -999.2500  -999.2500  -999.2500
 4352.5000  -999.2500   109.0358  -999.2500    27.5469      .5166      .5728      .8599   -99.0313  -999.2500  -999.2500  -999.2500
 4353.0000  -999.2500    84.9811  -999.2500    29.3750      .4751      .5059      .7056  -101.2188  -999.2500  -999.2500  -999.2500
 4353.5000  -999.2500      .0000  -999.2500    28.0156      .4370      .4585      .6343  -101.9063  -999.2500  -999.2500  -999.2500
 4354.0000  -999.2500  -999.2500  -999.2500    26.9219      .4072      .4268      .6353  -102.2500  -999.2500  -999.2500  -999.2500
 4354.5000  -999.2500  -999.2500  -999.2500    25.2188      .3853      .4058      .6494  -102.2500  -999.2500  -999.2500  -999.2500
 4355.0000  -999.2500    12.7350  -999.2500    26.6250      .3701      .3936      .6665  -101.9063  -999.2500  -999.2500  -999.2500
 4355.5000  -999.2500    92.6594  -999.2500    29.5625      .3584      .3862      .6709  -102.1562  -999.2500  -999.2500  -999.2500
 4356.0000  -999.2500   121.9532  -999.2500    30.1563      .3486      .3828      .6802  -102.0000  -999.2500  -999.2500  -999.2500
 4356.5000  -999.2500   121.7994  -999.2500    31.3125      .3423      .3799      .7090  -101.8750  -999.2500  -999.2500  -999.2500
 4357.0000  -999.2500   121.2386  -999.2500    31.1250      .3374      .3770      .7593  -101.5312  -999.2500  -999.2500  -999.2500
 4357.5000  -999.2500   120.6694  -999.2500    28.7500      .3350      .3721      .7690  -100.7500  -999.2500  -999.2500  -999.2500
 4358.0000  -999.2500   121.3855  -999.2500    25.1719      .3335      .3657      .7637   -99.3438  -999.2500  -999.2500  -999.2500
 4358.5000  -999.2500   122.9576  -999.2500    25.5469      .3340      .3594      .7266   -96.8750  -999.2500  -999.2500  -999.2500
 4359.0000  -999.2500   124.4761  -999.2500    25.8750      .3364      .3564      .7041   -95.0000  -999.2500  -999.2500  -999.2500
 4359.5000  -999.2500   125.8683  -999.2500    28.4844      .3413      .3579      .7119   -93.5625  -999.2500  -999.2500  -999.2500
 4360.0000  -999.2500   126.8506  -999.2500    29.4063      .3477      .3652      .7446   -91.6563  -999.2500  -999.2500  -999.2500
 4360.5000  -999.2500   127.7500  -999.2500    30.9062      .3569      .3770      .7622   -89.4063  -999.2500  -999.2500  -999.2500
 4361.0000  -999.2500   127.5000  -999.2500    34.6562      .3682      .3921      .7759   -87.0312  -999.2500  -999.2500  -999.2500
 4361.5000  -999.2500   124.0000  -999.2500    35.7500      .3823      .4097      .7495   -83.9062  -999.2500  -999.2500  -999.2500
 4362.0000  -999.2500   123.5000  -999.2500    40.1562      .4048      .4287      .6675   -80.9375  -999.2500  -999.2500  -999.2500
 4362.5000  -999.2500   120.2500  -999.2500    44.2500      .4272      .4502      .5811   -77.0938  -999.2500  -999.2500  -999.2500
 4363.0000  -999.2500   117.2500  -999.2500    49.1875      .4468      .4751      .5703   -72.0625  -999.2500  -999.2500  -999.2500
 4363.5000  -999.2500   114.5000  -999.2500    53.1250      .4663      .5029      .5703   -66.5000  -999.2500  -999.2500  -999.2500
 4364.0000  -999.2500   110.2500  -999.2500    53.7500      .4824      .5288      .6338   -62.8438  -999.2500  -999.2500  -999.2500
 4364.5000  -999.2500   112.0000  -999.2500    54.8437      .4932      .5474      .7021   -61.2813  -999.2500  -999.2500  -999.2500
 4365.0000  -999.2500   109.2500  -999.2500    56.0313      .4985      .5542      .8135   -62.1250  -999.2500  -999.2500  -999.2500
 4365.5000  -999.2500   112.7500  -999.2500    52.3750      .4995      .5479      .8276   -64.6250  -999.2500  -999.2500  -999.2500
 4366.0000  -999.2500   114.7500  -999.2500    45.5937      .4990      .5312      .7803   -67.8281  -999.2500  -999.2500  -999.2500
 4366.5000  -999.2500   115.2500  -999.2500    36.2813      .4961      .5127      .7134   -71.0313  -999.2500  -999.2500  -999.2500
 4367.0000  -999.2500   116.2500  -999.2500    38.9063      .4907      .4980      .6572   -72.0938  -999.2500  -999.2500  -999.2500
 4367.5000  -999.2500   117.0000  -999.2500    40.3750      .4819      .4897      .6313   -71.3438  -999.2500  -999.2500  -999.2500
 4368.0000  -999.2500   117.2500  -999.2500    43.5000      .4722      .4878      .6548   -70.0313  -999.2500  -999.2500  -999.2500
 4368.5000  -999.2500   118.0000  -999.2500    41.1875      .4619      .4878      .7007   -70.1094  -999.2500  -999.2500  -999.2500
 4369.0000  -999.2500   119.0000  -999.2500    38.4375      .4502      .4854      .7754   -72.8438  -999.2500  -999.2500  -999.2500
 4369.5000  -999.2500   117.5000  -999.2500    35.6875      .4346      .4766      .8745   -77.7500  -999.2500  -999.2500  -999.2500
