~VERSION INFORMATION
VERS.                             2.0:   CWLS Log ASCII Standard-VERSION 2.0
WRAP.                              NO:   One line per depth step
~Well Information Block
STRT.F                      3877.0000:   Top Depth
STOP.F                     10380.0000:   Bottom Depth
STEP.F                         .50000:   Depth Increment
NULL.                        -999.250:   Null Value
FLD .                      GA BLK 321:   Field Name
WELL.       OCSG11316   001 ST01 BP00:   NAME
API .                  42706402670100:   WELL API
EDF .F                        90.0000:   ELEV DRILL FLOOR
COMP.              SHELL OFFSHORE INC:   OPERATOR
BN  .                             321:   BLOCK
CTRY.                             USA:   COUNTRY NAME
CNTY.                        GLVSTN L:   COUNTY NAME
EKB .F                        91.0000:   ELEV KELLY BUSHING
TDD .F                      10395.000:   FINAL TD DRILLER
STAT.                           TEXAS:   STATE NAME
UWI .                  42706402670100:   WELL API
DICO.               IHS : Digitizing Company
~PARAMETER INFORMATION (zones)
#MNEM.UNIT                       Value     Description
#=========                       =====     ===========
#ZONATION                          DIL:   ZONATION NAME
#ZONE                            RUN_1:   ZONE NAME
TOP .                       3877.0000:   TOP DEPTH
BOT .                      10380.5000:   BOTTOM DEPTH
RUN .                               1:   RUN NUMBER
LCCD.                             280:   LOGGING CONTRACTOR
SRVC.                     Halliburton:   LOGGING CONT NAME
DICO.          QC Data Collectors Ltd:   DIG COMPANY NAME
LDAT.                      06/13/1990:   DATE LOGGED
ELD .F                        91.0000:   LOG DATUM ELEVATION
TDD .F                     10395.0000:   TOTAL DEPTH DRILLER
TDL .F                     10390.0000:   TOTAL DEPTH LOGGER
BOTL.F                     10380.0000:   BOTTOM DEPTH LOGGED
TOPL.F                      3954.0000:   TOP DEPTH LOGGED
CS1 .IN                       13.3750:   CASING SIZE 1
BS1 .IN                       12.2500:   BIT SIZE 1
DDB1.F                     10395.0000:   DEPTH DRILLED BIT 1
BHF .                              99:   FLUID CODE
DPT .                   Miscellaneous:   DRILLING FLUID TYPE
MUDD.                         13.4000:   FLUID DENSITY
MUDV.                         68.0000:   FLUID VISCOSITY
DFPH.                          9.0000:   FLUID PH
FL  .                          2.1000:   FLUID LOSS
RM  .OHMM                       .0700:   RM
RMT .DEGF                     77.0000:   RM TEMP
RMF .OHMM                       .0400:   RMF
RMFT.DEGF                     73.0000:   RMF TEMP
FSC .                               M:   RMF CODE
RMC .OHMM                       .1000:   RMC
RMCT.DEGF                     74.0000:   RMC TEMP
CMC .                               M:   RMC CODE
TMAX.DEGF                    209.0000:   MAX REC TEMP
TIMC.                         13.0000:   TIME SINCE CIRCLN
~Curve Information Block
#MNEM.UNIT                    API CODE    No Description
#=========                    ========    == ===========
DEPT.F                   00 001 00 00:     1  DEPTH
CALI.IN                              :     2  Caliper
DT.US/F                              :     3  Sonic Transit Time
GR.GAPI                              :     4  Gamma Ray
ILD.OHMM                             :     5  Deep Induction Resistivity
ILM.OHMM                             :     6  Medium Induction Resistivity
SFL.OHMM                             :     7  Medium Resistivity
SP.MV                                :     8  Spontaneous Potential
~ASCII
# ...
 6925.5000    13.9482   103.8320    54.7847      .7140      .7035      .7284   -28.4411
 6926.0000    13.9684   106.0100    54.4136      .6855      .6747      .6556   -28.4874
 6926.5000    13.9832   107.3346    55.0944      .6625      .6478      .5861   -28.5739
 6927.0000    13.9980   107.0360    56.6536      .6567      .6353      .5663   -28.7007
 6927.5000    14.0128   105.9135    58.4850      .6769      .6172      .5911   -28.8326
 6928.0000    14.0477   104.5496    60.5835      .6989      .5939      .5909   -28.9748
 6928.5000    14.1069   102.9805    60.5701      .6909      .5746      .5591   -29.1821
 6929.0000    14.1205   101.3832    58.8775      .6575      .5620      .5555   -29.4851
 6929.5000    14.1174   100.5040    57.1875      .6579      .5694      .6021   -29.8729
 6930.0000    14.0186   100.3433    55.3400      .6970      .6242      .7495   -30.3434
 6930.5000    13.8154   100.4240    57.8416      .7464      .6746      .8893   -31.1183
 6931.0000    13.5794   100.5046    60.1590      .7552      .7092      .9820   -32.1782
 6931.5000    13.3745   100.2080    61.9998      .7024      .6728     1.0146   -33.5612
 6932.0000    13.2507    99.6987    63.1091      .6419      .6139      .8473   -35.0936
 6932.5000    13.7569    99.0281    63.5056      .5781      .5538      .5986   -36.6648
 6933.0000    13.9992    98.8722    61.4005      .5025      .4669      .4638   -38.3694
 6933.5000    13.7094    98.8700    58.3809      .4453      .4096      .2861   -40.1075
 6934.0000    12.7467    98.9744    54.3549      .4095      .3755      .2543   -41.6867
 6934.5000    12.5647    98.7871    47.4374      .3850      .3491      .2676   -43.2672
 6935.0000    12.5011    98.0410    47.2839      .3726      .3299      .2651   -44.4352
 6935.5000    12.4733    95.9302    48.0494      .3681      .3189      .2519   -45.5699
 6936.0000    12.4611    93.5107    48.8017      .3684      .3237      .2368   -46.5203
 6936.5000    12.4623    91.2228    49.7084      .3712      .3308      .2233   -47.3633
 6937.0000    12.4635    87.5320    49.6333      .3718      .3352      .2556   -48.0341
 6937.5000    12.4647    84.8148    47.9393      .3731      .3352      .2970   -48.7162
 6938.0000    12.4607    82.0602    43.4941      .3792      .3391      .3252   -49.4177
 6938.5000    12.4559    77.5074    37.5779      .4002      .3783      .3488   -50.0992
 6939.0000    12.4555    77.8193    33.9496      .4485      .4289      .4096   -50.6318
 6939.5000    12.4567    78.8667    32.1836      .5322      .5011      .5674   -50.9612
 6940.0000    12.4577    84.2919    31.5638      .6543      .5565      .8370   -50.8684
 6940.5000    12.4559    89.5544    32.4385      .3852      .3365      .5879   -50.5430
 6941.0000    12.4541    98.4810    35.1243      .3124      .2715      .2444   -50.1740
 6941.5000    12.4515   100.4122    37.9303      .2873      .2661      .2093   -49.8049
 6942.0000    12.4458   101.4309    41.2448      .2972      .2784      .2504   -49.6561
 6942.5000    12.4395   101.3241    42.3421      .3361      .3075      .3444   -49.7137
 6943.0000    12.4388   101.3252    43.4941      .3510      .3237      .2839   -49.7652
 6943.5000    12.4567   101.8660    45.3283      .3307      .3026  -999.2500   -49.7222
 6944.0000    12.4951   102.4207    48.3318      .3303      .2939  -999.2500   -49.3610
 6944.5000    12.5586   102.4888    51.8613      .3625      .3673  -999.2500   -48.8264
 6945.0000    12.6751   102.3005    55.1825      .4267      .4532      .2828   -48.1276
 6945.5000    12.9026   101.8558    60.6449      .5054      .5264      .5165   -47.2959
 6946.0000    13.2088   101.1377    64.9165      .5911      .5884      .5772   -46.3141
 6946.5000    13.4117   100.5959    64.3452      .6426      .6470      .6240   -45.6510
 6947.0000    13.4594   102.0175    59.9881      .6426      .6209      .6563   -45.3571
 6947.5000    13.2830   103.4391    55.4922      .5824      .5580      .6039   -45.5626
 6948.0000    12.7905   104.6448    50.1499      .4826      .4608      .5240   -46.1920
 6948.5000    12.3853   104.7573    48.1996      .3612      .3129      .2392   -46.9502
 6949.0000    12.3973   104.4603    46.6472      .2894      .2383  -999.2500   -47.7545
 6949.5000    12.4563   103.9587    47.2892      .2782      .2388  -999.2500   -48.7510
 6950.0000    12.5162   103.1105    49.0927      .3002      .2717  -999.2500   -49.6934
 6950.5000    12.5761   102.0336    50.8895      .3324      .3140  -999.2500   -49.8242
 6951.0000    12.6272   100.8628    49.4664      .3727      .3616      .2484   -49.4561
 6951.5000    12.6579   101.6031    47.6844      .4279      .4199      .4793   -49.1494
 6952.0000    12.6738   103.5370    46.4296      .4891      .5105      .6900   -48.9402
 6952.5000    12.6524   105.6050    45.6447      .4110      .3935      .7089   -49.0373
 6953.0000    12.6097   106.9636    46.2947      .3672      .3314      .5980   -49.4971
 6953.5000    12.5995   107.7361    47.6030      .3458      .3047      .3444   -50.0057
 6954.0000    12.5778   108.2872    48.7256      .3333      .2867      .2653   -50.4830
 6954.5000    12.5669   108.7281    48.0915      .3415      .2847      .2272   -50.6987
 6955.0000    12.5772   108.9604    47.5275      .3773      .3080      .2606   -50.4836
 6955.5000    12.5957   107.7749    47.1651      .4057      .3291      .2972   -50.4492
 6956.0000    12.6057   103.6362    47.2719      .3854      .3392      .2744   -50.4357
 6956.5000    12.6219    99.9991    49.3143      .3556      .3036      .2479   -50.5366
 6957.0000    12.6553    97.1720    50.6612      .3481      .2917      .2556   -50.5708
 6957.5000    12.6244    94.3878    48.5480      .3664      .2968      .2813   -50.5610
 6958.0000    12.5420    94.0820    46.5284      .3918      .3352      .3562   -50.3975
 6958.5000    12.4610   102.4614    45.8837      .4079      .3967      .4328   -50.2281
 6959.0000    12.4754   108.2711    47.2051      .4031      .4503      .4864   -50.1046
 6959.5000    12.6385   111.3075    49.7121      .3948      .3732      .3809   -50.0200
 6960.0000    12.8382   113.4734    52.5714      .3822      .3217  -999.2500   -49.9591
 6960.5000    13.0537   112.3589    54.6031      .3848      .3094  -999.2500   -49.6600
 6961.0000    13.3041   110.1488    55.8433      .4342      .3607  -999.2500   -49.1628
 6961.5000    13.5241   108.1317    53.2469      .4934      .4321      .2263   -48.0261
 6962.0000    13.6520   106.3064    51.7745      .5822      .5267      .5822   -46.7513
 6962.5000    13.6776   105.1450    51.6076      .6183      .6246      .4595   -45.5139
 6963.0000    13.5854   103.8589    52.6996      .4864      .5942      .4566   -44.5687
 6963.5000    13.2943   102.8315    54.6245      .4320      .4678      .4415   -43.9046
 6964.0000    13.0984   102.0704    57.0781      .3968      .3870      .3795   -43.5621
 6964.5000    13.0235   102.8262    59.1471      .3720      .3373      .3279   -43.4758
 6965.0000    13.1317   104.2639    61.2990      .4059      .3452      .2087   -43.1848
 6965.5000    13.3884   105.8973    63.3093      .4620      .4099  -999.2500   -42.6311
 6966.0000    13.5421   106.8483    64.9979      .5229      .4855      .2945   -41.7187
 6966.5000    13.6435   106.2668    66.2601      .5870      .5568      .3843   -40.1022
 6967.0000    13.7316   105.5621    66.7947      .6299      .6192      .4899   -38.2066
 6967.5000    13.8087   104.8888    66.4977      .6293      .6359      .6540   -36.1589
 6968.0000    13.8751   104.2365    65.4225      .6179      .6232      .8389   -34.8267
 6968.5000    13.9221   104.3726    64.4507      .6075      .6189      .8648   -33.6933
 6969.0000    13.9543   105.5889    64.5721      .6046      .6262      .7921   -32.7148
 6969.5000    13.9671   106.4580    66.3716      .6239      .6411      .7028   -31.8192
 6970.0000    13.9665   106.9615    68.3632      .6546      .6643      .6621   -31.0215
 6970.5000    13.9544   107.1688    70.3708      .6782      .6799      .6283   -30.3307
