~VERSION INFORMATION
VERS.                             2.0:   CWLS Log ASCII Standard-VERSION 2.0
WRAP.                              NO:   One line per depth step
~Well Information Block
STRT.F                      6412.0000:   Top Depth
STOP.F                      9744.0000:   Bottom Depth
STEP.F                         .50000:   Depth Increment
NULL.                        -999.250:   Null Value
FLD .                      GA BLK 273:   Field Name
WELL.       OCSG09037   005 ST00 BP00:   NAME
API .                  42706403310000:   WELL API
EDF .F                        93.0000:   ELEV DRILL FLOOR
COMP.       SEAGULL ENERGY E AND P IN:   OPERATOR
BN  .                             273:   BLOCK
CTRY.                             USA:   COUNTRY NAME
CNTY.                              GA:   COUNTY
CNTY.                        GLVSTN L:   COUNTY NAME
EGL .F                       -63.0000:   ELEV GROUND LEVEL
EKB .F                        94.0000:   ELEV KELLY BUSHING
TDD .F                       9756.000:   FINAL TD DRILLER
STAT.                           TEXAS:   STATE NAME
UWI .                  42706403310000:   WELL API
DICO.               IHS : Digitizing Company
~PARAMETER INFORMATION (zones)
#MNEM.UNIT                       Value     Description
#=========                       =====     ===========
#ZONATION                          DIL:   ZONATION NAME
#ZONE                            RUN_1:   ZONE NAME
TOP .                       6412.0000:   TOP DEPTH
BOT .                       9744.5000:   BOTTOM DEPTH
RUN .                               1:   RUN NUMBER
LCCD.                             440:   LOGGING CONTRACTOR
SRVC.                    Schlumberger:   LOGGING CONT NAME
DICO.          QC Data Collectors Ltd:   DIG COMPANY NAME
LDAT.                      03/03/1993:   DATE LOGGED
ELD .F                        94.0000:   LOG DATUM ELEVATION
TDD .F                      9756.0000:   TOTAL DEPTH DRILLER
TDL .F                      9750.0000:   TOTAL DEPTH LOGGER
BOTL.F                      9744.0000:   BOTTOM DEPTH LOGGED
TOPL.F                      6543.0000:   TOP DEPTH LOGGED
CS1 .IN                        7.6250:   CASING SIZE 1
BS1 .IN                        6.5000:   BIT SIZE 1
DDB1.F                      9756.0000:   DEPTH DRILLED BIT 1
BHF .                              99:   FLUID CODE
DPT .                   Miscellaneous:   DRILLING FLUID TYPE
MUDD.                         11.7000:   FLUID DENSITY
MUDV.                         46.0000:   FLUID VISCOSITY
DFPH.                          6.5000:   FLUID PH
FL  .                          9.6500:   FLUID LOSS
RM  .OHMM                      1.3200:   RM
RMT .DEGF                     64.0000:   RM TEMP
RMF .OHMM                      1.1100:   RMF
RMFT.DEGF                     70.0000:   RMF TEMP
FSC .                               M:   RMF CODE
RMC .OHMM                      1.6200:   RMC
RMCT.DEGF                     65.0000:   RMC TEMP
CMC .                               M:   RMC CODE
TMAX.DEGF                    186.0000:   MAX REC TEMP
TIMC.                          6.5000:   TIME SINCE CIRCLN
~Curve Information Block
#MNEM.UNIT                    API CODE    No Description
#=========                    ========    == ===========
DEPT.F                   00 001 00 00:     1  DEPTH
DTL.US/F                             :     2  Sonic Transit Time (Slowness)
GR.GAPI                              :     3  Gamma Ray
ILD.OHMM                             :     4  Deep Induction Resistivity
ILM.OHMM                             :     5  Medium Induction Resistivity
SFL.OHMM                             :     6  Medium Resistivity
SP.MV                                :     7  Spontaneous Potential
~ASCII
# ...
 8440.0000   105.8931    85.6987      .7694      .7641      .7661   -41.2884
 8440.5000   105.9319    84.8483      .7663      .7580      .7632   -41.0549
 8441.0000   106.1382    81.4757      .7603      .7489      .7589   -41.0342
 8441.5000   107.0856    80.9825      .7521      .7401      .7507   -41.0200
 8442.0000   108.0242    82.4952      .7422      .7317      .7404   -40.8782
 8442.5000   108.0137    84.0652      .7322      .7252      .7291   -40.7339
 8443.0000   107.8560    84.9489      .7291      .7221      .7225   -40.7466
 8443.5000   107.8217    85.5769      .7282      .7216      .7300   -40.7791
 8444.0000   107.9642    85.9398      .7250      .7209      .7250   -40.7281
 8444.5000   108.3120    85.7722      .7184      .7161      .7134   -40.4504
 8445.0000   108.8497    85.3751      .7107      .7106      .7030   -40.0764
 8445.5000   109.3943    84.5962      .7030      .7073      .6936   -39.6890
 8446.0000   109.9034    83.7697      .6984      .7069      .6959   -39.4877
 8446.5000   110.4269    83.3574      .7033      .7077      .7050   -39.5399
 8447.0000   110.7323    83.2867      .7129      .7090      .7159   -39.5142
 8447.5000   110.6880    83.2397      .7174      .7074      .7213   -39.3845
 8448.0000   110.3945    83.0299      .7167      .7052      .7194   -39.3570
 8448.5000   110.1139    81.4130      .7145      .7018      .7135   -39.2501
 8449.0000   109.8801    79.6270      .7128      .7006      .7073   -39.1750
 8449.5000   109.7480    76.9877      .7135      .7012      .7008   -39.1097
 8450.0000   109.6355    76.9507      .7208      .7132      .6951   -39.1808
 8450.5000   109.8999    79.6436      .7363      .7276      .6982   -39.3863
 8451.0000   109.7999    83.5923      .7550      .7439      .7203   -39.5707
 8451.5000   107.2999    85.9269      .7738      .7599      .7928   -39.7943
 8452.0000   105.0000    82.9496      .7937      .7730      .8660   -40.1655
 8452.5000   107.0000    78.8198      .8075      .7853      .9036   -41.2108
 8453.0000   102.8999    76.7872      .8105      .7892      .9296   -42.5961
 8453.5000   103.0000    76.9258      .7985      .7733      .8464   -43.2924
 8454.0000   106.6000    77.9056      .7756      .7457      .7525   -44.0524
 8454.5000   106.5000    79.1652      .7485      .7075      .6957   -44.6101
 8455.0000   113.6000    80.5411      .7285      .6803      .6582   -45.1735
 8455.5000   113.7999    82.5100      .7131      .6639      .6424   -45.7261
 8456.0000   115.3999    84.6155      .6986      .6539      .6463   -46.0094
 8456.5000   113.0000    86.0931      .6902      .6505      .6500   -46.1789
 8457.0000   112.5000    85.9989      .6871      .6529      .6481   -46.2239
 8457.5000   111.5000    84.6857      .6887      .6604      .6477   -46.1223
 8458.0000   110.6000    83.4280      .6919      .6702      .6595   -45.7958
 8458.5000   108.2999    82.8812      .6942      .6772      .6754   -45.5322
 8459.0000   107.2999    83.6782      .6889      .6763      .6839   -45.1647
 8459.5000   109.0000    84.3090      .6823      .6711      .6755   -44.6891
 8460.0000   109.1000    84.1501      .6746      .6652      .6632   -44.4617
 8460.5000   112.2000    82.6984      .6695      .6610      .6564   -44.3146
 8461.0000   114.2000    81.0804      .6661      .6558      .6532   -43.9984
 8461.5000   113.2000    80.5892      .6654      .6504      .6504   -43.6567
 8462.0000   113.7000    81.7823      .6626      .6459      .6478   -43.4293
 8462.5000   112.7000    86.1559      .6594      .6426      .6451   -43.2637
 8463.0000   112.8999    89.9080      .6571      .6399      .6436   -43.0084
 8463.5000   114.8999    89.6392      .6555      .6410      .6426   -42.5425
 8464.0000   115.7000    89.2246      .6549      .6442      .6428   -42.1699
 8464.5000   114.0000    90.0474      .6583      .6503      .6445   -41.9965
 8465.0000   111.5000    91.4733      .6658      .6622      .6553   -41.9716
 8465.5000   108.5000    92.7476      .6795      .6739      .6769   -42.0451
 8466.0000   107.7999    92.6165      .6974      .6876      .7022   -42.1705
 8466.5000   109.9999    90.3225      .7178      .7051      .6885   -42.1744
 8467.0000   111.2999    84.5675      .7402      .7274      .6708   -42.1224
 8467.5000   111.1000    78.5945      .7630      .7521      .6693   -42.2126
 8468.0000   111.2999    76.9747      .7856      .7768      .6902   -42.2082
 8468.5000   108.8999    75.7355      .8141      .7993      .7467   -42.1999
 8469.0000   104.7999    74.2543      .8396      .8230      .8315   -42.6016
 8469.5000   101.2999    73.2744      .8614      .8467      .9043   -43.0836
 8470.0000    98.0000    73.5690      .8800      .8694      .9561   -43.6516
 8470.5000   100.7000    75.0835      .8956      .8845      .9664   -44.1406
 8471.0000    99.1000    77.1798      .9088      .9005      .9402   -44.4065
 8471.5000   101.6000    79.6805      .9235      .9198      .9246   -45.0118
 8472.0000   102.0000    81.2985      .9421      .9447      .9173   -45.8476
 8472.5000   101.5000    82.3494      .9655      .9799      .9194   -46.3832
 8473.0000   104.2999    82.0150     1.0001     1.0239      .9361   -46.5298
 8473.5000   104.3999    79.8541     1.0449     1.0680      .9714   -46.8846
 8474.0000   109.3999    76.8400     1.1216     1.1121     1.0546   -47.7915
 8474.5000   116.7000    73.2606     1.1941     1.1646     1.2508   -49.2081
 8475.0000   115.5000    70.7007     1.2597     1.2162     1.4654   -52.0413
 8475.5000   115.4000    68.9794     1.3180     1.2928     1.5602   -55.8682
 8476.0000   114.9999    67.6495     1.3661     1.4130     1.7386   -59.3847
 8476.5000   112.7000    66.6023     1.3777     1.5074     2.0437   -61.3609
 8477.0000   108.7000    65.9125     1.3658     1.5097     2.4429   -62.2253
 8477.5000   105.4000    65.5648     1.3351     1.4745     2.4201   -62.8456
 8478.0000   100.6000    67.1029     1.2992     1.3411     1.6946   -61.8153
 8478.5000   105.2000    71.3213     1.2645     1.2336     1.3152   -59.2333
 8479.0000   104.0000    75.1814     1.2286     1.1615     1.1666   -56.6586
 8479.5000   105.6000    77.0061     1.1752     1.1172     1.1007   -54.5226
 8480.0000   108.3999    77.6604     1.1264     1.0927     1.0773   -55.0176
 8480.5000   104.2000    76.3154     1.0917     1.0736     1.1233   -55.5163
 8481.0000   105.2999    74.2357     1.0588     1.0422     1.3283   -55.7338
 8481.5000   102.2000    72.0526     1.0163      .9992     1.4159   -55.8139
 8482.0000    99.5000    70.2279      .9679      .9549     1.2713   -55.2956
 8482.5000    99.6000    70.1023      .9206      .9053     1.0309   -53.6518
 8483.0000    96.2999    75.7023      .8762      .8646      .8856   -51.6368
 8483.5000   101.6000    81.1913      .8281      .8300      .8257   -49.8878
 8484.0000   105.6000    82.2551      .7871      .8008      .7406   -48.7768
 8484.5000   104.8999    80.5338      .7635      .7786      .7169   -48.0500
 8485.0000   105.9999    78.1106      .7581      .7646      .7240   -47.5043
 8485.5000   105.8999    76.9258      .7567      .7564      .7391   -47.0850
 8486.0000   106.2999    79.2335      .7525      .7512      .7477   -46.3167
 8486.5000   106.2999    83.7474      .7515      .7508      .7533   -45.4625
 8487.0000   106.7999    86.0192      .7554      .7548      .7616   -44.4689
 8487.5000   104.7000    85.6904      .7594      .7550      .7737   -43.6904
 8488.0000   104.1000    83.7068      .7530      .7470      .7793   -43.2956
 8488.5000   105.2000    81.7620      .7440      .7338      .7492   -43.0121
 8489.0000   106.0000    80.0388      .7415      .7193      .7116   -42.7932
 8489.5000   107.6000    78.6924      .7408      .7118      .7135   -42.8523
 8490.0000   106.8999    77.3312      .7400      .7163      .7280   -42.9083
 8490.5000   105.3999    77.0607      .7377      .7224      .7486   -42.9396
 8491.0000   106.5000    79.0599      .7313      .7225      .7487   -43.0410
 8491.5000   106.2000    81.5792      .7252      .7164      .7118   -43.0153
