~VERSION INFORMATION
VERS.                             2.0:   CWLS Log ASCII Standard-VERSION 2.0
WRAP.                              NO:   One line per depth step
~Well Information Block
STRT.F                      4470.0000:   Top Depth
STOP.F                     11800.5000:   Bottom Depth
STEP.F                         .50000:   Depth Increment
NULL.                        -999.250:   Null Value
FLD .                      GA BLK 315:   Field Name
WELL.       OCSG14835   001 ST00 BP00:   NAME
API .                  42706403880000:   WELL API
LOC .       993' FSL & 3018' FEL OF B:   AREA NAME
CTRY.                             USA:   COUNTRY
EGL .FT                      -66.0000:   GROUND LEVEL
EKB .FT                        0.0000:   KB ELEVATION
COMP.              APACHE CORPORATION:   OPERATOR
DREF.                             MSL:   PERM DATUM
COUN.                        OFFSHORE:   RIG NAME
STAT.                              TX:   STATE
CNTY.                        OFFSHORE:   COUNTY
DIGS.                   QC Data, Inc.:   DIG COMPANY NAME
EREF.FT                        0.0000:   ELEV DEPTH REFERENCE
UWI .                  42706403880000:   WELL API
DICO.               IHS : Digitizing Company
~PARAMETER INFORMATION (zones)
#MNEM.UNIT                       Value     Description
#=========                       =====     ===========
#ZONATION                        ZONES:   ZONATION NAME
#ZONE                             LAS1:   ZONE NAME
TOP .                       4470.0000:   TOP DEPTH
BOT .                      11816.0000:   BOTTOM DEPTH
SRVC.                   WESTERN ATLAS:   LOGGING CONTRACTOR
DATE.                         10AUG96:   RUN DATE
RW  .OHMM                      0.0000:   RW
RWT .DEGF                      0.0000:   RW TEMP
RUN .                               1:   LOG RUN
TDL .FT                     9298.0000:   FINAL TD LOGGER
TDD .FT                     9300.0000:   FINAL TD DRILLER
BOTL.FT                     9296.0000:   BOTTOM DEPTH LOGGED
TOPL.FT                     4478.0000:   TOP DEPTH LOGGED
CSGL.FT                     4494.0000:   CASING DEPTH LOGGER
CSGD.FT                     4488.0000:   CASING DEPTH DRILLER
CSGS.IN                       13.3750:   CASING SIZE
CSGW.                          0.0000:   CASING WEIGHT
BS  .IN                       12.2500:   BIT SIZE
MUD .                             MUD:   MUD TYPE
MUDD.                         14.2000:   MUD WEIGHT
MUDV.                         41.0000:   MUD VISCOSITY
FL  .                          4.4000:   FLUID LOSS
PH  .                          8.5000:   MUD PH
MUDS.                             PIT:   MUD SOURCE
RM  .OHMM                      1.3000:   RM
RMT .DEGF                     80.0000:   RM TEMP
RMF .OHMM                      0.5400:   RMF
RMFT.DEGF                     80.0000:   RMF TEMP
RMC .OHMM                      2.5000:   RMC
RMCT.DEGF                     80.0000:   RMC TEMP
MMFS.                            MEAS:   RMF SOURCE
MCFS.                            MEAS:   RMC SOURCE
RMBH.OHMM                      0.5500:   RM BH
BHT .DEGF                    182.0000:   BH TEMP
TMAX.DEGF                    182.0000:   MAX REC TEMP
SON .                          180318:   SERVICE ORDER NUM
ELMF.FT                       92.0000:   ABOVE PERM DATUM
LMF .                              DF:   LOGS MEAS FROM
DMF .                              DF:   DRILL MEAS FROM
TIMC.                            0600:   TIME SINCE CIRCLN
UNIT.8940                        8079:   UNIT NO.
BASE.                        PEARLAND:   LOG UNIT HOME BASE
ENG .                          SUTTON:   ENGINEER
WIT .                            DILL:   WITNESS
~PARAMETER INFORMATION (zones)
#MNEM.UNIT                       Value     Description
#=========                       =====     ===========
#ZONATION                        ZONES:   ZONATION NAME
#ZONE                             LAS2:   ZONE NAME
TOP .                       4470.0000:   TOP DEPTH
BOT .                      11816.0000:   BOTTOM DEPTH
SRVC.                   WESTERN ATLAS:   LOGGING CONTRACTOR
DATE.                         21AUG96:   RUN DATE
RW  .OHMM                      0.0000:   RW
RWT .DEGF                      0.0000:   RW TEMP
RUN .                               2:   LOG RUN
TDL .FT                    11503.0000:   FINAL TD LOGGER
TDD .FT                    11500.0000:   FINAL TD DRILLER
BOTL.FT                    11495.0000:   BOTTOM DEPTH LOGGED
TOPL.FT                     9240.0000:   TOP DEPTH LOGGED
CSGL.FT                     9240.0000:   CASING DEPTH LOGGER
CSGD.FT                     9250.0000:   CASING DEPTH DRILLER
CSGS.IN                        9.6250:   CASING SIZE
CSGW.                          0.0000:   CASING WEIGHT
BS  .IN                        8.5000:   BIT SIZE
MUD .                     DESCO LO-PH:   MUD TYPE
MUDD.                         16.4000:   MUD WEIGHT
MUDV.                         50.0000:   MUD VISCOSITY
FL  .                          2.8000:   FLUID LOSS
PH  .                          8.5000:   MUD PH
MUDS.                             PIT:   MUD SOURCE
RM  .OHMM                      1.0000:   RM
RMT .DEGF                     80.0000:   RM TEMP
RMF .OHMM                      0.4500:   RMF
RMFT.DEGF                     80.0000:   RMF TEMP
RMC .OHMM                      3.0000:   RMC
RMCT.DEGF                     80.0000:   RMC TEMP
MMFS.                            MEAS:   RMF SOURCE
MCFS.                            MEAS:   RMC SOURCE
RMBH.OHMM                      0.3870:   RM BH
BHT .DEGF                    230.0000:   BH TEMP
TMAX.DEGF                    230.0000:   MAX REC TEMP
SON .                          180319:   SERVICE ORDER NUM
ELMF.FT                       92.0000:   ABOVE PERM DATUM
LMF .                              DF:   LOGS MEAS FROM
DMF .                              DF:   DRILL MEAS FROM
TIMC.                            0700:   TIME SINCE CIRCLN
UNIT.8940                        8089:   UNIT NO.
BASE.                        PEARLAND:   LOG UNIT HOME BASE
ENG .                    SUTTON/DAVIS:   ENGINEER
WIT .                      MR.CAMBELL:   WITNESS
~PARAMETER INFORMATION (zones)
#MNEM.UNIT                       Value     Description
#=========                       =====     ===========
#ZONATION                        ZONES:   ZONATION NAME
#ZONE                             LAS3:   ZONE NAME
TOP .                       4470.0000:   TOP DEPTH
BOT .                      11816.0000:   BOTTOM DEPTH
SRVC.                   WESTERN ATLAS:   LOGGING CONTRACTOR
DATE.                         23AUG96:   RUN DATE
RW  .OHMM                      0.0000:   RW
RWT .DEGF                      0.0000:   RW TEMP
RUN .                               3:   LOG RUN
TDL .FT                    11800.0000:   FINAL TD LOGGER
TDD .FT                    11800.0000:   FINAL TD DRILLER
BOTL.FT                    11791.0000:   BOTTOM DEPTH LOGGED
TOPL.FT                     9240.0000:   TOP DEPTH LOGGED
CSGL.FT                     9240.0000:   CASING DEPTH LOGGER
CSGD.FT                     9250.0000:   CASING DEPTH DRILLER
CSGS.IN                        9.6250:   CASING SIZE
CSGW.                          0.0000:   CASING WEIGHT
BS  .IN                        8.5000:   BIT SIZE
MUD .                     DESCO LO-PH:   MUD TYPE
MUDD.                         16.4000:   MUD WEIGHT
MUDV.                         50.0000:   MUD VISCOSITY
FL  .                          2.8000:   FLUID LOSS
PH  .                          8.5000:   MUD PH
MUDS.                             PIT:   MUD SOURCE
RM  .OHMM                      1.0000:   RM
RMT .DEGF                     80.0000:   RM TEMP
RMF .OHMM                      0.4500:   RMF
RMFT.DEGF                     80.0000:   RMF TEMP
RMC .OHMM                      3.0000:   RMC
RMCT.DEGF                     80.0000:   RMC TEMP
MMFS.                            MEAS:   RMF SOURCE
MCFS.                            MEAS:   RMC SOURCE
RMBH.OHMM                      0.3870:   RM BH
BHT .DEGF                    232.0000:   BH TEMP
TMAX.DEGF                    232.0000:   MAX REC TEMP
SON .                          180319:   SERVICE ORDER NUM
ELMF.FT                       92.0000:   ABOVE PERM DATUM
LMF .                              DF:   LOGS MEAS FROM
DMF .                              DF:   DRILL MEAS FROM
TIMC.                            0700:   TIME SINCE CIRCLN
UNIT.8940                        8089:   UNIT NO.
BASE.                        PEARLAND:   LOG UNIT HOME BASE
ENG .                    SUTTON/DAVIS:   ENGINEER
WIT .                      BOB SHELBY:   WITNESS
~Curve Information Block
#MNEM.UNIT                    API CODE    No Description
#=========                    ========    == ===========
DEPT.F                   00 001 00 00:     1  DEPTH
CALX.IN                              :     2  Caliper
CNCF.%                               :     3  Field Normalized CNC
DT.US/F                              :     4  Sonic Transit Time
GR.GAPI                              :     5  Gamma Ray
M2R1.OHMM                            :     6  Array Resistivity Curve
M2R2.OHMM                            :     7  Array Resistivity Curve
M2R3.OHMM                            :     8  Array Resistivity Curve
M2R6.OHMM                            :     9  Array Resistivity Curve
M2R9.OHMM                            :    10  Array Resistivity Curve
M2RX.OHMM                            :    11  Array Resistivity Curve
PORZ.%                               :    12  PORZ
RFOC.OHMM                            :    13  Medium Resistivity
RILD.OHMM                            :    14  Deep Resistivity
RILM.OHMM                            :    15  Medium Resistivity
RWAA.OHMM                            :    16  RWAA
RWAZ.OHMM                            :    17  RWAZ
SP.MV                                :    18  Spontaneous Potential
TEN.LB                               :    19  TEN
ZCOR.G/CC                            :    20  Density Correction
~ASCII
# ...
10926.5000     9.6710    41.7600   129.9320    71.1210      .4350      .4030      .3880      .3800      .3740      .3720    21.8750  -999.2500  -999.2500  -999.2500      .1020      .0230      .4460     1.7590      .0070
10927.0000     9.6660    41.3330   129.4620    71.3950      .4370      .4020      .3860      .3780      .3720      .3700    21.4060  -999.2500  -999.2500  -999.2500      .1000      .0220      .4740     2.4790      .0150
10927.5000     9.6630    41.0530   129.2820    72.7010      .4390      .4030      .3880      .3790      .3720      .3710    21.1040  -999.2500  -999.2500  -999.2500      .0990      .0210      .5860     1.0090      .0190
10928.0000     9.6540    41.2120   129.3190    73.4150      .4420      .4060      .3910      .3820      .3760      .3740    20.9210  -999.2500  -999.2500  -999.2500      .1000      .0210      .7570     -.4470      .0190
10928.5000     9.6430    41.5200   128.8120    73.1060      .4470      .4100      .3950      .3860      .3810      .3790    20.7800  -999.2500  -999.2500  -999.2500      .1000      .0210      .6590    -2.9410      .0170
10929.0000     9.6220    41.5260   127.9060    72.5410      .4540      .4150      .4000      .3920      .3870      .3860    20.5190  -999.2500  -999.2500  -999.2500      .0990      .0210      .0850    -7.1510      .0140
10929.5000     9.5850    41.2520   127.4750    71.7530      .4610      .4200      .4050      .3980      .3930      .3920    19.9600  -999.2500  -999.2500  -999.2500      .1000      .0200     -.6390   -10.7310      .0160
10930.0000     9.5470    41.1380   127.7600    70.6040      .4610      .4210      .4050      .3980      .3940      .3940    19.3860  -999.2500  -999.2500  -999.2500      .1010      .0190    -1.0300   -12.6670      .0200
10930.5000     9.5310    41.2460   128.7000    70.1580      .4520      .4150      .3990      .3920      .3880      .3870    19.7660  -999.2500  -999.2500  -999.2500      .1020      .0190    -1.0950   -13.8370      .0210
10931.0000     9.5290    40.9570   128.7210    71.3300      .4490      .4140      .3970      .3890      .3860      .3840    20.6090  -999.2500  -999.2500  -999.2500      .1010      .0210    -1.0360   -12.9700      .0200
10931.5000     9.5150    39.7980   126.4620    72.5780      .4650      .4290      .4110      .4040      .4000      .3990    20.8540  -999.2500  -999.2500  -999.2500      .0980      .0220     -.6170    -9.1090      .0180
10932.0000     9.4870    38.0870   122.8410    71.6920      .5040      .4660      .4470      .4400      .4370      .4360    20.0210  -999.2500  -999.2500  -999.2500      .0960      .0220      .1070    -2.7920      .0090
10932.5000     9.4600    36.5290   119.0650    68.5670      .5520      .5120      .4930      .4860      .4840      .4850    18.6990  -999.2500  -999.2500  -999.2500      .0940      .0210      .4800     2.9590     -.0030
10933.0000     9.4440    35.6190   116.6350    65.8530      .5880      .5490      .5290      .5230      .5210      .5240    17.8130  -999.2500  -999.2500  -999.2500      .0940      .0210      .2220     5.0480     -.0080
10933.5000     9.4380    35.1970   116.0130    64.9220      .6050      .5670      .5450      .5400      .5380      .5420    17.4980  -999.2500  -999.2500  -999.2500      .0950      .0210     -.1400     3.4840     -.0030
10934.0000     9.4340    34.8600   115.5610    65.0210      .6110      .5710      .5480      .5430      .5410      .5440    17.3280  -999.2500  -999.2500  -999.2500      .0940      .0200     -.0700     -.0630      .0080
10934.5000     9.4280    34.6200   115.4300    64.9320      .6140      .5720      .5470      .5420      .5400      .5420    17.2610  -999.2500  -999.2500  -999.2500      .0930      .0200      .3610    -5.2300      .0170
10935.0000     9.4190    34.8180   116.2920    64.6150      .6120      .5700      .5440      .5400      .5370      .5390    17.5020  -999.2500  -999.2500  -999.2500      .0950      .0210      .6390   -10.2820      .0170
10935.5000     9.4200    35.3240   117.2390    64.7410      .6040      .5630      .5360      .5330      .5300      .5310    17.7740  -999.2500  -999.2500  -999.2500      .0970      .0210      .4130   -11.4970      .0160
10936.0000     9.4380    35.5710   117.9690    65.0360      .5980      .5570      .5300      .5260      .5230      .5240    17.6860  -999.2500  -999.2500  -999.2500      .0980      .0200     -.0900    -6.5530      .0160
10936.5000     9.4640    35.2360   117.5780    65.3980      .6040      .5610      .5330      .5300      .5270      .5290    17.4970  -999.2500  -999.2500  -999.2500      .0980      .0200     -.4050     -.2350      .0090
10937.0000     9.4800    34.5060   116.0190    65.9560      .6220      .5760      .5480      .5460      .5440      .5470    17.5320  -999.2500  -999.2500  -999.2500      .0960      .0210     -.2500      .8000      .0000
10937.5000     9.4840    33.8890   114.7930    65.6200      .6400      .5940      .5660      .5650      .5640      .5680    17.6980  -999.2500  -999.2500  -999.2500      .0950      .0220      .2750    -2.5650     -.0030
10938.0000     9.4880    33.7130   114.4670    64.7150      .6460      .6030      .5760      .5750      .5750      .5790    17.7950  -999.2500  -999.2500  -999.2500      .0960      .0230      .6120    -4.9840     -.0020
10938.5000     9.4960    33.8760   115.3090    64.8060      .6380      .5990      .5740      .5720      .5700      .5740    17.8980  -999.2500  -999.2500  -999.2500      .0980      .0230      .3510    -5.7210     -.0010
10939.0000     9.5100    33.8990   116.3830    65.6180      .6260      .5900      .5650      .5620      .5590      .5620    18.0950  -999.2500  -999.2500  -999.2500      .1000      .0230     -.2610    -6.0860      .0000
10939.5000     9.5260    33.6110   116.1700    66.0350      .6230      .5870      .5620      .5580      .5550      .5570    18.0710  -999.2500  -999.2500  -999.2500      .0980      .0230     -.6780    -5.8020      .0000
10940.0000     9.5420    33.3440   115.0410    66.7200      .6280      .5930      .5670      .5630      .5610      .5640    17.5000  -999.2500  -999.2500  -999.2500      .0950      .0210     -.8700    -5.6630      .0020
10940.5000     9.5570    33.4300   114.4160    66.9210      .6300      .5950      .5690      .5660      .5640      .5680    16.8800  -999.2500  -999.2500  -999.2500      .0940      .0200     -.8800    -5.4530      .0030
10941.0000     9.5710    33.9240   115.1390    66.4110      .6150      .5780      .5540      .5500      .5480      .5510    17.0900  -999.2500  -999.2500  -999.2500      .0930      .0200     -.6350    -5.3010     -.0050
10941.5000     9.5910    34.7740   117.5150    66.8190      .5840      .5450      .5220      .5170      .5130      .5150    18.1030  -999.2500  -999.2500  -999.2500      .0950      .0210     -.3610    -5.6960     -.0150
10942.0000     9.6150    35.7420   120.2530    67.9940      .5540      .5150      .4930      .4860      .4810      .4810    19.3360  -999.2500  -999.2500  -999.2500      .0970      .0230     -.4630    -5.6910     -.0150
10942.5000     9.6340    36.3960   121.8600    68.2180      .5380      .5010      .4790      .4710      .4650      .4640    20.3620  -999.2500  -999.2500  -999.2500      .0990      .0240     -.9160    -3.0080     -.0090
10943.0000     9.6450    36.5860   121.7850    68.1440      .5370      .5010      .4790      .4710      .4650      .4640    20.7470  -999.2500  -999.2500  -999.2500      .0990      .0250    -1.3450     1.1250     -.0030
10943.5000     9.6560    36.3720   121.0850    68.9690      .5410      .5050      .4840      .4770      .4720      .4720    20.3610  -999.2500  -999.2500  -999.2500      .0980      .0250    -1.5620     4.1410      .0020
10944.0000     9.6660    36.2200   121.0990    70.7800      .5370      .5010      .4820      .4770      .4730      .4730    19.8210  -999.2500  -999.2500  -999.2500      .0980      .0240    -1.5540     4.6170      .0040
10944.5000     9.6720    36.9050   121.5010    72.7690      .5250      .4890      .4720      .4670      .4640      .4650    19.7040  -999.2500  -999.2500  -999.2500      .0980      .0230    -1.3900     3.5450      .0060
