~VERSION INFORMATION
VERS.                             2.0:   CWLS Log ASCII Standard-VERSION 2.0
WRAP.                              NO:   One line per depth step
~Well Information Block
STRT.F                      3732.0000:   Top Depth
STOP.F                      8303.0000:   Bottom Depth
STEP.F                         .50000:   Depth Increment
NULL.                        -999.250:   Null Value
FLD .                      BA BLK 415:   Field Name
WELL.       OCSG11271   001 ST00 BP00:   NAME
API .                  42704402170000:   WELL API
EDF .F                       100.0000:   ELEV DRILL FLOOR
COMP.                     APACHE CORP:   OPERATOR
BN  .                             415:   BLOCK
CTRY.                             USA:   COUNTRY NAME
CNTY.                        BRAZOS L:   COUNTY NAME
EGL .F                       -78.0000:   ELEV GROUND LEVEL
EKB .F                       101.0000:   ELEV KELLY BUSHING
TDD .F                       8311.000:   FINAL TD DRILLER
STAT.                           TEXAS:   STATE NAME
UWI .                  42704402170000:   WELL API
DICO.               IHS : Digitizing Company
~PARAMETER INFORMATION (zones)
#MNEM.UNIT                       Value     Description
#=========                       =====     ===========
#ZONATION                          CNL:   ZONATION NAME
#ZONE                            RUN_1:   ZONE NAME
TOP .                       5274.0000:   TOP DEPTH
BOT .                       8300.5000:   BOTTOM DEPTH
RUN .                               1:   RUN NUMBER
LCCD.                              99:   LOGGING CONTRACTOR
DICO.          QC Data Collectors Ltd:   DIG COMPANY NAME
LDAT.                      08/26/1990:   DATE LOGGED
ELD .F                       101.0000:   LOG DATUM ELEVATION
TDD .F                      8311.0000:   TOTAL DEPTH DRILLER
TDL .F                      8306.0000:   TOTAL DEPTH LOGGER
BOTL.F                      8303.0000:   BOTTOM DEPTH LOGGED
TOPL.F                      5257.0000:   TOP DEPTH LOGGED
CS1 .IN                       10.7500:   CASING SIZE 1
BS1 .IN                        9.8750:   BIT SIZE 1
DDB1.F                      8311.0000:   DEPTH DRILLED BIT 1
BHF .                              99:   FLUID CODE
DPT .                   Miscellaneous:   DRILLING FLUID TYPE
MUDD.                         10.0000:   FLUID DENSITY
MUDV.                         43.0000:   FLUID VISCOSITY
DFPH.                          8.1000:   FLUID PH
FL  .                          3.2000:   FLUID LOSS
RM  .OHMM                       .8800:   RM
RMT .DEGF                     75.0000:   RM TEMP
RMF .OHMM                       .7000:   RMF
RMFT.DEGF                     75.0000:   RMF TEMP
FSC .                               C:   RMF CODE
RMC .OHMM                       .9600:   RMC
RMCT.DEGF                     75.0000:   RMC TEMP
CMC .                               C:   RMC CODE
TMAX.DEGF                    166.0000:   MAX REC TEMP
TIMC.                         10.0000:   TIME SINCE CIRCLN
~PARAMETER INFORMATION (zones)
#MNEM.UNIT                       Value     Description
#=========                       =====     ===========
#ZONATION                          DIL:   ZONATION NAME
#ZONE                            RUN_1:   ZONE NAME
TOP .                       3732.0000:   TOP DEPTH
BOT .                       8303.5000:   BOTTOM DEPTH
RUN .                               1:   RUN NUMBER
LCCD.                              99:   LOGGING CONTRACTOR
DICO.          QC Data Collectors Ltd:   DIG COMPANY NAME
LDAT.                      08/26/1990:   DATE LOGGED
ELD .F                       101.0000:   LOG DATUM ELEVATION
TDD .F                      8311.0000:   TOTAL DEPTH DRILLER
TDL .F                      8306.0000:   TOTAL DEPTH LOGGER
BOTL.F                      8303.0000:   BOTTOM DEPTH LOGGED
TOPL.F                      3786.0000:   TOP DEPTH LOGGED
CS1 .IN                       10.7500:   CASING SIZE 1
BS1 .IN                        9.8750:   BIT SIZE 1
DDB1.F                      8311.0000:   DEPTH DRILLED BIT 1
BHF .                              99:   FLUID CODE
DPT .                   Miscellaneous:   DRILLING FLUID TYPE
MUDD.                         10.0000:   FLUID DENSITY
MUDV.                         43.0000:   FLUID VISCOSITY
DFPH.                          8.1000:   FLUID PH
FL  .                          3.2000:   FLUID LOSS
RM  .OHMM                       .8800:   RM
RMT .DEGF                     75.0000:   RM TEMP
RMF .OHMM                       .7000:   RMF
RMFT.DEGF                     75.0000:   RMF TEMP
FSC .                               C:   RMF CODE
RMC .OHMM                       .9600:   RMC
RMCT.DEGF                     75.0000:   RMC TEMP
CMC .                               C:   RMC CODE
TMAX.DEGF                    166.0000:   MAX REC TEMP
TIMC.                          6.0000:   TIME SINCE CIRCLN
~PARAMETER INFORMATION (zones)
#MNEM.UNIT                       Value     Description
#=========                       =====     ===========
#ZONATION                          FDC:   ZONATION NAME
#ZONE                            RUN_1:   ZONE NAME
TOP .                       5263.0000:   TOP DEPTH
BOT .                       8303.5000:   BOTTOM DEPTH
RUN .                               1:   RUN NUMBER
LCCD.                              99:   LOGGING CONTRACTOR
DICO.          QC Data Collectors Ltd:   DIG COMPANY NAME
LDAT.                      08/26/1990:   DATE LOGGED
ELD .F                       101.0000:   LOG DATUM ELEVATION
TDD .F                      8311.0000:   TOTAL DEPTH DRILLER
TDL .F                      8306.0000:   TOTAL DEPTH LOGGER
BOTL.F                      8303.0000:   BOTTOM DEPTH LOGGED
TOPL.F                      5257.0000:   TOP DEPTH LOGGED
CS1 .IN                       10.7500:   CASING SIZE 1
BS1 .IN                        9.8750:   BIT SIZE 1
DDB1.F                      8311.0000:   DEPTH DRILLED BIT 1
BHF .                              99:   FLUID CODE
DPT .                   Miscellaneous:   DRILLING FLUID TYPE
MUDD.                         10.0000:   FLUID DENSITY
MUDV.                         43.0000:   FLUID VISCOSITY
DFPH.                          8.1000:   FLUID PH
FL  .                          3.2000:   FLUID LOSS
RM  .OHMM                       .8800:   RM
RMT .DEGF                     75.0000:   RM TEMP
RMF .OHMM                       .7000:   RMF
RMFT.DEGF                     75.0000:   RMF TEMP
FSC .                               C:   RMF CODE
RMC .OHMM                       .9600:   RMC
RMCT.DEGF                     75.0000:   RMC TEMP
CMC .                               C:   RMC CODE
TMAX.DEGF                    166.0000:   MAX REC TEMP
TIMC.                         10.0000:   TIME SINCE CIRCLN
~Curve Information Block
#MNEM.UNIT                    API CODE    No Description
#=========                    ========    == ===========
DEPT.F                   00 001 00 00:     1  DEPTH
NPHI.%                               :     2  Neutron Porosity
CALI.IN                              :     3  Caliper
DT.US/F                              :     4  Sonic Transit Time
GR.GAPI                              :     5  Gamma Ray
ILD.OHMM                             :     6  Deep Induction Resistivity
ILM.OHMM                             :     7  Medium Induction Resistivity
RFOC.OHMM                            :     8  Medium Resistivity
SP.MV                                :     9  Spontaneous Potential
CALI.IN                              :    10  Caliper
DPHI.%                               :    11  Porosity
DRHO.G/C3                            :    12  Bulk Density Correction
GR.GAPI                              :    13  Gamma Ray
RHOB.G/C3                            :    14  Bulk Density
~ASCII
# ...
 4694.0000  -999.2500  -999.2500   116.6119    63.2342      .6068      .6121      .9161   -59.3721  -999.2500    37.7412  -999.2500  -999.2500  -999.2500
 4694.5000  -999.2500  -999.2500   118.5931    65.9563      .6076      .6058      .8767   -55.1703  -999.2500    38.6666  -999.2500  -999.2500  -999.2500
 4695.0000  -999.2500  -999.2500   120.0952    68.6522      .5972      .5970      .8288   -53.7631  -999.2500    39.5150  -999.2500  -999.2500  -999.2500
 4695.5000  -999.2500  -999.2500   120.9681    70.5367      .5840      .5877      .8002   -53.6438  -999.2500    40.2326  -999.2500  -999.2500  -999.2500
 4696.0000  -999.2500  -999.2500   121.0959    71.3182      .5693      .5778      .8096   -56.8508  -999.2500    40.6477  -999.2500  -999.2500  -999.2500
 4696.5000  -999.2500  -999.2500   120.7036    68.3759      .5534      .5646      .8491   -59.9640  -999.2500    40.4462  -999.2500  -999.2500  -999.2500
 4697.0000  -999.2500  -999.2500   120.4312    65.2601      .5375      .5510      .8921   -63.1658  -999.2500    40.1266  -999.2500  -999.2500  -999.2500
 4697.5000  -999.2500  -999.2500   121.0897    64.5864      .5213      .5390      .9238   -65.0326  -999.2500    40.4690  -999.2500  -999.2500  -999.2500
 4698.0000  -999.2500  -999.2500   124.0741    67.8518      .5056      .5270      .8932   -65.8878  -999.2500    42.3210  -999.2500  -999.2500  -999.2500
 4698.5000  -999.2500  -999.2500   126.7589    70.0348      .4918      .5154      .7880   -61.1895  -999.2500    43.4746  -999.2500  -999.2500  -999.2500
 4699.0000  -999.2500  -999.2500   128.2354    69.9604      .4787      .5068      .6908   -58.4361  -999.2500    44.5363  -999.2500  -999.2500  -999.2500
 4699.5000  -999.2500  -999.2500   129.3445    68.8765      .4664      .4983      .6590   -57.5548  -999.2500    45.4792  -999.2500  -999.2500  -999.2500
 4700.0000  -999.2500  -999.2500   129.8865    67.8387      .4583      .4909      .7635   -62.7408  -999.2500    45.9463  -999.2500  -999.2500  -999.2500
 4700.5000  -999.2500  -999.2500   129.4197    66.6277      .4503      .4865      .9146   -68.3857  -999.2500    45.5085  -999.2500  -999.2500  -999.2500
 4701.0000  -999.2500  -999.2500   128.6453    64.1572      .4431      .4821      .9609   -72.1481  -999.2500    44.9177  -999.2500  -999.2500  -999.2500
 4701.5000  -999.2500  -999.2500   127.4259    62.9774      .4411      .4791      .9937   -75.8949  -999.2500    44.2904  -999.2500  -999.2500  -999.2500
 4702.0000  -999.2500  -999.2500   126.1901    62.0186      .4392      .4769      .9995   -78.5309  -999.2500    43.7120  -999.2500  -999.2500  -999.2500
 4702.5000  -999.2500  -999.2500   125.1648    61.1862      .4389      .4784      .9946   -79.6788  -999.2500    43.1766  -999.2500  -999.2500  -999.2500
 4703.0000  -999.2500  -999.2500   124.1532    60.6617      .4411      .4830      .9777   -80.1566  -999.2500    42.5369  -999.2500  -999.2500  -999.2500
 4703.5000  -999.2500  -999.2500   123.3202    60.5504      .4433      .4896      .9574   -79.7261  -999.2500    41.8645  -999.2500  -999.2500  -999.2500
 4704.0000  -999.2500  -999.2500   122.3033    61.5707      .4495      .4982      .9292   -78.0328  -999.2500    41.2636  -999.2500  -999.2500  -999.2500
 4704.5000  -999.2500  -999.2500   121.0531    63.6384      .4572      .5074      .9108   -76.0839  -999.2500    40.6901  -999.2500  -999.2500  -999.2500
 4705.0000  -999.2500  -999.2500   119.9677    66.2561      .4650      .5175      .9009   -74.5104  -999.2500    40.1619  -999.2500  -999.2500  -999.2500
 4705.5000  -999.2500  -999.2500   119.7432    68.3589      .4747      .5285      .9002   -73.3735  -999.2500    39.7628  -999.2500  -999.2500  -999.2500
 4706.0000  -999.2500  -999.2500   119.6561    68.9146      .4859      .5410      .9024   -72.5653  -999.2500    39.4383  -999.2500  -999.2500  -999.2500
 4706.5000  -999.2500  -999.2500   119.6398    69.1135      .4974      .5564      .8960   -71.6423  -999.2500    39.4416  -999.2500  -999.2500  -999.2500
 4707.0000  -999.2500  -999.2500   119.4224    69.2239      .5141      .5739      .8791   -69.5486  -999.2500    39.5653  -999.2500  -999.2500  -999.2500
 4707.5000  -999.2500  -999.2500   118.6794    70.1893      .5337      .5902      .8737   -65.9583  -999.2500    39.2698  -999.2500  -999.2500  -999.2500
 4708.0000  -999.2500  -999.2500   117.2776    72.0210      .5541      .6066      .8729   -62.4175  -999.2500    38.4090  -999.2500  -999.2500  -999.2500
 4708.5000  -999.2500  -999.2500   115.7435    73.8396      .5765      .6233      .8801   -59.9053  -999.2500    37.4510  -999.2500  -999.2500  -999.2500
 4709.0000  -999.2500  -999.2500   114.8722    74.6769      .5999      .6406      .8946   -58.5038  -999.2500    36.6913  -999.2500  -999.2500  -999.2500
 4709.5000  -999.2500  -999.2500   114.9491    72.1670      .6258      .6605      .9093   -57.9681  -999.2500    36.6478  -999.2500  -999.2500  -999.2500
 4710.0000  -999.2500  -999.2500   115.5199    69.6835      .6568      .6837      .9101   -58.1206  -999.2500    36.9094  -999.2500  -999.2500  -999.2500
 4710.5000  -999.2500  -999.2500   115.6672    67.7880      .6891      .7053      .9100   -58.6959  -999.2500    37.1499  -999.2500  -999.2500  -999.2500
 4711.0000  -999.2500  -999.2500   113.0181    68.6118      .7227      .7262      .9107   -58.8253  -999.2500    35.7144  -999.2500  -999.2500  -999.2500
 4711.5000  -999.2500  -999.2500   106.3799    70.0186      .7381      .7345      .9114   -57.9277  -999.2500    32.3704  -999.2500  -999.2500  -999.2500
 4712.0000  -999.2500  -999.2500   101.6405    69.9423      .7467      .7382      .9656   -58.6290  -999.2500    29.2794  -999.2500  -999.2500  -999.2500
 4712.5000  -999.2500  -999.2500   100.3536    69.1013      .7200      .7139      .9911   -63.2362  -999.2500    27.5408  -999.2500  -999.2500  -999.2500
 4713.0000  -999.2500  -999.2500   104.7948    68.0056      .6889      .6852     1.0069   -68.0520  -999.2500    31.5226  -999.2500  -999.2500  -999.2500
 4713.5000  -999.2500  -999.2500   114.9746    66.8401      .6477      .6458     1.0202   -71.6605  -999.2500    37.2665  -999.2500  -999.2500  -999.2500
 4714.0000  -999.2500  -999.2500   120.2371    64.9629      .6128      .6118     1.0219   -72.0282  -999.2500    40.2831  -999.2500  -999.2500  -999.2500
 4714.5000  -999.2500  -999.2500   123.3508    62.8353      .5838      .5915     1.0122   -70.4846  -999.2500    41.6147  -999.2500  -999.2500  -999.2500
 4715.0000  -999.2500  -999.2500   123.9913    61.1993      .5554      .5748      .9860   -70.3392  -999.2500    42.1394  -999.2500  -999.2500  -999.2500
 4715.5000  -999.2500  -999.2500   123.4987    61.1190      .5325      .5585      .9653   -71.3529  -999.2500    42.2228  -999.2500  -999.2500  -999.2500
 4716.0000  -999.2500  -999.2500   122.4596    62.1326      .5167      .5462      .9741   -72.3573  -999.2500    41.5182  -999.2500  -999.2500  -999.2500
 4716.5000  -999.2500  -999.2500   121.1198    63.7557      .5066      .5365      .9921   -70.8365  -999.2500    40.4911  -999.2500  -999.2500  -999.2500
 4717.0000  -999.2500  -999.2500   119.7388    65.3787      .4984      .5341     1.0136   -67.8746  -999.2500    39.6036  -999.2500  -999.2500  -999.2500
 4717.5000  -999.2500  -999.2500   119.3439    66.9927      .4948      .5340     1.0228   -66.3193  -999.2500    39.1935  -999.2500  -999.2500  -999.2500
 4718.0000  -999.2500  -999.2500   119.3334    68.3185      .4918      .5323     1.0059   -67.5826  -999.2500    39.3418  -999.2500  -999.2500  -999.2500
 4718.5000  -999.2500  -999.2500   119.8722    69.1848      .4863      .5268      .9497   -70.1483  -999.2500    39.8303  -999.2500  -999.2500  -999.2500
 4719.0000  -999.2500  -999.2500   121.3303    69.6572      .4787      .5212      .8975   -70.5101  -999.2500    40.5492  -999.2500  -999.2500  -999.2500
 4719.5000  -999.2500  -999.2500   122.7062    69.2806      .4720      .5143      .8675   -70.4833  -999.2500    41.2874  -999.2500  -999.2500  -999.2500
