~VERSION INFORMATION
VERS.                             2.0:   CWLS Log ASCII Standard-VERSION 2.0
WRAP.                              NO:   One line per depth step
~Well Information Block
STRT.F                      3732.0000:   Top Depth
STOP.F                      8303.0000:   Bottom Depth
STEP.F                         .50000:   Depth Increment
NULL.                        -999.250:   Null Value
FLD .                      BA BLK 415:   Field Name
WELL.       OCSG11271   001 ST00 BP00:   NAME
API .                  42704402170000:   WELL API
EDF .F                       100.0000:   ELEV DRILL FLOOR
COMP.                     APACHE CORP:   OPERATOR
BN  .                             415:   BLOCK
CTRY.                             USA:   COUNTRY NAME
CNTY.                        BRAZOS L:   COUNTY NAME
EGL .F                       -78.0000:   ELEV GROUND LEVEL
EKB .F                       101.0000:   ELEV KELLY BUSHING
TDD .F                       8311.000:   FINAL TD DRILLER
STAT.                           TEXAS:   STATE NAME
UWI .                  42704402170000:   WELL API
DICO.               IHS : Digitizing Company
~PARAMETER INFORMATION (zones)
#MNEM.UNIT                       Value     Description
#=========                       =====     ===========
#ZONATION                          CNL:   ZONATION NAME
#ZONE                            RUN_1:   ZONE NAME
TOP .                       5274.0000:   TOP DEPTH
BOT .                       8300.5000:   BOTTOM DEPTH
RUN .                               1:   RUN NUMBER
LCCD.                              99:   LOGGING CONTRACTOR
DICO.          QC Data Collectors Ltd:   DIG COMPANY NAME
LDAT.                      08/26/1990:   DATE LOGGED
ELD .F                       101.0000:   LOG DATUM ELEVATION
TDD .F                      8311.0000:   TOTAL DEPTH DRILLER
TDL .F                      8306.0000:   TOTAL DEPTH LOGGER
BOTL.F                      8303.0000:   BOTTOM DEPTH LOGGED
TOPL.F                      5257.0000:   TOP DEPTH LOGGED
CS1 .IN                       10.7500:   CASING SIZE 1
BS1 .IN                        9.8750:   BIT SIZE 1
DDB1.F                      8311.0000:   DEPTH DRILLED BIT 1
BHF .                              99:   FLUID CODE
DPT .                   Miscellaneous:   DRILLING FLUID TYPE
MUDD.                         10.0000:   FLUID DENSITY
MUDV.                         43.0000:   FLUID VISCOSITY
DFPH.                          8.1000:   FLUID PH
FL  .                          3.2000:   FLUID LOSS
RM  .OHMM                       .8800:   RM
RMT .DEGF                     75.0000:   RM TEMP
RMF .OHMM                       .7000:   RMF
RMFT.DEGF                     75.0000:   RMF TEMP
FSC .                               C:   RMF CODE
RMC .OHMM                       .9600:   RMC
RMCT.DEGF                     75.0000:   RMC TEMP
CMC .                               C:   RMC CODE
TMAX.DEGF                    166.0000:   MAX REC TEMP
TIMC.                         10.0000:   TIME SINCE CIRCLN
~PARAMETER INFORMATION (zones)
#MNEM.UNIT                       Value     Description
#=========                       =====     ===========
#ZONATION                          DIL:   ZONATION NAME
#ZONE                            RUN_1:   ZONE NAME
TOP .                       3732.0000:   TOP DEPTH
BOT .                       8303.5000:   BOTTOM DEPTH
RUN .                               1:   RUN NUMBER
LCCD.                              99:   LOGGING CONTRACTOR
DICO.          QC Data Collectors Ltd:   DIG COMPANY NAME
LDAT.                      08/26/1990:   DATE LOGGED
ELD .F                       101.0000:   LOG DATUM ELEVATION
TDD .F                      8311.0000:   TOTAL DEPTH DRILLER
TDL .F                      8306.0000:   TOTAL DEPTH LOGGER
BOTL.F                      8303.0000:   BOTTOM DEPTH LOGGED
TOPL.F                      3786.0000:   TOP DEPTH LOGGED
CS1 .IN                       10.7500:   CASING SIZE 1
BS1 .IN                        9.8750:   BIT SIZE 1
DDB1.F                      8311.0000:   DEPTH DRILLED BIT 1
BHF .                              99:   FLUID CODE
DPT .                   Miscellaneous:   DRILLING FLUID TYPE
MUDD.                         10.0000:   FLUID DENSITY
MUDV.                         43.0000:   FLUID VISCOSITY
DFPH.                          8.1000:   FLUID PH
FL  .                          3.2000:   FLUID LOSS
RM  .OHMM                       .8800:   RM
RMT .DEGF                     75.0000:   RM TEMP
RMF .OHMM                       .7000:   RMF
RMFT.DEGF                     75.0000:   RMF TEMP
FSC .                               C:   RMF CODE
RMC .OHMM                       .9600:   RMC
RMCT.DEGF                     75.0000:   RMC TEMP
CMC .                               C:   RMC CODE
TMAX.DEGF                    166.0000:   MAX REC TEMP
TIMC.                          6.0000:   TIME SINCE CIRCLN
~PARAMETER INFORMATION (zones)
#MNEM.UNIT                       Value     Description
#=========                       =====     ===========
#ZONATION                          FDC:   ZONATION NAME
#ZONE                            RUN_1:   ZONE NAME
TOP .                       5263.0000:   TOP DEPTH
BOT .                       8303.5000:   BOTTOM DEPTH
RUN .                               1:   RUN NUMBER
LCCD.                              99:   LOGGING CONTRACTOR
DICO.          QC Data Collectors Ltd:   DIG COMPANY NAME
LDAT.                      08/26/1990:   DATE LOGGED
ELD .F                       101.0000:   LOG DATUM ELEVATION
TDD .F                      8311.0000:   TOTAL DEPTH DRILLER
TDL .F                      8306.0000:   TOTAL DEPTH LOGGER
BOTL.F                      8303.0000:   BOTTOM DEPTH LOGGED
TOPL.F                      5257.0000:   TOP DEPTH LOGGED
CS1 .IN                       10.7500:   CASING SIZE 1
BS1 .IN                        9.8750:   BIT SIZE 1
DDB1.F                      8311.0000:   DEPTH DRILLED BIT 1
BHF .                              99:   FLUID CODE
DPT .                   Miscellaneous:   DRILLING FLUID TYPE
MUDD.                         10.0000:   FLUID DENSITY
MUDV.                         43.0000:   FLUID VISCOSITY
DFPH.                          8.1000:   FLUID PH
FL  .                          3.2000:   FLUID LOSS
RM  .OHMM                       .8800:   RM
RMT .DEGF                     75.0000:   RM TEMP
RMF .OHMM                       .7000:   RMF
RMFT.DEGF                     75.0000:   RMF TEMP
FSC .                               C:   RMF CODE
RMC .OHMM                       .9600:   RMC
RMCT.DEGF                     75.0000:   RMC TEMP
CMC .                               C:   RMC CODE
TMAX.DEGF                    166.0000:   MAX REC TEMP
TIMC.                         10.0000:   TIME SINCE CIRCLN
~Curve Information Block
#MNEM.UNIT                    API CODE    No Description
#=========                    ========    == ===========
DEPT.F                   00 001 00 00:     1  DEPTH
NPHI.%                               :     2  Neutron Porosity
CALI.IN                              :     3  Caliper
DT.US/F                              :     4  Sonic Transit Time
GR.GAPI                              :     5  Gamma Ray
ILD.OHMM                             :     6  Deep Induction Resistivity
ILM.OHMM                             :     7  Medium Induction Resistivity
RFOC.OHMM                            :     8  Medium Resistivity
SP.MV                                :     9  Spontaneous Potential
CALI.IN                              :    10  Caliper
DPHI.%                               :    11  Porosity
DRHO.G/C3                            :    12  Bulk Density Correction
GR.GAPI                              :    13  Gamma Ray
RHOB.G/C3                            :    14  Bulk Density
~ASCII
# ...
 5890.0000    33.7181  -999.2500   134.5261    37.4026      .3507      .3731      .7851  -104.1245    10.5114  -999.2500     -.0044    49.6976     2.1004
 5890.5000    34.0369  -999.2500   133.0193    38.0323      .3464      .3732      .7703  -104.1057    10.5665  -999.2500     -.0059    50.7730     2.0996
 5891.0000    33.8117  -999.2500   129.6829    37.5211      .3461      .3759      .7630  -103.4713    10.6434  -999.2500     -.0035    49.4278     2.1149
 5891.5000    32.4291  -999.2500   126.7070    36.3775      .3488      .3826      .7934  -102.9302    10.7231  -999.2500      .0033    48.4231     2.1536
 5892.0000    27.7446  -999.2500   125.6821    35.7939      .3638      .3999      .8607  -102.4935    10.8441  -999.2500      .0096    48.3051     2.2124
 5892.5000    26.9895  -999.2500   125.6532    35.5111      .3835      .4169      .9390  -102.2699    10.9441  -999.2500      .0018    47.4119     2.2444
 5893.0000    27.6937  -999.2500   124.9290    35.2855      .4079      .4323      .9867  -102.2496    11.0400  -999.2500     -.0076    45.1703     2.2207
 5893.5000    28.3706  -999.2500   123.5901    34.9948      .4313      .4448      .9868  -102.5258    11.1929  -999.2500     -.0138    43.5319     2.2052
 5894.0000    28.1578  -999.2500   122.8735    34.1931      .4523      .4559      .9212  -102.8064    11.3345  -999.2500     -.0075    42.8593     2.2112
 5894.5000    27.5226  -999.2500   122.1544    33.5119      .4716      .4646      .9482  -102.5211    11.2429  -999.2500      .0100    42.0369     2.2478
 5895.0000    27.1479  -999.2500   120.6770    34.0837      .4722      .4705     1.0285  -101.9578    11.1446  -999.2500      .0171    41.4155     2.3068
 5895.5000    28.2381  -999.2500   117.8295    35.7496      .4712      .4691      .9694  -101.5980    11.0142  -999.2500      .0058    42.3839     2.3159
 5896.0000    29.7183  -999.2500   112.7278    36.9512      .4632      .4614      .8905  -101.8269    10.9101  -999.2500     -.0064    44.7967     2.2864
 5896.5000    30.2246  -999.2500   104.1926    37.8083      .4517      .4461      .8284  -102.2802    10.8577  -999.2500      .0012    46.7192     2.2269
 5897.0000    31.7600  -999.2500    98.1888    38.0641      .4335      .4264      .7898  -102.6648    10.9214  -999.2500      .0209    47.5500     2.1854
 5897.5000    32.1617  -999.2500    95.4131    37.9721      .4142      .4132      .7872  -102.8885    10.9677  -999.2500      .0302    47.2407     2.1712
 5898.0000    32.2245  -999.2500    94.3079    38.0675      .4048      .4045      .8010  -102.8394    10.9296  -999.2500      .0195    45.3986     2.1629
 5898.5000    32.2155  -999.2500    94.6509    38.3817      .4079      .4013      .7978  -102.3192    10.8786  -999.2500      .0052    44.5223     2.1575
 5899.0000    32.2867  -999.2500    95.5549    38.4175      .4216      .4159      .7802  -101.5846    10.8554  -999.2500     -.0046    44.4265     2.1550
 5899.5000    32.2680  -999.2500    96.2120    37.9705      .4461      .4529      .7714  -100.9392    10.8661  -999.2500     -.0067    45.1716     2.1558
 5900.0000    31.8605  -999.2500    96.7009    37.4377      .4872      .4975      .7853   -99.9937    10.8920  -999.2500     -.0041    46.2600     2.1619
 5900.5000    30.7834  -999.2500    97.1095    37.2090      .5359      .5466      .8174   -98.9412    10.9107  -999.2500      .0007    47.2887     2.1729
 5901.0000    29.8923  -999.2500    94.1619    37.6800      .5880      .5998      .8307   -97.3782    10.9313  -999.2500      .0141    48.8103     2.1833
 5901.5000    28.2551  -999.2500    90.2448    38.9838      .6387      .6496      .8391   -95.6028    10.9595  -999.2500      .0310    50.3307     2.1995
 5902.0000    27.0320  -999.2500    87.0310    41.1486      .6839      .6937      .9492   -93.8600    10.9777  -999.2500      .0562    50.3975     2.2397
 5902.5000    27.0879  -999.2500    85.7765    43.9777      .7219      .7140     1.1099   -91.0648    10.9720  -999.2500      .0648    50.0323     2.3036
 5903.0000    28.6050  -999.2500    89.5753    46.4838      .7475      .7068     1.1632   -86.8680    10.7463  -999.2500      .0275    52.2687     2.3083
 5903.5000    30.4759  -999.2500    94.5698    49.1592      .7523      .6738     1.0559   -83.9738    10.4739  -999.2500      .0222    57.3954     2.2915
 5904.0000    32.1255  -999.2500   100.2703    52.8688      .7121      .6167      .9076   -82.5145    10.3085  -999.2500      .0207    58.2736     2.2620
 5904.5000    32.2031  -999.2500   104.5457    51.1768      .6310      .5646      .8373   -83.3799    10.2613  -999.2500      .0196    54.9670     2.2248
 5905.0000    31.8896  -999.2500   106.7135    49.9811      .5546      .5102      .8195   -88.3607    10.2507  -999.2500      .0185    53.1379     2.2048
 5905.5000    31.6940  -999.2500   108.0248    49.0322      .4916      .4650      .8279   -93.4354    10.2371  -999.2500      .0175    53.4797     2.1909
 5906.0000    31.5522  -999.2500   108.9106    48.3456      .4433      .4322      .8230   -97.3300    10.1866  -999.2500      .0167    55.1201     2.1846
 5906.5000    31.5929  -999.2500   109.6442    48.3591      .4117      .4081      .7990   -99.2095    10.1338  -999.2500      .0158    56.1591     2.1822
 5907.0000    32.1193  -999.2500   110.4822    48.3525      .3924      .3903      .7731   -99.9985    10.0696  -999.2500      .0148    56.2454     2.1727
 5907.5000    32.2969  -999.2500   111.1771    46.4864      .3766      .3759      .7810  -100.3987    10.0216  -999.2500      .0138    53.8306     2.1524
 5908.0000    31.8905  -999.2500   111.6674    42.7664      .3638      .3643      .7946  -102.2704     9.9929  -999.2500      .0133    51.5630     2.1380
 5908.5000    31.6897  -999.2500   111.8607    42.1703      .3538      .3543      .7977  -103.3737     9.9734  -999.2500      .0129    48.6417     2.1337
 5909.0000    31.7167  -999.2500   111.2490    42.7156      .3494      .3461      .7809  -103.9194     9.9549  -999.2500      .0126    46.1342     2.1425
 5909.5000    32.2084  -999.2500   110.6593    44.4987      .3494      .3429      .7531  -102.5660     9.9485  -999.2500      .0129    45.9500     2.1577
 5910.0000    32.4760  -999.2500   110.2780    43.9907      .3535      .3446      .7330   -97.6868     9.9435  -999.2500      .0132    47.2719     2.1673
 5910.5000    32.4353  -999.2500   110.1073    37.8480      .3547      .3473      .7315   -94.0750     9.9408  -999.2500      .0133    47.7962     2.1660
 5911.0000    32.0106  -999.2500   110.3134    36.0532      .3534      .3445      .7822   -94.9541     9.9409  -999.2500      .0128    44.4075     2.1417
 5911.5000    31.5982  -999.2500   110.6750    33.4897      .3451      .3350      .8282   -97.4419     9.9410  -999.2500      .0115    40.2435     2.1251
 5912.0000    31.4103  -999.2500   111.1241    32.2009      .3345      .3258      .8068  -100.0835     9.9380  -999.2500      .0107    38.9813     2.1187
 5912.5000    31.4505  -999.2500   111.7517    33.2879      .3224      .3153      .7639  -103.1262     9.9330  -999.2500      .0103    38.5921     2.1168
 5913.0000    31.7388  -999.2500   112.3956    34.4120      .3103      .3045      .7284  -105.4668     9.9307  -999.2500      .0074    38.4911     2.1150
 5913.5000    32.1314  -999.2500   112.7042    35.0776      .2979      .2940      .7051  -106.5714     9.9417  -999.2500      .0070    39.0059     2.1132
 5914.0000    32.2528  -999.2500   112.9330    35.3189      .2855      .2844      .6905  -107.3809     9.9526  -999.2500      .0073    39.8842     2.1097
 5914.5000    31.9894  -999.2500   112.7975    35.1889      .2760      .2770      .6972  -108.1311     9.9653  -999.2500      .0106    40.9531     2.1079
 5915.0000    31.6940  -999.2500   112.6516    34.7552      .2693      .2722      .7029  -108.7401     9.9783  -999.2500      .0128    41.4888     2.1074
 5915.5000    31.3987  -999.2500   112.4058    33.6526      .2655      .2717      .7071  -109.4148     9.9846  -999.2500      .0118    41.3467     2.1093
