~VERSION INFORMATION
VERS.                             2.0:   CWLS Log ASCII Standard-VERSION 2.0
WRAP.                              NO:   One line per depth step
~Well Information Block
STRT.F                      3150.0000:   Top Depth
STOP.F                     11219.0000:   Bottom Depth
STEP.F                         .50000:   Depth Increment
NULL.                        -999.250:   Null Value
FLD .                      GA BLK 300:   Field Name
WELL.       OCSG11310   002 ST00 BP00:   NAME
API .                  42706403320000:   WELL API
EDF .F                        97.5000:   ELEV DRILL FLOOR
COMP.       SEAGULL ENERGY E AND P IN:   OPERATOR
BN  .                             300:   BLOCK
CTRY.                             USA:   COUNTRY NAME
CNTY.                              GA:   COUNTY
CNTY.                        GLVSTN L:   COUNTY NAME
EGL .F                       -56.0000:   ELEV GROUND LEVEL
EKB .F                        98.5000:   ELEV KELLY BUSHING
TDD .F                      11225.000:   FINAL TD DRILLER
STAT.                           TEXAS:   STATE NAME
UWI .                  42706403320000:   WELL API
DICO.               IHS : Digitizing Company
~PARAMETER INFORMATION (zones)
#MNEM.UNIT                       Value     Description
#=========                       =====     ===========
#ZONATION                          CNL:   ZONATION NAME
#ZONE                            RUN_2:   ZONE NAME
TOP .                       9384.0000:   TOP DEPTH
BOT .                      11168.5000:   BOTTOM DEPTH
RUN .                               2:   RUN NUMBER
LCCD.                             440:   LOGGING CONTRACTOR
SRVC.                    Schlumberger:   LOGGING CONT NAME
DICO.          QC Data Collectors Ltd:   DIG COMPANY NAME
LDAT.                      04/26/1993:   DATE LOGGED
ELD .F                        98.5000:   LOG DATUM ELEVATION
TDD .F                     11217.0000:   TOTAL DEPTH DRILLER
TDL .F                     11225.0000:   TOTAL DEPTH LOGGER
BOTL.F                     11219.0000:   BOTTOM DEPTH LOGGED
TOPL.F                      9802.0000:   TOP DEPTH LOGGED
CS1 .IN                        7.6250:   CASING SIZE 1
BS1 .IN                        6.5000:   BIT SIZE 1
DDB1.F                     11217.0000:   DEPTH DRILLED BIT 1
BHF .                              99:   FLUID CODE
DPT .                   Miscellaneous:   DRILLING FLUID TYPE
MUDD.                         13.9000:   FLUID DENSITY
MUDV.                         41.0000:   FLUID VISCOSITY
DFPH.                         10.0000:   FLUID PH
FL  .                          3.2000:   FLUID LOSS
RM  .OHMM                       .9550:   RM
RMT .DEGF                     77.0000:   RM TEMP
RMF .OHMM                       .5740:   RMF
RMFT.DEGF                     76.0000:   RMF TEMP
FSC .                               M:   RMF CODE
RMC .OHMM                      1.6900:   RMC
RMCT.DEGF                     76.0000:   RMC TEMP
CMC .                               M:   RMC CODE
TMAX.DEGF                    207.0000:   MAX REC TEMP
TIMC.                         17.0000:   TIME SINCE CIRCLN
~PARAMETER INFORMATION (zones)
#MNEM.UNIT                       Value     Description
#=========                       =====     ===========
#ZONATION                          DIL:   ZONATION NAME
#ZONE                            RUN_1:   ZONE NAME
TOP .                       3150.0000:   TOP DEPTH
BOT .                       9865.5000:   BOTTOM DEPTH
RUN .                               1:   RUN NUMBER
LCCD.                             440:   LOGGING CONTRACTOR
SRVC.                    Schlumberger:   LOGGING CONT NAME
DICO.          QC Data Collectors Ltd:   DIG COMPANY NAME
LDAT.                      04/10/1993:   DATE LOGGED
ELD .F                        98.5000:   LOG DATUM ELEVATION
TDD .F                      9878.0000:   TOTAL DEPTH DRILLER
TDL .F                      9871.0000:   TOTAL DEPTH LOGGER
BOTL.F                      9865.0000:   BOTTOM DEPTH LOGGED
TOPL.F                      3298.0000:   TOP DEPTH LOGGED
CS1 .IN                       10.7500:   CASING SIZE 1
BS1 .IN                        9.8750:   BIT SIZE 1
DDB1.F                      9878.0000:   DEPTH DRILLED BIT 1
BHF .                              99:   FLUID CODE
DPT .                   Miscellaneous:   DRILLING FLUID TYPE
MUDD.                         11.8000:   FLUID DENSITY
MUDV.                         44.0000:   FLUID VISCOSITY
DFPH.                          9.5000:   FLUID PH
FL  .                          4.6000:   FLUID LOSS
RM  .OHMM                       .8730:   RM
RMT .DEGF                     82.0000:   RM TEMP
RMF .OHMM                       .4990:   RMF
RMFT.DEGF                     82.0000:   RMF TEMP
FSC .                               M:   RMF CODE
RMC .OHMM                      1.4400:   RMC
RMCT.DEGF                     82.0000:   RMC TEMP
CMC .                               M:   RMC CODE
TMAX.DEGF                    177.0000:   MAX REC TEMP
TIMC.                         15.0000:   TIME SINCE CIRCLN
~PARAMETER INFORMATION (zones)
#MNEM.UNIT                       Value     Description
#=========                       =====     ===========
#ZONATION                          DIL:   ZONATION NAME
#ZONE                            RUN_2:   ZONE NAME
TOP .                       9802.0000:   TOP DEPTH
BOT .                      11219.5000:   BOTTOM DEPTH
RUN .                               2:   RUN NUMBER
LCCD.                             440:   LOGGING CONTRACTOR
SRVC.                    Schlumberger:   LOGGING CONT NAME
DICO.          QC Data Collectors Ltd:   DIG COMPANY NAME
LDAT.                      04/26/1993:   DATE LOGGED
ELD .F                        98.5000:   LOG DATUM ELEVATION
TDD .F                     11217.0000:   TOTAL DEPTH DRILLER
TDL .F                     11225.0000:   TOTAL DEPTH LOGGER
BOTL.F                     11219.0000:   BOTTOM DEPTH LOGGED
TOPL.F                      9802.0000:   TOP DEPTH LOGGED
CS1 .IN                        7.6250:   CASING SIZE 1
BS1 .IN                        6.5000:   BIT SIZE 1
DDB1.F                     11217.0000:   DEPTH DRILLED BIT 1
BHF .                              99:   FLUID CODE
DPT .                   Miscellaneous:   DRILLING FLUID TYPE
MUDD.                         13.9000:   FLUID DENSITY
MUDV.                         41.0000:   FLUID VISCOSITY
DFPH.                         10.0000:   FLUID PH
FL  .                          3.2000:   FLUID LOSS
RM  .OHMM                       .9550:   RM
RMT .DEGF                     77.0000:   RM TEMP
RMF .OHMM                       .5740:   RMF
RMFT.DEGF                     76.0000:   RMF TEMP
FSC .                               M:   RMF CODE
RMC .OHMM                      1.6900:   RMC
RMCT.DEGF                     76.0000:   RMC TEMP
CMC .                               M:   RMC CODE
TMAX.DEGF                    207.0000:   MAX REC TEMP
TIMC.                         17.0000:   TIME SINCE CIRCLN
~PARAMETER INFORMATION (zones)
#MNEM.UNIT                       Value     Description
#=========                       =====     ===========
#ZONATION                          LDT:   ZONATION NAME
#ZONE                            RUN_2:   ZONE NAME
TOP .                       9372.0000:   TOP DEPTH
BOT .                      11188.5000:   BOTTOM DEPTH
RUN .                               2:   RUN NUMBER
LCCD.                             440:   LOGGING CONTRACTOR
SRVC.                    Schlumberger:   LOGGING CONT NAME
DICO.          QC Data Collectors Ltd:   DIG COMPANY NAME
LDAT.                      04/26/1993:   DATE LOGGED
ELD .F                        98.5000:   LOG DATUM ELEVATION
TDD .F                     11217.0000:   TOTAL DEPTH DRILLER
TDL .F                     11225.0000:   TOTAL DEPTH LOGGER
BOTL.F                     11219.0000:   BOTTOM DEPTH LOGGED
TOPL.F                      9802.0000:   TOP DEPTH LOGGED
CS1 .IN                        7.6250:   CASING SIZE 1
BS1 .IN                        6.5000:   BIT SIZE 1
DDB1.F                     11217.0000:   DEPTH DRILLED BIT 1
BHF .                              99:   FLUID CODE
DPT .                   Miscellaneous:   DRILLING FLUID TYPE
MUDD.                         13.9000:   FLUID DENSITY
MUDV.                         41.0000:   FLUID VISCOSITY
DFPH.                         10.0000:   FLUID PH
FL  .                          3.2000:   FLUID LOSS
RM  .OHMM                       .9550:   RM
RMT .DEGF                     77.0000:   RM TEMP
RMF .OHMM                       .5740:   RMF
RMFT.DEGF                     76.0000:   RMF TEMP
FSC .                               M:   RMF CODE
RMC .OHMM                      1.6900:   RMC
RMCT.DEGF                     76.0000:   RMC TEMP
CMC .                               M:   RMC CODE
TMAX.DEGF                    207.0000:   MAX REC TEMP
TIMC.                         17.0000:   TIME SINCE CIRCLN
~Curve Information Block
#MNEM.UNIT                    API CODE    No Description
#=========                    ========    == ===========
DEPT.F                   00 001 00 00:     1  DEPTH
NPHI.%                               :     2  Neutron Porosity
DT.US/F                              :     3  Sonic Transit Time
DTL.US/F                             :     4  Sonic Transit Time (Slowness)
GR.GAPI                              :     5  Gamma Ray
ILD.OHMM                             :     6  Deep Induction Resistivity
ILM.OHMM                             :     7  Medium Induction Resistivity
SFL.OHMM                             :     8  Medium Resistivity
SP.MV                                :     9  Spontaneous Potential
DCAL.IN                              :    10  Differential Caliper
DPHI.%                               :    11  Porosity
GR.GAPI                              :    12  Gamma Ray
~ASCII
# ...
 9036.5000  -999.2500   108.7500  -999.2500    87.5625      .8989      .7886      .9082   -41.3184  -999.2500  -999.2500  -999.2500
 9037.0000  -999.2500   109.0000  -999.2500    90.3125      .8916      .7822      .9063   -41.3818  -999.2500  -999.2500  -999.2500
 9037.5000  -999.2500   110.5000  -999.2500    91.3125      .8853      .7788      .9097   -41.5996  -999.2500  -999.2500  -999.2500
 9038.0000  -999.2500   109.7500  -999.2500    87.3125      .8809      .7773      .9229   -41.6504  -999.2500  -999.2500  -999.2500
 9038.5000  -999.2500   108.5000  -999.2500    89.5625      .8755      .7769      .9580   -41.8027  -999.2500  -999.2500  -999.2500
 9039.0000  -999.2500   107.7500  -999.2500    94.8125      .8726      .7759      .9663   -42.3008  -999.2500  -999.2500  -999.2500
 9039.5000  -999.2500   107.5000  -999.2500    91.8125      .8721      .7734      .9658   -41.9746  -999.2500  -999.2500  -999.2500
 9040.0000  -999.2500   106.2500  -999.2500    86.2500      .8721      .7705      .9492   -42.2305  -999.2500  -999.2500  -999.2500
 9040.5000  -999.2500   106.2500  -999.2500    84.0000      .8721      .7676      .9194   -41.9775  -999.2500  -999.2500  -999.2500
 9041.0000  -999.2500   107.5000  -999.2500    87.0625      .8711      .7666      .8730   -41.1914  -999.2500  -999.2500  -999.2500
 9041.5000  -999.2500   108.0000  -999.2500    87.8125      .8687      .7676      .8638   -41.1270  -999.2500  -999.2500  -999.2500
 9042.0000  -999.2500   110.2500  -999.2500    86.0000      .8672      .7700      .8994   -40.6968  -999.2500  -999.2500  -999.2500
 9042.5000  -999.2500   112.0000  -999.2500    84.0000      .8662      .7710      .9175   -40.4927  -999.2500  -999.2500  -999.2500
 9043.0000  -999.2500   112.2500  -999.2500    87.8125      .8608      .7700      .9141   -40.6343  -999.2500  -999.2500  -999.2500
 9043.5000  -999.2500   113.0000  -999.2500    86.5000      .8584      .7666      .9053   -40.7427  -999.2500  -999.2500  -999.2500
 9044.0000  -999.2500   111.5000  -999.2500    92.5625      .8594      .7617      .8931   -40.3638  -999.2500  -999.2500  -999.2500
 9044.5000  -999.2500   110.6250  -999.2500    90.2500      .8608      .7583      .8716   -40.2998  -999.2500  -999.2500  -999.2500
 9045.0000  -999.2500   110.1250  -999.2500    90.0000      .8638      .7588      .8750   -40.5776  -999.2500  -999.2500  -999.2500
 9045.5000  -999.2500   109.2500  -999.2500    89.3125      .8701      .7642      .8994   -40.2227  -999.2500  -999.2500  -999.2500
 9046.0000  -999.2500   109.0000  -999.2500    85.5000      .8799      .7759      .9194   -40.3701  -999.2500  -999.2500  -999.2500
 9046.5000  -999.2500   105.7500  -999.2500    83.2500      .8945      .7954      .9170   -40.9438  -999.2500  -999.2500  -999.2500
 9047.0000  -999.2500   102.8750  -999.2500    78.7500      .9082      .8228      .9917   -41.3486  -999.2500  -999.2500  -999.2500
 9047.5000  -999.2500    99.6250  -999.2500    77.0000      .9189      .8545     1.1123   -41.7891  -999.2500  -999.2500  -999.2500
 9048.0000  -999.2500    98.2500  -999.2500    70.1875      .9277      .8823     1.2031   -43.0234  -999.2500  -999.2500  -999.2500
 9048.5000  -999.2500    96.7500  -999.2500    68.9375      .9346      .8979     1.2461   -43.9961  -999.2500  -999.2500  -999.2500
 9049.0000  -999.2500    97.2500  -999.2500    66.9375      .9390      .8970     1.2568   -44.5117  -999.2500  -999.2500  -999.2500
 9049.5000  -999.2500   100.2500  -999.2500    75.9375      .9390      .8813     1.2119   -45.1914  -999.2500  -999.2500  -999.2500
 9050.0000  -999.2500   103.5000  -999.2500    74.1875      .9341      .8599     1.1299   -44.5352  -999.2500  -999.2500  -999.2500
 9050.5000  -999.2500   108.6250  -999.2500    79.1875      .9263      .8379     1.0293   -43.4453  -999.2500  -999.2500  -999.2500
 9051.0000  -999.2500   107.6250  -999.2500    85.2500      .9170      .8213      .9673   -42.6367  -999.2500  -999.2500  -999.2500
 9051.5000  -999.2500   110.2500  -999.2500    90.3125      .9097      .8125      .9263   -41.4629  -999.2500  -999.2500  -999.2500
 9052.0000  -999.2500   107.6250  -999.2500    87.3125      .8984      .8101      .9199   -41.2051  -999.2500  -999.2500  -999.2500
 9052.5000  -999.2500   107.5000  -999.2500    82.2500      .8906      .8125      .9658   -41.4453  -999.2500  -999.2500  -999.2500
 9053.0000  -999.2500   106.8750  -999.2500    79.2500      .8882      .8154      .9941   -41.4912  -999.2500  -999.2500  -999.2500
 9053.5000  -999.2500   106.8750  -999.2500    82.7500      .8950      .8174      .9829   -41.5674  -999.2500  -999.2500  -999.2500
 9054.0000  -999.2500   106.8750  -999.2500    77.5000      .9053      .8193      .9736   -41.3096  -999.2500  -999.2500  -999.2500
 9054.5000  -999.2500   104.2500  -999.2500    77.7500      .9111      .8232     1.0400   -40.5718  -999.2500  -999.2500  -999.2500
 9055.0000  -999.2500   104.3750  -999.2500    78.7500      .9165      .8296     1.0947   -40.3115  -999.2500  -999.2500  -999.2500
 9055.5000  -999.2500   104.5000  -999.2500    83.1875      .9229      .8374     1.0801   -40.2100  -999.2500  -999.2500  -999.2500
 9056.0000  -999.2500   105.3750  -999.2500    88.6875      .9282      .8438     1.0479   -39.7637  -999.2500  -999.2500  -999.2500
 9056.5000  -999.2500   106.5000  -999.2500    89.4375      .9292      .8472     1.0732   -40.4355  -999.2500  -999.2500  -999.2500
 9057.0000  -999.2500   103.8750  -999.2500    86.5000      .9321      .8481     1.0654   -40.5332  -999.2500  -999.2500  -999.2500
 9057.5000  -999.2500   106.6250  -999.2500    82.5000      .9365      .8477     1.0303   -40.7134  -999.2500  -999.2500  -999.2500
 9058.0000  -999.2500   106.1250  -999.2500    80.0000      .9360      .8477     1.0156   -40.8096  -999.2500  -999.2500  -999.2500
 9058.5000  -999.2500   105.8750  -999.2500    83.5000      .9346      .8486     1.0322   -40.5708  -999.2500  -999.2500  -999.2500
 9059.0000  -999.2500   107.2500  -999.2500    85.5000      .9346      .8501     1.0293   -40.4146  -999.2500  -999.2500  -999.2500
 9059.5000  -999.2500   107.3750  -999.2500    87.0000      .9351      .8521     1.0264   -40.8130  -999.2500  -999.2500  -999.2500
 9060.0000  -999.2500   107.2500  -999.2500    84.2500      .9399      .8545     1.0586   -40.4707  -999.2500  -999.2500  -999.2500
 9060.5000  -999.2500   103.0000  -999.2500    84.3750      .9448      .8599     1.0693   -40.5024  -999.2500  -999.2500  -999.2500
 9061.0000  -999.2500   104.7500  -999.2500    83.8750      .9385      .8672     1.0771   -40.7822  -999.2500  -999.2500  -999.2500
 9061.5000  -999.2500   104.6250  -999.2500    80.1250      .9351      .8721     1.1006   -40.8525  -999.2500  -999.2500  -999.2500
 9062.0000  -999.2500   104.5000  -999.2500    81.7500      .9346      .8706     1.1396   -40.7954  -999.2500  -999.2500  -999.2500
 9062.5000  -999.2500   108.1250  -999.2500    78.1875      .9346      .8618     1.0762   -41.5010  -999.2500  -999.2500  -999.2500
 9063.0000  -999.2500   108.1250  -999.2500    86.1875      .9434      .8511     1.0010   -41.1943  -999.2500  -999.2500  -999.2500
 9063.5000  -999.2500   106.8750  -999.2500    78.6875      .9541      .8457      .9629   -40.7764  -999.2500  -999.2500  -999.2500
 9064.0000  -999.2500   103.8750  -999.2500    82.2500      .9541      .8525      .9951   -40.4917  -999.2500  -999.2500  -999.2500
 9064.5000  -999.2500   102.1250  -999.2500    77.0000      .9497      .8696     1.0654   -40.1152  -999.2500  -999.2500  -999.2500
 9065.0000  -999.2500   102.2500  -999.2500    76.2500      .9468      .8882     1.1953   -39.5395  -999.2500  -999.2500  -999.2500
 9065.5000  -999.2500   103.6250  -999.2500    75.7500      .9419      .8955     1.2295   -40.0811  -999.2500  -999.2500  -999.2500
 9066.0000  -999.2500   104.8750  -999.2500    79.4375      .9360      .8857     1.2070   -40.1519  -999.2500  -999.2500  -999.2500
 9066.5000  -999.2500   108.0000  -999.2500    85.0000      .9292      .8623     1.1240   -40.2002  -999.2500  -999.2500  -999.2500
