~VERSION INFORMATION
VERS.                             2.0:   CWLS Log ASCII Standard-VERSION 2.0
WRAP.                              NO:   One line per depth step
~Well Information Block
STRT.F                      4470.0000:   Top Depth
STOP.F                     11800.5000:   Bottom Depth
STEP.F                         .50000:   Depth Increment
NULL.                        -999.250:   Null Value
FLD .                      GA BLK 315:   Field Name
WELL.       OCSG14835   001 ST00 BP00:   NAME
API .                  42706403880000:   WELL API
LOC .       993' FSL & 3018' FEL OF B:   AREA NAME
CTRY.                             USA:   COUNTRY
EGL .FT                      -66.0000:   GROUND LEVEL
EKB .FT                        0.0000:   KB ELEVATION
COMP.              APACHE CORPORATION:   OPERATOR
DREF.                             MSL:   PERM DATUM
COUN.                        OFFSHORE:   RIG NAME
STAT.                              TX:   STATE
CNTY.                        OFFSHORE:   COUNTY
DIGS.                   QC Data, Inc.:   DIG COMPANY NAME
EREF.FT                        0.0000:   ELEV DEPTH REFERENCE
UWI .                  42706403880000:   WELL API
DICO.               IHS : Digitizing Company
~PARAMETER INFORMATION (zones)
#MNEM.UNIT                       Value     Description
#=========                       =====     ===========
#ZONATION                        ZONES:   ZONATION NAME
#ZONE                             LAS1:   ZONE NAME
TOP .                       4470.0000:   TOP DEPTH
BOT .                      11816.0000:   BOTTOM DEPTH
SRVC.                   WESTERN ATLAS:   LOGGING CONTRACTOR
DATE.                         10AUG96:   RUN DATE
RW  .OHMM                      0.0000:   RW
RWT .DEGF                      0.0000:   RW TEMP
RUN .                               1:   LOG RUN
TDL .FT                     9298.0000:   FINAL TD LOGGER
TDD .FT                     9300.0000:   FINAL TD DRILLER
BOTL.FT                     9296.0000:   BOTTOM DEPTH LOGGED
TOPL.FT                     4478.0000:   TOP DEPTH LOGGED
CSGL.FT                     4494.0000:   CASING DEPTH LOGGER
CSGD.FT                     4488.0000:   CASING DEPTH DRILLER
CSGS.IN                       13.3750:   CASING SIZE
CSGW.                          0.0000:   CASING WEIGHT
BS  .IN                       12.2500:   BIT SIZE
MUD .                             MUD:   MUD TYPE
MUDD.                         14.2000:   MUD WEIGHT
MUDV.                         41.0000:   MUD VISCOSITY
FL  .                          4.4000:   FLUID LOSS
PH  .                          8.5000:   MUD PH
MUDS.                             PIT:   MUD SOURCE
RM  .OHMM                      1.3000:   RM
RMT .DEGF                     80.0000:   RM TEMP
RMF .OHMM                      0.5400:   RMF
RMFT.DEGF                     80.0000:   RMF TEMP
RMC .OHMM                      2.5000:   RMC
RMCT.DEGF                     80.0000:   RMC TEMP
MMFS.                            MEAS:   RMF SOURCE
MCFS.                            MEAS:   RMC SOURCE
RMBH.OHMM                      0.5500:   RM BH
BHT .DEGF                    182.0000:   BH TEMP
TMAX.DEGF                    182.0000:   MAX REC TEMP
SON .                          180318:   SERVICE ORDER NUM
ELMF.FT                       92.0000:   ABOVE PERM DATUM
LMF .                              DF:   LOGS MEAS FROM
DMF .                              DF:   DRILL MEAS FROM
TIMC.                            0600:   TIME SINCE CIRCLN
UNIT.8940                        8079:   UNIT NO.
BASE.                        PEARLAND:   LOG UNIT HOME BASE
ENG .                          SUTTON:   ENGINEER
WIT .                            DILL:   WITNESS
~PARAMETER INFORMATION (zones)
#MNEM.UNIT                       Value     Description
#=========                       =====     ===========
#ZONATION                        ZONES:   ZONATION NAME
#ZONE                             LAS2:   ZONE NAME
TOP .                       4470.0000:   TOP DEPTH
BOT .                      11816.0000:   BOTTOM DEPTH
SRVC.                   WESTERN ATLAS:   LOGGING CONTRACTOR
DATE.                         21AUG96:   RUN DATE
RW  .OHMM                      0.0000:   RW
RWT .DEGF                      0.0000:   RW TEMP
RUN .                               2:   LOG RUN
TDL .FT                    11503.0000:   FINAL TD LOGGER
TDD .FT                    11500.0000:   FINAL TD DRILLER
BOTL.FT                    11495.0000:   BOTTOM DEPTH LOGGED
TOPL.FT                     9240.0000:   TOP DEPTH LOGGED
CSGL.FT                     9240.0000:   CASING DEPTH LOGGER
CSGD.FT                     9250.0000:   CASING DEPTH DRILLER
CSGS.IN                        9.6250:   CASING SIZE
CSGW.                          0.0000:   CASING WEIGHT
BS  .IN                        8.5000:   BIT SIZE
MUD .                     DESCO LO-PH:   MUD TYPE
MUDD.                         16.4000:   MUD WEIGHT
MUDV.                         50.0000:   MUD VISCOSITY
FL  .                          2.8000:   FLUID LOSS
PH  .                          8.5000:   MUD PH
MUDS.                             PIT:   MUD SOURCE
RM  .OHMM                      1.0000:   RM
RMT .DEGF                     80.0000:   RM TEMP
RMF .OHMM                      0.4500:   RMF
RMFT.DEGF                     80.0000:   RMF TEMP
RMC .OHMM                      3.0000:   RMC
RMCT.DEGF                     80.0000:   RMC TEMP
MMFS.                            MEAS:   RMF SOURCE
MCFS.                            MEAS:   RMC SOURCE
RMBH.OHMM                      0.3870:   RM BH
BHT .DEGF                    230.0000:   BH TEMP
TMAX.DEGF                    230.0000:   MAX REC TEMP
SON .                          180319:   SERVICE ORDER NUM
ELMF.FT                       92.0000:   ABOVE PERM DATUM
LMF .                              DF:   LOGS MEAS FROM
DMF .                              DF:   DRILL MEAS FROM
TIMC.                            0700:   TIME SINCE CIRCLN
UNIT.8940                        8089:   UNIT NO.
BASE.                        PEARLAND:   LOG UNIT HOME BASE
ENG .                    SUTTON/DAVIS:   ENGINEER
WIT .                      MR.CAMBELL:   WITNESS
~PARAMETER INFORMATION (zones)
#MNEM.UNIT                       Value     Description
#=========                       =====     ===========
#ZONATION                        ZONES:   ZONATION NAME
#ZONE                             LAS3:   ZONE NAME
TOP .                       4470.0000:   TOP DEPTH
BOT .                      11816.0000:   BOTTOM DEPTH
SRVC.                   WESTERN ATLAS:   LOGGING CONTRACTOR
DATE.                         23AUG96:   RUN DATE
RW  .OHMM                      0.0000:   RW
RWT .DEGF                      0.0000:   RW TEMP
RUN .                               3:   LOG RUN
TDL .FT                    11800.0000:   FINAL TD LOGGER
TDD .FT                    11800.0000:   FINAL TD DRILLER
BOTL.FT                    11791.0000:   BOTTOM DEPTH LOGGED
TOPL.FT                     9240.0000:   TOP DEPTH LOGGED
CSGL.FT                     9240.0000:   CASING DEPTH LOGGER
CSGD.FT                     9250.0000:   CASING DEPTH DRILLER
CSGS.IN                        9.6250:   CASING SIZE
CSGW.                          0.0000:   CASING WEIGHT
BS  .IN                        8.5000:   BIT SIZE
MUD .                     DESCO LO-PH:   MUD TYPE
MUDD.                         16.4000:   MUD WEIGHT
MUDV.                         50.0000:   MUD VISCOSITY
FL  .                          2.8000:   FLUID LOSS
PH  .                          8.5000:   MUD PH
MUDS.                             PIT:   MUD SOURCE
RM  .OHMM                      1.0000:   RM
RMT .DEGF                     80.0000:   RM TEMP
RMF .OHMM                      0.4500:   RMF
RMFT.DEGF                     80.0000:   RMF TEMP
RMC .OHMM                      3.0000:   RMC
RMCT.DEGF                     80.0000:   RMC TEMP
MMFS.                            MEAS:   RMF SOURCE
MCFS.                            MEAS:   RMC SOURCE
RMBH.OHMM                      0.3870:   RM BH
BHT .DEGF                    232.0000:   BH TEMP
TMAX.DEGF                    232.0000:   MAX REC TEMP
SON .                          180319:   SERVICE ORDER NUM
ELMF.FT                       92.0000:   ABOVE PERM DATUM
LMF .                              DF:   LOGS MEAS FROM
DMF .                              DF:   DRILL MEAS FROM
TIMC.                            0700:   TIME SINCE CIRCLN
UNIT.8940                        8089:   UNIT NO.
BASE.                        PEARLAND:   LOG UNIT HOME BASE
ENG .                    SUTTON/DAVIS:   ENGINEER
WIT .                      BOB SHELBY:   WITNESS
~Curve Information Block
#MNEM.UNIT                    API CODE    No Description
#=========                    ========    == ===========
DEPT.F                   00 001 00 00:     1  DEPTH
CALX.IN                              :     2  Caliper
CNCF.%                               :     3  Field Normalized CNC
DT.US/F                              :     4  Sonic Transit Time
GR.GAPI                              :     5  Gamma Ray
M2R1.OHMM                            :     6  Array Resistivity Curve
M2R2.OHMM                            :     7  Array Resistivity Curve
M2R3.OHMM                            :     8  Array Resistivity Curve
M2R6.OHMM                            :     9  Array Resistivity Curve
M2R9.OHMM                            :    10  Array Resistivity Curve
M2RX.OHMM                            :    11  Array Resistivity Curve
PORZ.%                               :    12  PORZ
RFOC.OHMM                            :    13  Medium Resistivity
RILD.OHMM                            :    14  Deep Resistivity
RILM.OHMM                            :    15  Medium Resistivity
RWAA.OHMM                            :    16  RWAA
RWAZ.OHMM                            :    17  RWAZ
SP.MV                                :    18  Spontaneous Potential
TEN.LB                               :    19  TEN
ZCOR.G/CC                            :    20  Density Correction
~ASCII
# ...
11592.5000     8.9920    32.3190  -999.2500    68.1880      .6260      .5870      .5700      .5690      .5670      .5660    15.5940  -999.2500  -999.2500  -999.2500  -999.2500      .0170    -4.4510  -999.2500  -999.2500
11593.0000     8.9920    32.5120  -999.2500    67.9880      .6320      .5940      .5770      .5750      .5730      .5720    14.9830  -999.2500  -999.2500  -999.2500  -999.2500      .0160    -4.3790  -999.2500  -999.2500
11593.5000     8.9920    32.4730  -999.2500    68.3620      .6330      .5960      .5800      .5790      .5770      .5770    14.7190  -999.2500  -999.2500  -999.2500  -999.2500      .0150    -4.2450  -999.2500  -999.2500
11594.0000     8.9940    32.0460  -999.2500    69.8380      .6290      .5940      .5800      .5790      .5780      .5790    14.6930  -999.2500  -999.2500  -999.2500  -999.2500      .0150    -4.0040  -999.2500  -999.2500
11594.5000     8.9960    31.6810  -999.2500    70.8480      .6220      .5890      .5770      .5760      .5750      .5760    14.5800  -999.2500  -999.2500  -999.2500  -999.2500      .0150    -4.0340  -999.2500  -999.2500
11595.0000     8.9960    31.7820  -999.2500    69.6990      .6160      .5840      .5720      .5700      .5700      .5700    14.4730  -999.2500  -999.2500  -999.2500  -999.2500      .0140    -4.3850  -999.2500  -999.2500
11595.5000     9.0000    32.0540  -999.2500    68.1900      .6170      .5820      .5680      .5660      .5640      .5640    14.6450  -999.2500  -999.2500  -999.2500  -999.2500      .0150    -4.5580  -999.2500  -999.2500
11596.0000     9.0080    32.0570  -999.2500    68.5720      .6200      .5810      .5640      .5620      .5600      .5590    15.1470  -999.2500  -999.2500  -999.2500  -999.2500      .0160    -4.3950  -999.2500  -999.2500
11596.5000     9.0130    31.8490  -999.2500    70.5990      .6200      .5780      .5610      .5590      .5570      .5560    15.6720  -999.2500  -999.2500  -999.2500  -999.2500      .0170    -4.3210  -999.2500  -999.2500
11597.0000     9.0080    31.7970  -999.2500    72.3520      .6180      .5750      .5590      .5570      .5550      .5550    15.8940  -999.2500  -999.2500  -999.2500  -999.2500      .0170    -4.3420  -999.2500  -999.2500
11597.5000     9.0000    32.0350  -999.2500    71.8950      .6150      .5760      .5610      .5600      .5590      .5590    15.8050  -999.2500  -999.2500  -999.2500  -999.2500      .0170    -4.0530  -999.2500  -999.2500
11598.0000     8.9980    32.2530  -999.2500    68.6720      .6150      .5800      .5670      .5660      .5650      .5650    15.6200  -999.2500  -999.2500  -999.2500  -999.2500      .0170    -3.6530  -999.2500  -999.2500
11598.5000     8.9970    32.1730  -999.2500    65.2910      .6160      .5830      .5710      .5690      .5670      .5660    15.5230  -999.2500  -999.2500  -999.2500  -999.2500      .0170    -3.5780  -999.2500  -999.2500
11599.0000     8.9980    31.9840  -999.2500    65.3880      .6160      .5850      .5730      .5700      .5680      .5670    15.4550  -999.2500  -999.2500  -999.2500  -999.2500      .0170    -3.6930  -999.2500  -999.2500
11599.5000     8.9990    31.9740  -999.2500    67.8340      .6200      .5930      .5830      .5820      .5800      .5800    15.3450  -999.2500  -999.2500  -999.2500  -999.2500      .0170    -3.5440  -999.2500  -999.2500
11600.0000     8.9980    32.2140  -999.2500    69.3400      .6280      .6080      .6040      .6060      .6060      .6080    15.3520  -999.2500  -999.2500  -999.2500  -999.2500      .0170    -3.3720  -999.2500  -999.2500
11600.5000     8.9970    32.5630  -999.2500    69.6320      .6390      .6220      .6230      .6280      .6310      .6350    15.5710  -999.2500  -999.2500  -999.2500  -999.2500      .0190    -3.5800  -999.2500  -999.2500
11601.0000     8.9960    32.9000  -999.2500    70.0680      .6500      .6270      .6270      .6310      .6330      .6370    15.7580  -999.2500  -999.2500  -999.2500  -999.2500      .0190    -4.0510  -999.2500  -999.2500
11601.5000     8.9960    33.1140  -999.2500    70.2420      .6540      .6160      .6090      .6080      .6070      .6080    15.8710  -999.2500  -999.2500  -999.2500  -999.2500      .0190    -4.2830  -999.2500  -999.2500
11602.0000     8.9960    33.0660  -999.2500    69.7980      .6510      .5980      .5820      .5770      .5730      .5710    16.0510  -999.2500  -999.2500  -999.2500  -999.2500      .0180    -4.2430  -999.2500  -999.2500
11602.5000     8.9980    32.8930  -999.2500    69.6490      .6530      .5900      .5700      .5630      .5590      .5570    16.1990  -999.2500  -999.2500  -999.2500  -999.2500      .0180    -4.1460  -999.2500  -999.2500
11603.0000     9.0010    32.8500  -999.2500    69.6640      .6640      .5970      .5780      .5750      .5720      .5710    16.1900  -999.2500  -999.2500  -999.2500  -999.2500      .0180    -4.0420  -999.2500  -999.2500
11603.5000     9.0020    32.9270  -999.2500    68.8180      .6770      .6100      .5930      .5950      .5960      .5970    16.0520  -999.2500  -999.2500  -999.2500  -999.2500      .0190    -4.0470  -999.2500  -999.2500
11604.0000     9.0000    32.9920  -999.2500    67.9020      .6670      .6010      .5840      .5900      .5930      .5950    15.7590  -999.2500  -999.2500  -999.2500  -999.2500      .0180    -4.2340  -999.2500  -999.2500
11604.5000     8.9970    32.9930  -999.2500    68.6670      .6350      .5710      .5520      .5590      .5630      .5660    15.4170  -999.2500  -999.2500  -999.2500  -999.2500      .0160    -4.3970  -999.2500  -999.2500
11605.0000     8.9930    32.8960  -999.2500    70.9000      .6140      .5550      .5360      .5460      .5510      .5550    15.3520  -999.2500  -999.2500  -999.2500  -999.2500      .0160    -4.3420  -999.2500  -999.2500
11605.5000     8.9880    32.7850  -999.2500    71.8080      .6140      .5620      .5470      .5610      .5690      .5740    15.5920  -999.2500  -999.2500  -999.2500  -999.2500      .0170    -4.1530  -999.2500  -999.2500
11606.0000     8.9870    32.8270  -999.2500    71.6720      .6200      .5720      .5610      .5770      .5880      .5950    15.8770  -999.2500  -999.2500  -999.2500  -999.2500      .0180    -3.8450  -999.2500  -999.2500
11606.5000     8.9910    33.0140  -999.2500    71.8340      .6230      .5760      .5670      .5810      .5910      .5980    16.1160  -999.2500  -999.2500  -999.2500  -999.2500      .0190    -3.2270  -999.2500  -999.2500
11607.0000     8.9950    33.1360  -999.2500    72.3900      .6260      .5790      .5680      .5790      .5870      .5920    16.3580  -999.2500  -999.2500  -999.2500  -999.2500      .0190    -2.4000  -999.2500  -999.2500
11607.5000     8.9960    33.0740  -999.2500    72.8610      .6300      .5820      .5710      .5790      .5830      .5870    16.4270  -999.2500  -999.2500  -999.2500  -999.2500      .0190    -2.0290  -999.2500  -999.2500
11608.0000     8.9940    32.5970  -999.2500    72.7030      .6320      .5880      .5760      .5800      .5820      .5840    16.2320  -999.2500  -999.2500  -999.2500  -999.2500      .0190    -2.6090  -999.2500  -999.2500
11608.5000     8.9920    32.0820  -999.2500    70.8690      .6300      .5900      .5770      .5790      .5780      .5780    16.0420  -999.2500  -999.2500  -999.2500  -999.2500      .0180    -3.5300  -999.2500  -999.2500
11609.0000     8.9900    31.9590  -999.2500    69.0300      .6250      .5880      .5740      .5730      .5700      .5690    16.0320  -999.2500  -999.2500  -999.2500  -999.2500      .0180    -3.7810  -999.2500  -999.2500
11609.5000     8.9900    32.0790  -999.2500    68.9850      .6220      .5860      .5710      .5670      .5630      .5620    15.9870  -999.2500  -999.2500  -999.2500  -999.2500      .0180    -3.5700  -999.2500  -999.2500
11610.0000     8.9920    32.0820  -999.2500    69.1450      .6200      .5850      .5700      .5650      .5610      .5600    15.7390  -999.2500  -999.2500  -999.2500  -999.2500      .0170    -3.5970  -999.2500  -999.2500
11610.5000     8.9930    31.9520  -999.2500    68.8700      .6190      .5830      .5690      .5640      .5600      .5580    15.5810  -999.2500  -999.2500  -999.2500  -999.2500      .0170    -3.7260  -999.2500  -999.2500
