~VERSION INFORMATION
VERS.                             2.0:   CWLS Log ASCII Standard-VERSION 2.0
WRAP.                              NO:   One line per depth step
~Well Information Block
STRT.F                      6412.0000:   Top Depth
STOP.F                      9744.0000:   Bottom Depth
STEP.F                         .50000:   Depth Increment
NULL.                        -999.250:   Null Value
FLD .                      GA BLK 273:   Field Name
WELL.       OCSG09037   005 ST00 BP00:   NAME
API .                  42706403310000:   WELL API
EDF .F                        93.0000:   ELEV DRILL FLOOR
COMP.       SEAGULL ENERGY E AND P IN:   OPERATOR
BN  .                             273:   BLOCK
CTRY.                             USA:   COUNTRY NAME
CNTY.                              GA:   COUNTY
CNTY.                        GLVSTN L:   COUNTY NAME
EGL .F                       -63.0000:   ELEV GROUND LEVEL
EKB .F                        94.0000:   ELEV KELLY BUSHING
TDD .F                       9756.000:   FINAL TD DRILLER
STAT.                           TEXAS:   STATE NAME
UWI .                  42706403310000:   WELL API
DICO.               IHS : Digitizing Company
~PARAMETER INFORMATION (zones)
#MNEM.UNIT                       Value     Description
#=========                       =====     ===========
#ZONATION                          DIL:   ZONATION NAME
#ZONE                            RUN_1:   ZONE NAME
TOP .                       6412.0000:   TOP DEPTH
BOT .                       9744.5000:   BOTTOM DEPTH
RUN .                               1:   RUN NUMBER
LCCD.                             440:   LOGGING CONTRACTOR
SRVC.                    Schlumberger:   LOGGING CONT NAME
DICO.          QC Data Collectors Ltd:   DIG COMPANY NAME
LDAT.                      03/03/1993:   DATE LOGGED
ELD .F                        94.0000:   LOG DATUM ELEVATION
TDD .F                      9756.0000:   TOTAL DEPTH DRILLER
TDL .F                      9750.0000:   TOTAL DEPTH LOGGER
BOTL.F                      9744.0000:   BOTTOM DEPTH LOGGED
TOPL.F                      6543.0000:   TOP DEPTH LOGGED
CS1 .IN                        7.6250:   CASING SIZE 1
BS1 .IN                        6.5000:   BIT SIZE 1
DDB1.F                      9756.0000:   DEPTH DRILLED BIT 1
BHF .                              99:   FLUID CODE
DPT .                   Miscellaneous:   DRILLING FLUID TYPE
MUDD.                         11.7000:   FLUID DENSITY
MUDV.                         46.0000:   FLUID VISCOSITY
DFPH.                          6.5000:   FLUID PH
FL  .                          9.6500:   FLUID LOSS
RM  .OHMM                      1.3200:   RM
RMT .DEGF                     64.0000:   RM TEMP
RMF .OHMM                      1.1100:   RMF
RMFT.DEGF                     70.0000:   RMF TEMP
FSC .                               M:   RMF CODE
RMC .OHMM                      1.6200:   RMC
RMCT.DEGF                     65.0000:   RMC TEMP
CMC .                               M:   RMC CODE
TMAX.DEGF                    186.0000:   MAX REC TEMP
TIMC.                          6.5000:   TIME SINCE CIRCLN
~Curve Information Block
#MNEM.UNIT                    API CODE    No Description
#=========                    ========    == ===========
DEPT.F                   00 001 00 00:     1  DEPTH
DTL.US/F                             :     2  Sonic Transit Time (Slowness)
GR.GAPI                              :     3  Gamma Ray
ILD.OHMM                             :     4  Deep Induction Resistivity
ILM.OHMM                             :     5  Medium Induction Resistivity
SFL.OHMM                             :     6  Medium Resistivity
SP.MV                                :     7  Spontaneous Potential
~ASCII
# ...
 9480.0000   110.0216    83.8417      .6342      .6464      .6375   -39.9447
 9480.5000   108.0122    86.0510      .6349      .6712      .8889   -40.1970
 9481.0000   105.3356    88.4523      .6426      .6901      .8662   -40.6992
 9481.5000   103.0149    90.2843      .6523      .6950      .8631   -40.9515
 9482.0000   103.3162    88.6801      .6583      .6871      .6637   -41.7037
 9482.5000   104.1578    87.2363      .6641      .6741      .7171   -42.2060
 9483.0000   105.7240    87.8927      .6622      .6634      .6872   -42.2083
 9483.5000   107.3412    82.2489      .6490      .6571      .6943   -42.7105
 9484.0000   108.1317    80.4821      .6410      .6529      .6981   -42.4628
 9484.5000   108.7778    78.3157      .6363      .6486      .7299   -42.4650
 9485.0000   109.3480    77.6058      .6288      .6433      .6916   -41.9673
 9485.5000   109.7881    76.0282      .6303      .6389      .6836   -41.7195
 9486.0000   110.0284    78.7639      .6358      .6380      .6887   -41.4718
 9486.5000   109.8411    79.5049      .6386      .6421      .6525   -41.4741
 9487.0000   109.1227    82.8652      .6458      .6508      .6520   -41.2263
 9487.5000   107.9586    79.8594      .6514      .6624      .7160   -41.2285
 9488.0000   106.9652    80.7504      .6553      .6748      .7304   -41.7308
 9488.5000   106.2428    78.8132      .6588      .6853      .7471   -42.2331
 9489.0000   106.3916    80.3081      .6566      .6894      .7545   -43.2354
 9489.5000   106.8556    80.3403      .6505      .6832      .6832   -43.4875
 9490.0000   107.9674    80.0613      .6445      .6663      .7391   -43.4899
 9490.5000   109.8821    75.9818      .6361      .6439      .6832   -42.4921
 9491.0000   111.2653    77.8966      .6268      .6236      .6886   -41.9943
 9491.5000   111.7386    83.0585      .6129      .6100      .6466   -41.7466
 9492.0000   111.9736    84.5693      .6044      .6041      .6433   -41.9989
 9492.5000   112.2301    86.7454      .6022      .6038      .6829   -41.2512
 9493.0000   112.2496    81.0299      .6067      .6071      .6949   -41.0034
 9493.5000   111.6812    85.2964      .6205      .6148      .6737   -40.7556
 9494.0000   110.5096    83.2714      .6397      .6309      .6023   -41.5079
 9494.5000   108.9160    80.7687      .6545      .6580      .7299   -41.5102
 9495.0000   106.3613    77.3929      .6661      .6929      .6820   -42.2624
 9495.5000   104.4965    70.9078      .6810      .7256      .9905   -42.5147
 9496.0000   103.4158    74.3170      .6983      .7462      .7747   -42.7670
 9496.5000   102.9502    73.5774      .7138      .7529      .9266   -43.2692
 9497.0000   102.8179    75.3815      .7204      .7514      .7365   -43.2715
 9497.5000   103.4182    75.1829      .7127      .7461      .8402   -43.5237
 9498.0000   104.6707    74.5635      .7026      .7368      .7798   -43.7759
 9498.5000   105.8335    78.8428      .7005      .7248      .7601   -44.5283
 9499.0000   106.5792    82.0035      .7070      .7185      .6367   -43.7805
 9499.5000   106.3129    93.3506      .7098      .7290      .5844   -43.7828
 9500.0000   103.6075   116.3136      .6955      .7596      .7052   -45.2850
 9500.5000    99.5439   155.7893      .6716      .7977      .9079   -47.5373
 9501.0000    96.7054   184.3066      .6468      .8140     1.4101   -50.5396
 9501.5000    94.6438   173.5479      .6187      .7831     1.2433   -56.5418
 9502.0000    95.4604   131.0361      .5957      .7117      .9388   -62.7941
 9502.5000    97.5844    88.0139      .5788      .6318     1.0477   -71.0463
 9503.0000    99.2152    66.5701      .5645      .5687     1.2721   -81.5486
 9503.5000   100.1509    58.6361      .5554      .5317     1.1655   -85.8008
 9504.0000    99.8926    59.0760      .5525      .5216      .8517   -85.0531
 9504.5000    96.7950    62.6380      .5579      .5361      .6922   -80.8053
 9505.0000    95.5731    64.1611      .5740      .5722      .8276   -69.3076
 9505.5000    96.7402    65.3832      .6028      .6255      .8042   -64.8098
 9506.0000    97.9105    65.8754      .6458      .6899      .6891   -64.3121
 9506.5000    98.6177    68.6461      .6849      .7562      .7781   -61.3144
 9507.0000    99.1879    66.8461      .7188      .8117      .9419   -59.0667
 9507.5000    99.6927    63.6871      .7466      .8441     1.0468   -57.5689
 9508.0000   100.0836    66.6455      .7755      .8515      .8894   -54.3212
 9508.5000   100.2897    71.1086      .8047      .8452      .8294   -52.0734
 9509.0000    99.6311    80.1918      .8247      .8401      .7650   -50.0757
 9509.5000    98.8231    77.9254      .8390      .8449      .8323   -49.0779
 9510.0000    98.1632    78.4353      .8500      .8599      .9135   -48.5802
 9510.5000    97.7197    72.5897      .8519      .8795      .9266   -48.0825
 9511.0000    97.8713    71.8342      .8495      .8944      .9492   -48.0847
 9511.5000    98.1390    70.1572      .8482      .8960      .9400   -47.3370
 9512.0000    98.8842    70.7285      .8434      .8808      .9306   -46.3392
 9512.5000   100.1627    73.7346      .8337      .8530      .8580   -47.0915
 9513.0000   101.1151    73.5986      .8354      .8240      .8418   -47.5938
 9513.5000   101.2892    77.3279      .8450      .8071      .7706   -47.8460
 9514.0000   100.6370    75.1058      .8569      .8117      .6966   -47.5983
 9514.5000    99.0858    76.5483      .8735      .8412      .7473   -47.3505
 9515.0000    97.4624    69.7657      .8874      .8920      .8837   -47.3528
 9515.5000    95.6571    65.1927      .9020      .9530     1.0935   -47.1050
 9516.0000    94.6058    63.4481      .9199     1.0062     1.3082   -46.8573
 9516.5000    94.4009    66.4882      .9383     1.0345     1.4032   -46.6096
 9517.0000    94.4414    70.4281      .9476     1.0323     1.3692   -45.8618
 9517.5000    94.6338    68.4774      .9523     1.0070     1.1650   -44.8641
 9518.0000    95.0919    66.4950      .9411      .9713     1.0539   -44.1163
 9518.5000    95.7717    70.7091      .9166      .9355      .9883   -43.3685
 9519.0000    96.5822    74.4729      .8924      .9058     1.0022   -43.1208
 9519.5000    97.6864    76.1763      .8742      .8849      .9101   -43.1231
 9520.0000    99.2128    73.0199      .8538      .8711      .8888   -43.1254
 9520.5000   100.5026    69.6958      .8343      .8585      .8178   -43.1276
 9521.0000   101.6317    68.2812      .8242      .8434      .9360   -44.6299
 9521.5000   102.0404    69.0367      .8257      .8291      .7925   -45.3821
 9522.0000   101.7351    73.2510      .8257      .8234      .8311   -46.3844
 9522.5000   100.6171    77.0515      .8180      .8296      .8254   -46.6367
 9523.0000    99.4518    74.6205      .7994      .8410     1.0628   -47.1389
 9523.5000    98.6575    72.5216      .7856      .8432     1.1719   -46.8912
 9524.0000    99.1182    73.4343      .7875      .8283     1.0245   -46.1434
 9524.5000   100.5872    80.2471      .8045      .8057      .8004   -45.1457
 9525.0000   106.9739    81.1379      .8115      .7923      .7154   -44.1479
 9525.5000   136.3352    83.3882      .8142      .7988      .7395   -43.4001
 9526.0000   142.4204    79.6108      .8264      .8266      .9152   -43.4024
 9526.5000   141.3149    75.5602      .8346      .8690     1.0345   -44.9047
 9527.0000   136.2356    69.8186      .8441      .9123     1.0436   -46.9070
 9527.5000   107.6511    68.1422      .8583      .9389     1.2732   -50.9092
 9528.0000    96.4589    69.6400      .8555      .9363     1.2097   -51.6615
 9528.5000    98.1694    73.2987      .8528      .9061     1.2121   -55.1638
 9529.0000   100.2162    74.2047      .8575      .8626      .9710   -54.9160
 9529.5000   102.3477    77.8309      .8498      .8238      .8203   -53.9183
 9530.0000   104.4366    75.9702      .8404      .8023      .7660   -53.1705
 9530.5000   106.1074    80.5535      .8403      .8037      .7250   -52.4228
 9531.0000   107.4258    78.8761      .8321      .8258      .7480   -51.1750
 9531.5000   105.7887    73.7540      .8279      .8587      .8495   -50.1773
