~VERSION INFORMATION
VERS.                             2.0:   CWLS Log ASCII Standard-VERSION 2.0
WRAP.                              NO:   One line per depth step
~Well Information Block
STRT.F                      3511.0000:   Top Depth
STOP.F                      7755.0000:   Bottom Depth
STEP.F                         .50000:   Depth Increment
NULL.                        -999.250:   Null Value
FLD .                      BA BLK 431:   Field Name
WELL.       OCSG09017   002 ST01 BP00:   NAME
API .                  42704402350100:   WELL API
EDF .F                        89.0000:   ELEV DRILL FLOOR
COMP.       SEAGULL ENERGY E AND P IN:   OPERATOR
BN  .                             481:   BLOCK
CTRY.                             USA:   COUNTRY NAME
CNTY.                        BRAZOS L:   COUNTY NAME
EKB .F                        90.0000:   ELEV KELLY BUSHING
TDD .F                          0.000:   FINAL TD DRILLER
STAT.                           TEXAS:   STATE NAME
UWI .                  42704402350100:   WELL API
DICO.               IHS : Digitizing Company
~PARAMETER INFORMATION (zones)
#MNEM.UNIT                       Value     Description
#=========                       =====     ===========
#ZONATION                          CNL:   ZONATION NAME
#ZONE                            RUN_0:   ZONE NAME
TOP .                       3511.0000:   TOP DEPTH
BOT .                       7755.5000:   BOTTOM DEPTH
RUN .                               0:   RUN NUMBER
LCCD.                             280:   LOGGING CONTRACTOR
SRVC.                     Halliburton:   LOGGING CONT NAME
DICO.          QC Data Collectors Ltd:   DIG COMPANY NAME
LDAT.                        --/--/--:   DATE LOGGED
BHF .                              99:   FLUID CODE
DPT .                   Miscellaneous:   DRILLING FLUID TYPE
~PARAMETER INFORMATION (zones)
#MNEM.UNIT                       Value     Description
#=========                       =====     ===========
#ZONATION                          DIL:   ZONATION NAME
#ZONE                            RUN_0:   ZONE NAME
TOP .                       3511.0000:   TOP DEPTH
BOT .                       7755.5000:   BOTTOM DEPTH
RUN .                               0:   RUN NUMBER
LCCD.                             280:   LOGGING CONTRACTOR
SRVC.                     Halliburton:   LOGGING CONT NAME
DICO.          QC Data Collectors Ltd:   DIG COMPANY NAME
LDAT.                        --/--/--:   DATE LOGGED
BHF .                              99:   FLUID CODE
DPT .                   Miscellaneous:   DRILLING FLUID TYPE
~PARAMETER INFORMATION (zones)
#MNEM.UNIT                       Value     Description
#=========                       =====     ===========
#ZONATION                          FDC:   ZONATION NAME
#ZONE                            RUN_0:   ZONE NAME
TOP .                       3511.0000:   TOP DEPTH
BOT .                       7755.5000:   BOTTOM DEPTH
RUN .                               0:   RUN NUMBER
LCCD.                             280:   LOGGING CONTRACTOR
SRVC.                     Halliburton:   LOGGING CONT NAME
DICO.          QC Data Collectors Ltd:   DIG COMPANY NAME
LDAT.                        --/--/--:   DATE LOGGED
BHF .                              99:   FLUID CODE
DPT .                   Miscellaneous:   DRILLING FLUID TYPE
~PARAMETER INFORMATION (zones)
#MNEM.UNIT                       Value     Description
#=========                       =====     ===========
#ZONATION                        SONIC:   ZONATION NAME
#ZONE                            RUN_0:   ZONE NAME
TOP .                       3511.0000:   TOP DEPTH
BOT .                       7731.5000:   BOTTOM DEPTH
RUN .                               0:   RUN NUMBER
LCCD.                             280:   LOGGING CONTRACTOR
SRVC.                     Halliburton:   LOGGING CONT NAME
DICO.          QC Data Collectors Ltd:   DIG COMPANY NAME
LDAT.                        --/--/--:   DATE LOGGED
BHF .                              99:   FLUID CODE
DPT .                   Miscellaneous:   DRILLING FLUID TYPE
~Curve Information Block
#MNEM.UNIT                    API CODE    No Description
#=========                    ========    == ===========
DEPT.F                   00 001 00 00:     1  DEPTH
NPHI.%                               :     2  Neutron Porosity
GR.GAPI                              :     3  Gamma Ray
GRD.OHMM                             :     4  Unrecognised
ILD.OHMM                             :     5  Deep Induction Resistivity
ILM.OHMM                             :     6  Medium Induction Resistivity
SP.MV                                :     7  Spontaneous Potential
DPHI.%                               :     8  Porosity
CALI.IN                              :     9  Caliper
DT.US/F                              :    10  Sonic Transit Time
GR.GAPI                              :    11  Gamma Ray
~ASCII
# ...
 6894.5000    41.3505    80.1996     1.1614      .8938      .9683   -51.0218    15.0436     9.8271   104.2798    78.1117
 6895.0000    41.7719    83.3168     1.1068      .8956      .9551   -51.0854    16.3010     9.7992   105.3981    78.8662
 6895.5000    42.8400    85.1902     1.0547      .9039      .9653   -51.1097    17.6400     9.7851   106.4883    77.3820
 6896.0000    44.0494    86.0553     1.0172      .9124      .9851   -51.0903    18.6514     9.7819   105.6509    76.4707
 6896.5000    43.9152    84.0739     1.0127      .9284     1.0111   -51.0345    19.3048     9.8382    99.7778    75.9967
 6897.0000    42.8320    81.8466     1.0940      .9446     1.0378   -50.9946    17.9052     9.8868    93.5267    75.3248
 6897.5000    41.9724    79.9055     1.1646      .9686     1.0687   -50.9503    16.5151     9.9165    87.8160    76.1908
 6898.0000    41.7312    79.1600     1.1764      .9990     1.1010   -50.8645    15.2721     9.9487    94.0698    76.0383
 6898.5000    41.5921    78.3899     1.1704     1.0226     1.1373   -50.7753    14.5835     9.9721   101.6735    74.5635
 6899.0000    41.3400    76.9106     1.1820     1.0381     1.1774   -50.6744    15.0072     9.9825   104.1606    74.0184
 6899.5000    40.9730    74.9800     1.2602     1.0383     1.1689   -50.5804    15.2679     9.9778   103.0970    72.6071
 6900.0000    40.4736    74.8724     1.3075     1.0361     1.1305   -50.5066    15.3747     9.9516   101.1304    72.2916
 6900.5000    40.3978    74.9722     1.3173     1.0165     1.0934   -50.4260    15.6855     9.9135    98.9658    74.9346
 6901.0000    40.7772    78.9349     1.2706      .9936     1.0625   -50.2863    15.4055     9.8773    96.6722    77.1565
 6901.5000    41.0720    79.7032     1.2145      .9649     1.0350   -50.2413    15.9168     9.8436    99.7885    78.1812
 6902.0000    41.2140    80.3452     1.1596      .9303     1.0014   -50.2225    16.7316     9.8109   106.2313    77.1317
 6902.5000    40.9730    82.4425     1.1108      .9034      .9828   -50.2033    17.1319     9.7938   107.5332    75.1770
 6903.0000    40.9194    83.2933     1.1118      .8984      .9827   -50.1827    16.3921     9.7836   104.8629    73.7174
 6903.5000    41.2865    82.8708     1.1471      .9115      .9864   -50.1194    15.4462     9.7802   102.7277    72.7874
 6904.0000    41.7011    82.7584     1.1521      .9364     1.0040   -49.9755    14.7768     9.8115   103.5291    72.9713
 6904.5000    42.1489    81.5695     1.1107      .9614     1.0236   -49.7427    15.4558     9.9456   106.2153    74.0875
 6905.0000    41.6232    80.4194     1.1596      .9869     1.0524   -49.4971    15.8844     9.9646   110.1237    75.7947
 6905.5000    40.8787    80.3577     1.2321     1.0075     1.0883   -49.3049    15.5153     9.6370   100.0334    76.3824
 6906.0000    40.2172    79.1016     1.2666     1.0287     1.1124   -49.3395    15.1435     9.5899    97.8077    77.1604
 6906.5000    39.5565    76.2810     1.2950     1.0383     1.1331   -49.6552    14.9070     9.6814   102.2964    78.9796
 6907.0000    38.8951    73.0337     1.2350     1.0477     1.1302   -49.8054    14.6633     9.7702    97.1635    78.9692
 6907.5000    38.1481    70.9209     1.3288     1.0400     1.1152   -49.8633    14.3112     9.7461    92.6641    76.8555
 6908.0000    38.4397    70.5741     1.3828     1.0288     1.1011   -49.8168    14.0983     9.6939    95.9547    75.3984
 6908.5000    39.5294    71.9968     1.3461     1.0113     1.0873   -49.7116    14.1932     9.6264   104.7457    74.3103
 6909.0000    40.5775    73.5410     1.2248      .9899     1.0736   -49.6149    14.4386     9.6225   105.1877    73.4066
 6909.5000    41.4579    76.9263     1.1474      .9689     1.0601   -49.3846    14.6833     9.6304    99.9962    74.0497
 6910.0000    41.7620    79.4957     1.1850      .9484     1.0297   -49.2416    15.1283     9.5944    98.3348    75.9510
 6910.5000    41.5677    80.3798     1.1913      .9279      .9943   -49.3521    14.9451     9.5463   100.4487    77.8954
 6911.0000    41.5567    79.7598     1.1591      .9024      .9601   -49.6252    15.2066     9.5707   103.6063    82.2871
 6911.5000    41.6149    78.0685     1.0960      .8842      .9262   -49.8428    16.2579     9.6817   106.4150    85.0812
 6912.0000    41.7922    76.5750     1.0234      .8730      .9026   -50.0530    16.7037     9.8903   104.5487    84.9900
 6912.5000    41.4319    75.5303     1.1175      .8729      .8884   -50.2631    16.0007     9.9330    97.1368    82.3341
 6913.0000    41.1491    74.8766     1.1601      .8782      .8915   -50.4520    15.2961     9.7954    91.8707    78.5757
 6913.5000    40.8803    74.7373     1.1918      .8871      .9024   -50.6368    14.8323     9.8048   100.8428    74.2960
 6914.0000    42.1481    74.7991     1.1197      .8955      .9239   -50.7599    15.1131     9.8990   107.2217    72.5660
 6914.5000    44.1086    74.8629     1.0290      .8813      .9458   -50.8241    16.4033     9.9794   113.3503    72.5485
 6915.0000    45.9811    75.9467     1.0389      .8602      .9691   -50.8727    17.4606    10.0173   113.7631    72.2578
 6915.5000    45.4268    75.0710     1.0777      .8428      .9560   -50.9178    16.9345    10.0073   104.8363    71.2152
 6916.0000    44.8604    73.8442     1.1169      .8410      .9355   -50.9313    16.0422     9.9964    99.2347    71.9463
 6916.5000    44.4117    73.7583     1.1337      .8429      .9187   -50.8189    15.9431     9.9840   100.9918    72.6309
 6917.0000    44.1981    74.1223     1.0954      .8570      .9049   -50.7002    16.6685     9.9127   108.4943    75.1821
 6917.5000    44.8899    74.3213     1.0449      .8709      .9011   -50.3577    17.5808     9.7888   112.7301    76.9779
 6918.0000    46.0323    75.3118     1.0061      .8845      .9184   -50.0350    18.4660     9.7399   112.7700    77.8104
 6918.5000    46.0275    76.8794     1.0584      .8984      .9472   -49.7787    19.1035     9.7164   107.6423    77.5468
 6919.0000    44.4169    77.2307     1.1385      .9001      .9821   -49.5906    18.0474     9.7313   101.4285    77.6530
 6919.5000    43.1036    78.2545     1.2251      .8999     1.0091   -49.4792    16.3793     9.7727    94.5917    76.7042
 6920.0000    41.9314    80.4025     1.2463      .8997     1.0158   -49.4456    14.7848     9.8321    96.4979    76.2773
 6920.5000    42.0073    81.8571     1.2108      .8996      .9992   -49.4645    14.4458     9.8797   100.6458    76.1229
 6921.0000    42.0833    82.2291     1.1646      .9019      .9826   -49.4921    14.6490     9.9168   102.8894    76.3407
 6921.5000    42.6243    82.5959     1.1456      .9073      .9663   -49.4757    15.6619     9.9346   103.6835    77.0897
 6922.0000    43.1675    80.0876     1.1241      .9118      .9638   -49.4223    16.4377     9.9526   106.2126    77.4915
 6922.5000    43.6168    78.9642     1.0982      .9156      .9661   -49.1998    16.7548     9.9712   111.7024    78.7594
 6923.0000    43.6444    79.2368     1.0875      .9231      .9874   -48.8905    16.8468     9.9890   112.0496    78.0830
 6923.5000    42.7640    77.7511     1.1463      .9410     1.0121   -48.5617    16.5603     9.9946   110.6561    77.1089
 6924.0000    41.6496    77.2358     1.1976      .9618     1.0374   -48.3563    15.9369     9.9803   106.6732    76.2977
 6924.5000    40.6526    75.3911     1.2306      .9851     1.0590   -48.2313    16.0280     9.9744   104.9774    73.5505
 6925.0000    40.2615    73.0961     1.2366     1.0058     1.0786   -48.1368    16.1244     9.9776   105.5691    71.7821
 6925.5000    40.0760    71.9955     1.2781     1.0186     1.0900   -48.3330    15.3168     9.9890   103.0099    71.8590
 6926.0000    39.9028    73.8533     1.2977     1.0290     1.0786   -48.7448    15.1283    10.0131    99.1815    74.6941
 6926.5000    39.7382    75.4275     1.3023     1.0231     1.0670   -49.1257    15.4634    10.0514    96.3208    75.4167
 6927.0000    39.8234    78.9662     1.3252     1.0141     1.0554   -49.3956    15.4430    10.0667    96.0586    76.3016
 6927.5000    39.8574    81.5370     1.2882     1.0002     1.0365   -49.5192    15.8313    10.0578    97.0023    76.3126
