~VERSION INFORMATION
VERS.                             2.0:   CWLS Log ASCII Standard-VERSION 2.0
WRAP.                              NO:   One line per depth step
~Well Information Block
STRT.F                      3511.0000:   Top Depth
STOP.F                      7755.0000:   Bottom Depth
STEP.F                         .50000:   Depth Increment
NULL.                        -999.250:   Null Value
FLD .                      BA BLK 431:   Field Name
WELL.       OCSG09017   002 ST01 BP00:   NAME
API .                  42704402350100:   WELL API
EDF .F                        89.0000:   ELEV DRILL FLOOR
COMP.       SEAGULL ENERGY E AND P IN:   OPERATOR
BN  .                             481:   BLOCK
CTRY.                             USA:   COUNTRY NAME
CNTY.                        BRAZOS L:   COUNTY NAME
EKB .F                        90.0000:   ELEV KELLY BUSHING
TDD .F                          0.000:   FINAL TD DRILLER
STAT.                           TEXAS:   STATE NAME
UWI .                  42704402350100:   WELL API
DICO.               IHS : Digitizing Company
~PARAMETER INFORMATION (zones)
#MNEM.UNIT                       Value     Description
#=========                       =====     ===========
#ZONATION                          CNL:   ZONATION NAME
#ZONE                            RUN_0:   ZONE NAME
TOP .                       3511.0000:   TOP DEPTH
BOT .                       7755.5000:   BOTTOM DEPTH
RUN .                               0:   RUN NUMBER
LCCD.                             280:   LOGGING CONTRACTOR
SRVC.                     Halliburton:   LOGGING CONT NAME
DICO.          QC Data Collectors Ltd:   DIG COMPANY NAME
LDAT.                        --/--/--:   DATE LOGGED
BHF .                              99:   FLUID CODE
DPT .                   Miscellaneous:   DRILLING FLUID TYPE
~PARAMETER INFORMATION (zones)
#MNEM.UNIT                       Value     Description
#=========                       =====     ===========
#ZONATION                          DIL:   ZONATION NAME
#ZONE                            RUN_0:   ZONE NAME
TOP .                       3511.0000:   TOP DEPTH
BOT .                       7755.5000:   BOTTOM DEPTH
RUN .                               0:   RUN NUMBER
LCCD.                             280:   LOGGING CONTRACTOR
SRVC.                     Halliburton:   LOGGING CONT NAME
DICO.          QC Data Collectors Ltd:   DIG COMPANY NAME
LDAT.                        --/--/--:   DATE LOGGED
BHF .                              99:   FLUID CODE
DPT .                   Miscellaneous:   DRILLING FLUID TYPE
~PARAMETER INFORMATION (zones)
#MNEM.UNIT                       Value     Description
#=========                       =====     ===========
#ZONATION                          FDC:   ZONATION NAME
#ZONE                            RUN_0:   ZONE NAME
TOP .                       3511.0000:   TOP DEPTH
BOT .                       7755.5000:   BOTTOM DEPTH
RUN .                               0:   RUN NUMBER
LCCD.                             280:   LOGGING CONTRACTOR
SRVC.                     Halliburton:   LOGGING CONT NAME
DICO.          QC Data Collectors Ltd:   DIG COMPANY NAME
LDAT.                        --/--/--:   DATE LOGGED
BHF .                              99:   FLUID CODE
DPT .                   Miscellaneous:   DRILLING FLUID TYPE
~PARAMETER INFORMATION (zones)
#MNEM.UNIT                       Value     Description
#=========                       =====     ===========
#ZONATION                        SONIC:   ZONATION NAME
#ZONE                            RUN_0:   ZONE NAME
TOP .                       3511.0000:   TOP DEPTH
BOT .                       7731.5000:   BOTTOM DEPTH
RUN .                               0:   RUN NUMBER
LCCD.                             280:   LOGGING CONTRACTOR
SRVC.                     Halliburton:   LOGGING CONT NAME
DICO.          QC Data Collectors Ltd:   DIG COMPANY NAME
LDAT.                        --/--/--:   DATE LOGGED
BHF .                              99:   FLUID CODE
DPT .                   Miscellaneous:   DRILLING FLUID TYPE
~Curve Information Block
#MNEM.UNIT                    API CODE    No Description
#=========                    ========    == ===========
DEPT.F                   00 001 00 00:     1  DEPTH
NPHI.%                               :     2  Neutron Porosity
GR.GAPI                              :     3  Gamma Ray
GRD.OHMM                             :     4  Unrecognised
ILD.OHMM                             :     5  Deep Induction Resistivity
ILM.OHMM                             :     6  Medium Induction Resistivity
SP.MV                                :     7  Spontaneous Potential
DPHI.%                               :     8  Porosity
CALI.IN                              :     9  Caliper
DT.US/F                              :    10  Sonic Transit Time
GR.GAPI                              :    11  Gamma Ray
~ASCII
# ...
 7732.0000    44.7552    81.6144     1.0715      .9069      .9941   -44.7783    38.9080  -999.2500  -999.2500  -999.2500
 7732.5000    44.8851    81.5885     1.0211      .9054      .9738   -44.9885    38.9453  -999.2500  -999.2500  -999.2500
 7733.0000    45.1364    81.5626      .9738      .9159      .9629   -45.1346    38.9724  -999.2500  -999.2500  -999.2500
 7733.5000    45.5817    81.5369      .9615      .9193      .9572   -45.1826    38.9696  -999.2500  -999.2500  -999.2500
 7734.0000    46.2170    81.5212      .9958      .9221      .9635   -44.9853    38.9400  -999.2500  -999.2500  -999.2500
 7734.5000    46.9276    81.5165     1.0336      .9235      .9554   -44.1102    38.9376  -999.2500  -999.2500  -999.2500
 7735.0000    48.2224    81.5116     1.0913      .9104      .9273   -42.3860    38.9506  -999.2500  -999.2500  -999.2500
 7735.5000    49.3747    81.5063     1.1409      .8976      .8860   -40.3644    38.9480  -999.2500  -999.2500  -999.2500
 7736.0000    50.3942    81.4987     1.0925      .8849      .8792   -39.4790    38.9680  -999.2500  -999.2500  -999.2500
 7736.5000    51.0856    81.4910     1.0126      .8774      .8798   -39.3710    39.0193  -999.2500  -999.2500  -999.2500
 7737.0000    51.0223    81.4829      .9329      .8700      .8800   -39.0394    39.0481  -999.2500  -999.2500  -999.2500
 7737.5000    48.3680    81.4745      .8613      .8572      .8733   -38.5876    39.2015  -999.2500  -999.2500  -999.2500
 7738.0000    45.1415    81.4661      .8104      .8384      .8683   -38.5920    39.1159  -999.2500  -999.2500  -999.2500
 7738.5000    43.7917    81.4946      .8858      .8135      .8508   -38.8170    38.8597  -999.2500  -999.2500  -999.2500
 7739.0000    43.8581    81.5345      .9593      .8013      .8352   -38.8359    38.8375  -999.2500  -999.2500  -999.2500
 7739.5000    43.8892    81.5698     1.0156      .8088      .8317   -38.6315    38.8176  -999.2500  -999.2500  -999.2500
 7740.0000    43.9179    81.5851     1.0224      .8290      .8395   -38.3008    38.7977  -999.2500  -999.2500  -999.2500
 7740.5000    43.9061    81.6003      .9988      .8409      .8618   -38.2381    38.8986  -999.2500  -999.2500  -999.2500
 7741.0000    43.8943    81.6156      .9729      .8508      .8849   -38.8477    39.2463  -999.2500  -999.2500  -999.2500
 7741.5000    43.8826    81.6310      .9718      .8609      .9091   -39.5480    39.6937  -999.2500  -999.2500  -999.2500
 7742.0000    43.8708    81.6462      .9859      .8725      .9331   -40.4010    40.2070  -999.2500  -999.2500  -999.2500
 7742.5000    43.8591    81.6615      .9537      .8948      .9514   -41.2539    40.5339  -999.2500  -999.2500  -999.2500
 7743.0000    43.8473    81.6768      .9320      .9346      .9697   -42.0964    40.6379  -999.2500  -999.2500  -999.2500
 7743.5000    43.8355    81.6920      .9395      .9514      .9870   -43.0094    40.6227  -999.2500  -999.2500  -999.2500
 7744.0000    43.8238    81.7074      .9786      .9506     1.0222   -43.5859    40.6262  -999.2500  -999.2500  -999.2500
 7744.5000    43.7766    81.7227     1.0535      .9418     1.0385   -43.7893    40.6583  -999.2500  -999.2500  -999.2500
 7745.0000    43.7083    81.7379     1.1074      .9450     1.0311   -43.9029    40.6530  -999.2500  -999.2500  -999.2500
 7745.5000    43.6630    81.7532     1.2496      .9553      .9839   -43.9169    40.6315  -999.2500  -999.2500  -999.2500
 7746.0000    43.6281    81.7686     1.3576      .9564      .9437   -43.9168    40.6099  -999.2500  -999.2500  -999.2500
 7746.5000    43.5931    81.7838     1.3600      .9576      .9309   -43.8492    40.5884  -999.2500  -999.2500  -999.2500
 7747.0000    43.5703    81.7991     1.1904      .9539      .9307   -43.7560    40.5668  -999.2500  -999.2500  -999.2500
 7747.5000    43.5584    81.8040     1.0221      .9497      .9103   -43.7798    40.5453  -999.2500  -999.2500  -999.2500
 7748.0000    43.5465    81.8234      .8527      .9488      .8703   -43.9657    40.5237  -999.2500  -999.2500  -999.2500
 7748.5000    43.5970    81.8705      .8108      .9532      .8185   -44.1323    40.5459  -999.2500  -999.2500  -999.2500
 7749.0000    43.6641    81.8779      .8370      .9571      .7926   -44.2787    40.5433  -999.2500  -999.2500  -999.2500
 7749.5000    43.7184    81.8855      .9248      .9559      .7824   -44.3738    40.5543  -999.2500  -999.2500  -999.2500
 7750.0000    43.7263    81.8693     1.0289      .9547      .7737   -44.4338    40.5781  -999.2500  -999.2500  -999.2500
 7750.5000    43.7342    81.8468     1.1315      .9536      .7688   -44.4290    40.5869  -999.2500  -999.2500  -999.2500
 7751.0000    43.7341    81.8245     1.2119      .9525      .7650   -44.4013    40.5844  -999.2500  -999.2500  -999.2500
 7751.5000    43.7315    81.8320     1.2076      .9514      .7652   -44.3455    40.5881  -999.2500  -999.2500  -999.2500
 7752.0000    43.7289    81.8396     1.0641      .9530      .7665   -44.2761    40.5973  -999.2500  -999.2500  -999.2500
 7752.5000    43.7264    81.8298      .9321      .9550      .7709   -44.2469    40.6065  -999.2500  -999.2500  -999.2500
 7753.0000    43.7148    81.8014      .7885      .9572      .7742   -44.2394    40.6161  -999.2500  -999.2500  -999.2500
 7753.5000    43.6823    81.7731      .7813      .9597      .7771   -44.2319    40.6257  -999.2500  -999.2500  -999.2500
 7754.0000    43.6499    81.7452      .8574      .9621      .7806   -44.2751    40.6353  -999.2500  -999.2500  -999.2500
 7754.5000    43.6631    81.7174      .9675      .9631      .7845   -44.3718    40.6451  -999.2500  -999.2500  -999.2500
 7755.0000    43.6931    81.6901     1.0439      .9641      .7882   -44.4985    40.6567  -999.2500  -999.2500  -999.2500
