~VERSION INFORMATION
VERS.                             2.0:   CWLS Log ASCII Standard-VERSION 2.0
WRAP.                              NO:   One line per depth step
~Well Information Block
STRT.F                       302.0000:   Top Depth
STOP.F                     11038.0000:   Bottom Depth
STEP.F                         .50000:   Depth Increment
NULL.                        -999.250:   Null Value
FLD .                         WILDCAT:   Field Name
WELL.       OCSG04565   001 ST00 BP00:   NAME
API .                    42706400940000:   WELL API
EDF .F                        76.8000:   ELEV DRILL FLOOR
COMP.                  TENNECO OIL CO:   OPERATOR
BN  .                             303:   BLOCK
CTRY.                             USA:   COUNTRY NAME
CNTY.                              GA:   COUNTY
CNTY.                        GLVSTN L:   COUNTY NAME
EKB .F                        79.0000:   ELEV KELLY BUSHING
TDD .F                      11050.000:   FINAL TD DRILLER
STAT.                           TEXAS:   STATE NAME
UWI .                    42706400940000:   WELL API
DICO.               IHS : Digitizing Company
~PARAMETER INFORMATION (zones)
#MNEM.UNIT                       Value     Description
#=========                       =====     ===========
#ZONATION                          CNL:   ZONATION NAME
#ZONE                            RUN_1:   ZONE NAME
TOP .                       4297.0000:   TOP DEPTH
BOT .                       7582.5000:   BOTTOM DEPTH
RUN .                               1:   RUN NUMBER
LCCD.                              20:   LOGGING CONTRACTOR
SRVC.                          Baroil:   LOGGING CONT NAME
DICO.          QC Data Collectors Ltd:   DIG COMPANY NAME
LDAT.                      03/12/1983:   DATE LOGGED
ELD .F                        77.8000:   LOG DATUM ELEVATION
TDD .F                      7587.0000:   TOTAL DEPTH DRILLER
TDL .F                      7584.0000:   TOTAL DEPTH LOGGER
BOTL.F                      7582.0000:   BOTTOM DEPTH LOGGED
TOPL.F                      4300.0000:   TOP DEPTH LOGGED
CS1 .IN                       13.3750:   CASING SIZE 1
BS1 .IN                       12.2500:   BIT SIZE 1
DDB1.F                      7587.0000:   DEPTH DRILLED BIT 1
BHF .                              70:   FLUID CODE
DPT .                       Phosphate:   DRILLING FLUID TYPE
MUDD.                         13.5000:   FLUID DENSITY
MUDV.                         49.0000:   FLUID VISCOSITY
DFPH.                         11.4000:   FLUID PH
FL  .                         12.8000:   FLUID LOSS
RM  .OHMM                       .0680:   RM
RMT .DEGF                     65.0000:   RM TEMP
RMF .OHMM                       .0530:   RMF
RMFT.DEGF                     65.0000:   RMF TEMP
FSC .                               M:   RMF CODE
RMC .OHMM                       .1020:   RMC
RMCT.DEGF                     65.0000:   RMC TEMP
CMC .                               C:   RMC CODE
TMAX.DEGF                    161.0000:   MAX REC TEMP
TIMC.                         10.0000:   TIME SINCE CIRCLN
~PARAMETER INFORMATION (zones)
#MNEM.UNIT                       Value     Description
#=========                       =====     ===========
#ZONATION                          DIL:   ZONATION NAME
#ZONE                            RUN_1:   ZONE NAME
TOP .                        302.0000:   TOP DEPTH
BOT .                      11038.5000:   BOTTOM DEPTH
RUN .                               1:   RUN NUMBER
LCCD.                             150:   LOGGING CONTRACTOR
SRVC.                   Dresser Atlas:   LOGGING CONT NAME
DICO.          QC Data Collectors Ltd:   DIG COMPANY NAME
LDAT.                      02/22/1983:   DATE LOGGED
ELD .F                        77.8000:   LOG DATUM ELEVATION
TDD .F                       841.0000:   TOTAL DEPTH DRILLER
TDL .F                       832.0000:   TOTAL DEPTH LOGGER
BOTL.F                     11038.0000:   BOTTOM DEPTH LOGGED
TOPL.F                       302.0000:   TOP DEPTH LOGGED
CS1 .IN                       30.6250:   CASING SIZE 1
BS1 .IN                       17.5000:   BIT SIZE 1
DDB1.F                       841.0000:   DEPTH DRILLED BIT 1
BHF .                              99:   FLUID CODE
DPT .                   Miscellaneous:   DRILLING FLUID TYPE
MUDD.                          8.7000:   FLUID DENSITY
MUDV.                         50.0000:   FLUID VISCOSITY
DFPH.                         12.0000:   FLUID PH
FL  .                         20.4000:   FLUID LOSS
RM  .OHMM                      1.1500:   RM
RMT .DEGF                     65.0000:   RM TEMP
RMF .OHMM                       .8000:   RMF
RMFT.DEGF                     65.0000:   RMF TEMP
FSC .                               M:   RMF CODE
RMC .OHMM                      1.4300:   RMC
RMCT.DEGF                     65.0000:   RMC TEMP
CMC .                               C:   RMC CODE
TMAX.DEGF                     85.0000:   MAX REC TEMP
TIMC.                          3.0000:   TIME SINCE CIRCLN
~PARAMETER INFORMATION (zones)
#MNEM.UNIT                       Value     Description
#=========                       =====     ===========
#ZONATION                          FDC:   ZONATION NAME
#ZONE                            RUN_4:   ZONE NAME
TOP .                      11038.0000:   TOP DEPTH
BOT .                      11040.0000:   BOTTOM DEPTH
RUN .                               4:   RUN NUMBER
LCCD.                             150:   LOGGING CONTRACTOR
SRVC.                   Dresser Atlas:   LOGGING CONT NAME
DICO.          QC Data Collectors Ltd:   DIG COMPANY NAME
LDAT.                      03/25/1983:   DATE LOGGED
ELD .F                        77.8000:   LOG DATUM ELEVATION
TDD .F                     11050.0000:   TOTAL DEPTH DRILLER
TDL .F                     11040.0000:   TOTAL DEPTH LOGGER
BOTL.F                     11038.0000:   BOTTOM DEPTH LOGGED
TOPL.F                      7555.0000:   TOP DEPTH LOGGED
CS1 .IN                        9.6250:   CASING SIZE 1
BS1 .IN                        8.5000:   BIT SIZE 1
DDB1.F                     11050.0000:   DEPTH DRILLED BIT 1
BHF .                              99:   FLUID CODE
DPT .                   Miscellaneous:   DRILLING FLUID TYPE
MUDD.                         16.6000:   FLUID DENSITY
MUDV.                         50.0000:   FLUID VISCOSITY
DFPH.                         11.4000:   FLUID PH
FL  .                         10.0000:   FLUID LOSS
RM  .OHMM                      1.7000:   RM
RMT .DEGF                     75.0000:   RM TEMP
RMF .OHMM                      1.2000:   RMF
RMFT.DEGF                     75.0000:   RMF TEMP
FSC .                               M:   RMF CODE
RMC .OHMM                      2.2000:   RMC
RMCT.DEGF                     75.0000:   RMC TEMP
CMC .                               M:   RMC CODE
TMAX.DEGF                    228.0000:   MAX REC TEMP
TIMC.                          4.0000:   TIME SINCE CIRCLN
~PARAMETER INFORMATION (zones)
#MNEM.UNIT                       Value     Description
#=========                       =====     ===========
#ZONATION                          FDC:   ZONATION NAME
#ZONE                            RUN_2:   ZONE NAME
TOP .                       4512.0000:   TOP DEPTH
BOT .                       7583.5000:   BOTTOM DEPTH
RUN .                               2:   RUN NUMBER
LCCD.                             150:   LOGGING CONTRACTOR
SRVC.                   Dresser Atlas:   LOGGING CONT NAME
DICO.          QC Data Collectors Ltd:   DIG COMPANY NAME
LDAT.                      02/28/1983:   DATE LOGGED
ELD .F                        77.8000:   LOG DATUM ELEVATION
TDD .F                      4512.0000:   TOTAL DEPTH DRILLER
TDL .F                      4505.0000:   TOTAL DEPTH LOGGER
BOTL.F                      7583.0000:   BOTTOM DEPTH LOGGED
TOPL.F                      4512.0000:   TOP DEPTH LOGGED
CS1 .IN                       20.0000:   CASING SIZE 1
BS1 .IN                       17.5000:   BIT SIZE 1
DDB1.F                      4512.0000:   DEPTH DRILLED BIT 1
BHF .                              99:   FLUID CODE
DPT .                   Miscellaneous:   DRILLING FLUID TYPE
MUDD.                          9.4000:   FLUID DENSITY
MUDV.                         40.0000:   FLUID VISCOSITY
DFPH.                         12.0000:   FLUID PH
FL  .                         38.0000:   FLUID LOSS
RM  .OHMM                       .2900:   RM
RMT .DEGF                     65.0000:   RM TEMP
RMF .OHMM                       .2100:   RMF
RMFT.DEGF                     65.0000:   RMF TEMP
FSC .                               M:   RMF CODE
RMC .OHMM                       .3400:   RMC
RMCT.DEGF                     65.0000:   RMC TEMP
CMC .                               C:   RMC CODE
TMAX.DEGF                     90.0000:   MAX REC TEMP
TIMC.                          3.0000:   TIME SINCE CIRCLN
~PARAMETER INFORMATION (zones)
#MNEM.UNIT                       Value     Description
#=========                       =====     ===========
#ZONATION                          FDC:   ZONATION NAME
#ZONE                            RUN_1:   ZONE NAME
TOP .                       4297.0000:   TOP DEPTH
BOT .                       7582.5000:   BOTTOM DEPTH
RUN .                               1:   RUN NUMBER
LCCD.                              20:   LOGGING CONTRACTOR
SRVC.                          Baroil:   LOGGING CONT NAME
DICO.          QC Data Collectors Ltd:   DIG COMPANY NAME
LDAT.                      03/12/1983:   DATE LOGGED
ELD .F                        77.8000:   LOG DATUM ELEVATION
TDD .F                      7587.0000:   TOTAL DEPTH DRILLER
TDL .F                      7584.0000:   TOTAL DEPTH LOGGER
BOTL.F                      7582.0000:   BOTTOM DEPTH LOGGED
TOPL.F                      4300.0000:   TOP DEPTH LOGGED
CS1 .IN                       13.3750:   CASING SIZE 1
BS1 .IN                       12.2500:   BIT SIZE 1
DDB1.F                      7587.0000:   DEPTH DRILLED BIT 1
BHF .                              70:   FLUID CODE
DPT .                       Phosphate:   DRILLING FLUID TYPE
MUDD.                         13.5000:   FLUID DENSITY
MUDV.                         49.0000:   FLUID VISCOSITY
DFPH.                         11.4000:   FLUID PH
FL  .                         12.8000:   FLUID LOSS
RM  .OHMM                       .0680:   RM
RMT .DEGF                     65.0000:   RM TEMP
RMF .OHMM                       .0530:   RMF
RMFT.DEGF                     65.0000:   RMF TEMP
FSC .                               M:   RMF CODE
RMC .OHMM                       .1020:   RMC
RMCT.DEGF                     65.0000:   RMC TEMP
CMC .                               C:   RMC CODE
TMAX.DEGF                    161.0000:   MAX REC TEMP
TIMC.                         10.0000:   TIME SINCE CIRCLN
~Curve Information Block
#MNEM.UNIT                    API CODE    No Description
#=========                    ========    == ===========
DEPT.F                   00 001 00 00:     1  DEPTH
NPHI.%                               :     2  Neutron Porosity
CILD.MMHO                            :     3  Deep Induction Conductivity
DT.US/F                              :     4  Sonic Transit Time
GR1.GAPI                              :     5  Gamma Ray
ILD.OHMM                             :     6  Deep Induction Resistivity
ILM.OHMM                             :     7  Medium Induction Resistivity
LN.OHMM                              :     8  Medium Resistivity
RFOC.OHMM                            :     9  Medium Resistivity
SN.OHMM                              :    10  Short-Normal Resistivity
SP.MV                                :    11  Spontaneous Potential
CALI.IN                              :    12  Caliper
DRHO.G/C3                            :    13  Bulk Density Correction
GR2.GAPI                              :    14  Gamma Ray
RHOB.G/C3                            :    15  Bulk Density
~ASCII
# ...
 4908.0000    31.1477  3671.0664   110.8943    40.8190      .2699      .3007  -999.2500      .8905  -999.2500  -116.3376    16.8980     -.0810    40.9542     2.1835
 4908.5000    31.9337  3677.2930   111.1160    38.7390      .2682      .2918  -999.2500      .8488  -999.2500  -117.8582    16.9011     -.1107    39.3674     2.1648
 4909.0000    32.5615  3663.6758   111.4192    38.0577      .2771      .2996  -999.2500      .8211  -999.2500  -118.6711    16.9041     -.1210    40.9318     2.1759
 4909.5000    32.8532  3622.7930   111.7219    38.8390      .2873      .3088  -999.2500      .8149  -999.2500  -118.8142    16.9088     -.0936    42.9825     2.1923
 4910.0000    33.5861  3493.6641   112.0383    39.5115      .3055      .3339  -999.2500      .8087  -999.2500  -116.3413    16.9142     -.0661    43.0774     2.2134
 4910.5000    34.7147  3298.5664   112.4923    40.2088      .3356      .3610  -999.2500      .7988  -999.2500  -113.2682    16.9196     -.0574    40.9398     2.2396
 4911.0000    36.0322  2976.2461   112.9465    41.8454      .3796      .4212  -999.2500      .7875  -999.2500  -109.3032    16.9249     -.0481    40.1109     2.2751
 4911.5000    37.4279  2188.7461   111.5243    42.7162      .4359      .5352  -999.2500      .7806  -999.2500  -103.1620    16.9302     -.0282    40.5912     2.3002
 4912.0000    39.0812  1802.9082   106.6188    41.7015      .6262      .7385  -999.2500      .7850  -999.2500   -97.2134    16.9355     -.0074    41.7089     2.3285
 4912.5000    38.2666  1247.5020   100.5105    40.8585      .8557      .9657  -999.2500      .8841  -999.2500   -96.1635    16.9407      .0228    40.0186     2.3605
 4913.0000    35.1287   924.1924    92.0044    39.9266     1.0871     1.1693  -999.2500     1.0898  -999.2500   -98.7870    16.9460      .0394    35.5676     2.3756
 4913.5000    31.3479   790.7324    85.0426    38.9471     1.2799     1.3079  -999.2500     1.3140  -999.2500  -101.7045    16.9512      .0311    31.8103     2.3831
 4914.0000    29.0788   794.7139    75.6682    37.2579     1.2079     1.0705  -999.2500     1.4791  -999.2500  -104.6589    16.9564      .0227    30.0295     2.3428
 4914.5000    27.4271  1001.1611    69.5945    34.8963     1.0005      .8501  -999.2500     1.5870  -999.2500  -107.6678    16.9573      .0257    31.0699     2.3208
 4915.0000    29.8738  1320.5137    70.9587    32.3543      .7629      .6665  -999.2500     1.3351  -999.2500  -110.7385    16.9582      .0294    31.2548     2.3114
 4915.5000    34.1726  1642.4414    81.8948    30.5207      .5707      .5366  -999.2500     1.0906  -999.2500  -113.8116    16.9590     -.0072    31.3038     2.3048
 4916.0000    35.6023  2088.6250    93.4452    30.0522      .3945      .4324  -999.2500      .9379  -999.2500  -117.1763    16.9598     -.0554    30.1013     2.2625
 4916.5000    34.8727  2694.0898   103.9692    30.0526      .3167      .3652  -999.2500      .8327  -999.2500  -119.0717    16.9578     -.0678    33.3148     2.2300
 4917.0000    33.4243  3361.2891   111.0840    30.0529      .2709      .3256  -999.2500      .7863  -999.2500  -119.8727    16.9554     -.0405    36.1315     2.2199
 4917.5000    34.5988  3817.5664   117.0244    30.6528      .2476      .3038  -999.2500      .7685  -999.2500  -120.6465    16.9530     -.0090    36.8843     2.2112
 4918.0000    37.2759  4110.8672   117.5220    31.9319      .2362      .2933  -999.2500      .7925  -999.2500  -121.4414    16.9506     -.0003    34.2379     2.1986
 4918.5000    38.5956  4248.5781   117.0281    33.3276      .2286      .2890  -999.2500      .8170  -999.2500  -122.2332    16.9482     -.0218    31.4610     2.1834
 4919.0000    37.5514  4341.8750   115.8994    32.8829      .2290      .2854  -999.2500      .8291  -999.2500  -123.0181    16.9441     -.0508    29.6884     2.1740
 4919.5000    35.9855  4319.2656   116.4583    31.2031      .2295      .2830  -999.2500      .8120  -999.2500  -123.7153    16.9401     -.0793    28.4995     2.1882
 4920.0000    34.7485  4268.8125   117.9458    30.0865      .2320      .2814  -999.2500      .7927  -999.2500  -124.3328    16.9360     -.0782    27.8322     2.2280
 4920.5000    34.2101  4218.6016   119.1632    29.9963      .2354      .2799  -999.2500      .8109  -999.2500  -124.4911    16.9320     -.0570    27.1654     2.2263
 4921.0000    34.7267  4168.3984   118.9092    30.6263      .2387      .2780  -999.2500      .8166  -999.2500  -124.4808    16.9280     -.0505    26.4275     2.2127
 4921.5000    35.4216  4124.0703   118.1691    30.4015      .2421      .2756  -999.2500      .8114  -999.2500  -124.2551    16.9245     -.0559    25.6871     2.1990
 4922.0000    34.8456  4083.8828   117.4382    29.5155      .2445      .2732  -999.2500      .7928  -999.2500  -123.6580    16.9210     -.0627    26.6458     2.1879
 4922.5000    33.6434  4040.0312   116.7357    29.0465      .2459      .2708  -999.2500      .7746  -999.2500  -123.0607    16.9175     -.0700    28.3163     2.1772
 4923.0000    33.6189  4004.8711   116.7404    29.9247      .2474      .2722  -999.2500      .7614  -999.2500  -122.6981    16.9141     -.0765    28.1509     2.1664
 4923.5000    34.0062  3989.7695   117.0220    30.4778      .2489      .2754  -999.2500      .7588  -999.2500  -122.4171    16.9142     -.0770    27.0912     2.1561
 4924.0000    33.6490  3972.6445   117.9316    30.0408      .2501      .2786  -999.2500      .7669  -999.2500  -122.2437    16.9174     -.0750    26.7150     2.1960
 4924.5000    33.7059  3956.1914   120.0144    29.4992      .2509      .2819  -999.2500      .7681  -999.2500  -122.1334    16.9205     -.0595    29.9666     2.2491
 4925.0000    34.8472  3947.0625   122.8810    29.2010      .2516      .2853  -999.2500      .7615  -999.2500  -122.0232    16.9236     -.0406    31.1329     2.2798
 4925.5000    36.3469  3937.9375   126.2484    29.1626      .2526      .2886  -999.2500      .7550  -999.2500  -121.7220    16.9267     -.0228    31.1735     2.3009
 4926.0000    38.4157  3877.9648   127.8210    29.3835      .2582      .2920  -999.2500      .7505  -999.2500  -121.3574    16.9304     -.0066    30.5504     2.3003
 4926.5000    39.8043  3796.0000   127.6447    29.6641      .2640      .2955  -999.2500      .7490  -999.2500  -120.7843    16.9351      .0054    29.5050     2.2512
 4927.0000    39.7227  3695.6836   123.5471    30.5997      .2709      .2990  -999.2500      .7572  -999.2500  -119.6010    16.9398      .0078    28.4646     2.2215
 4927.5000    38.5196  3606.8906   119.8564    30.9764      .2791      .3025  -999.2500      .7525  -999.2500  -117.8359    16.9445      .0022    27.4922     2.2040
 4928.0000    36.5803  3556.2852   116.5187    30.4296      .2823      .3061  -999.2500      .7269  -999.2500  -116.3141    16.9492     -.0006    28.9973     2.1951
 4928.5000    32.6263  3543.3750   113.3684    30.0596      .2806      .3018  -999.2500      .7159  -999.2500  -116.6970    16.9525     -.0026    30.0439     2.1868
 4929.0000    30.5770  3558.8594   110.6053    29.6897      .2795      .2977  -999.2500      .8086  -999.2500  -118.3818    16.9519     -.0131    30.8388     2.1798
 4929.5000    30.2911  3565.6641   107.9928    29.8166      .2795      .2942  -999.2500      .9204  -999.2500  -120.1890    16.9512     -.0255    31.3113     2.1919
 4930.0000    31.0867  3561.8867   110.2427    30.6701      .2795      .2958  -999.2500      .9524  -999.2500  -121.7465    16.9505     -.0639    30.9969     2.2284
 4930.5000    31.4300  3558.1797   111.4922    31.5237      .2796      .2973  -999.2500      .8412  -999.2500  -122.8458    16.9498     -.0940    30.2597     2.2462
 4931.0000    31.9735  3558.3047   109.4854    32.3679      .2796      .3036  -999.2500      .7725  -999.2500  -123.0984    16.9492     -.0884    30.2223     2.2539
 4931.5000    33.0508  3569.0742    92.0488    33.2016      .2796      .3161  -999.2500      .8224  -999.2500  -123.4850    16.9473     -.0641    31.2034     2.2469
 4932.0000    34.3691  3575.7773    71.8567    34.0347      .2796      .3290  -999.2500      .8643  -999.2500  -123.6169    16.9455     -.0301    32.7109     2.2553
