~VERSION INFORMATION
VERS.                             2.0:   CWLS Log ASCII Standard-VERSION 2.0
WRAP.                              NO:   One line per depth step
~Well Information Block
STRT.F                       302.0000:   Top Depth
STOP.F                     11038.0000:   Bottom Depth
STEP.F                         .50000:   Depth Increment
NULL.                        -999.250:   Null Value
FLD .                         WILDCAT:   Field Name
WELL.       OCSG04565   001 ST00 BP00:   NAME
API .                    42706400940000:   WELL API
EDF .F                        76.8000:   ELEV DRILL FLOOR
COMP.                  TENNECO OIL CO:   OPERATOR
BN  .                             303:   BLOCK
CTRY.                             USA:   COUNTRY NAME
CNTY.                              GA:   COUNTY
CNTY.                        GLVSTN L:   COUNTY NAME
EKB .F                        79.0000:   ELEV KELLY BUSHING
TDD .F                      11050.000:   FINAL TD DRILLER
STAT.                           TEXAS:   STATE NAME
UWI .                    42706400940000:   WELL API
DICO.               IHS : Digitizing Company
~PARAMETER INFORMATION (zones)
#MNEM.UNIT                       Value     Description
#=========                       =====     ===========
#ZONATION                          CNL:   ZONATION NAME
#ZONE                            RUN_1:   ZONE NAME
TOP .                       4297.0000:   TOP DEPTH
BOT .                       7582.5000:   BOTTOM DEPTH
RUN .                               1:   RUN NUMBER
LCCD.                              20:   LOGGING CONTRACTOR
SRVC.                          Baroil:   LOGGING CONT NAME
DICO.          QC Data Collectors Ltd:   DIG COMPANY NAME
LDAT.                      03/12/1983:   DATE LOGGED
ELD .F                        77.8000:   LOG DATUM ELEVATION
TDD .F                      7587.0000:   TOTAL DEPTH DRILLER
TDL .F                      7584.0000:   TOTAL DEPTH LOGGER
BOTL.F                      7582.0000:   BOTTOM DEPTH LOGGED
TOPL.F                      4300.0000:   TOP DEPTH LOGGED
CS1 .IN                       13.3750:   CASING SIZE 1
BS1 .IN                       12.2500:   BIT SIZE 1
DDB1.F                      7587.0000:   DEPTH DRILLED BIT 1
BHF .                              70:   FLUID CODE
DPT .                       Phosphate:   DRILLING FLUID TYPE
MUDD.                         13.5000:   FLUID DENSITY
MUDV.                         49.0000:   FLUID VISCOSITY
DFPH.                         11.4000:   FLUID PH
FL  .                         12.8000:   FLUID LOSS
RM  .OHMM                       .0680:   RM
RMT .DEGF                     65.0000:   RM TEMP
RMF .OHMM                       .0530:   RMF
RMFT.DEGF                     65.0000:   RMF TEMP
FSC .                               M:   RMF CODE
RMC .OHMM                       .1020:   RMC
RMCT.DEGF                     65.0000:   RMC TEMP
CMC .                               C:   RMC CODE
TMAX.DEGF                    161.0000:   MAX REC TEMP
TIMC.                         10.0000:   TIME SINCE CIRCLN
~PARAMETER INFORMATION (zones)
#MNEM.UNIT                       Value     Description
#=========                       =====     ===========
#ZONATION                          DIL:   ZONATION NAME
#ZONE                            RUN_1:   ZONE NAME
TOP .                        302.0000:   TOP DEPTH
BOT .                      11038.5000:   BOTTOM DEPTH
RUN .                               1:   RUN NUMBER
LCCD.                             150:   LOGGING CONTRACTOR
SRVC.                   Dresser Atlas:   LOGGING CONT NAME
DICO.          QC Data Collectors Ltd:   DIG COMPANY NAME
LDAT.                      02/22/1983:   DATE LOGGED
ELD .F                        77.8000:   LOG DATUM ELEVATION
TDD .F                       841.0000:   TOTAL DEPTH DRILLER
TDL .F                       832.0000:   TOTAL DEPTH LOGGER
BOTL.F                     11038.0000:   BOTTOM DEPTH LOGGED
TOPL.F                       302.0000:   TOP DEPTH LOGGED
CS1 .IN                       30.6250:   CASING SIZE 1
BS1 .IN                       17.5000:   BIT SIZE 1
DDB1.F                       841.0000:   DEPTH DRILLED BIT 1
BHF .                              99:   FLUID CODE
DPT .                   Miscellaneous:   DRILLING FLUID TYPE
MUDD.                          8.7000:   FLUID DENSITY
MUDV.                         50.0000:   FLUID VISCOSITY
DFPH.                         12.0000:   FLUID PH
FL  .                         20.4000:   FLUID LOSS
RM  .OHMM                      1.1500:   RM
RMT .DEGF                     65.0000:   RM TEMP
RMF .OHMM                       .8000:   RMF
RMFT.DEGF                     65.0000:   RMF TEMP
FSC .                               M:   RMF CODE
RMC .OHMM                      1.4300:   RMC
RMCT.DEGF                     65.0000:   RMC TEMP
CMC .                               C:   RMC CODE
TMAX.DEGF                     85.0000:   MAX REC TEMP
TIMC.                          3.0000:   TIME SINCE CIRCLN
~PARAMETER INFORMATION (zones)
#MNEM.UNIT                       Value     Description
#=========                       =====     ===========
#ZONATION                          FDC:   ZONATION NAME
#ZONE                            RUN_4:   ZONE NAME
TOP .                      11038.0000:   TOP DEPTH
BOT .                      11040.0000:   BOTTOM DEPTH
RUN .                               4:   RUN NUMBER
LCCD.                             150:   LOGGING CONTRACTOR
SRVC.                   Dresser Atlas:   LOGGING CONT NAME
DICO.          QC Data Collectors Ltd:   DIG COMPANY NAME
LDAT.                      03/25/1983:   DATE LOGGED
ELD .F                        77.8000:   LOG DATUM ELEVATION
TDD .F                     11050.0000:   TOTAL DEPTH DRILLER
TDL .F                     11040.0000:   TOTAL DEPTH LOGGER
BOTL.F                     11038.0000:   BOTTOM DEPTH LOGGED
TOPL.F                      7555.0000:   TOP DEPTH LOGGED
CS1 .IN                        9.6250:   CASING SIZE 1
BS1 .IN                        8.5000:   BIT SIZE 1
DDB1.F                     11050.0000:   DEPTH DRILLED BIT 1
BHF .                              99:   FLUID CODE
DPT .                   Miscellaneous:   DRILLING FLUID TYPE
MUDD.                         16.6000:   FLUID DENSITY
MUDV.                         50.0000:   FLUID VISCOSITY
DFPH.                         11.4000:   FLUID PH
FL  .                         10.0000:   FLUID LOSS
RM  .OHMM                      1.7000:   RM
RMT .DEGF                     75.0000:   RM TEMP
RMF .OHMM                      1.2000:   RMF
RMFT.DEGF                     75.0000:   RMF TEMP
FSC .                               M:   RMF CODE
RMC .OHMM                      2.2000:   RMC
RMCT.DEGF                     75.0000:   RMC TEMP
CMC .                               M:   RMC CODE
TMAX.DEGF                    228.0000:   MAX REC TEMP
TIMC.                          4.0000:   TIME SINCE CIRCLN
~PARAMETER INFORMATION (zones)
#MNEM.UNIT                       Value     Description
#=========                       =====     ===========
#ZONATION                          FDC:   ZONATION NAME
#ZONE                            RUN_2:   ZONE NAME
TOP .                       4512.0000:   TOP DEPTH
BOT .                       7583.5000:   BOTTOM DEPTH
RUN .                               2:   RUN NUMBER
LCCD.                             150:   LOGGING CONTRACTOR
SRVC.                   Dresser Atlas:   LOGGING CONT NAME
DICO.          QC Data Collectors Ltd:   DIG COMPANY NAME
LDAT.                      02/28/1983:   DATE LOGGED
ELD .F                        77.8000:   LOG DATUM ELEVATION
TDD .F                      4512.0000:   TOTAL DEPTH DRILLER
TDL .F                      4505.0000:   TOTAL DEPTH LOGGER
BOTL.F                      7583.0000:   BOTTOM DEPTH LOGGED
TOPL.F                      4512.0000:   TOP DEPTH LOGGED
CS1 .IN                       20.0000:   CASING SIZE 1
BS1 .IN                       17.5000:   BIT SIZE 1
DDB1.F                      4512.0000:   DEPTH DRILLED BIT 1
BHF .                              99:   FLUID CODE
DPT .                   Miscellaneous:   DRILLING FLUID TYPE
MUDD.                          9.4000:   FLUID DENSITY
MUDV.                         40.0000:   FLUID VISCOSITY
DFPH.                         12.0000:   FLUID PH
FL  .                         38.0000:   FLUID LOSS
RM  .OHMM                       .2900:   RM
RMT .DEGF                     65.0000:   RM TEMP
RMF .OHMM                       .2100:   RMF
RMFT.DEGF                     65.0000:   RMF TEMP
FSC .                               M:   RMF CODE
RMC .OHMM                       .3400:   RMC
RMCT.DEGF                     65.0000:   RMC TEMP
CMC .                               C:   RMC CODE
TMAX.DEGF                     90.0000:   MAX REC TEMP
TIMC.                          3.0000:   TIME SINCE CIRCLN
~PARAMETER INFORMATION (zones)
#MNEM.UNIT                       Value     Description
#=========                       =====     ===========
#ZONATION                          FDC:   ZONATION NAME
#ZONE                            RUN_1:   ZONE NAME
TOP .                       4297.0000:   TOP DEPTH
BOT .                       7582.5000:   BOTTOM DEPTH
RUN .                               1:   RUN NUMBER
LCCD.                              20:   LOGGING CONTRACTOR
SRVC.                          Baroil:   LOGGING CONT NAME
DICO.          QC Data Collectors Ltd:   DIG COMPANY NAME
LDAT.                      03/12/1983:   DATE LOGGED
ELD .F                        77.8000:   LOG DATUM ELEVATION
TDD .F                      7587.0000:   TOTAL DEPTH DRILLER
TDL .F                      7584.0000:   TOTAL DEPTH LOGGER
BOTL.F                      7582.0000:   BOTTOM DEPTH LOGGED
TOPL.F                      4300.0000:   TOP DEPTH LOGGED
CS1 .IN                       13.3750:   CASING SIZE 1
BS1 .IN                       12.2500:   BIT SIZE 1
DDB1.F                      7587.0000:   DEPTH DRILLED BIT 1
BHF .                              70:   FLUID CODE
DPT .                       Phosphate:   DRILLING FLUID TYPE
MUDD.                         13.5000:   FLUID DENSITY
MUDV.                         49.0000:   FLUID VISCOSITY
DFPH.                         11.4000:   FLUID PH
FL  .                         12.8000:   FLUID LOSS
RM  .OHMM                       .0680:   RM
RMT .DEGF                     65.0000:   RM TEMP
RMF .OHMM                       .0530:   RMF
RMFT.DEGF                     65.0000:   RMF TEMP
FSC .                               M:   RMF CODE
RMC .OHMM                       .1020:   RMC
RMCT.DEGF                     65.0000:   RMC TEMP
CMC .                               C:   RMC CODE
TMAX.DEGF                    161.0000:   MAX REC TEMP
TIMC.                         10.0000:   TIME SINCE CIRCLN
~Curve Information Block
#MNEM.UNIT                    API CODE    No Description
#=========                    ========    == ===========
DEPT.F                   00 001 00 00:     1  DEPTH
NPHI.%                               :     2  Neutron Porosity
CILD.MMHO                            :     3  Deep Induction Conductivity
DT.US/F                              :     4  Sonic Transit Time
GR1.GAPI                              :     5  Gamma Ray
ILD.OHMM                             :     6  Deep Induction Resistivity
ILM.OHMM                             :     7  Medium Induction Resistivity
LN.OHMM                              :     8  Medium Resistivity
RFOC.OHMM                            :     9  Medium Resistivity
SN.OHMM                              :    10  Short-Normal Resistivity
SP.MV                                :    11  Spontaneous Potential
CALI.IN                              :    12  Caliper
DRHO.G/C3                            :    13  Bulk Density Correction
GR2.GAPI                              :    14  Gamma Ray
RHOB.G/C3                            :    15  Bulk Density
~ASCII
# ...
11008.5000  -999.2500  1374.8652   103.6642    56.8250      .7125      .8980  -999.2500     1.0359  -999.2500   -38.1992  -999.2500  -999.2500  -999.2500  -999.2500
11009.0000  -999.2500  1348.9160   103.7322    56.8406      .7307      .9131  -999.2500     1.0429  -999.2500   -38.5090  -999.2500  -999.2500  -999.2500  -999.2500
11009.5000  -999.2500  1322.9668   104.0859    56.3272      .7493      .9394  -999.2500     1.0668  -999.2500   -38.8193  -999.2500  -999.2500  -999.2500  -999.2500
11010.0000  -999.2500  1286.6191   104.4614    55.7163      .7798      .9666  -999.2500     1.0591  -999.2500   -39.1291  -999.2500  -999.2500  -999.2500  -999.2500
11010.5000  -999.2500  1227.5879   104.8370    55.1263      .8152      .9944  -999.2500     1.0152  -999.2500   -39.4167  -999.2500  -999.2500  -999.2500  -999.2500
11011.0000  -999.2500  1169.7480   105.2125    54.5807      .8520     1.0338  -999.2500      .9975  -999.2500   -39.6852  -999.2500  -999.2500  -999.2500  -999.2500
11011.5000  -999.2500  1115.7695   105.3315    55.4798      .8868     1.0802  -999.2500     1.1591  -999.2500   -39.9691  -999.2500  -999.2500  -999.2500  -999.2500
11012.0000  -999.2500  1065.5801   105.4170    56.2114      .9226     1.1185  -999.2500     1.3613  -999.2500   -40.2634  -999.2500  -999.2500  -999.2500  -999.2500
11012.5000  -999.2500  1048.3945   105.5026    56.5735      .9395     1.1332  -999.2500     1.2865  -999.2500   -39.9833  -999.2500  -999.2500  -999.2500  -999.2500
11013.0000  -999.2500  1033.2422   105.5880    55.2926      .9507     1.1231  -999.2500     1.2168  -999.2500   -39.5380  -999.2500  -999.2500  -999.2500  -999.2500
11013.5000  -999.2500  1045.0781   105.6736    54.0339      .9437     1.1040  -999.2500     1.1560  -999.2500   -39.1882  -999.2500  -999.2500  -999.2500  -999.2500
11014.0000  -999.2500  1059.2148   105.7590    52.9501      .9316     1.0567  -999.2500     1.1510  -999.2500   -38.9816  -999.2500  -999.2500  -999.2500  -999.2500
11014.5000  -999.2500  1101.4082   105.8036    53.4957      .9182     1.0114  -999.2500     1.1308  -999.2500   -39.0041  -999.2500  -999.2500  -999.2500  -999.2500
11015.0000  -999.2500  1143.5996   105.7225    54.2396      .8878      .9823  -999.2500     1.0991  -999.2500   -39.5645  -999.2500  -999.2500  -999.2500  -999.2500
11015.5000  -999.2500  1186.5840   105.6415    55.0475      .8583      .9745  -999.2500     1.0588  -999.2500   -40.1249  -999.2500  -999.2500  -999.2500  -999.2500
11016.0000  -999.2500  1232.3418   105.5604    55.8555      .8298      .9787  -999.2500     1.0161  -999.2500   -40.5449  -999.2500  -999.2500  -999.2500  -999.2500
11016.5000  -999.2500  1278.0996   105.4794    55.9780      .8023      .9907  -999.2500     1.0387  -999.2500   -40.9612  -999.2500  -999.2500  -999.2500  -999.2500
11017.0000  -999.2500  1321.0352   105.3983    55.7194      .7815      .9846  -999.2500     1.0925  -999.2500   -41.3768  -999.2500  -999.2500  -999.2500  -999.2500
11017.5000  -999.2500  1347.9746   105.3174    55.5829      .7613      .9586  -999.2500     1.1348  -999.2500   -41.7432  -999.2500  -999.2500  -999.2500  -999.2500
11018.0000  -999.2500  1374.9141   105.2562    55.5642      .7416      .9176  -999.2500     1.1359  -999.2500   -41.9939  -999.2500  -999.2500  -999.2500  -999.2500
11018.5000  -999.2500  1398.3887   105.2858    55.5455      .7225      .8935  -999.2500     1.0890  -999.2500   -42.2451  -999.2500  -999.2500  -999.2500  -999.2500
11019.0000  -999.2500  1415.9688   105.3153    55.5140      .7103      .8824  -999.2500     1.0309  -999.2500   -42.4958  -999.2500  -999.2500  -999.2500  -999.2500
11019.5000  -999.2500  1433.5723   105.3448    55.4717      .6991      .8808  -999.2500      .9759  -999.2500   -42.7316  -999.2500  -999.2500  -999.2500  -999.2500
11020.0000  -999.2500  1443.1797   105.3744    54.7076      .6881      .8883  -999.2500      .9542  -999.2500   -42.9164  -999.2500  -999.2500  -999.2500  -999.2500
11020.5000  -999.2500  1446.1895   105.4082    54.0770      .6795      .8959  -999.2500      .9655  -999.2500   -43.1011  -999.2500  -999.2500  -999.2500  -999.2500
11021.0000  -999.2500  1449.1973   105.4968    53.8627      .6722      .9099  -999.2500     1.0024  -999.2500   -43.2862  -999.2500  -999.2500  -999.2500  -999.2500
11021.5000  -999.2500  1430.8242   105.5854    54.3701      .6763      .9242  -999.2500     1.0408  -999.2500   -43.5864  -999.2500  -999.2500  -999.2500  -999.2500
11022.0000  -999.2500  1405.9648   105.6740    54.8486      .7141      .9423  -999.2500     1.0923  -999.2500   -43.8998  -999.2500  -999.2500  -999.2500  -999.2500
11022.5000  -999.2500  1322.4727   105.7626    55.2003      .7539      .9656  -999.2500     1.1580  -999.2500   -44.8383  -999.2500  -999.2500  -999.2500  -999.2500
11023.0000  -999.2500  1235.3145   105.7891    55.3450      .8380     1.0212  -999.2500     1.1069  -999.2500   -46.4074  -999.2500  -999.2500  -999.2500  -999.2500
11023.5000  -999.2500  1141.0254   105.8031    55.2568      .9318     1.0930  -999.2500     1.0652  -999.2500   -48.0283  -999.2500  -999.2500  -999.2500  -999.2500
11024.0000  -999.2500  1047.5293   105.8171    55.6658     1.0408     1.1915  -999.2500     1.0721  -999.2500   -49.7205  -999.2500  -999.2500  -999.2500  -999.2500
11024.5000  -999.2500   958.3906   105.8312    56.2126     1.1634     1.3320  -999.2500     1.1476  -999.2500   -51.9103  -999.2500  -999.2500  -999.2500  -999.2500
11025.0000  -999.2500   869.4502   105.8401    56.5797     1.2828     1.4688  -999.2500     1.3166  -999.2500   -56.4723  -999.2500  -999.2500  -999.2500  -999.2500
11025.5000  -999.2500   788.4326   105.8333    56.8186     1.3980     1.5817  -999.2500     1.9511  -999.2500   -60.6450  -999.2500  -999.2500  -999.2500  -999.2500
11026.0000  -999.2500   713.1602   105.8263    56.1227     1.4861     1.6623  -999.2500     2.9289  -999.2500   -64.0245  -999.2500  -999.2500  -999.2500  -999.2500
11026.5000  -999.2500   652.1494   105.8193    55.1375     1.5566     1.6371  -999.2500     2.2908  -999.2500   -62.7880  -999.2500  -999.2500  -999.2500  -999.2500
11027.0000  -999.2500   664.4307   105.8124    55.8542     1.5347     1.4574  -999.2500     1.6030  -999.2500   -60.0637  -999.2500  -999.2500  -999.2500  -999.2500
11027.5000  -999.2500   778.7266   105.8054    56.8740     1.3628     1.2962  -999.2500     1.4473  -999.2500   -57.3442  -999.2500  -999.2500  -999.2500  -999.2500
11028.0000  -999.2500   934.0254   105.8038    57.4319     1.1941     1.1515  -999.2500     1.3964  -999.2500   -54.7332  -999.2500  -999.2500  -999.2500  -999.2500
11028.5000  -999.2500  1060.0078   105.8059    57.8544     1.0458     1.0221  -999.2500     1.2764  -999.2500   -52.1616  -999.2500  -999.2500  -999.2500  -999.2500
11029.0000  -999.2500  1182.0293   105.8080    57.0797      .9076      .9035  -999.2500     1.1296  -999.2500   -49.5900  -999.2500  -999.2500  -999.2500  -999.2500
11029.5000  -999.2500  1300.2871   105.8099    56.4417      .7877      .8467  -999.2500      .9795  -999.2500   -48.0873  -999.2500  -999.2500  -999.2500  -999.2500
11030.0000  -999.2500  1399.7246   105.8120    55.8801      .7014      .8034  -999.2500      .8865  -999.2500   -46.6932  -999.2500  -999.2500  -999.2500  -999.2500
11030.5000  -999.2500  1475.9883   105.8141    55.5377      .6522      .7633  -999.2500      .8998  -999.2500   -45.2990  -999.2500  -999.2500  -999.2500  -999.2500
11031.0000  -999.2500  1545.3184   105.8162    55.5359      .6295      .7494  -999.2500      .9240  -999.2500   -45.1534  -999.2500  -999.2500  -999.2500  -999.2500
11031.5000  -999.2500  1609.3008   105.7925    55.5562      .6182      .7416  -999.2500      .9480  -999.2500   -45.2433  -999.2500  -999.2500  -999.2500  -999.2500
11032.0000  -999.2500  1654.4629   105.7687    55.9324      .6101      .7362  -999.2500      .9725  -999.2500   -45.2243  -999.2500  -999.2500  -999.2500  -999.2500
11032.5000  -999.2500  1692.2988   105.7449    56.3087      .6075      .7353  -999.2500      .9971  -999.2500   -45.1406  -999.2500  -999.2500  -999.2500  -999.2500
