~VERSION INFORMATION
VERS.                             2.0:   CWLS Log ASCII Standard-VERSION 2.0
WRAP.                              NO:   One line per depth step
~Well Information Block
STRT.F                      3120.0000:   Top Depth
STOP.F                     12040.0000:   Bottom Depth
STEP.F                         .50000:   Depth Increment
NULL.                        -999.250:   Null Value
FLD .                      GA BLK 254:   Field Name
WELL.       OCSG01776   001 ST00 BP00:   NAME
API .                    42706300290000:   WELL API
R1  .                      SUN OIL CO:   COMMENT  1
EDF .F                        57.0000:   ELEV DRILL FLOOR
COMP.                      SUN OIL CO:   OPERATOR
BN  .                             254:   BLOCK
CTRY.                             USA:   COUNTRY NAME
CNTY.                              GA:   COUNTY
CNTY.                        GLVSTN L:   COUNTY NAME
EKB .F                        58.0000:   ELEV KELLY BUSHING
TDD .F                      12003.000:   FINAL TD DRILLER
STAT.                           TEXAS:   STATE NAME
UWI .                    42706300290000:   WELL API
DICO.               IHS : Digitizing Company
~PARAMETER INFORMATION (zones)
#MNEM.UNIT                       Value     Description
#=========                       =====     ===========
#ZONATION                           IE:   ZONATION NAME
#ZONE                            RUN_2:   ZONE NAME
TOP .                       7847.0000:   TOP DEPTH
BOT .                      10079.0000:   BOTTOM DEPTH
RUN .                               2:   RUN NUMBER
LCCD.                             440:   LOGGING CONTRACTOR
SRVC.                    Schlumberger:   LOGGING CONT NAME
DICO.          QC Data Collectors Ltd:   DIG COMPANY NAME
LDAT.                      11/28/1970:   DATE LOGGED
ELD .F                        58.0000:   LOG DATUM ELEVATION
TDD .F                     10076.0000:   TOTAL DEPTH DRILLER
TDL .F                     10080.0000:   TOTAL DEPTH LOGGER
BOTL.F                     10079.0000:   BOTTOM DEPTH LOGGED
TOPL.F                      7847.0000:   TOP DEPTH LOGGED
CS1 .IN                        9.6250:   CASING SIZE 1
BS1 .IN                        8.5000:   BIT SIZE 1
DDB1.F                     10076.0000:   DEPTH DRILLED BIT 1
BHF .                              99:   FLUID CODE
DPT .                   Miscellaneous:   DRILLING FLUID TYPE
MUDD.                         15.4000:   FLUID DENSITY
MUDV.                         48.0000:   FLUID VISCOSITY
DFPH.                         11.5000:   FLUID PH
FL  .                          3.2000:   FLUID LOSS
RM  .OHMM                       .8400:   RM
RMT .DEGF                     75.0000:   RM TEMP
RMF .OHMM                       .4600:   RMF
RMFT.DEGF                     75.0000:   RMF TEMP
FSC .                               M:   RMF CODE
RMC .OHMM                      1.3100:   RMC
RMCT.DEGF                     75.0000:   RMC TEMP
CMC .                               C:   RMC CODE
TMAX.DEGF                    202.0000:   MAX REC TEMP
TIMC.                          3.5000:   TIME SINCE CIRCLN
~PARAMETER INFORMATION (zones)
#MNEM.UNIT                       Value     Description
#=========                       =====     ===========
#ZONATION                           IE:   ZONATION NAME
#ZONE                            RUN_3:   ZONE NAME
TOP .                      10074.0000:   TOP DEPTH
BOT .                      12002.0000:   BOTTOM DEPTH
RUN .                               3:   RUN NUMBER
LCCD.                             440:   LOGGING CONTRACTOR
SRVC.                    Schlumberger:   LOGGING CONT NAME
DICO.          QC Data Collectors Ltd:   DIG COMPANY NAME
LDAT.                      12/17/1970:   DATE LOGGED
ELD .F                        58.0000:   LOG DATUM ELEVATION
TDD .F                     12000.0000:   TOTAL DEPTH DRILLER
TDL .F                     12003.0000:   TOTAL DEPTH LOGGER
BOTL.F                     12002.0000:   BOTTOM DEPTH LOGGED
TOPL.F                     10074.0000:   TOP DEPTH LOGGED
CS1 .IN                        7.6250:   CASING SIZE 1
BS1 .IN                        6.5000:   BIT SIZE 1
DDB1.F                     12000.0000:   DEPTH DRILLED BIT 1
BHF .                              99:   FLUID CODE
DPT .                   Miscellaneous:   DRILLING FLUID TYPE
MUDD.                         15.9000:   FLUID DENSITY
MUDV.                         48.0000:   FLUID VISCOSITY
DFPH.                         12.0000:   FLUID PH
FL  .                          3.0000:   FLUID LOSS
RM  .OHMM                      1.0500:   RM
RMT .DEGF                     70.0000:   RM TEMP
RMF .OHMM                       .5100:   RMF
RMFT.DEGF                     70.0000:   RMF TEMP
FSC .                               M:   RMF CODE
RMC .OHMM                      1.3000:   RMC
RMCT.DEGF                     70.0000:   RMC TEMP
CMC .                               C:   RMC CODE
TMAX.DEGF                    240.0000:   MAX REC TEMP
TIMC.                          5.0000:   TIME SINCE CIRCLN
~PARAMETER INFORMATION (zones)
#MNEM.UNIT                       Value     Description
#=========                       =====     ===========
#ZONATION                           IE:   ZONATION NAME
#ZONE                            RUN_1:   ZONE NAME
TOP .                       3120.0000:   TOP DEPTH
BOT .                      12002.5000:   BOTTOM DEPTH
RUN .                               1:   RUN NUMBER
LCCD.                             440:   LOGGING CONTRACTOR
SRVC.                    Schlumberger:   LOGGING CONT NAME
DICO.          QC Data Collectors Ltd:   DIG COMPANY NAME
LDAT.                      11/19/1970:   DATE LOGGED
ELD .F                        58.0000:   LOG DATUM ELEVATION
TDD .F                      7850.0000:   TOTAL DEPTH DRILLER
TDL .F                      7847.0000:   TOTAL DEPTH LOGGER
BOTL.F                      7847.0000:   BOTTOM DEPTH LOGGED
TOPL.F                      3120.0000:   TOP DEPTH LOGGED
CS1 .IN                       13.3750:   CASING SIZE 1
BS1 .IN                       12.2500:   BIT SIZE 1
DDB1.F                      7850.0000:   DEPTH DRILLED BIT 1
BHF .                              99:   FLUID CODE
DPT .                   Miscellaneous:   DRILLING FLUID TYPE
MUDD.                         12.5000:   FLUID DENSITY
MUDV.                         46.0000:   FLUID VISCOSITY
DFPH.                         10.5000:   FLUID PH
FL  .                          4.0000:   FLUID LOSS
RM  .OHMM                       .7900:   RM
RMT .DEGF                     80.0000:   RM TEMP
RMF .OHMM                       .5200:   RMF
RMFT.DEGF                     75.0000:   RMF TEMP
FSC .                               M:   RMF CODE
RMC .OHMM                      1.2300:   RMC
RMCT.DEGF                     75.0000:   RMC TEMP
CMC .                               M:   RMC CODE
TMAX.DEGF                    152.0000:   MAX REC TEMP
TIMC.                          4.0000:   TIME SINCE CIRCLN
~Curve Information Block
#MNEM.UNIT         API  CODE                       CURVE DESCRIPTION
#---------        ------------                    --------------------
 DEPT.F           00 001 00 00                    :1   DEPTH
 C1-3.IN          00 000 00 00                    :2
 C2-4.IN          00 000 00 00                    :3
 CALI.IN          00 000 00 00                    :4   Density Caliper
 CILD.MMHO        00 000 00 00                    :5   Deep Induction Conductivity
 CORR.G/CC        00 000 00 00                    :6   Density Correction
 DT  .US/FT       00 000 00 00                    :7   Delta-T Compressional
 GR  .API         00 000 00 00                    :8   Gamma Ray
 ILD .OHMM        00 000 00 00                    :9   Induction Deep Resistivity
 IND .OHMM        00 000 00 00                    :10
 RHOB.G/CC        00 000 00 00                    :11  Bulk Density
 SN16.OHMM        00 000 00 00                    :12  Short Normal 16 Inch
 SP  .MV          00 000 00 00                    :13  Spontaneous Potential
~A    DEPT        C1-3        C2-4        CALI        CILD        CORR          DT          GR         ILD         IND        RHOB        SN16          SP
# ...
   9189.0000      9.0400      9.2000   -999.2500   2057.3594   -999.2500    122.1000   -999.2500      0.5619      0.5524   -999.2500      0.5842    -29.2157
   9189.5000      8.9600      9.1600   -999.2500   2046.7012   -999.2500    144.7000   -999.2500      0.5670      0.5467   -999.2500      0.5881    -29.0196
   9190.0000      8.9200      9.1200   -999.2500   2045.3457   -999.2500    117.4000   -999.2500      0.5746      0.5619   -999.2500      0.5920    -29.0196
   9190.5000      8.8400      9.0400   -999.2500   2000.8145   -999.2500    117.5000   -999.2500      0.5821      0.5400   -999.2500      0.5880    -29.6078
   9191.0000      8.7600      8.9600   -999.2500   1973.5508   -999.2500    118.3000   -999.2500      0.5896      0.5400   -999.2500      0.5880    -30.2000
   9191.5000      8.6800      8.9600   -999.2500   1946.2871   -999.2500    116.7000   -999.2500      0.5972      0.5400   -999.2500      0.5920    -30.6000
   9192.0000      8.6800      9.0000   -999.2500   1917.1387   -999.2500    115.1000   -999.2500      0.6047      0.5400   -999.2500      0.5880    -30.6000
   9192.5000      8.6800      9.0000   -999.2500   1887.7344   -999.2500    116.8000   -999.2500      0.6122      0.5600   -999.2500      0.5920    -31.0000
   9193.0000      8.6800      9.0400   -999.2500   1858.3301   -999.2500    117.4000   -999.2500      0.6198      0.5800   -999.2500      0.6040    -31.4000
   9193.5000      8.6800      9.0800   -999.2500   1828.6719   -999.2500    118.0000   -999.2500      0.6273      0.5800   -999.2500      0.6120    -32.0000
   9194.0000      8.6800      9.0800   -999.2500   1798.9629   -999.2500    115.8000   -999.2500      0.6348      0.6000   -999.2500      0.6320    -32.4000
   9194.5000      8.6800      9.1200   -999.2500   1769.2539   -999.2500    113.4314   -999.2500      0.6383      0.6000   -999.2500      0.6480    -31.8000
   9195.0000      8.7200      9.1600   -999.2500   1745.3027   -999.2500    118.6000   -999.2500      0.6373      0.6400   -999.2500      0.6640    -31.6000
   9195.5000      8.7200      9.2000   -999.2500   1723.4922   -999.2500    129.2000   -999.2500      0.6362      0.6400   -999.2500      0.6760    -31.4000
   9196.0000      8.7200      9.2000   -999.2500   1702.1387   -999.2500    114.1176   -999.2500      0.6352      0.6200   -999.2500      0.6800    -31.0000
   9196.5000      8.7200      9.2000   -999.2500   1741.3281   -999.2500    111.6667   -999.2500      0.6341      0.6200   -999.2500      0.6760    -31.0000
   9197.0000      8.7600      9.2000   -999.2500   1874.0273   -999.2500    109.5000   -999.2500      0.6330      0.6000   -999.2500      0.6600    -31.2000
   9197.5000      8.8400      9.2000   -999.2500   1951.4863   -999.2500    144.2000   -999.2500      0.6320      0.5800   -999.2500      0.6440    -31.4000
   9198.0000      8.8800      9.2000   -999.2500   2030.7793   -999.2500    109.2000   -999.2500      0.6290      0.5800   -999.2500      0.6280    -31.4000
   9198.5000      8.9200      9.4400   -999.2500   2089.8203   -999.2500    115.0140   -999.2500      0.6199      0.5429   -999.2500      0.6080    -31.4000
   9199.0000      8.9200      9.1600   -999.2500   2126.4102   -999.2500    120.6381   -999.2500      0.6107      0.5476   -999.2500      0.5921    -31.4000
   9199.5000      8.8400      9.1600   -999.2500   2142.1836   -999.2500    111.2908   -999.2500      0.6016      0.5333   -999.2500      0.5882    -31.2000
   9200.0000      8.8400      9.1200   -999.2500   2157.9297   -999.2500    113.5940   -999.2500      0.5925      0.5381   -999.2500      0.5843    -30.6000
   9200.5000      8.8400      9.0400   -999.2500   1988.8750   -999.2500    115.8000   -999.2500      0.5833      0.5400   -999.2500      0.5843    -30.4000
   9201.0000      8.8400      9.0400   -999.2500   2002.1250   -999.2500    118.2000   -999.2500      0.5742      0.5400   -999.2500      0.5804    -30.2000
   9201.5000      8.8400      9.0400   -999.2500   2015.3750   -999.2500    117.5000   -999.2500      0.5665      0.5800   -999.2500      0.5882    -30.0000
   9202.0000      8.8400      9.0800   -999.2500   1988.7871   -999.2500    116.5000   -999.2500      0.5675      0.5800   -999.2500      0.6000    -30.0000
   9202.5000      8.9200      9.0800   -999.2500   1925.6230   -999.2500    116.4000   -999.2500      0.5686      0.5800   -999.2500      0.6200    -30.0000
   9203.0000      8.9600      9.1600   -999.2500   1909.4180   -999.2500    116.8000   -999.2500      0.5696      0.6200   -999.2500      0.6360    -30.2000
   9203.5000      9.0400      9.2800   -999.2500   1893.2383   -999.2500    116.8000   -999.2500      0.5707      0.6200   -999.2500      0.6480    -30.6000
   9204.0000      9.0800      9.3600   -999.2500   1891.7090   -999.2500    116.5000   -999.2500      0.5717      0.6200   -999.2500      0.6480    -31.2000
   9204.5000      9.1600      9.4400   -999.2500   1913.7754   -999.2500    115.6000   -999.2500      0.5728      0.6000   -999.2500      0.6360    -31.2000
   9205.0000      9.2400      9.5600   -999.2500   1953.1152   -999.2500    114.0196   -999.2500      0.5738      0.6000   -999.2500      0.6280    -31.4000
   9205.5000      9.3200      9.5600   -999.2500   2013.2480   -999.2500    113.5294   -999.2500      0.5725      0.5800   -999.2500      0.6280    -31.4000
   9206.0000      9.3600      9.5200   -999.2500   2069.3750   -999.2500    114.7059   -999.2500      0.5702      0.5800   -999.2500      0.6160    -31.0000
   9206.5000      9.2400      9.4800   -999.2500   2130.5898   -999.2500    126.0000   -999.2500      0.5679      0.5600   -999.2500      0.6040    -30.4000
   9207.0000      9.1200      9.4000   -999.2500   2155.8164   -999.2500    137.1569   -999.2500      0.5656      0.5600   -999.2500      0.6040    -30.2000
   9207.5000      9.0400      9.3200   -999.2500   2181.0391   -999.2500    118.4000   -999.2500      0.5633      0.5600   -999.2500      0.6080    -30.2000
   9208.0000      9.0400      9.3200   -999.2500   2202.7227   -999.2500    115.6000   -999.2500      0.5610      0.5400   -999.2500      0.6040    -30.2000
   9208.5000      9.0000      9.3200   -999.2500   2216.7617   -999.2500    111.7647   -999.2500      0.5587      0.5400   -999.2500      0.5961    -29.8039
   9209.0000      9.0000      9.3600   -999.2500   2205.1172   -999.2500    111.5686   -999.2500      0.5554      0.5600   -999.2500      0.5882    -29.6078
   9209.5000      8.9600      9.2800   -999.2500   2191.5898   -999.2500    112.6471   -999.2500      0.5510      0.5200   -999.2500      0.5765    -29.4118
   9210.0000      8.9200      9.2400   -999.2500   2178.0352   -999.2500    115.0000   -999.2500      0.5466      0.5400   -999.2500      0.5725    -29.4118
   9210.5000      8.9200      9.1600   -999.2500   2164.4766   -999.2500    115.9000   -999.2500      0.5422      0.5200   -999.2500      0.5647    -29.4118
   9211.0000      8.8800      9.0800   -999.2500   2151.8398   -999.2500    115.4000   -999.2500      0.5378      0.5200   -999.2500      0.5608    -29.4118
   9211.5000      8.8400      9.0800   -999.2500   2139.7383   -999.2500    117.2000   -999.2500      0.5334      0.5200   -999.2500      0.5569    -29.6078
   9212.0000      8.8400      9.0800   -999.2500   2127.6602   -999.2500    118.0000   -999.2500      0.5290      0.5200   -999.2500      0.5608    -29.8039
   9212.5000      8.8400      9.0400   -999.2500   2121.6133   -999.2500    119.1000   -999.2500      0.5246      0.5400   -999.2500      0.5804    -30.0000
   9213.0000      8.8400      9.0000   -999.2500   2126.9727   -999.2500    131.2000   -999.2500      0.5227      0.5400   -999.2500      0.5961    -30.2000
   9213.5000      8.8400      9.0400   -999.2500   2132.3359   -999.2500    120.1000   -999.2500      0.5307      0.5400   -999.2500      0.6160    -30.2000
   9214.0000      8.8400      9.0400   -999.2500   2137.6914   -999.2500    121.1000   -999.2500      0.5388      0.5400   -999.2500      0.6160    -30.2000
