~VERSION INFORMATION
VERS.                             2.0:   CWLS Log ASCII Standard-VERSION 2.0
WRAP.                              NO:   One line per depth step
~Well Information Block
STRT.F                      4122.0000:   Top Depth
STOP.F                     10958.0000:   Bottom Depth
STEP.F                         .50000:   Depth Increment
NULL.                        -999.250:   Null Value
FLD .                      GA BLK 273:   Field Name
WELL.       OCSG09037   003 ST00 BP00:   NAME
API .                  42706402950000:   WELL API
EDF .F                        95.0000:   ELEV DRILL FLOOR
COMP.       SEAGULL ENERGY E AND P IN:   OPERATOR
BN  .                             273:   BLOCK
CTRY.                             USA:   COUNTRY NAME
CNTY.                              GA:   COUNTY
CNTY.                        GLVSTN L:   COUNTY NAME
EKB .F                        96.0000:   ELEV KELLY BUSHING
TDD .F                      10964.000:   FINAL TD DRILLER
STAT.                           TEXAS:   STATE NAME
UWI .                  42706402950000:   WELL API
DICO.               IHS : Digitizing Company
~PARAMETER INFORMATION (zones)
#MNEM.UNIT                       Value     Description
#=========                       =====     ===========
#ZONATION                          DIL:   ZONATION NAME
#ZONE                            RUN_1:   ZONE NAME
TOP .                       4122.0000:   TOP DEPTH
BOT .                       9366.5000:   BOTTOM DEPTH
RUN .                               1:   RUN NUMBER
LCCD.                             440:   LOGGING CONTRACTOR
SRVC.                    Schlumberger:   LOGGING CONT NAME
DICO.          QC Data Collectors Ltd:   DIG COMPANY NAME
LDAT.                      05/20/1991:   DATE LOGGED
ELD .F                        96.0000:   LOG DATUM ELEVATION
TDD .F                      9360.0000:   TOTAL DEPTH DRILLER
TDL .F                      9366.0000:   TOTAL DEPTH LOGGER
BOTL.F                      9366.0000:   BOTTOM DEPTH LOGGED
TOPL.F                      4402.0000:   TOP DEPTH LOGGED
CS1 .IN                       10.7500:   CASING SIZE 1
BS1 .IN                        9.8750:   BIT SIZE 1
DDB1.F                      9360.0000:   DEPTH DRILLED BIT 1
BHF .                              81:   FLUID CODE
DPT .          Lignosulfonate (Ligno):   DRILLING FLUID TYPE
MUDD.                         12.5000:   FLUID DENSITY
MUDV.                         45.0000:   FLUID VISCOSITY
DFPH.                         10.0000:   FLUID PH
FL  .                          8.0000:   FLUID LOSS
RM  .OHMM                       .5080:   RM
RMT .DEGF                     67.0000:   RM TEMP
RMF .OHMM                       .3460:   RMF
RMFT.DEGF                     67.0000:   RMF TEMP
FSC .                               M:   RMF CODE
RMC .OHMM                       .6820:   RMC
RMCT.DEGF                     67.0000:   RMC TEMP
CMC .                               M:   RMC CODE
TMAX.DEGF                    170.0000:   MAX REC TEMP
TIMC.                          6.6800:   TIME SINCE CIRCLN
~PARAMETER INFORMATION (zones)
#MNEM.UNIT                       Value     Description
#=========                       =====     ===========
#ZONATION                          DIL:   ZONATION NAME
#ZONE                            RUN_2:   ZONE NAME
TOP .                       9092.0000:   TOP DEPTH
BOT .                      10398.5000:   BOTTOM DEPTH
RUN .                               2:   RUN NUMBER
LCCD.                             440:   LOGGING CONTRACTOR
SRVC.                    Schlumberger:   LOGGING CONT NAME
DICO.          QC Data Collectors Ltd:   DIG COMPANY NAME
LDAT.                      06/04/1991:   DATE LOGGED
ELD .F                        96.0000:   LOG DATUM ELEVATION
TDD .F                     10401.0000:   TOTAL DEPTH DRILLER
TDL .F                     10404.0000:   TOTAL DEPTH LOGGER
BOTL.F                     10398.0000:   BOTTOM DEPTH LOGGED
TOPL.F                      9292.0000:   TOP DEPTH LOGGED
CS1 .IN                        7.6250:   CASING SIZE 1
BS1 .IN                        6.7500:   BIT SIZE 1
DDB1.F                     10401.0000:   DEPTH DRILLED BIT 1
BHF .                              99:   FLUID CODE
DPT .                   Miscellaneous:   DRILLING FLUID TYPE
MUDD.                         14.1000:   FLUID DENSITY
MUDV.                         40.0000:   FLUID VISCOSITY
DFPH.                          9.8000:   FLUID PH
FL  .                          3.4000:   FLUID LOSS
RM  .OHMM                       .5160:   RM
RMT .DEGF                     80.0000:   RM TEMP
RMF .OHMM                       .2580:   RMF
RMFT.DEGF                     80.0000:   RMF TEMP
FSC .                               M:   RMF CODE
RMC .OHMM                      1.8700:   RMC
RMCT.DEGF                     80.0000:   RMC TEMP
CMC .                               M:   RMC CODE
TMAX.DEGF                    192.0000:   MAX REC TEMP
TIMC.                          7.4000:   TIME SINCE CIRCLN
~PARAMETER INFORMATION (zones)
#MNEM.UNIT                       Value     Description
#=========                       =====     ===========
#ZONATION                          DIL:   ZONATION NAME
#ZONE                            RUN_3:   ZONE NAME
TOP .                       9320.0000:   TOP DEPTH
BOT .                      10958.5000:   BOTTOM DEPTH
RUN .                               3:   RUN NUMBER
LCCD.                             440:   LOGGING CONTRACTOR
SRVC.                    Schlumberger:   LOGGING CONT NAME
DICO.          QC Data Collectors Ltd:   DIG COMPANY NAME
LDAT.                      06/09/1991:   DATE LOGGED
ELD .F                        96.0000:   LOG DATUM ELEVATION
TDD .F                     10960.0000:   TOTAL DEPTH DRILLER
TDL .F                     10964.0000:   TOTAL DEPTH LOGGER
BOTL.F                     10958.0000:   BOTTOM DEPTH LOGGED
TOPL.F                      9404.0000:   TOP DEPTH LOGGED
CS1 .IN                        7.6250:   CASING SIZE 1
BS1 .IN                        6.7500:   BIT SIZE 1
DDB1.F                     10960.0000:   DEPTH DRILLED BIT 1
BHF .                              99:   FLUID CODE
DPT .                   Miscellaneous:   DRILLING FLUID TYPE
MUDD.                         14.7000:   FLUID DENSITY
MUDV.                         46.0000:   FLUID VISCOSITY
DFPH.                         10.0000:   FLUID PH
FL  .                          2.3000:   FLUID LOSS
RM  .OHMM                       .4570:   RM
RMT .DEGF                     74.0000:   RM TEMP
RMF .OHMM                       .2190:   RMF
RMFT.DEGF                     74.0000:   RMF TEMP
FSC .                               M:   RMF CODE
RMC .OHMM                       .7110:   RMC
RMCT.DEGF                     74.0000:   RMC TEMP
CMC .                               M:   RMC CODE
TMAX.DEGF                    202.0000:   MAX REC TEMP
TIMC.                          7.3800:   TIME SINCE CIRCLN
~Curve Information Block
#MNEM.UNIT                    API CODE    No Description
#=========                    ========    == ===========
DEPT.F                   00 001 00 00:     1  DEPTH
DT.US/F                              :     2  Sonic Transit Time
GR.GAPI                              :     3  Gamma Ray
ILD.OHMM                             :     4  Deep Induction Resistivity
ILM.OHMM                             :     5  Medium Induction Resistivity
SFL.OHMM                             :     6  Medium Resistivity
SP.MV                                :     7  Spontaneous Potential
~ASCII
# ...
 5682.0000   129.6311    71.8988      .6841      .6425      .5975   -47.3630
 5682.5000   128.1133    72.1287      .6858      .6517      .5936   -47.4307
 5683.0000   125.6008    72.3850      .6876      .6603      .5868   -47.4429
 5683.5000   120.5294    72.7299      .6885      .6680      .5775   -47.3787
 5684.0000   114.7015    72.9854      .6864      .6751      .5689   -47.5079
 5684.5000   108.2288    72.3920      .6843      .6791      .5661   -47.8967
 5685.0000   107.0219    69.8241      .6805      .6746      .5776   -49.8400
 5685.5000   107.7108    64.6162      .6680      .6539      .5925   -52.0735
 5686.0000   109.1121    57.6866      .6426      .6277      .6135   -55.2825
 5686.5000   110.5715    52.0283      .6034      .6015      .6247   -58.7020
 5687.0000   112.0325    49.5176      .5564      .5741      .6060   -61.8443
 5687.5000   113.3469    47.9744      .5148      .5406      .5825   -64.3922
 5688.0000   113.9121    47.4607      .4824      .5062      .5492   -66.9055
 5688.5000   114.0261    48.0643      .4609      .4781      .5238   -69.9039
 5689.0000   114.1958    48.9259      .4454      .4584      .5010   -72.0668
 5689.5000   114.4983    47.8571      .4333      .4440      .4833   -73.7393
 5690.0000   113.7574    44.7188      .4240      .4228      .4777   -74.8970
 5690.5000   112.5751    44.9493      .4175      .4144      .4892   -75.2657
 5691.0000   111.2502    46.5192      .4111      .4105      .5054   -74.9346
 5691.5000   112.4261    48.1330      .4048      .4080      .5246   -74.5798
 5692.0000   113.5593    48.6061      .4002      .4054      .5395   -74.1421
 5692.5000   114.6122    46.1913      .3962      .4035      .5157   -73.7200
 5693.0000   115.1901    42.8731      .3979      .4031      .4980   -73.4495
 5693.5000   114.6847    39.2137      .4007      .4064      .4930   -73.2477
 5694.0000   113.1112    36.4579      .4064      .4165      .4936   -73.3162
 5694.5000   110.4537    35.0350      .4180      .4316      .5069   -73.4315
 5695.0000   107.5165    35.5850      .4298      .4445      .5213   -73.4598
 5695.5000   104.2400    37.9344      .4475      .4671      .5385   -72.7471
 5696.0000   100.6241    40.4158      .4674      .4882      .5569   -71.2886
 5696.5000    97.3322    43.7473      .4881      .5098      .5723   -68.7179
 5697.0000   105.0144    47.9957      .5098      .5363      .5807   -65.3145
 5697.5000   116.4110    54.6162      .5324      .5605      .5666   -61.5298
 5698.0000   121.5991    62.4733      .5674      .5843      .5590   -57.7985
 5698.5000   124.4767    66.4926      .6090      .6087      .5561   -54.1417
 5699.0000   126.4971    70.3278      .6463      .6323      .5585   -51.1247
 5699.5000   127.5830    74.4883      .6766      .6513      .5756   -49.8174
 5700.0000   127.5983    80.9562      .7010      .6638      .5835   -48.5238
 5700.5000   127.4576    86.4333      .7182      .6708      .6156   -48.0518
 5701.0000   127.2637    85.0052      .7335      .6755      .6457   -47.5768
 5701.5000   127.1910    78.4744      .7480      .6805      .6638   -47.1004
 5702.0000   126.8575    73.5563      .7671      .6846      .6681   -46.5635
 5702.5000   125.8579    73.7863      .7910      .6883      .6618   -46.0383
 5703.0000   121.2061    75.3868      .8163      .6948      .6443   -45.6014
 5703.5000   113.7578    76.9153      .8540      .7082      .6186   -45.3874
 5704.0000    99.4410    76.5809      .9111      .7383      .5961   -45.4747
 5704.5000    85.3262    73.3798      .9792      .7866      .5895   -45.8475
 5705.0000    78.1782    68.4135     1.0855      .8671      .6230   -46.3757
 5705.5000    72.5468    62.9899     1.2353      .9917      .8075   -46.9580
 5706.0000    72.8159    46.0290     1.3919     1.1989     1.6655   -47.8445
 5706.5000    76.5892    37.8000     1.5024     1.6795     2.2968   -49.0106
 5707.0000    80.1606    36.1542     1.5440     1.9038     2.7458   -50.4641
 5707.5000    85.6833    38.0514     1.5334     1.8989     2.9600   -52.0259
 5708.0000    93.2714    41.0788     1.4353     1.7794     2.6547   -53.4193
 5708.5000   100.2434    44.4859     1.2501     1.4954     1.8970   -54.3553
 5709.0000   110.2278    47.6310     1.0651     1.1407     1.2939   -54.0724
 5709.5000   118.0746    51.4901      .9083      .9447      .9849   -53.4433
 5710.0000   124.9198    55.5337      .8078      .8508      .7468   -52.8342
 5710.5000   121.1439    59.4116      .7430      .7670      .6362   -52.5267
 5711.0000   114.9639    63.5220      .7021      .7300      .6308   -52.5138
 5711.5000   108.8976    66.9344      .6609      .7061      .6489   -52.7604
 5712.0000   104.9276    65.5117      .6203      .6936      .6795   -53.1939
 5712.5000   107.5441    62.2437      .5814      .6928      .7072   -54.4074
 5713.0000   110.6522    59.2618      .5417      .6914      .6990   -57.0577
 5713.5000   112.8636    56.5767      .5083      .6319      .6465   -61.2164
 5714.0000   114.1538    53.8943      .4847      .5750      .5887   -65.1156
 5714.5000   113.7559    51.6292      .4731      .5317      .5466   -67.7605
 5715.0000   112.4935    50.4337      .4626      .5034      .5099   -69.8693
 5715.5000   111.2500    51.4901      .4539      .4917      .4832   -70.8005
 5716.0000   110.2219    54.0441      .4490      .4929      .4985   -70.9741
 5716.5000   110.2382    54.6993      .4474      .4969      .5335   -70.5198
 5717.0000   111.4468    53.3384      .4514      .5034      .5626   -69.5691
 5717.5000   110.0725    53.5303      .4606      .5038      .5781   -68.2766
 5718.0000   108.5947    54.6311      .4704      .5043      .5828   -66.8298
 5718.5000   107.2659    56.7479      .4814      .5090      .5864   -65.0914
 5719.0000   108.6841    58.3605      .4912      .5205      .5857   -63.0964
 5719.5000   109.9741    59.5051      .5013      .5352      .5855   -61.4744
 5720.0000   111.3135    61.6954      .5208      .5514      .5855   -60.1493
 5720.5000   112.1704    63.8015      .5450      .5692      .5884   -58.4190
 5721.0000   111.7599    65.0116      .5830      .5868      .5979   -56.3731
 5721.5000   110.4426    64.2896      .6100      .6047      .6122   -54.7457
 5722.0000   108.7966    61.9789      .6284      .6135      .6295   -53.4353
 5722.5000   107.7433    60.5541      .6451      .6273      .6464   -52.9472
 5723.0000   109.3867    61.5189      .6593      .6415      .6463   -53.0494
 5723.5000   111.7961    64.8271      .6731      .6560      .6002   -52.3589
 5724.0000   115.1294    66.8329      .6867      .6628      .5684   -51.1621
 5724.5000   117.5259    68.0577      .6990      .6576      .5739   -49.8142
 5725.0000   119.4967    69.0365      .7106      .6494      .6256   -48.6937
 5725.5000   120.8320    70.0983      .7223      .6653      .6959   -47.9041
 5726.0000   122.0355    70.5209      .7321      .6916      .7597   -47.3561
 5726.5000   124.0295    68.6608      .7421      .7208      .7454   -47.0479
 5727.0000   126.2357    67.7911      .7500      .7437      .7246   -46.8888
 5727.5000   127.1779    68.0952      .7559      .7299      .6953   -46.7457
 5728.0000   128.2493    71.3606      .7581      .7090      .6686   -46.5630
 5728.5000   129.1731    77.1960      .7570      .6845      .6420   -46.3425
 5729.0000   128.9834    80.9268      .7560      .6581      .6164   -46.3318
 5729.5000   127.3447    81.8842      .7520      .6340      .6030   -46.6812
 5730.0000   125.0751    78.6509      .7474      .6277      .6013   -47.2321
 5730.5000   122.6605    77.2683      .7431      .6398      .6056   -47.2491
 5731.0000   120.4193    76.8955      .7426      .6566      .6147   -46.9219
 5731.5000   118.1599    76.8013      .7422      .6710      .6246   -46.5317
 5732.0000   115.9718    74.8319      .7415      .6816      .6356   -46.7668
 5732.5000   117.2594    73.3055      .7405      .6866      .6473   -47.3544
 5733.0000   118.7914    73.5115      .7394      .6860      .6597   -47.7285
 5733.5000   118.8096    74.2756      .7415      .6846      .6559   -48.0142
