~VERSION INFORMATION
VERS.                             2.0:   CWLS Log ASCII Standard-VERSION 2.0
WRAP.                              NO:   One line per depth step
~Well Information Block
STRT.F                      4122.0000:   Top Depth
STOP.F                     10958.0000:   Bottom Depth
STEP.F                         .50000:   Depth Increment
NULL.                        -999.250:   Null Value
FLD .                      GA BLK 273:   Field Name
WELL.       OCSG09037   003 ST00 BP00:   NAME
API .                  42706402950000:   WELL API
EDF .F                        95.0000:   ELEV DRILL FLOOR
COMP.       SEAGULL ENERGY E AND P IN:   OPERATOR
BN  .                             273:   BLOCK
CTRY.                             USA:   COUNTRY NAME
CNTY.                              GA:   COUNTY
CNTY.                        GLVSTN L:   COUNTY NAME
EKB .F                        96.0000:   ELEV KELLY BUSHING
TDD .F                      10964.000:   FINAL TD DRILLER
STAT.                           TEXAS:   STATE NAME
UWI .                  42706402950000:   WELL API
DICO.               IHS : Digitizing Company
~PARAMETER INFORMATION (zones)
#MNEM.UNIT                       Value     Description
#=========                       =====     ===========
#ZONATION                          DIL:   ZONATION NAME
#ZONE                            RUN_1:   ZONE NAME
TOP .                       4122.0000:   TOP DEPTH
BOT .                       9366.5000:   BOTTOM DEPTH
RUN .                               1:   RUN NUMBER
LCCD.                             440:   LOGGING CONTRACTOR
SRVC.                    Schlumberger:   LOGGING CONT NAME
DICO.          QC Data Collectors Ltd:   DIG COMPANY NAME
LDAT.                      05/20/1991:   DATE LOGGED
ELD .F                        96.0000:   LOG DATUM ELEVATION
TDD .F                      9360.0000:   TOTAL DEPTH DRILLER
TDL .F                      9366.0000:   TOTAL DEPTH LOGGER
BOTL.F                      9366.0000:   BOTTOM DEPTH LOGGED
TOPL.F                      4402.0000:   TOP DEPTH LOGGED
CS1 .IN                       10.7500:   CASING SIZE 1
BS1 .IN                        9.8750:   BIT SIZE 1
DDB1.F                      9360.0000:   DEPTH DRILLED BIT 1
BHF .                              81:   FLUID CODE
DPT .          Lignosulfonate (Ligno):   DRILLING FLUID TYPE
MUDD.                         12.5000:   FLUID DENSITY
MUDV.                         45.0000:   FLUID VISCOSITY
DFPH.                         10.0000:   FLUID PH
FL  .                          8.0000:   FLUID LOSS
RM  .OHMM                       .5080:   RM
RMT .DEGF                     67.0000:   RM TEMP
RMF .OHMM                       .3460:   RMF
RMFT.DEGF                     67.0000:   RMF TEMP
FSC .                               M:   RMF CODE
RMC .OHMM                       .6820:   RMC
RMCT.DEGF                     67.0000:   RMC TEMP
CMC .                               M:   RMC CODE
TMAX.DEGF                    170.0000:   MAX REC TEMP
TIMC.                          6.6800:   TIME SINCE CIRCLN
~PARAMETER INFORMATION (zones)
#MNEM.UNIT                       Value     Description
#=========                       =====     ===========
#ZONATION                          DIL:   ZONATION NAME
#ZONE                            RUN_2:   ZONE NAME
TOP .                       9092.0000:   TOP DEPTH
BOT .                      10398.5000:   BOTTOM DEPTH
RUN .                               2:   RUN NUMBER
LCCD.                             440:   LOGGING CONTRACTOR
SRVC.                    Schlumberger:   LOGGING CONT NAME
DICO.          QC Data Collectors Ltd:   DIG COMPANY NAME
LDAT.                      06/04/1991:   DATE LOGGED
ELD .F                        96.0000:   LOG DATUM ELEVATION
TDD .F                     10401.0000:   TOTAL DEPTH DRILLER
TDL .F                     10404.0000:   TOTAL DEPTH LOGGER
BOTL.F                     10398.0000:   BOTTOM DEPTH LOGGED
TOPL.F                      9292.0000:   TOP DEPTH LOGGED
CS1 .IN                        7.6250:   CASING SIZE 1
BS1 .IN                        6.7500:   BIT SIZE 1
DDB1.F                     10401.0000:   DEPTH DRILLED BIT 1
BHF .                              99:   FLUID CODE
DPT .                   Miscellaneous:   DRILLING FLUID TYPE
MUDD.                         14.1000:   FLUID DENSITY
MUDV.                         40.0000:   FLUID VISCOSITY
DFPH.                          9.8000:   FLUID PH
FL  .                          3.4000:   FLUID LOSS
RM  .OHMM                       .5160:   RM
RMT .DEGF                     80.0000:   RM TEMP
RMF .OHMM                       .2580:   RMF
RMFT.DEGF                     80.0000:   RMF TEMP
FSC .                               M:   RMF CODE
RMC .OHMM                      1.8700:   RMC
RMCT.DEGF                     80.0000:   RMC TEMP
CMC .                               M:   RMC CODE
TMAX.DEGF                    192.0000:   MAX REC TEMP
TIMC.                          7.4000:   TIME SINCE CIRCLN
~PARAMETER INFORMATION (zones)
#MNEM.UNIT                       Value     Description
#=========                       =====     ===========
#ZONATION                          DIL:   ZONATION NAME
#ZONE                            RUN_3:   ZONE NAME
TOP .                       9320.0000:   TOP DEPTH
BOT .                      10958.5000:   BOTTOM DEPTH
RUN .                               3:   RUN NUMBER
LCCD.                             440:   LOGGING CONTRACTOR
SRVC.                    Schlumberger:   LOGGING CONT NAME
DICO.          QC Data Collectors Ltd:   DIG COMPANY NAME
LDAT.                      06/09/1991:   DATE LOGGED
ELD .F                        96.0000:   LOG DATUM ELEVATION
TDD .F                     10960.0000:   TOTAL DEPTH DRILLER
TDL .F                     10964.0000:   TOTAL DEPTH LOGGER
BOTL.F                     10958.0000:   BOTTOM DEPTH LOGGED
TOPL.F                      9404.0000:   TOP DEPTH LOGGED
CS1 .IN                        7.6250:   CASING SIZE 1
BS1 .IN                        6.7500:   BIT SIZE 1
DDB1.F                     10960.0000:   DEPTH DRILLED BIT 1
BHF .                              99:   FLUID CODE
DPT .                   Miscellaneous:   DRILLING FLUID TYPE
MUDD.                         14.7000:   FLUID DENSITY
MUDV.                         46.0000:   FLUID VISCOSITY
DFPH.                         10.0000:   FLUID PH
FL  .                          2.3000:   FLUID LOSS
RM  .OHMM                       .4570:   RM
RMT .DEGF                     74.0000:   RM TEMP
RMF .OHMM                       .2190:   RMF
RMFT.DEGF                     74.0000:   RMF TEMP
FSC .                               M:   RMF CODE
RMC .OHMM                       .7110:   RMC
RMCT.DEGF                     74.0000:   RMC TEMP
CMC .                               M:   RMC CODE
TMAX.DEGF                    202.0000:   MAX REC TEMP
TIMC.                          7.3800:   TIME SINCE CIRCLN
~Curve Information Block
#MNEM.UNIT                    API CODE    No Description
#=========                    ========    == ===========
DEPT.F                   00 001 00 00:     1  DEPTH
DT.US/F                              :     2  Sonic Transit Time
GR.GAPI                              :     3  Gamma Ray
ILD.OHMM                             :     4  Deep Induction Resistivity
ILM.OHMM                             :     5  Medium Induction Resistivity
SFL.OHMM                             :     6  Medium Resistivity
SP.MV                                :     7  Spontaneous Potential
~ASCII
# ...
 9582.0000   111.1722    60.8585      .5087      .5194      .4847   -55.5400
 9582.5000   108.1095    60.0503      .5218      .5325      .5221   -56.8027
 9583.0000   104.6965    58.8770      .5375      .5473      .6024   -58.6835
 9583.5000   101.7400    57.7499      .5563      .5655      .7008   -60.7853
 9584.0000    99.7826    56.5674      .5758      .5880      .8056   -61.9234
 9584.5000    99.0674    55.6835      .5961      .6155      .7483   -61.5613
 9585.0000    98.3547    55.0772      .6147      .6428      .7233   -60.7722
 9585.5000    97.4949    54.6530      .6330      .6518      .7127   -59.9580
 9586.0000    96.7372    55.0114      .6501      .6559      .7142   -59.2083
 9586.5000    97.0358    56.1412      .6686      .6641      .7134   -58.8308
 9587.0000    98.7754    57.4355      .6965      .6812      .6642   -58.8199
 9587.5000   100.6306    58.4338      .7122      .7022      .6069   -59.9094
 9588.0000    98.7728    58.6364      .7190      .7279      .6125   -62.0085
 9588.5000    95.7950    55.7598      .7226      .7561      .7787   -64.7548
 9589.0000    92.3873    54.1039      .7203      .7847     1.1403   -68.2693
 9589.5000    89.0911    53.1214      .7115      .8204     1.4492   -71.9784
 9590.0000    85.2693    52.3138      .7043      .7912     1.5455   -74.5510
 9590.5000    95.0413    51.6035      .7003      .7596     1.2263   -75.7966
 9591.0000   100.0255    52.9399      .6998      .7338      .9268   -74.6667
 9591.5000   101.8121    56.2070      .7027      .7145      .7627   -72.2625
 9592.0000   101.3750    59.8688      .7064      .7008      .6809   -67.8325
 9592.5000   100.7048    60.5869      .7034      .6941      .6691   -62.3926
 9593.0000    99.9670    58.3010      .7046      .6967      .6784   -58.1469
 9593.5000   100.0865    55.1337      .7065      .7045      .6942   -55.3506
 9594.0000   101.4401    52.9162      .7090      .7141      .7090   -54.4167
 9594.5000   102.6449    53.5794      .7116      .7220      .7106   -53.6394
 9595.0000   101.3445    53.5554      .7204      .7292      .6989   -53.1021
 9595.5000   100.4089    52.4953      .7326      .7376      .6905   -52.7224
 9596.0000   100.0651    51.0406      .7436      .7487      .6876   -52.4964
 9596.5000    99.9996    50.0094      .7532      .7615      .7150   -52.4385
 9597.0000    97.1326    49.3794      .7640      .7743      .7423   -52.3123
 9597.5000    84.7120    49.0545      .7737      .7780      .7547   -52.1166
 9598.0000    69.9983    49.7516      .7795      .7803      .7646   -51.8694
 9598.5000    79.9348    51.0353      .7755      .7799      .7742   -51.7556
 9599.0000    97.8864    52.2244      .7689      .7775      .7741   -51.7714
 9599.5000   101.4553    53.0023      .7522      .7711      .7459   -52.0176
 9600.0000   101.3070    52.5453      .7445      .7522      .7111   -52.1283
 9600.5000   101.9880    51.1195      .7445      .7359      .6970   -51.9124
 9601.0000   103.2102    49.1124      .7468      .7246      .6877   -51.4274
 9601.5000   104.4683    47.4025      .7485      .7252      .6840   -51.2758
 9602.0000   103.6136    48.8520      .7492      .7285      .6844   -51.2785
 9602.5000   101.4825    52.0560      .7521      .7335      .6936   -51.3760
 9603.0000   100.1011    55.3600      .7588      .7477      .7275   -51.6744
 9603.5000    99.2101    55.5599      .7712      .7696      .7781   -51.9431
 9604.0000    99.1643    52.9399      .7832      .7916      .8321   -52.0865
 9604.5000   100.0095    50.8144      .7946      .8025      .8216   -52.1406
 9605.0000   101.0698    50.5461      .8025      .8110      .7795   -52.2733
 9605.5000   101.4374    53.4607      .8099      .8135      .7504   -52.3746
 9606.0000    99.0807    57.5854      .8169      .8164      .7314   -52.1920
 9606.5000    95.7419    60.3134      .8258      .8204      .7224   -51.6467
 9607.0000    92.8438    61.1354      .8382      .8268      .7604   -50.9667
 9607.5000    90.9170    59.1691      .8496      .8372      .8368   -50.5649
 9608.0000    95.0837    57.0120      .8602      .8503      .9098   -50.9247
 9608.5000    98.3746    55.3389      .8634      .8645      .9068   -51.4073
 9609.0000   100.5059    54.9457      .8652      .8766      .8447   -51.7967
 9609.5000   100.4952    55.5073      .8733      .8757      .8015   -52.0759
 9610.0000    98.2313    56.3649      .8835      .8776      .7762   -52.1604
 9610.5000    96.2435    57.6880      .8953      .8862      .7788   -52.0604
 9611.0000    95.7354    59.5636      .9107      .9054      .7932   -51.8105
 9611.5000    93.7886    62.0837      .9282      .9225      .8112   -51.5632
 9612.0000    91.1718    63.5858      .9496      .9377      .8804   -51.4307
 9612.5000    89.2728    61.9969      .9728      .9626     1.0033   -51.7691
 9613.0000    90.0730    60.8605      .9960      .9864     1.1337   -52.2781
 9613.5000    90.9545    60.4758     1.0196     1.0057     1.1378   -52.7759
 9614.0000    90.5826    60.0286     1.0434     1.0234     1.0514   -53.2441
 9614.5000    90.1904    59.4900     1.0596     1.0425      .9614   -53.8748
 9615.0000    91.2780    58.8534     1.0707     1.0539      .9280   -54.4634
 9615.5000   102.0796    58.6530     1.0782     1.0660      .9928   -54.8804
 9616.0000   110.9227    59.0599     1.0838     1.0784     1.0949   -55.0797
 9616.5000   110.7661    58.9829     1.0790     1.0914     1.1245   -55.0309
 9617.0000   109.4843    58.1879     1.0341     1.0878     1.1278   -54.9149
 9617.5000   109.8425    57.9478      .9798     1.0210     1.0811   -54.7285
 9618.0000   110.7605    58.8770      .9234      .9302      .9364   -54.3990
 9618.5000   110.3754    60.5264      .8609      .8430      .7668   -53.9827
 9619.0000   110.7263    61.5043      .7975      .7846      .6938   -53.3619
 9619.5000   110.9612    59.8267      .7429      .7417      .6524   -52.8121
 9620.0000   110.7211    53.9974      .6986      .7112      .6342   -52.5803
 9620.5000   110.2274    53.2148      .6665      .6860      .6174   -52.5071
 9621.0000   109.6077    54.1512      .6467      .6658      .6010   -52.5143
 9621.5000   109.6613    54.4393      .6400      .6510      .5889   -52.5586
 9622.0000   109.7615    53.7040      .6329      .6414      .5820   -52.4070
 9622.5000   109.5360    53.2693      .6294      .6327      .5802   -52.2173
 9623.0000   108.6974    54.6103      .6268      .6247      .5808   -52.0078
 9623.5000   107.7128    56.0387      .6252      .6252      .5825   -51.6152
 9624.0000   106.8250    56.5990      .6290      .6259      .5895   -51.3477
 9624.5000   106.5044    56.9410      .6325      .6281      .6013   -51.0825
 9625.0000   106.9723    57.5762      .6357      .6308      .6154   -51.0075
 9625.5000   107.8242    59.5320      .6384      .6343      .6303   -51.0075
 9626.0000   108.7013    62.9623      .6402      .6377      .6441   -50.9261
 9626.5000   109.4458    64.5380      .6401      .6413      .6419   -50.7767
 9627.0000   110.0396    65.9453      .6392      .6452      .6279   -50.5544
 9627.5000   110.5577    67.7394      .6377      .6464      .6115   -50.2855
 9628.0000   111.2505    70.2015      .6354      .6443      .5953   -50.0655
 9628.5000   111.9551    71.5702      .6328      .6428      .5785   -50.0143
 9629.0000   111.6101    70.2384      .6296      .6397      .5652   -50.0864
 9629.5000   109.7576    66.0084      .6264      .6368      .5540   -50.1348
 9630.0000   108.5680    62.5835      .6268      .6360      .5897   -50.5156
 9630.5000   108.4655    60.6211      .6299      .6397      .6307   -51.3916
 9631.0000   108.3430    60.1466      .6382      .6541      .6348   -52.2103
 9631.5000   103.9692    60.1261      .6697      .6854      .6107   -52.6079
 9632.0000    97.6899    60.2436      .7097      .7349      .5913   -52.7110
 9632.5000    94.6538    60.5843      .7375      .7896      .7537   -52.7772
 9633.0000    93.3640    61.7470      .7592      .8460      .9207   -53.4789
 9633.5000    93.7886    62.4908      .7720      .8857     1.0682   -54.7824
