~VERSION INFORMATION
VERS.                             2.0:   CWLS Log ASCII Standard-VERSION 2.0
WRAP.                              NO:   One line per depth step
~Well Information Block
STRT.F                      4703.0000:   Top Depth
STOP.F                      9304.5000:   Bottom Depth
STEP.F                         .50000:   Depth Increment
NULL.                        -999.250:   Null Value
FLD .                      BA BLK 399:   Field Name
WELL.       OCSG07218  A003 ST00 BP00:   NAME
API .                  42704403090000:   WELL API
EDF .F                       113.0000:   ELEV DRILL FLOOR
COMP.       SEAGULL ENERGY E AND P IN:   OPERATOR
EGL .F                       -62.0000:   ELEV GROUND LEVEL
EKB .F                       114.0000:   ELEV KELLY BUSHING
TDD .F                      9314.0000:   FINAL TD DRILLER
UWI .                  42704403090000:   WELL API
DICO.               IHS : Digitizing Company
~PARAMETER INFORMATION (zones)
#MNEM.UNIT                       Value     Description
#=========                       =====     ===========
#ZONATION                          CNL:   ZONATION NAME
#ZONE                            RUN_1:   ZONE NAME
TOP .                       4703.0000:   TOP DEPTH
BOT .                       9200.5000:   BOTTOM DEPTH
RUN .                               1:   RUN NUMBER
LCCD.                             510:   LOGGING CONTRACTOR
SRVC.                   Western Atlas:   LOGGING CONT NAME
DICO.          QC Data Collectors Ltd:   DIG COMPANY NAME
LDAT.                      03/24/1997:   DATE LOGGED
TDD .F                      9314.0000:   TOTAL DEPTH DRILLER
TDL .F                      9307.0000:   TOTAL DEPTH LOGGER
BOTL.F                      9305.0000:   BOTTOM DEPTH LOGGED
TOPL.F                      4703.0000:   TOP DEPTH LOGGED
CS1 .                         10.7500:   CASING SIZE 1
BS1 .                          9.8750:   BIT SIZE 1
DDB1.F                      9314.0000:   DEPTH DRILLED BIT 1
BHF .                              99:   FLUID CODE
DPT .                   Miscellaneous:   DRILLING FLUID TYPE
MUDD.                         11.5000:   FLUID DENSITY
MUDV.                         41.0000:   FLUID VISCOSITY
DFPH.                         10.2000:   FLUID PH
FL  .                          5.0000:   FLUID LOSS
RM  .OHMM                      1.1200:   RM
RMT .DEGF                     75.0000:   RM TEMP
RMF .OHMM                       .8300:   RMF
RMFT.DEGF                     75.0000:   RMF TEMP
FSC .                               M:   RMF CODE
RMC .OHMM                      1.4600:   RMC
RMCT.DEGF                     75.0000:   RMC TEMP
CMC .                               M:   RMC CODE
TMAX.DEGF                    181.0000:   MAX REC TEMP
TIMC.                         24.0000:   TIME SINCE CIRCLN
SON .                          173943:   SERVICE ORDER NUM
LMF .                             MSL:   LOGS MEAS FROM
MUDS.                             PIT:   MUD SOURCE
ENG .                         HADSALL:   ENGINEER
WIT .                        FONTENOT:   WITNESS
~PARAMETER INFORMATION (zones)
#MNEM.UNIT                       Value     Description
#=========                       =====     ===========
#ZONATION                          DAL:   ZONATION NAME
#ZONE                            RUN_1:   ZONE NAME
TOP .                       4703.0000:   TOP DEPTH
BOT .                       9242.5000:   BOTTOM DEPTH
RUN .                               1:   RUN NUMBER
LCCD.                             510:   LOGGING CONTRACTOR
SRVC.                   Western Atlas:   LOGGING CONT NAME
DICO.          QC Data Collectors Ltd:   DIG COMPANY NAME
LDAT.                      03/24/1997:   DATE LOGGED
TDD .F                      9314.0000:   TOTAL DEPTH DRILLER
TDL .F                      9307.0000:   TOTAL DEPTH LOGGER
BOTL.F                      9305.0000:   BOTTOM DEPTH LOGGED
TOPL.F                      4703.0000:   TOP DEPTH LOGGED
CS1 .                         10.7500:   CASING SIZE 1
BS1 .                          9.8750:   BIT SIZE 1
DDB1.F                      9314.0000:   DEPTH DRILLED BIT 1
BHF .                              99:   FLUID CODE
DPT .                   Miscellaneous:   DRILLING FLUID TYPE
MUDD.                         11.5000:   FLUID DENSITY
MUDV.                         41.0000:   FLUID VISCOSITY
DFPH.                         10.2000:   FLUID PH
FL  .                          5.0000:   FLUID LOSS
RM  .OHMM                      1.1200:   RM
RMT .DEGF                     75.0000:   RM TEMP
RMF .OHMM                       .8300:   RMF
RMFT.DEGF                     75.0000:   RMF TEMP
FSC .                               M:   RMF CODE
RMC .OHMM                      1.4600:   RMC
RMCT.DEGF                     75.0000:   RMC TEMP
CMC .                               M:   RMC CODE
TMAX.DEGF                    181.0000:   MAX REC TEMP
TIMC.                         24.0000:   TIME SINCE CIRCLN
SON .                          173943:   SERVICE ORDER NUM
LMF .                             MSL:   LOGS MEAS FROM
MUDS.                             PIT:   MUD SOURCE
ENG .                         HADSALL:   ENGINEER
WIT .                        FONTENOT:   WITNESS
~PARAMETER INFORMATION (zones)
#MNEM.UNIT                       Value     Description
#=========                       =====     ===========
#ZONATION                          DIL:   ZONATION NAME
#ZONE                            RUN_1:   ZONE NAME
TOP .                       4703.0000:   TOP DEPTH
BOT .                       9305.5000:   BOTTOM DEPTH
RUN .                               1:   RUN NUMBER
LCCD.                             510:   LOGGING CONTRACTOR
SRVC.                   Western Atlas:   LOGGING CONT NAME
DICO.          QC Data Collectors Ltd:   DIG COMPANY NAME
LDAT.                      03/24/1997:   DATE LOGGED
TDD .F                      9314.0000:   TOTAL DEPTH DRILLER
TDL .F                      9307.0000:   TOTAL DEPTH LOGGER
BOTL.F                      9305.0000:   BOTTOM DEPTH LOGGED
TOPL.F                      4703.0000:   TOP DEPTH LOGGED
CS1 .                         10.7500:   CASING SIZE 1
BS1 .                          9.8750:   BIT SIZE 1
DDB1.F                      9314.0000:   DEPTH DRILLED BIT 1
BHF .                              99:   FLUID CODE
DPT .                   Miscellaneous:   DRILLING FLUID TYPE
MUDD.                         11.5000:   FLUID DENSITY
MUDV.                         41.0000:   FLUID VISCOSITY
DFPH.                         10.2000:   FLUID PH
FL  .                          5.0000:   FLUID LOSS
RM  .OHMM                      1.1200:   RM
RMT .DEGF                     75.0000:   RM TEMP
RMF .OHMM                       .8300:   RMF
RMFT.DEGF                     75.0000:   RMF TEMP
FSC .                               M:   RMF CODE
RMC .OHMM                      1.4600:   RMC
RMCT.DEGF                     75.0000:   RMC TEMP
CMC .                               M:   RMC CODE
TMAX.DEGF                    181.0000:   MAX REC TEMP
TIMC.                         24.0000:   TIME SINCE CIRCLN
SON .                          173943:   SERVICE ORDER NUM
LMF .                             MSL:   LOGS MEAS FROM
MUDS.                             PIT:   MUD SOURCE
ENG .                         HADSALL:   ENGINEER
WIT .                        FONTENOT:   WITNESS
~PARAMETER INFORMATION (zones)
#MNEM.UNIT                       Value     Description
#=========                       =====     ===========
#ZONATION                          FDC:   ZONATION NAME
#ZONE                            RUN_1:   ZONE NAME
TOP .                       4703.0000:   TOP DEPTH
BOT .                       9228.5000:   BOTTOM DEPTH
RUN .                               1:   RUN NUMBER
LCCD.                             510:   LOGGING CONTRACTOR
SRVC.                   Western Atlas:   LOGGING CONT NAME
DICO.          QC Data Collectors Ltd:   DIG COMPANY NAME
LDAT.                      03/24/1997:   DATE LOGGED
TDD .F                      9314.0000:   TOTAL DEPTH DRILLER
TDL .F                      9307.0000:   TOTAL DEPTH LOGGER
BOTL.F                      9305.0000:   BOTTOM DEPTH LOGGED
TOPL.F                      4703.0000:   TOP DEPTH LOGGED
CS1 .                         10.7500:   CASING SIZE 1
BS1 .                          9.8750:   BIT SIZE 1
DDB1.F                      9314.0000:   DEPTH DRILLED BIT 1
BHF .                              99:   FLUID CODE
DPT .                   Miscellaneous:   DRILLING FLUID TYPE
MUDD.                         11.5000:   FLUID DENSITY
MUDV.                         41.0000:   FLUID VISCOSITY
DFPH.                         10.2000:   FLUID PH
FL  .                          5.0000:   FLUID LOSS
RM  .OHMM                      1.1200:   RM
RMT .DEGF                     75.0000:   RM TEMP
RMF .OHMM                       .8300:   RMF
RMFT.DEGF                     75.0000:   RMF TEMP
FSC .                               M:   RMF CODE
RMC .OHMM                      1.4600:   RMC
RMCT.DEGF                     75.0000:   RMC TEMP
CMC .                               M:   RMC CODE
TMAX.DEGF                    181.0000:   MAX REC TEMP
TIMC.                         24.0000:   TIME SINCE CIRCLN
SON .                          173943:   SERVICE ORDER NUM
LMF .                             MSL:   LOGS MEAS FROM
MUDS.                             PIT:   MUD SOURCE
ENG .                         HADSALL:   ENGINEER
WIT .                        FONTENOT:   WITNESS
~Curve Information Block
#MNEM.UNIT                    API CODE    No Description
#=========                    ========    == ===========
DEPT.F                   00 001 00 00:     1  DEPTH
CNCF.%                               :     2  Field Normalized CNC
DT24.US/F                            :     3  Unrecognised
CILD.MMHO                            :     4  Deep Induction Conductivity
RFOC.OHMM                            :     5  Medium Resistivity
RILD.OHMM                            :     6  Deep Resistivity
RILM.OHMM                            :     7  Medium Resistivity
RWAZ.OHMM                            :     8  Unrecognised
SP.MV                                :     9  Spontaneous Potential
GR.GAPI                              :    10  Gamma Ray
PORZ.%                               :    11  Neutron Porosity
ZCOR.G/C3                            :    12  Density Correction
ZDEN.G/C3                            :    13  Bulk Density
~ASCII
# ...
 7111.0000    44.0179   121.5509  1007.2275     1.3790      .9930      .9760      .0780     2.6150    56.9919    24.5480      .0610     2.2450
 7111.5000    44.0260   120.5709   997.2461     1.3600     1.0030      .9780      .0820     2.5580    54.6320    24.9390      .0560     2.2390
 7112.0000    44.4030   119.7849   993.5918     1.3540     1.0060      .9760      .0780     2.7150    55.3669    24.3440      .0550     2.2480
 7112.5000    44.1670   118.0979   998.8379     1.3500     1.0010      .9700      .0800     2.7750    57.1010    24.7510      .0620     2.2420
 7113.0000    43.9550   115.6659  1007.0332     1.3580      .9930      .9630      .0860     2.3660    56.7670    25.5970      .0580     2.2280
 7113.5000    44.8260   116.6060  1014.2441     1.3370      .9860      .9560      .0850     2.4480    59.8360    25.5720      .0660     2.2280
 7114.0000    44.2980   119.8490  1017.6855     1.3040      .9830      .9530      .0850     2.7200    56.8730    25.6210      .0580     2.2270
 7114.5000    43.3960   123.8390  1020.4365     1.3010      .9800      .9540      .0830     2.8710    59.4709    25.3960      .0600     2.2310
 7115.0000    42.4529   128.7610  1018.6494     1.3310      .9820      .9600      .0870     2.5870    60.2790    25.8870      .0410     2.2230
 7115.5000    41.9789   131.4319  1016.7539     1.3590      .9840      .9680      .0780     2.5850    56.7100    24.5520      .0440     2.2450
 7116.0000    41.6740   129.0730  1025.5313     1.4430      .9750      .9670      .0690     2.8420    55.8360    23.3330      .0650     2.2650
 7116.5000    41.1380   124.8510  1030.0234     1.4740      .9710      .9570      .0690     1.7050    57.7270    23.4120      .0720     2.2640
 7117.0000    40.1609   122.2279  1032.2813     1.3470      .9690      .9460      .0770     1.8190    54.3320    24.6610      .0700     2.2430
 7117.5000    41.6370   119.9950  1034.7324     1.2690      .9660      .9380      .0820     2.1740    54.6260    25.4330      .0770     2.2300
 7118.0000    43.2740   119.0569  1032.2305     1.2910      .9690      .9320      .0820     2.0410    57.1930    25.3850      .0670     2.2310
 7118.5000    43.9010   120.1029  1047.7773     1.2910      .9540      .9210      .0820     2.3170    55.9570    25.5710      .0630     2.2280
 7119.0000    43.5900   119.3889  1067.2402     1.2690      .9370      .9140      .0840     2.4440    59.6960    26.0350      .0560     2.2200
 7119.5000    43.2330   118.9729  1070.3945     1.2800      .9340      .9160      .0840     2.1580    58.6299    26.1430      .0640     2.2190
 7120.0000    43.4290   120.9740  1074.5234     1.3420      .9310      .9180      .0860     2.1030    58.2920    26.4930      .0560     2.2130
 7120.5000    41.6930   121.9359  1080.1680     1.4090      .9260      .9150      .0810     1.6600    61.3830    25.8140      .0630     2.2240
 7121.0000    41.0080   122.0499  1079.9043     1.4030      .9260      .9100      .0810     1.3770    59.7170    25.8180      .0630     2.2240
 7121.5000    41.9650   122.4459  1072.3633     1.3560      .9330      .9100      .0820     1.5020    58.6860    25.8870      .0630     2.2230
 7122.0000    41.5820   121.9729  1063.3926     1.3290      .9400      .9090      .0870     1.8910    55.4420    26.5010      .0630     2.2130
 7122.5000    42.4550   122.7140  1067.2676     1.3300      .9370      .9000      .0900     2.0360    59.9930    26.8880      .0580     2.2060
 7123.0000    42.0170   126.2200  1081.7969     1.3360      .9240      .8910      .0900     2.7630    59.0740    27.0800      .0650     2.2030
 7123.5000    42.0590   129.0408  1094.0918     1.3210      .9140      .8870      .0870     2.9710    59.1760    26.8370      .0550     2.2070
 7124.0000    42.7209   130.8459  1097.7617     1.2880      .9110      .8850      .0830     2.5570    60.3040    26.3460      .0530     2.2150
 7124.5000    43.4930   131.2639  1100.8555     1.2760      .9080      .8830      .0840     2.3050    62.3080    26.4400      .0540     2.2140
 7125.0000    44.0519   129.4209  1110.4180     1.3350      .9010      .8790      .0850     2.9240    64.0850    26.7020      .0640     2.2090
 7125.5000    43.6270   128.0659  1123.5449     1.4150      .8900      .8700      .0870     2.8480    62.4860    27.1150      .0620     2.2030
 7126.0000    42.8630   127.0120  1131.1484     1.3790      .8840      .8630      .0880     2.6020    60.0790    27.3410      .0490     2.1990
 7126.5000    43.1920   126.1890  1131.8965     1.2810      .8830      .8590      .0820     2.6400    60.9130    26.5140      .0570     2.2130
 7127.0000    43.8300   125.0649  1135.6777     1.2740      .8810      .8520      .0800     2.4080    63.6760    26.2140      .0580     2.2170
 7127.5000    43.1200   124.1940  1150.5625     1.2970      .8690      .8420      .0780     2.8930    66.0139    26.1540      .0580     2.2180
 7128.0000    43.5959   124.9349  1160.3594     1.2690      .8620      .8400      .0800     3.4030    63.6980    26.5170      .0520     2.2130
 7128.5000    44.2180   125.8729  1155.4941     1.2640      .8650      .8470      .0830     3.4620    62.9700    26.9050      .0480     2.2060
 7129.0000    43.7320   126.2009  1148.5098     1.3030      .8710      .8520      .0850     3.7610    66.0929    27.1690      .0380     2.2020
 7129.5000    44.7000   126.1489  1148.2930     1.3400      .8710      .8530      .0850     3.2150    66.2990    27.1510      .0420     2.2020
 7130.0000    44.3700   125.8899  1147.0039     1.3690      .8720      .8500      .0850     2.8870    68.8679    27.1430      .0580     2.2020
 7130.5000    43.7390   125.2959  1143.6777     1.3810      .8740      .8470      .0840     3.1690    63.9700    26.9560      .0600     2.2050
 7131.0000    43.7170   124.8539  1148.2227     1.3180      .8710      .8430      .0860     3.5150    65.6969    27.3260      .0510     2.1990
 7131.5000    44.5380   125.1100  1156.2754     1.2630      .8650      .8360      .0870     3.6010    61.5390    27.4900      .0500     2.1960
 7132.0000    44.9319   126.1179  1165.2520     1.2700      .8580      .8260      .0840     3.7790    57.0350    27.2410      .0510     2.2010
 7132.5000    44.8220   127.6370  1181.7949     1.2660      .8460      .8180      .0830     3.1510    62.3580    27.1950      .0620     2.2010
 7133.0000    44.9640   128.9028  1191.8926     1.2600      .8390      .8150      .0850     3.4570    66.8960    27.6520      .0570     2.1940
 7133.5000    43.4620   129.3879  1194.0195     1.2750      .8370      .8140      .0840     3.6170    65.7090    27.5450      .0490     2.1950
 7134.0000    42.6520   129.1460  1197.4883     1.2630      .8350      .8130      .0820     3.8350    63.6210    27.1470      .0510     2.2020
 7134.5000    43.3840   128.5369  1200.7090     1.2740      .8330      .8130      .0820     3.1090    62.3110    27.2750      .0540     2.2000
 7135.0000    42.5740   128.1050  1203.0352     1.3150      .8310      .8110      .0800     3.8650    63.7690    27.0050      .0500     2.2040
 7135.5000    42.3310   128.1428  1204.4531     1.2940      .8300      .8100      .0790     3.4370    61.7930    26.7520      .0520     2.2090
 7136.0000    43.2800   128.2969  1200.3672     1.2560      .8330      .8110      .0850     1.5840    64.7770    27.7320      .0370     2.1920
 7136.5000    43.9300   128.2769  1191.3535     1.2570      .8390      .8130      .0880    -3.0400    64.3870    27.9800      .0460     2.1880
 7137.0000    42.6030   128.2078  1191.0449     1.2620      .8400      .8150      .0870    -2.6000    65.9650    27.9470      .0380     2.1890
 7137.5000    44.9300   128.3140  1190.3145     1.2860      .8400      .8160      .0850    -3.1090    64.7119    27.5760      .0470     2.1950
 7138.0000    44.1360   128.5129  1189.0508     1.3220      .8410      .8160      .0830    -4.5320    65.3610    27.3450      .0440     2.1990
 7138.5000    44.2870   128.6260  1197.1758     1.3210      .8350      .8110      .0810     1.7790    67.4369    27.0860      .0420     2.2030
