~VERSION INFORMATION
VERS.                             2.0:   CWLS Log ASCII Standard-VERSION 2.0
WRAP.                              NO:   One line per depth step
~Well Information Block
STRT.F                      3120.0000:   Top Depth
STOP.F                     12040.0000:   Bottom Depth
STEP.F                         .50000:   Depth Increment
NULL.                        -999.250:   Null Value
FLD .                      GA BLK 254:   Field Name
WELL.       OCSG01776   001 ST00 BP00:   NAME
API .                    42706300290000:   WELL API
R1  .                      SUN OIL CO:   COMMENT  1
EDF .F                        57.0000:   ELEV DRILL FLOOR
COMP.                      SUN OIL CO:   OPERATOR
BN  .                             254:   BLOCK
CTRY.                             USA:   COUNTRY NAME
CNTY.                              GA:   COUNTY
CNTY.                        GLVSTN L:   COUNTY NAME
EKB .F                        58.0000:   ELEV KELLY BUSHING
TDD .F                      12003.000:   FINAL TD DRILLER
STAT.                           TEXAS:   STATE NAME
UWI .                    42706300290000:   WELL API
DICO.               IHS : Digitizing Company
~PARAMETER INFORMATION (zones)
#MNEM.UNIT                       Value     Description
#=========                       =====     ===========
#ZONATION                           IE:   ZONATION NAME
#ZONE                            RUN_2:   ZONE NAME
TOP .                       7847.0000:   TOP DEPTH
BOT .                      10079.0000:   BOTTOM DEPTH
RUN .                               2:   RUN NUMBER
LCCD.                             440:   LOGGING CONTRACTOR
SRVC.                    Schlumberger:   LOGGING CONT NAME
DICO.          QC Data Collectors Ltd:   DIG COMPANY NAME
LDAT.                      11/28/1970:   DATE LOGGED
ELD .F                        58.0000:   LOG DATUM ELEVATION
TDD .F                     10076.0000:   TOTAL DEPTH DRILLER
TDL .F                     10080.0000:   TOTAL DEPTH LOGGER
BOTL.F                     10079.0000:   BOTTOM DEPTH LOGGED
TOPL.F                      7847.0000:   TOP DEPTH LOGGED
CS1 .IN                        9.6250:   CASING SIZE 1
BS1 .IN                        8.5000:   BIT SIZE 1
DDB1.F                     10076.0000:   DEPTH DRILLED BIT 1
BHF .                              99:   FLUID CODE
DPT .                   Miscellaneous:   DRILLING FLUID TYPE
MUDD.                         15.4000:   FLUID DENSITY
MUDV.                         48.0000:   FLUID VISCOSITY
DFPH.                         11.5000:   FLUID PH
FL  .                          3.2000:   FLUID LOSS
RM  .OHMM                       .8400:   RM
RMT .DEGF                     75.0000:   RM TEMP
RMF .OHMM                       .4600:   RMF
RMFT.DEGF                     75.0000:   RMF TEMP
FSC .                               M:   RMF CODE
RMC .OHMM                      1.3100:   RMC
RMCT.DEGF                     75.0000:   RMC TEMP
CMC .                               C:   RMC CODE
TMAX.DEGF                    202.0000:   MAX REC TEMP
TIMC.                          3.5000:   TIME SINCE CIRCLN
~PARAMETER INFORMATION (zones)
#MNEM.UNIT                       Value     Description
#=========                       =====     ===========
#ZONATION                           IE:   ZONATION NAME
#ZONE                            RUN_3:   ZONE NAME
TOP .                      10074.0000:   TOP DEPTH
BOT .                      12002.0000:   BOTTOM DEPTH
RUN .                               3:   RUN NUMBER
LCCD.                             440:   LOGGING CONTRACTOR
SRVC.                    Schlumberger:   LOGGING CONT NAME
DICO.          QC Data Collectors Ltd:   DIG COMPANY NAME
LDAT.                      12/17/1970:   DATE LOGGED
ELD .F                        58.0000:   LOG DATUM ELEVATION
TDD .F                     12000.0000:   TOTAL DEPTH DRILLER
TDL .F                     12003.0000:   TOTAL DEPTH LOGGER
BOTL.F                     12002.0000:   BOTTOM DEPTH LOGGED
TOPL.F                     10074.0000:   TOP DEPTH LOGGED
CS1 .IN                        7.6250:   CASING SIZE 1
BS1 .IN                        6.5000:   BIT SIZE 1
DDB1.F                     12000.0000:   DEPTH DRILLED BIT 1
BHF .                              99:   FLUID CODE
DPT .                   Miscellaneous:   DRILLING FLUID TYPE
MUDD.                         15.9000:   FLUID DENSITY
MUDV.                         48.0000:   FLUID VISCOSITY
DFPH.                         12.0000:   FLUID PH
FL  .                          3.0000:   FLUID LOSS
RM  .OHMM                      1.0500:   RM
RMT .DEGF                     70.0000:   RM TEMP
RMF .OHMM                       .5100:   RMF
RMFT.DEGF                     70.0000:   RMF TEMP
FSC .                               M:   RMF CODE
RMC .OHMM                      1.3000:   RMC
RMCT.DEGF                     70.0000:   RMC TEMP
CMC .                               C:   RMC CODE
TMAX.DEGF                    240.0000:   MAX REC TEMP
TIMC.                          5.0000:   TIME SINCE CIRCLN
~PARAMETER INFORMATION (zones)
#MNEM.UNIT                       Value     Description
#=========                       =====     ===========
#ZONATION                           IE:   ZONATION NAME
#ZONE                            RUN_1:   ZONE NAME
TOP .                       3120.0000:   TOP DEPTH
BOT .                      12002.5000:   BOTTOM DEPTH
RUN .                               1:   RUN NUMBER
LCCD.                             440:   LOGGING CONTRACTOR
SRVC.                    Schlumberger:   LOGGING CONT NAME
DICO.          QC Data Collectors Ltd:   DIG COMPANY NAME
LDAT.                      11/19/1970:   DATE LOGGED
ELD .F                        58.0000:   LOG DATUM ELEVATION
TDD .F                      7850.0000:   TOTAL DEPTH DRILLER
TDL .F                      7847.0000:   TOTAL DEPTH LOGGER
BOTL.F                      7847.0000:   BOTTOM DEPTH LOGGED
TOPL.F                      3120.0000:   TOP DEPTH LOGGED
CS1 .IN                       13.3750:   CASING SIZE 1
BS1 .IN                       12.2500:   BIT SIZE 1
DDB1.F                      7850.0000:   DEPTH DRILLED BIT 1
BHF .                              99:   FLUID CODE
DPT .                   Miscellaneous:   DRILLING FLUID TYPE
MUDD.                         12.5000:   FLUID DENSITY
MUDV.                         46.0000:   FLUID VISCOSITY
DFPH.                         10.5000:   FLUID PH
FL  .                          4.0000:   FLUID LOSS
RM  .OHMM                       .7900:   RM
RMT .DEGF                     80.0000:   RM TEMP
RMF .OHMM                       .5200:   RMF
RMFT.DEGF                     75.0000:   RMF TEMP
FSC .                               M:   RMF CODE
RMC .OHMM                      1.2300:   RMC
RMCT.DEGF                     75.0000:   RMC TEMP
CMC .                               M:   RMC CODE
TMAX.DEGF                    152.0000:   MAX REC TEMP
TIMC.                          4.0000:   TIME SINCE CIRCLN
~Curve Information Block
#MNEM.UNIT         API  CODE                       CURVE DESCRIPTION
#---------        ------------                    --------------------
 DEPT.F           00 001 00 00                    :1   DEPTH
 C1-3.IN          00 000 00 00                    :2
 C2-4.IN          00 000 00 00                    :3
 CALI.IN          00 000 00 00                    :4   Density Caliper
 CILD.MMHO        00 000 00 00                    :5   Deep Induction Conductivity
 CORR.G/CC        00 000 00 00                    :6   Density Correction
 DT  .US/FT       00 000 00 00                    :7   Delta-T Compressional
 GR  .API         00 000 00 00                    :8   Gamma Ray
 ILD .OHMM        00 000 00 00                    :9   Induction Deep Resistivity
 IND .OHMM        00 000 00 00                    :10
 RHOB.G/CC        00 000 00 00                    :11  Bulk Density
 SN16.OHMM        00 000 00 00                    :12  Short Normal 16 Inch
 SP  .MV          00 000 00 00                    :13  Spontaneous Potential
~A    DEPT        C1-3        C2-4        CALI        CILD        CORR          DT          GR         ILD         IND        RHOB        SN16          SP
# ...
   6409.5000     12.1200     11.9600   -999.2500   1853.3105   -999.2500    104.7020   -999.2500      0.5750      0.6400   -999.2500      0.9470    -57.0000
   6410.0000     12.0400     11.9600   -999.2500   1937.4727   -999.2500    106.4000   -999.2500      0.5607      0.6000   -999.2500      0.9717    -60.9804
   6410.5000     12.0400     11.9600   -999.2500   2147.5938   -999.2500    105.6844   -999.2500      0.5463      0.5400   -999.2500      0.9960    -62.9412
   6411.0000     12.0400     11.9600   -999.2500   2232.5703   -999.2500    106.1593   -999.2500      0.5319      0.5600   -999.2500      0.9839    -63.9216
   6411.5000     11.9600     11.9600   -999.2500   2296.1094   -999.2500    107.2342   -999.2500      0.5175      0.5400   -999.2500      0.9068    -63.5294
   6412.0000     11.9200     11.8400   -999.2500   2345.7344   -999.2500    107.4098   -999.2500      0.5075      0.5400   -999.2500      0.8411    -59.6000
   6412.5000     11.8000     11.8400   -999.2500   2398.5078   -999.2500    106.5000   -999.2500      0.4990      0.5200   -999.2500      0.7882    -56.6000
   6413.0000     11.6800     11.8400   -999.2500   2451.8398   -999.2500    105.6000   -999.2500      0.4906      0.5200   -999.2500      0.7529    -58.0000
   6413.5000     11.5600     11.8000   -999.2500   2503.9531   -999.2500    104.8039   -999.2500      0.4824      0.5200   -999.2500      0.7412    -60.5882
   6414.0000     11.5600     11.8000   -999.2500   2568.9687   -999.2500    104.2157   -999.2500      0.4748      0.5000   -999.2500      0.7255    -59.6000
   6414.5000     11.5600     11.7600   -999.2500   2670.7578   -999.2500    104.4118   -999.2500      0.4673      0.5000   -999.2500      0.7137    -56.6000
   6415.0000     11.5600     11.6800   -999.2500   2738.0078   -999.2500    103.5294   -999.2500      0.4597      0.4800   -999.2500      0.7059    -53.6000
   6415.5000     11.6400     11.9600   -999.2500   2739.6328   -999.2500    100.4902   -999.2500      0.4521      0.4800   -999.2500      0.7098    -50.4000
   6416.0000     11.8400     12.3200   -999.2500   2656.6367   -999.2500     95.9000   -999.2500      0.4445      0.4600   -999.2500      0.7255    -49.6000
   6416.5000     11.8400     11.0000   -999.2500   2544.0820   -999.2500     90.7000   -999.2500      0.4563      0.4600   -999.2500      0.7373    -51.8000
   6417.0000     11.5200     11.2000   -999.2500   2473.7852   -999.2500     92.3000   -999.2500      0.4700      0.4800   -999.2500      0.7412    -57.0000
   6417.5000     11.6800     12.2000   -999.2500   2409.3789   -999.2500     94.3000   -999.2500      0.4837      0.5000   -999.2500      0.7294    -61.7647
   6418.0000     11.4800     11.6800   -999.2500   2157.0000   -999.2500    103.8235   -999.2500      0.5041      0.5200   -999.2500      0.7333    -65.4902
   6418.5000     11.4426     11.6840   -999.2500   1668.4258   -999.2500    114.0850   -999.2500      0.6070      0.5400   -999.2500      0.7569    -64.7059
   6419.0000     11.5688     11.7313   -999.2500   1450.2207   -999.2500    115.5617   -999.2500      0.7098      0.5800   -999.2500      0.8162    -57.4000
   6419.5000     11.7795     11.6155   -999.2500   1342.7949   -999.2500    116.8370   -999.2500      0.7988      0.6400   -999.2500      0.8967    -49.8000
   6420.0000     11.8303     11.4975   -999.2500   1306.5781   -999.2500    113.8308   -999.2500      0.8141      0.7400   -999.2500      0.9603    -41.0000
   6420.5000     11.9167     11.8333   -999.2500   1279.4297   -999.2500    108.9000   -999.2500      0.8294      0.8000   -999.2500      0.9840    -34.2000
   6421.0000     12.0400     12.0400   -999.2500   1263.9258   -999.2500    105.4000   -999.2500      0.8447      0.8400   -999.2500      0.9920    -26.8627
   6421.5000     12.1200     12.0400   -999.2500   1268.4336   -999.2500    102.9000   -999.2500      0.8466      0.9000   -999.2500      0.9600    -22.1569
   6422.0000     12.2000     11.8333   -999.2500   1271.2539   -999.2500    105.9000   -999.2500      0.8434      0.9200   -999.2500      0.9120    -19.4000
   6422.5000     12.2400     12.1200   -999.2500   1272.4043   -999.2500    108.1000   -999.2500      0.8402      0.9200   -999.2500      0.8840    -17.4000
   6423.0000     12.3600     12.2000   -999.2500   1273.5527   -999.2500    112.7451   -999.2500      0.8371      0.8600   -999.2500      0.8840    -16.8000
   6423.5000     12.3600     12.2000   -999.2500   1268.1855   -999.2500    114.1176   -999.2500      0.8339      0.8600   -999.2500      0.9000    -17.2000
   6424.0000     12.3600     12.1600   -999.2500   1259.9258   -999.2500    115.5000   -999.2500      0.8308      0.8800   -999.2500      0.9200    -18.2000
   6424.5000     12.3600     12.1600   -999.2500   1251.6660   -999.2500    114.5098   -999.2500      0.8276      0.8800   -999.2500      0.9360    -19.0000
   6425.0000     12.3600     12.1600   -999.2500   1250.8730   -999.2500    111.0784   -999.2500      0.8244      0.8800   -999.2500      0.9520    -19.4000
   6425.5000     12.3600     12.2000   -999.2500   1259.4941   -999.2500    106.3000   -999.2500      0.8213      0.8800   -999.2500      0.9560    -19.6000
   6426.0000     12.3200     12.2000   -999.2500   1284.1797   -999.2500    102.1000   -999.2500      0.8128      0.8800   -999.2500      0.9400    -19.0000
   6426.5000     12.3200     12.2000   -999.2500   1317.5000   -999.2500    102.1000   -999.2500      0.7989      0.8600   -999.2500      0.9160    -18.2000
   6427.0000     12.3200     12.2400   -999.2500   1349.0156   -999.2500    102.0000   -999.2500      0.7851      0.8400   -999.2500      0.9040    -17.8000
   6427.5000     12.3200     12.0000   -999.2500   1376.9766   -999.2500    103.6000   -999.2500      0.7713      0.8000   -999.2500      0.9040    -17.6000
   6428.0000     12.3200     12.0800   -999.2500   1404.9395   -999.2500    107.5000   -999.2500      0.7574      0.8000   -999.2500      0.9120    -18.2000
   6428.5000     12.3200     12.1200   -999.2500   1418.2852   -999.2500    109.0878   -999.2500      0.7436      0.7800   -999.2500      0.9240    -19.6000
   6429.0000     12.2400     12.1200   -999.2500   1428.0996   -999.2500    110.3555   -999.2500      0.7325      0.7800   -999.2500      0.9360    -21.5686
   6429.5000     12.2400     12.0800   -999.2500   1427.0820   -999.2500    112.1197   -999.2500      0.7275      0.7600   -999.2500      0.9400    -23.1373
   6430.0000     12.1200     12.0400   -999.2500   1423.7168   -999.2500    112.8043   -999.2500      0.7225      0.7600   -999.2500      0.9440    -24.9020
   6430.5000     12.0400     11.9583   -999.2500   1420.3535   -999.2500    113.1000   -999.2500      0.7176      0.7600   -999.2500      0.9520    -26.2745
   6431.0000     11.9583     11.8750   -999.2500   1416.9902   -999.2500    112.3000   -999.2500      0.7126      0.7600   -999.2500      0.9360    -26.2745
   6431.5000     11.9583     11.8750   -999.2500   1413.6270   -999.2500    109.1176   -999.2500      0.7076      0.8000   -999.2500      0.9080    -24.5098
   6432.0000     11.9583     11.9167   -999.2500   1424.8242   -999.2500    107.5490   -999.2500      0.7106      0.8000   -999.2500      0.8760    -22.5490
   6432.5000     12.0400     11.9583   -999.2500   1436.3672   -999.2500    108.0392   -999.2500      0.7217      0.8000   -999.2500      0.8520    -20.7843
   6433.0000     12.1200     12.0000   -999.2500   1475.0078   -999.2500    108.6275   -999.2500      0.7328      0.8000   -999.2500      0.8480    -19.8000
   6433.5000     12.1600     12.0000   -999.2500   1524.6816   -999.2500    107.6471   -999.2500      0.7439      0.8000   -999.2500      0.8600    -19.0000
   6434.0000     12.2000     12.0000   -999.2500   1617.6328   -999.2500    106.8627   -999.2500      0.7323      0.8000   -999.2500      0.8720    -19.2000
   6434.5000     12.2400     12.0000   -999.2500   1707.6367   -999.2500    106.9608   -999.2500      0.7172      0.8000   -999.2500      0.8760    -20.9804
