~VERSION INFORMATION
VERS.                             2.0:   CWLS Log ASCII Standard-VERSION 2.0
WRAP.                              NO:   One line per depth step
~Well Information Block
STRT.F                      3511.0000:   Top Depth
STOP.F                      7755.0000:   Bottom Depth
STEP.F                         .50000:   Depth Increment
NULL.                        -999.250:   Null Value
FLD .                      BA BLK 431:   Field Name
WELL.       OCSG09017   002 ST01 BP00:   NAME
API .                  42704402350100:   WELL API
EDF .F                        89.0000:   ELEV DRILL FLOOR
COMP.       SEAGULL ENERGY E AND P IN:   OPERATOR
BN  .                             481:   BLOCK
CTRY.                             USA:   COUNTRY NAME
CNTY.                        BRAZOS L:   COUNTY NAME
EKB .F                        90.0000:   ELEV KELLY BUSHING
TDD .F                          0.000:   FINAL TD DRILLER
STAT.                           TEXAS:   STATE NAME
UWI .                  42704402350100:   WELL API
DICO.               IHS : Digitizing Company
~PARAMETER INFORMATION (zones)
#MNEM.UNIT                       Value     Description
#=========                       =====     ===========
#ZONATION                          CNL:   ZONATION NAME
#ZONE                            RUN_0:   ZONE NAME
TOP .                       3511.0000:   TOP DEPTH
BOT .                       7755.5000:   BOTTOM DEPTH
RUN .                               0:   RUN NUMBER
LCCD.                             280:   LOGGING CONTRACTOR
SRVC.                     Halliburton:   LOGGING CONT NAME
DICO.          QC Data Collectors Ltd:   DIG COMPANY NAME
LDAT.                        --/--/--:   DATE LOGGED
BHF .                              99:   FLUID CODE
DPT .                   Miscellaneous:   DRILLING FLUID TYPE
~PARAMETER INFORMATION (zones)
#MNEM.UNIT                       Value     Description
#=========                       =====     ===========
#ZONATION                          DIL:   ZONATION NAME
#ZONE                            RUN_0:   ZONE NAME
TOP .                       3511.0000:   TOP DEPTH
BOT .                       7755.5000:   BOTTOM DEPTH
RUN .                               0:   RUN NUMBER
LCCD.                             280:   LOGGING CONTRACTOR
SRVC.                     Halliburton:   LOGGING CONT NAME
DICO.          QC Data Collectors Ltd:   DIG COMPANY NAME
LDAT.                        --/--/--:   DATE LOGGED
BHF .                              99:   FLUID CODE
DPT .                   Miscellaneous:   DRILLING FLUID TYPE
~PARAMETER INFORMATION (zones)
#MNEM.UNIT                       Value     Description
#=========                       =====     ===========
#ZONATION                          FDC:   ZONATION NAME
#ZONE                            RUN_0:   ZONE NAME
TOP .                       3511.0000:   TOP DEPTH
BOT .                       7755.5000:   BOTTOM DEPTH
RUN .                               0:   RUN NUMBER
LCCD.                             280:   LOGGING CONTRACTOR
SRVC.                     Halliburton:   LOGGING CONT NAME
DICO.          QC Data Collectors Ltd:   DIG COMPANY NAME
LDAT.                        --/--/--:   DATE LOGGED
BHF .                              99:   FLUID CODE
DPT .                   Miscellaneous:   DRILLING FLUID TYPE
~PARAMETER INFORMATION (zones)
#MNEM.UNIT                       Value     Description
#=========                       =====     ===========
#ZONATION                        SONIC:   ZONATION NAME
#ZONE                            RUN_0:   ZONE NAME
TOP .                       3511.0000:   TOP DEPTH
BOT .                       7731.5000:   BOTTOM DEPTH
RUN .                               0:   RUN NUMBER
LCCD.                             280:   LOGGING CONTRACTOR
SRVC.                     Halliburton:   LOGGING CONT NAME
DICO.          QC Data Collectors Ltd:   DIG COMPANY NAME
LDAT.                        --/--/--:   DATE LOGGED
BHF .                              99:   FLUID CODE
DPT .                   Miscellaneous:   DRILLING FLUID TYPE
~Curve Information Block
#MNEM.UNIT                    API CODE    No Description
#=========                    ========    == ===========
DEPT.F                   00 001 00 00:     1  DEPTH
NPHI.%                               :     2  Neutron Porosity
GR.GAPI                              :     3  Gamma Ray
GRD.OHMM                             :     4  Unrecognised
ILD.OHMM                             :     5  Deep Induction Resistivity
ILM.OHMM                             :     6  Medium Induction Resistivity
SP.MV                                :     7  Spontaneous Potential
DPHI.%                               :     8  Porosity
CALI.IN                              :     9  Caliper
DT.US/F                              :    10  Sonic Transit Time
GR.GAPI                              :    11  Gamma Ray
~ASCII
# ...
 5755.5000    41.2546    68.9385      .6941      .6357      .7134   -64.8768    22.2944     9.9131   144.5654    77.6840
 5756.0000    40.4409    64.8008      .8000      .6149      .6980   -64.6697    21.5404     9.9501   121.7808    72.6504
 5756.5000    39.8156    65.1415      .8528      .5737      .6756   -64.9641    21.7901    10.0072   101.2858    70.2053
 5757.0000    41.0310    65.5980      .8589      .5185      .6340   -67.3254    21.6719    10.0662   101.1954    68.3917
 5757.5000    42.6113    65.9523      .7716      .4682      .5639   -70.8292    21.1325    10.1145   111.0127    68.2255
 5758.0000    43.5337    65.9553      .7081      .4225      .5000   -75.7230    24.5216    10.1734   114.8083    68.5619
 5758.5000    43.9937    61.6081      .6808      .3761      .4495   -79.8177    27.2734    10.1719   116.1477    67.0166
 5759.0000    43.1967    58.0757      .6230      .3102      .4088   -81.6100    30.7168    10.1114   113.9982    60.6757
 5759.5000    42.6920    57.0696      .5514      .2881      .3820   -81.7831    32.5759    10.0483   108.7815    53.1031
 5760.0000    42.1877    58.9087      .5019      .2767      .3640   -80.4542    32.3555    10.0049   105.9075    48.8185
 5760.5000    42.0408    60.4550      .4672      .2730      .3554   -79.3245    31.5809    10.0252   104.5967    50.3345
 5761.0000    41.9473    61.7825      .4866      .2761      .3531   -78.8708    30.9819    10.1063   105.0920    52.3203
 5761.5000    41.9290    62.9370      .5281      .2815      .3560   -78.6113    30.0979    10.1113   108.3499    54.4810
 5762.0000    42.1691    62.2355      .5679      .2904      .3652   -78.8605    29.1405    10.1098   110.3326    56.8581
 5762.5000    42.4091    60.4875      .5947      .3008      .3748   -79.8867    28.9328    10.1260   112.0950    57.6770
 5763.0000    42.8118    60.7647      .6033      .3133      .3853   -80.9735    29.8240    10.1787   114.0142    57.8256
 5763.5000    43.2322    56.3290      .6065      .3025      .3833   -82.0070    29.0103    10.2709   114.6603    58.4792
 5764.0000    43.1925    53.6895      .6156      .2877      .3672   -82.9740    30.1466    10.2757   112.1920    59.7337
 5764.5000    42.6880    52.5024      .6100      .2719      .3487   -83.4331    31.0370     9.9840   109.9568    58.2046
 5765.0000    42.0308    51.4078      .5885      .2568      .3317   -83.5035    30.5527     9.8962   108.4070    58.2561
 5765.5000    41.3816    52.8395      .5564      .2473      .3186   -83.2037    31.2870     9.8898   105.4320    56.9051
 5766.0000    40.7611    54.3962      .5068      .2485      .3071   -80.7080    32.5759    10.0094   103.8848    55.3277
 5766.5000    40.8849    55.6887      .4656      .2662      .3008   -76.9438    32.9220    10.1777   104.5496    54.7660
 5767.0000    41.4598    56.1416      .4423      .2899      .3156   -73.1772    33.1985    10.2654   105.0907    54.5966
 5767.5000    42.5227    58.4323      .4315      .3166      .3263   -69.4131    33.0853    10.1036   105.4692    54.6949
 5768.0000    43.6966    62.3474      .4699      .3461      .3619   -65.6073    30.6162     9.8613   109.0842    56.9964
 5768.5000    44.7419    66.2234      .5433      .3885      .4128   -63.6765    28.1439     9.7895   112.0804    61.3672
 5769.0000    45.8655    69.3757      .6201      .4307      .4768   -65.7479    25.6747     9.8263   115.2559    64.0575
 5769.5000    46.0555    70.7554      .6794      .4578      .5297   -68.9758    22.9420     9.8746   116.4272    66.2990
 5770.0000    44.6461    68.0273      .7162      .4717      .5596   -71.7533    21.8474     9.8900   114.7684    68.5359
 5770.5000    44.1122    64.3075      .7322      .4618      .5732   -74.2887    22.2265     9.8814   110.1122    67.9377
 5771.0000    42.2496    60.9105      .7010      .4277      .5611   -77.1470    23.5825     9.8724   107.7429    65.2605
 5771.5000    37.7776    56.1260      .6488      .3966      .5366   -78.4471    25.6523     9.8763   109.7510    61.8760
 5772.0000    33.7721    52.7758      .5971      .3685      .5142   -78.2051    27.3836     9.9108   110.1971    58.1968
 5772.5000    29.7665    50.0295      .9290      .3499      .4938   -77.5967    22.8861    10.0268   107.6685    52.2003
 5773.0000    25.0550    47.6606     1.7421      .3373      .4743   -76.5052    18.3887    10.2188   109.7749    47.1354
 5773.5000    22.3351    48.1969     2.7721      .3294      .4577   -74.9551    13.0096    10.4454   115.3794    44.3903
 5774.0000    23.0778    55.7875     3.1140      .3399      .4426   -71.0999    10.9269    10.5822   114.7897    45.0570
 5774.5000    27.9426    63.1231     1.2897      .3647      .4452   -66.8673    14.2968    10.1070   103.2778    49.7370
 5775.0000    34.0052    70.9897      .8636      .3844      .4609   -64.7354    18.7560     9.8603   100.0798    55.0863
 5775.5000    39.4802    75.0245      .5728      .4051      .4807   -63.8425    22.1738     9.7961   107.7084    60.1329
 5776.0000    44.4919    77.8776      .5466      .4221      .5013   -66.4872    23.4268     9.7720   124.6494    70.0696
 5776.5000    47.2366    75.7378      .6050      .4364      .5221   -68.6361    23.7688     9.8026   126.3229    74.9336
 5777.0000    47.7634    70.6747      .6561      .4376      .5411   -70.0457    23.6108     9.8415   120.1445    77.3578
 5777.5000    47.2566    68.5558      .6818      .4165      .5438   -71.4591    24.0520     9.8589   116.6172    76.4210
 5778.0000    46.3358    66.6008      .6929      .3964      .5094   -73.8384    24.8232     9.8576   116.9280    70.9568
 5778.5000    45.4151    66.3622      .6859      .3772      .4650   -76.6615    25.3800     9.8555   117.2374    69.0532
 5779.0000    44.4935    66.0282      .6697      .3589      .4299   -78.5461    26.6010     9.8546   114.1655    68.6970
 5779.5000    43.7661    65.4230      .6178      .3437      .4051   -78.0619    28.8115     9.8556   114.0659    65.9388
 5780.0000    43.3079    63.6047      .5367      .3321      .3885   -76.6459    31.2119     9.8566   113.7698    62.3640
 5780.5000    43.4437    61.6810      .4895      .3150      .3886   -75.7361    30.6258     9.8576   111.3606    60.7410
 5781.0000    43.4518    58.9191      .5296      .2964      .3776   -78.7921    29.4343     9.8586   110.7045    59.1792
 5781.5000    43.0897    55.9021      .5743      .2765      .3618   -80.8186    28.6054     9.8587   111.9967    58.1883
 5782.0000    42.5450    52.1276      .6212      .2642      .3441   -82.1553    29.9997     9.8575   112.0751    59.3302
 5782.5000    42.3758    50.5852      .6097      .2573      .3264   -82.6976    32.3475     9.8618   107.3524    59.1440
 5783.0000    42.2350    50.1258      .5778      .2514      .3129   -82.4729    33.0358     9.8720   104.3749    56.7746
 5783.5000    42.3586    51.3063      .5391      .2496      .3033   -81.9523    33.5637     9.8844   102.6643    54.3870
 5784.0000    42.5395    56.1468      .4944      .2611      .2988   -79.6121    34.1364     9.8978   101.4810    51.1696
 5784.5000    42.8593    61.7747      .4521      .2803      .3293   -72.7607    33.4479     9.9016   101.4690    48.5680
 5785.0000    43.0461    69.0999      .4035      .3231      .3673   -65.3523    31.4914     9.9002   102.4572    48.0330
 5785.5000    43.5081    72.9108      .4400      .3857      .4120   -59.6202    29.0127     9.9082   102.7952    50.1624
 5786.0000    44.2915    74.9880      .5092      .4643      .4646   -56.1945    26.4861     9.9198   104.5714    51.5114
 5786.5000    44.8976    76.5435      .5789      .5177      .5239   -54.7498    24.0105     9.9353   108.1705    55.9291
 5787.0000    45.4482    74.7772      .6677      .5861      .5837   -57.4961    22.3703     9.9310   111.4456    59.9503
 5787.5000    46.0879    73.5902      .6900      .6125      .6519   -60.7266    22.1000     9.9131   115.6184    65.2161
 5788.0000    46.1302    73.1249      .7016      .6234      .6876   -63.4182    22.6122     9.8697   118.6465    71.7657
 5788.5000    46.0073    72.9030      .7400      .5640      .6604   -66.0499    23.1291     9.8340   120.3398    75.3458
