~VERSION INFORMATION
VERS.                             2.0:   CWLS Log ASCII Standard-VERSION 2.0
WRAP.                              NO:   One line per depth step
~Well Information Block
STRT.F                      4122.0000:   Top Depth
STOP.F                     10958.0000:   Bottom Depth
STEP.F                         .50000:   Depth Increment
NULL.                        -999.250:   Null Value
FLD .                      GA BLK 273:   Field Name
WELL.       OCSG09037   003 ST00 BP00:   NAME
API .                  42706402950000:   WELL API
EDF .F                        95.0000:   ELEV DRILL FLOOR
COMP.       SEAGULL ENERGY E AND P IN:   OPERATOR
BN  .                             273:   BLOCK
CTRY.                             USA:   COUNTRY NAME
CNTY.                              GA:   COUNTY
CNTY.                        GLVSTN L:   COUNTY NAME
EKB .F                        96.0000:   ELEV KELLY BUSHING
TDD .F                      10964.000:   FINAL TD DRILLER
STAT.                           TEXAS:   STATE NAME
UWI .                  42706402950000:   WELL API
DICO.               IHS : Digitizing Company
~PARAMETER INFORMATION (zones)
#MNEM.UNIT                       Value     Description
#=========                       =====     ===========
#ZONATION                          DIL:   ZONATION NAME
#ZONE                            RUN_1:   ZONE NAME
TOP .                       4122.0000:   TOP DEPTH
BOT .                       9366.5000:   BOTTOM DEPTH
RUN .                               1:   RUN NUMBER
LCCD.                             440:   LOGGING CONTRACTOR
SRVC.                    Schlumberger:   LOGGING CONT NAME
DICO.          QC Data Collectors Ltd:   DIG COMPANY NAME
LDAT.                      05/20/1991:   DATE LOGGED
ELD .F                        96.0000:   LOG DATUM ELEVATION
TDD .F                      9360.0000:   TOTAL DEPTH DRILLER
TDL .F                      9366.0000:   TOTAL DEPTH LOGGER
BOTL.F                      9366.0000:   BOTTOM DEPTH LOGGED
TOPL.F                      4402.0000:   TOP DEPTH LOGGED
CS1 .IN                       10.7500:   CASING SIZE 1
BS1 .IN                        9.8750:   BIT SIZE 1
DDB1.F                      9360.0000:   DEPTH DRILLED BIT 1
BHF .                              81:   FLUID CODE
DPT .          Lignosulfonate (Ligno):   DRILLING FLUID TYPE
MUDD.                         12.5000:   FLUID DENSITY
MUDV.                         45.0000:   FLUID VISCOSITY
DFPH.                         10.0000:   FLUID PH
FL  .                          8.0000:   FLUID LOSS
RM  .OHMM                       .5080:   RM
RMT .DEGF                     67.0000:   RM TEMP
RMF .OHMM                       .3460:   RMF
RMFT.DEGF                     67.0000:   RMF TEMP
FSC .                               M:   RMF CODE
RMC .OHMM                       .6820:   RMC
RMCT.DEGF                     67.0000:   RMC TEMP
CMC .                               M:   RMC CODE
TMAX.DEGF                    170.0000:   MAX REC TEMP
TIMC.                          6.6800:   TIME SINCE CIRCLN
~PARAMETER INFORMATION (zones)
#MNEM.UNIT                       Value     Description
#=========                       =====     ===========
#ZONATION                          DIL:   ZONATION NAME
#ZONE                            RUN_2:   ZONE NAME
TOP .                       9092.0000:   TOP DEPTH
BOT .                      10398.5000:   BOTTOM DEPTH
RUN .                               2:   RUN NUMBER
LCCD.                             440:   LOGGING CONTRACTOR
SRVC.                    Schlumberger:   LOGGING CONT NAME
DICO.          QC Data Collectors Ltd:   DIG COMPANY NAME
LDAT.                      06/04/1991:   DATE LOGGED
ELD .F                        96.0000:   LOG DATUM ELEVATION
TDD .F                     10401.0000:   TOTAL DEPTH DRILLER
TDL .F                     10404.0000:   TOTAL DEPTH LOGGER
BOTL.F                     10398.0000:   BOTTOM DEPTH LOGGED
TOPL.F                      9292.0000:   TOP DEPTH LOGGED
CS1 .IN                        7.6250:   CASING SIZE 1
BS1 .IN                        6.7500:   BIT SIZE 1
DDB1.F                     10401.0000:   DEPTH DRILLED BIT 1
BHF .                              99:   FLUID CODE
DPT .                   Miscellaneous:   DRILLING FLUID TYPE
MUDD.                         14.1000:   FLUID DENSITY
MUDV.                         40.0000:   FLUID VISCOSITY
DFPH.                          9.8000:   FLUID PH
FL  .                          3.4000:   FLUID LOSS
RM  .OHMM                       .5160:   RM
RMT .DEGF                     80.0000:   RM TEMP
RMF .OHMM                       .2580:   RMF
RMFT.DEGF                     80.0000:   RMF TEMP
FSC .                               M:   RMF CODE
RMC .OHMM                      1.8700:   RMC
RMCT.DEGF                     80.0000:   RMC TEMP
CMC .                               M:   RMC CODE
TMAX.DEGF                    192.0000:   MAX REC TEMP
TIMC.                          7.4000:   TIME SINCE CIRCLN
~PARAMETER INFORMATION (zones)
#MNEM.UNIT                       Value     Description
#=========                       =====     ===========
#ZONATION                          DIL:   ZONATION NAME
#ZONE                            RUN_3:   ZONE NAME
TOP .                       9320.0000:   TOP DEPTH
BOT .                      10958.5000:   BOTTOM DEPTH
RUN .                               3:   RUN NUMBER
LCCD.                             440:   LOGGING CONTRACTOR
SRVC.                    Schlumberger:   LOGGING CONT NAME
DICO.          QC Data Collectors Ltd:   DIG COMPANY NAME
LDAT.                      06/09/1991:   DATE LOGGED
ELD .F                        96.0000:   LOG DATUM ELEVATION
TDD .F                     10960.0000:   TOTAL DEPTH DRILLER
TDL .F                     10964.0000:   TOTAL DEPTH LOGGER
BOTL.F                     10958.0000:   BOTTOM DEPTH LOGGED
TOPL.F                      9404.0000:   TOP DEPTH LOGGED
CS1 .IN                        7.6250:   CASING SIZE 1
BS1 .IN                        6.7500:   BIT SIZE 1
DDB1.F                     10960.0000:   DEPTH DRILLED BIT 1
BHF .                              99:   FLUID CODE
DPT .                   Miscellaneous:   DRILLING FLUID TYPE
MUDD.                         14.7000:   FLUID DENSITY
MUDV.                         46.0000:   FLUID VISCOSITY
DFPH.                         10.0000:   FLUID PH
FL  .                          2.3000:   FLUID LOSS
RM  .OHMM                       .4570:   RM
RMT .DEGF                     74.0000:   RM TEMP
RMF .OHMM                       .2190:   RMF
RMFT.DEGF                     74.0000:   RMF TEMP
FSC .                               M:   RMF CODE
RMC .OHMM                       .7110:   RMC
RMCT.DEGF                     74.0000:   RMC TEMP
CMC .                               M:   RMC CODE
TMAX.DEGF                    202.0000:   MAX REC TEMP
TIMC.                          7.3800:   TIME SINCE CIRCLN
~Curve Information Block
#MNEM.UNIT                    API CODE    No Description
#=========                    ========    == ===========
DEPT.F                   00 001 00 00:     1  DEPTH
DT.US/F                              :     2  Sonic Transit Time
GR.GAPI                              :     3  Gamma Ray
ILD.OHMM                             :     4  Deep Induction Resistivity
ILM.OHMM                             :     5  Medium Induction Resistivity
SFL.OHMM                             :     6  Medium Resistivity
SP.MV                                :     7  Spontaneous Potential
~ASCII
# ...
 7866.0000   118.2288    78.4143      .7096      .6274      .6368   -47.0203
 7866.5000   117.9103    77.0820      .7242      .6327      .6523   -46.3068
 7867.0000   117.6329    74.6151      .7131      .6474      .6712   -45.7735
 7867.5000   117.4005    73.1841      .7035      .6566      .6585   -45.9634
 7868.0000   117.1676    75.3226      .7001      .6544      .6460   -46.0959
 7868.5000   117.2451    77.6106      .6975      .6496      .6337   -46.2157
 7869.0000   117.3411    79.8827      .6975      .6456      .6232   -46.3394
 7869.5000   117.4851    78.6252      .6973      .6419      .6141   -46.4644
 7870.0000   117.6885    77.6327      .6951      .6418      .6174   -46.5883
 7870.5000   117.8917    77.4276      .6928      .6430      .6299   -46.7106
 7871.0000   118.0994    76.9819      .6890      .6443      .6474   -46.8615
 7871.5000   118.3121    76.0115      .6846      .6441      .6534   -47.0847
 7872.0000   118.5248    78.0912      .6803      .6433      .6520   -47.4011
 7872.5000   118.7389    81.0922      .6789      .6425      .6433   -47.6472
 7873.0000   118.9572    82.2188      .6776      .6397      .6391   -47.6455
 7873.5000   119.1754    79.0657      .6765      .6360      .6352   -47.6305
 7874.0000   119.2798    76.2330      .6765      .6335      .6320   -47.5551
 7874.5000   119.3671    73.3977      .6765      .6310      .6284   -47.4796
 7875.0000   119.4305    73.8916      .6765      .6285      .6243   -47.4354
 7875.5000   119.4940    76.6923      .6765      .6271      .6290   -47.3961
 7876.0000   119.6086    79.4181      .6765      .6263      .6341   -47.3916
 7876.5000   119.9316    81.5247      .6767      .6254      .6369   -47.4114
 7877.0000   120.2572    83.3895      .6772      .6249      .6320   -47.3519
 7877.5000   120.6587    84.6176      .6777      .6245      .6196   -47.2292
 7878.0000   121.0308    82.2988      .6779      .6238      .6195   -46.8892
 7878.5000   121.1053    78.8094      .6779      .6212      .6256   -46.5084
 7879.0000   121.1801    76.2998      .6779      .6185      .6294   -46.1106
 7879.5000   121.1021    77.0260      .6779      .6157      .6307   -46.2227
 7880.0000   121.0198    79.1484      .6779      .6129      .6309   -46.8068
 7880.5000   120.8215    80.8625      .6790      .6104      .6281   -47.2266
 7881.0000   120.6046    79.7892      .6805      .6088      .6254   -47.0076
 7881.5000   120.4130    78.3635      .6819      .6071      .6225   -46.7971
 7882.0000   120.5439    77.4163      .6819      .6059      .6186   -46.7338
 7882.5000   121.2756    79.1752      .6819      .6051      .6147   -46.8124
 7883.0000   121.8885    82.8062      .6819      .6043      .6115   -46.9723
 7883.5000   122.4404    86.5867      .6819      .6038      .6093   -47.1064
 7884.0000   122.9860    88.7759      .6820      .6034      .6077   -46.9019
 7884.5000   123.4873    79.7892      .6826      .6032      .6082   -46.5090
 7885.0000   123.3757    76.8765      .6833      .6057      .6087   -46.0779
 7885.5000   122.1356    75.9526      .6833      .6081      .6159   -46.2858
 7886.0000   120.4441    75.9567      .6856      .6132      .6246   -46.5674
 7886.5000   118.6357    76.4039      .6901      .6193      .6378   -46.8713
 7887.0000   116.9727    72.9705      .6946      .6283      .6540   -46.7325
 7887.5000   116.4966    70.3353      .7000      .6383      .6670   -46.4530
 7888.0000   116.9941    69.2328      .7056      .6525      .6584   -46.0385
 7888.5000   117.3677    68.1755      .7112      .6644      .6390   -45.6904
 7889.0000   117.3313    66.7711      .7210      .6599      .6195   -45.6641
 7889.5000   115.8674    64.9210      .7325      .6593      .6034   -46.1202
 7890.0000   113.6284    63.0174      .7474      .6691      .6195   -46.3435
 7890.5000   111.7449    64.3604      .7545      .6812      .6555   -46.7433
 7891.0000   110.8083    66.7257      .7413      .6907      .6940   -46.4296
 7891.5000   112.9773    69.0378      .7249      .6961      .6948   -46.1024
 7892.0000   115.0114    70.2679      .7083      .6879      .6277   -45.9615
 7892.5000   116.8949    70.8567      .6926      .6711      .5837   -45.8284
 7893.0000   118.5760    70.8911      .6884      .6571      .5779   -45.8454
 7893.5000   119.8162    70.1165      .6855      .6505      .5829   -45.8625
 7894.0000   120.4866    68.5199      .6905      .6501      .5899   -45.9253
 7894.5000   119.2455    66.6630      .6954      .6521      .5998   -46.0090
 7895.0000   117.6317    66.2893      .7015      .6608      .6133   -46.1423
 7895.5000   115.8492    68.1088      .7121      .6700      .6489   -46.1353
 7896.0000   114.2576    70.0283      .7228      .6859      .6845   -46.0298
 7896.5000   114.6144    71.8839      .7329      .6902      .6723   -46.0078
 7897.0000   116.3889    72.3456      .7427      .6817      .6613   -46.0256
 7897.5000   118.0532    72.8717      .7526      .6732      .6540   -46.0239
 7898.0000   119.2649    73.5925      .7621      .6648      .6467   -45.9819
 7898.5000   118.7836    75.5842      .7600      .6624      .6371   -45.9125
 7899.0000   117.2788    78.2488      .7544      .6666      .6263   -45.8551
 7899.5000   116.3292    80.3685      .7540      .6709      .6230   -45.8035
 7900.0000   116.7301    81.1896      .7558      .6751      .6200   -45.8030
 7900.5000   117.2198    78.6145      .7567      .6794      .6299   -45.8166
 7901.0000   117.7102    75.4481      .7553      .6838      .6423   -45.9055
 7901.5000   117.9142    72.3164      .7534      .6888      .6636   -46.0579
 7902.0000   118.5813    70.6425      .7501      .6948      .6855   -46.2364
 7902.5000   116.9908    74.2253      .7471      .7009      .7076   -46.4199
 7903.0000   115.3148    77.6053      .7460      .7079      .7126   -46.6045
 7903.5000   113.6726    80.5902      .7448      .7145      .6844   -46.7076
 7904.0000   112.1522    82.3923      .7453      .7029      .6571   -46.7764
 7904.5000   113.4144    81.4792      .7464      .6920      .6469   -46.7263
 7905.0000   114.5157    79.7218      .7475      .6812      .6406   -46.6379
 7905.5000   115.4070    79.9961      .7476      .6753      .6393   -46.4540
 7906.0000   116.0946    81.0067      .7476      .6758      .6389   -46.2681
 7906.5000   116.2501    82.3123      .7480      .6763      .6392   -46.0175
 7907.0000   116.1334    83.5924      .7490      .6775      .6438   -45.7034
 7907.5000   115.9220    84.3319      .7500      .6796      .6486   -45.8710
 7908.0000   116.0823    79.7999      .7508      .6818      .6533   -46.2414
 7908.5000   116.4388    77.6033      .7508      .6850      .6569   -46.5968
 7909.0000   116.8024    77.1475      .7509      .6909      .6604   -46.7134
 7909.5000   116.8053    76.8798      .7507      .6968      .6646   -46.4990
 7910.0000   116.7188    76.3718      .7501      .7010      .6700   -45.8883
 7910.5000   116.5018    73.6006      .7497      .7039      .6753   -45.6380
 7911.0000   116.3278    69.8682      .7513      .7068      .6809   -45.6271
 7911.5000   116.1716    67.0154      .7506      .7072      .6866   -45.7361
 7912.0000   115.9504    67.6415      .7391      .7065      .6868   -45.9360
 7912.5000   117.7925    71.1764      .7217      .6935      .6659   -46.2708
 7913.0000   119.6320    73.6406      .7043      .6706      .6418   -46.6479
 7913.5000   121.0823    75.3760      .6958      .6532      .6297   -47.0080
 7914.0000   122.0559    77.4531      .6885      .6439      .6178   -47.2422
 7914.5000   122.6473    78.7694      .6826      .6363      .6062   -47.1121
 7915.0000   123.2279    76.3585      .6780      .6338      .6067   -46.6459
 7915.5000   123.7935    74.3187      .6745      .6316      .6107   -46.0285
 7916.0000   124.2443    72.6981      .6735      .6299      .6159   -45.4678
 7916.5000   124.5886    71.8158      .6725      .6282      .6215   -44.9766
 7917.0000   124.6528    72.5593      .6729      .6281      .6242   -44.7916
 7917.5000   124.1243    73.3136      .6734      .6295      .6250   -44.7920
