~VERSION INFORMATION
VERS.                             2.0:   CWLS Log ASCII Standard-VERSION 2.0
WRAP.                              NO:   One line per depth step
~Well Information Block
STRT.F                      4703.0000:   Top Depth
STOP.F                      9304.5000:   Bottom Depth
STEP.F                         .50000:   Depth Increment
NULL.                        -999.250:   Null Value
FLD .                      BA BLK 399:   Field Name
WELL.       OCSG07218  A003 ST00 BP00:   NAME
API .                  42704403090000:   WELL API
EDF .F                       113.0000:   ELEV DRILL FLOOR
COMP.       SEAGULL ENERGY E AND P IN:   OPERATOR
EGL .F                       -62.0000:   ELEV GROUND LEVEL
EKB .F                       114.0000:   ELEV KELLY BUSHING
TDD .F                      9314.0000:   FINAL TD DRILLER
UWI .                  42704403090000:   WELL API
DICO.               IHS : Digitizing Company
~PARAMETER INFORMATION (zones)
#MNEM.UNIT                       Value     Description
#=========                       =====     ===========
#ZONATION                          CNL:   ZONATION NAME
#ZONE                            RUN_1:   ZONE NAME
TOP .                       4703.0000:   TOP DEPTH
BOT .                       9200.5000:   BOTTOM DEPTH
RUN .                               1:   RUN NUMBER
LCCD.                             510:   LOGGING CONTRACTOR
SRVC.                   Western Atlas:   LOGGING CONT NAME
DICO.          QC Data Collectors Ltd:   DIG COMPANY NAME
LDAT.                      03/24/1997:   DATE LOGGED
TDD .F                      9314.0000:   TOTAL DEPTH DRILLER
TDL .F                      9307.0000:   TOTAL DEPTH LOGGER
BOTL.F                      9305.0000:   BOTTOM DEPTH LOGGED
TOPL.F                      4703.0000:   TOP DEPTH LOGGED
CS1 .                         10.7500:   CASING SIZE 1
BS1 .                          9.8750:   BIT SIZE 1
DDB1.F                      9314.0000:   DEPTH DRILLED BIT 1
BHF .                              99:   FLUID CODE
DPT .                   Miscellaneous:   DRILLING FLUID TYPE
MUDD.                         11.5000:   FLUID DENSITY
MUDV.                         41.0000:   FLUID VISCOSITY
DFPH.                         10.2000:   FLUID PH
FL  .                          5.0000:   FLUID LOSS
RM  .OHMM                      1.1200:   RM
RMT .DEGF                     75.0000:   RM TEMP
RMF .OHMM                       .8300:   RMF
RMFT.DEGF                     75.0000:   RMF TEMP
FSC .                               M:   RMF CODE
RMC .OHMM                      1.4600:   RMC
RMCT.DEGF                     75.0000:   RMC TEMP
CMC .                               M:   RMC CODE
TMAX.DEGF                    181.0000:   MAX REC TEMP
TIMC.                         24.0000:   TIME SINCE CIRCLN
SON .                          173943:   SERVICE ORDER NUM
LMF .                             MSL:   LOGS MEAS FROM
MUDS.                             PIT:   MUD SOURCE
ENG .                         HADSALL:   ENGINEER
WIT .                        FONTENOT:   WITNESS
~PARAMETER INFORMATION (zones)
#MNEM.UNIT                       Value     Description
#=========                       =====     ===========
#ZONATION                          DAL:   ZONATION NAME
#ZONE                            RUN_1:   ZONE NAME
TOP .                       4703.0000:   TOP DEPTH
BOT .                       9242.5000:   BOTTOM DEPTH
RUN .                               1:   RUN NUMBER
LCCD.                             510:   LOGGING CONTRACTOR
SRVC.                   Western Atlas:   LOGGING CONT NAME
DICO.          QC Data Collectors Ltd:   DIG COMPANY NAME
LDAT.                      03/24/1997:   DATE LOGGED
TDD .F                      9314.0000:   TOTAL DEPTH DRILLER
TDL .F                      9307.0000:   TOTAL DEPTH LOGGER
BOTL.F                      9305.0000:   BOTTOM DEPTH LOGGED
TOPL.F                      4703.0000:   TOP DEPTH LOGGED
CS1 .                         10.7500:   CASING SIZE 1
BS1 .                          9.8750:   BIT SIZE 1
DDB1.F                      9314.0000:   DEPTH DRILLED BIT 1
BHF .                              99:   FLUID CODE
DPT .                   Miscellaneous:   DRILLING FLUID TYPE
MUDD.                         11.5000:   FLUID DENSITY
MUDV.                         41.0000:   FLUID VISCOSITY
DFPH.                         10.2000:   FLUID PH
FL  .                          5.0000:   FLUID LOSS
RM  .OHMM                      1.1200:   RM
RMT .DEGF                     75.0000:   RM TEMP
RMF .OHMM                       .8300:   RMF
RMFT.DEGF                     75.0000:   RMF TEMP
FSC .                               M:   RMF CODE
RMC .OHMM                      1.4600:   RMC
RMCT.DEGF                     75.0000:   RMC TEMP
CMC .                               M:   RMC CODE
TMAX.DEGF                    181.0000:   MAX REC TEMP
TIMC.                         24.0000:   TIME SINCE CIRCLN
SON .                          173943:   SERVICE ORDER NUM
LMF .                             MSL:   LOGS MEAS FROM
MUDS.                             PIT:   MUD SOURCE
ENG .                         HADSALL:   ENGINEER
WIT .                        FONTENOT:   WITNESS
~PARAMETER INFORMATION (zones)
#MNEM.UNIT                       Value     Description
#=========                       =====     ===========
#ZONATION                          DIL:   ZONATION NAME
#ZONE                            RUN_1:   ZONE NAME
TOP .                       4703.0000:   TOP DEPTH
BOT .                       9305.5000:   BOTTOM DEPTH
RUN .                               1:   RUN NUMBER
LCCD.                             510:   LOGGING CONTRACTOR
SRVC.                   Western Atlas:   LOGGING CONT NAME
DICO.          QC Data Collectors Ltd:   DIG COMPANY NAME
LDAT.                      03/24/1997:   DATE LOGGED
TDD .F                      9314.0000:   TOTAL DEPTH DRILLER
TDL .F                      9307.0000:   TOTAL DEPTH LOGGER
BOTL.F                      9305.0000:   BOTTOM DEPTH LOGGED
TOPL.F                      4703.0000:   TOP DEPTH LOGGED
CS1 .                         10.7500:   CASING SIZE 1
BS1 .                          9.8750:   BIT SIZE 1
DDB1.F                      9314.0000:   DEPTH DRILLED BIT 1
BHF .                              99:   FLUID CODE
DPT .                   Miscellaneous:   DRILLING FLUID TYPE
MUDD.                         11.5000:   FLUID DENSITY
MUDV.                         41.0000:   FLUID VISCOSITY
DFPH.                         10.2000:   FLUID PH
FL  .                          5.0000:   FLUID LOSS
RM  .OHMM                      1.1200:   RM
RMT .DEGF                     75.0000:   RM TEMP
RMF .OHMM                       .8300:   RMF
RMFT.DEGF                     75.0000:   RMF TEMP
FSC .                               M:   RMF CODE
RMC .OHMM                      1.4600:   RMC
RMCT.DEGF                     75.0000:   RMC TEMP
CMC .                               M:   RMC CODE
TMAX.DEGF                    181.0000:   MAX REC TEMP
TIMC.                         24.0000:   TIME SINCE CIRCLN
SON .                          173943:   SERVICE ORDER NUM
LMF .                             MSL:   LOGS MEAS FROM
MUDS.                             PIT:   MUD SOURCE
ENG .                         HADSALL:   ENGINEER
WIT .                        FONTENOT:   WITNESS
~PARAMETER INFORMATION (zones)
#MNEM.UNIT                       Value     Description
#=========                       =====     ===========
#ZONATION                          FDC:   ZONATION NAME
#ZONE                            RUN_1:   ZONE NAME
TOP .                       4703.0000:   TOP DEPTH
BOT .                       9228.5000:   BOTTOM DEPTH
RUN .                               1:   RUN NUMBER
LCCD.                             510:   LOGGING CONTRACTOR
SRVC.                   Western Atlas:   LOGGING CONT NAME
DICO.          QC Data Collectors Ltd:   DIG COMPANY NAME
LDAT.                      03/24/1997:   DATE LOGGED
TDD .F                      9314.0000:   TOTAL DEPTH DRILLER
TDL .F                      9307.0000:   TOTAL DEPTH LOGGER
BOTL.F                      9305.0000:   BOTTOM DEPTH LOGGED
TOPL.F                      4703.0000:   TOP DEPTH LOGGED
CS1 .                         10.7500:   CASING SIZE 1
BS1 .                          9.8750:   BIT SIZE 1
DDB1.F                      9314.0000:   DEPTH DRILLED BIT 1
BHF .                              99:   FLUID CODE
DPT .                   Miscellaneous:   DRILLING FLUID TYPE
MUDD.                         11.5000:   FLUID DENSITY
MUDV.                         41.0000:   FLUID VISCOSITY
DFPH.                         10.2000:   FLUID PH
FL  .                          5.0000:   FLUID LOSS
RM  .OHMM                      1.1200:   RM
RMT .DEGF                     75.0000:   RM TEMP
RMF .OHMM                       .8300:   RMF
RMFT.DEGF                     75.0000:   RMF TEMP
FSC .                               M:   RMF CODE
RMC .OHMM                      1.4600:   RMC
RMCT.DEGF                     75.0000:   RMC TEMP
CMC .                               M:   RMC CODE
TMAX.DEGF                    181.0000:   MAX REC TEMP
TIMC.                         24.0000:   TIME SINCE CIRCLN
SON .                          173943:   SERVICE ORDER NUM
LMF .                             MSL:   LOGS MEAS FROM
MUDS.                             PIT:   MUD SOURCE
ENG .                         HADSALL:   ENGINEER
WIT .                        FONTENOT:   WITNESS
~Curve Information Block
#MNEM.UNIT                    API CODE    No Description
#=========                    ========    == ===========
DEPT.F                   00 001 00 00:     1  DEPTH
CNCF.%                               :     2  Field Normalized CNC
DT24.US/F                            :     3  Unrecognised
CILD.MMHO                            :     4  Deep Induction Conductivity
RFOC.OHMM                            :     5  Medium Resistivity
RILD.OHMM                            :     6  Deep Resistivity
RILM.OHMM                            :     7  Medium Resistivity
RWAZ.OHMM                            :     8  Unrecognised
SP.MV                                :     9  Spontaneous Potential
GR.GAPI                              :    10  Gamma Ray
PORZ.%                               :    11  Neutron Porosity
ZCOR.G/C3                            :    12  Density Correction
ZDEN.G/C3                            :    13  Bulk Density
~ASCII
# ...
 6215.0000    46.6760   128.1790  1324.7539     1.2120      .7550      .7360      .0960     9.0510    69.0299    30.6810      .0530     2.1440
 6215.5000    48.3350   128.2939  1304.8594     1.2130      .7660      .7400      .0960     9.0940    69.4910    30.4660      .0520     2.1470
 6216.0000    48.5150   128.1409  1297.9316     1.2380      .7710      .7500      .0960     9.1300    71.6589    30.3550      .0520     2.1490
 6216.5000    48.1100   127.8729  1292.8418     1.2680      .7740      .7590      .0940     9.0890    71.5210    30.0600      .0640     2.1540
 6217.0000    47.1940   126.8619  1291.0566     1.2840      .7750      .7660      .0900     9.2170    71.8309    29.4360      .0580     2.1640
 6217.5000    45.7950   126.0769  1292.3984     1.3100      .7740      .7660      .0890     8.7910    70.8770    29.3230      .0630     2.1660
 6218.0000    44.0560   126.0569  1289.7480     1.3290      .7750      .7580      .0900     6.0810    70.2520    29.4850      .0520     2.1640
 6218.5000    46.2190   126.4390  1281.9219     1.2950      .7800      .7530      .0900     3.7700    71.4969    29.3920      .0550     2.1650
 6219.0000    46.3470   127.5020  1270.8535     1.2270      .7870      .7570      .0910     5.3720    69.7660    29.4080      .0650     2.1650
 6219.5000    45.0240   128.1838  1264.1523     1.1870      .7910      .7630      .0970     8.4530    70.5809    30.1970      .0520     2.1520
 6220.0000    44.6769   127.7460  1267.8145     1.2040      .7890      .7690      .0970     9.1090    69.8109    30.2740      .0490     2.1510
 6220.5000    44.5120   126.8839  1271.6758     1.2410      .7860      .7740      .0940     9.1060    70.9850    29.7400      .0560     2.1590
 6221.0000    43.9810   125.8240  1266.1797     1.2800      .7900      .7770      .0900     8.9980    71.0790    29.2140      .0590     2.1680
 6221.5000    43.3970   124.9810  1253.1230     1.3090      .7980      .7790      .0900     8.8660    70.1110    29.0740      .0640     2.1700
 6222.0000    43.7180   124.7970  1239.0371     1.2940      .8070      .7820      .0910     9.0160    66.1630    29.0380      .0690     2.1710
 6222.5000    44.3730   124.8650  1229.9570     1.2550      .8130      .7820      .0890     9.4000    68.3519    28.5450      .0710     2.1790
 6223.0000    45.2690   124.8839  1231.1855     1.2610      .8120      .7780      .0910     9.1970    72.7190    28.9490      .0650     2.1720
 6223.5000    45.3260   125.0950  1241.6387     1.2650      .8050      .7710      .0930     9.4210    74.1639    29.3220      .0510     2.1660
 6224.0000    44.7830   125.5879  1250.5508     1.2390      .8000      .7670      .0940     9.9080    76.3169    29.6370      .0470     2.1610
 6224.5000    44.3799   126.1270  1254.2520     1.2220      .7970      .7660      .0960     9.1890    77.8639    29.8700      .0450     2.1570
 6225.0000    44.6160   126.6859  1256.6738     1.2240      .7960      .7670      .0920     6.8710    78.3579    29.3020      .0620     2.1670
 6225.5000    45.0040   127.4459  1261.5410     1.2330      .7930      .7690      .0910    -2.5950    77.0289    29.2400      .0610     2.1680
 6226.0000    44.6960   128.2400  1260.6230     1.2450      .7930      .7730      .0910     7.9520    78.6890    29.2640      .0560     2.1670
 6226.5000    44.4890   128.5520  1254.4688     1.2620      .7970      .7740      .0910    11.0510    79.6069    29.2030      .0590     2.1680
 6227.0000    45.3580   128.4438  1246.9473     1.2720      .8020      .7730      .0890    10.4100    77.6709    28.8010      .0450     2.1750
 6227.5000    45.5690   127.9569  1238.0684     1.2600      .8080      .7720      .0890    10.3780    77.2319    28.6200      .0470     2.1780
 6228.0000    45.4620   127.1709  1233.8926     1.2340      .8100      .7730      .0940    10.6000    80.8059    29.4290      .0450     2.1640
 6228.5000    45.0670   126.6740  1236.9727     1.2200      .8080      .7750      .0940    10.8350    77.3949    29.3960      .0500     2.1650
 6229.0000    46.3740   126.4149  1246.4004     1.2370      .8020      .7750      .0900     9.9110    76.4480    29.0100      .0470     2.1710
 6229.5000    47.0940   126.0210  1257.6602     1.2590      .7950      .7680      .0920     9.6970    75.6470    29.3080      .0380     2.1660
 6230.0000    47.4980   125.5189  1266.1602     1.2470      .7900      .7620      .0930     9.9660    77.2109    29.6210      .0450     2.1610
 6230.5000    48.2760   125.4519  1275.5742     1.2270      .7840      .7540      .0930    10.4180    78.9490    29.7260      .0400     2.1590
 6231.0000    47.6830   125.9740  1288.6758     1.2320      .7760      .7460      .0890     9.9520    76.7019    29.2960      .0440     2.1670
 6231.5000    48.2960   126.6880  1301.2383     1.2300      .7680      .7410      .0890    10.3510    75.3190    29.3150      .0360     2.1660
 6232.0000    48.6370   127.4309  1307.0078     1.2050      .7650      .7400      .0890    11.4920    77.3009    29.4870      .0430     2.1640
 6232.5000    49.2280   127.9459  1313.9590     1.1830      .7610      .7410      .0910    11.0030    66.2439    29.8970      .0510     2.1570
 6233.0000    49.6580   128.1128  1325.1738     1.1870      .7550      .7410      .0940    10.7180    60.1080    30.3720      .0360     2.1490
 6233.5000    49.0210   128.3459  1337.7949     1.2110      .7480      .7390      .0910    10.7300    58.5000    30.0840      .0490     2.1540
 6234.0000    48.3120   128.6658  1346.6465     1.2280      .7430      .7360      .0900    10.6150    58.0550    29.9500      .0450     2.1560
 6234.5000    47.7100   128.5588  1352.7012     1.2280      .7390      .7310      .0870    10.0240    56.6479    29.5900      .0480     2.1620
 6235.0000    47.4200   128.0908  1359.7148     1.2200      .7350      .7250      .0910    10.4430    59.3069    30.3530      .0400     2.1490
 6235.5000    46.4500   127.8250  1368.0469     1.1920      .7310      .7210      .0960    11.0850    59.5810    31.1270      .0360     2.1360
 6236.0000    47.0140   128.1499  1373.3145     1.1790      .7280      .7190      .0950    11.1240    58.7840    31.0930      .0530     2.1370
 6236.5000    46.0439   128.7400  1380.3242     1.1810      .7250      .7190      .0980    11.5670    57.9709    31.5600      .0410     2.1290
 6237.0000    45.9969   129.5178  1384.3516     1.1880      .7220      .7230      .0970    10.9630    61.7590    31.4610      .0300     2.1310
 6237.5000    46.1490   130.2168  1378.5273     1.1950      .7250      .7300      .0950    10.5910    68.5580    31.0480      .0510     2.1380
 6238.0000    45.6380   130.0540  1361.7773     1.1970      .7340      .7420      .0940    10.7720    86.8290    30.7430      .0530     2.1430
 6238.5000    45.0020   129.5178  1339.6563     1.2100      .7470      .7560      .0980    10.6570   128.1868    31.1960      .0490     2.1350
 6239.0000    44.7370   128.6709  1315.3770     1.2450      .7600      .7710      .1030     9.9760   192.6658    31.6450      .0480     2.1280
 6239.5000    44.2180   127.2909  1285.3613     1.2690      .7780      .7840      .1020     9.9440   275.6177    31.1660      .0610     2.1360
 6240.0000    42.8970   126.3560  1245.9375     1.2650      .8030      .7990      .1080     9.9120   330.0757    31.4600      .0520     2.1310
 6240.5000    42.2590   126.1439  1205.4863     1.2620      .8300      .8180      .1060     9.4800   279.8398    30.8220      .0540     2.1410
 6241.0000    41.5240   126.3080  1167.2422     1.2650      .8570      .8400      .1080     8.7940   170.0059    30.5330      .0420     2.1460
 6241.5000    40.4560   126.6310  1133.9902     1.2550      .8820      .8690      .1140     8.4060   103.8999    30.8870      .0420     2.1400
 6242.0000    39.2729   126.8369  1116.4453     1.2600      .8960      .8920      .1100     7.8530    75.6740    30.2440      .0690     2.1510
 6242.5000    40.1910   124.3970  1108.4043     1.4060      .9020      .8930      .1060     6.0840    66.0359    29.6160      .0580     2.1610
