~VERSION INFORMATION
VERS.                             2.0:   CWLS Log ASCII Standard-VERSION 2.0
WRAP.                              NO:   One line per depth step
~Well Information Block
STRT.F                      4703.0000:   Top Depth
STOP.F                      9304.5000:   Bottom Depth
STEP.F                         .50000:   Depth Increment
NULL.                        -999.250:   Null Value
FLD .                      BA BLK 399:   Field Name
WELL.       OCSG07218  A003 ST00 BP00:   NAME
API .                  42704403090000:   WELL API
EDF .F                       113.0000:   ELEV DRILL FLOOR
COMP.       SEAGULL ENERGY E AND P IN:   OPERATOR
EGL .F                       -62.0000:   ELEV GROUND LEVEL
EKB .F                       114.0000:   ELEV KELLY BUSHING
TDD .F                      9314.0000:   FINAL TD DRILLER
UWI .                  42704403090000:   WELL API
DICO.               IHS : Digitizing Company
~PARAMETER INFORMATION (zones)
#MNEM.UNIT                       Value     Description
#=========                       =====     ===========
#ZONATION                          CNL:   ZONATION NAME
#ZONE                            RUN_1:   ZONE NAME
TOP .                       4703.0000:   TOP DEPTH
BOT .                       9200.5000:   BOTTOM DEPTH
RUN .                               1:   RUN NUMBER
LCCD.                             510:   LOGGING CONTRACTOR
SRVC.                   Western Atlas:   LOGGING CONT NAME
DICO.          QC Data Collectors Ltd:   DIG COMPANY NAME
LDAT.                      03/24/1997:   DATE LOGGED
TDD .F                      9314.0000:   TOTAL DEPTH DRILLER
TDL .F                      9307.0000:   TOTAL DEPTH LOGGER
BOTL.F                      9305.0000:   BOTTOM DEPTH LOGGED
TOPL.F                      4703.0000:   TOP DEPTH LOGGED
CS1 .                         10.7500:   CASING SIZE 1
BS1 .                          9.8750:   BIT SIZE 1
DDB1.F                      9314.0000:   DEPTH DRILLED BIT 1
BHF .                              99:   FLUID CODE
DPT .                   Miscellaneous:   DRILLING FLUID TYPE
MUDD.                         11.5000:   FLUID DENSITY
MUDV.                         41.0000:   FLUID VISCOSITY
DFPH.                         10.2000:   FLUID PH
FL  .                          5.0000:   FLUID LOSS
RM  .OHMM                      1.1200:   RM
RMT .DEGF                     75.0000:   RM TEMP
RMF .OHMM                       .8300:   RMF
RMFT.DEGF                     75.0000:   RMF TEMP
FSC .                               M:   RMF CODE
RMC .OHMM                      1.4600:   RMC
RMCT.DEGF                     75.0000:   RMC TEMP
CMC .                               M:   RMC CODE
TMAX.DEGF                    181.0000:   MAX REC TEMP
TIMC.                         24.0000:   TIME SINCE CIRCLN
SON .                          173943:   SERVICE ORDER NUM
LMF .                             MSL:   LOGS MEAS FROM
MUDS.                             PIT:   MUD SOURCE
ENG .                         HADSALL:   ENGINEER
WIT .                        FONTENOT:   WITNESS
~PARAMETER INFORMATION (zones)
#MNEM.UNIT                       Value     Description
#=========                       =====     ===========
#ZONATION                          DAL:   ZONATION NAME
#ZONE                            RUN_1:   ZONE NAME
TOP .                       4703.0000:   TOP DEPTH
BOT .                       9242.5000:   BOTTOM DEPTH
RUN .                               1:   RUN NUMBER
LCCD.                             510:   LOGGING CONTRACTOR
SRVC.                   Western Atlas:   LOGGING CONT NAME
DICO.          QC Data Collectors Ltd:   DIG COMPANY NAME
LDAT.                      03/24/1997:   DATE LOGGED
TDD .F                      9314.0000:   TOTAL DEPTH DRILLER
TDL .F                      9307.0000:   TOTAL DEPTH LOGGER
BOTL.F                      9305.0000:   BOTTOM DEPTH LOGGED
TOPL.F                      4703.0000:   TOP DEPTH LOGGED
CS1 .                         10.7500:   CASING SIZE 1
BS1 .                          9.8750:   BIT SIZE 1
DDB1.F                      9314.0000:   DEPTH DRILLED BIT 1
BHF .                              99:   FLUID CODE
DPT .                   Miscellaneous:   DRILLING FLUID TYPE
MUDD.                         11.5000:   FLUID DENSITY
MUDV.                         41.0000:   FLUID VISCOSITY
DFPH.                         10.2000:   FLUID PH
FL  .                          5.0000:   FLUID LOSS
RM  .OHMM                      1.1200:   RM
RMT .DEGF                     75.0000:   RM TEMP
RMF .OHMM                       .8300:   RMF
RMFT.DEGF                     75.0000:   RMF TEMP
FSC .                               M:   RMF CODE
RMC .OHMM                      1.4600:   RMC
RMCT.DEGF                     75.0000:   RMC TEMP
CMC .                               M:   RMC CODE
TMAX.DEGF                    181.0000:   MAX REC TEMP
TIMC.                         24.0000:   TIME SINCE CIRCLN
SON .                          173943:   SERVICE ORDER NUM
LMF .                             MSL:   LOGS MEAS FROM
MUDS.                             PIT:   MUD SOURCE
ENG .                         HADSALL:   ENGINEER
WIT .                        FONTENOT:   WITNESS
~PARAMETER INFORMATION (zones)
#MNEM.UNIT                       Value     Description
#=========                       =====     ===========
#ZONATION                          DIL:   ZONATION NAME
#ZONE                            RUN_1:   ZONE NAME
TOP .                       4703.0000:   TOP DEPTH
BOT .                       9305.5000:   BOTTOM DEPTH
RUN .                               1:   RUN NUMBER
LCCD.                             510:   LOGGING CONTRACTOR
SRVC.                   Western Atlas:   LOGGING CONT NAME
DICO.          QC Data Collectors Ltd:   DIG COMPANY NAME
LDAT.                      03/24/1997:   DATE LOGGED
TDD .F                      9314.0000:   TOTAL DEPTH DRILLER
TDL .F                      9307.0000:   TOTAL DEPTH LOGGER
BOTL.F                      9305.0000:   BOTTOM DEPTH LOGGED
TOPL.F                      4703.0000:   TOP DEPTH LOGGED
CS1 .                         10.7500:   CASING SIZE 1
BS1 .                          9.8750:   BIT SIZE 1
DDB1.F                      9314.0000:   DEPTH DRILLED BIT 1
BHF .                              99:   FLUID CODE
DPT .                   Miscellaneous:   DRILLING FLUID TYPE
MUDD.                         11.5000:   FLUID DENSITY
MUDV.                         41.0000:   FLUID VISCOSITY
DFPH.                         10.2000:   FLUID PH
FL  .                          5.0000:   FLUID LOSS
RM  .OHMM                      1.1200:   RM
RMT .DEGF                     75.0000:   RM TEMP
RMF .OHMM                       .8300:   RMF
RMFT.DEGF                     75.0000:   RMF TEMP
FSC .                               M:   RMF CODE
RMC .OHMM                      1.4600:   RMC
RMCT.DEGF                     75.0000:   RMC TEMP
CMC .                               M:   RMC CODE
TMAX.DEGF                    181.0000:   MAX REC TEMP
TIMC.                         24.0000:   TIME SINCE CIRCLN
SON .                          173943:   SERVICE ORDER NUM
LMF .                             MSL:   LOGS MEAS FROM
MUDS.                             PIT:   MUD SOURCE
ENG .                         HADSALL:   ENGINEER
WIT .                        FONTENOT:   WITNESS
~PARAMETER INFORMATION (zones)
#MNEM.UNIT                       Value     Description
#=========                       =====     ===========
#ZONATION                          FDC:   ZONATION NAME
#ZONE                            RUN_1:   ZONE NAME
TOP .                       4703.0000:   TOP DEPTH
BOT .                       9228.5000:   BOTTOM DEPTH
RUN .                               1:   RUN NUMBER
LCCD.                             510:   LOGGING CONTRACTOR
SRVC.                   Western Atlas:   LOGGING CONT NAME
DICO.          QC Data Collectors Ltd:   DIG COMPANY NAME
LDAT.                      03/24/1997:   DATE LOGGED
TDD .F                      9314.0000:   TOTAL DEPTH DRILLER
TDL .F                      9307.0000:   TOTAL DEPTH LOGGER
BOTL.F                      9305.0000:   BOTTOM DEPTH LOGGED
TOPL.F                      4703.0000:   TOP DEPTH LOGGED
CS1 .                         10.7500:   CASING SIZE 1
BS1 .                          9.8750:   BIT SIZE 1
DDB1.F                      9314.0000:   DEPTH DRILLED BIT 1
BHF .                              99:   FLUID CODE
DPT .                   Miscellaneous:   DRILLING FLUID TYPE
MUDD.                         11.5000:   FLUID DENSITY
MUDV.                         41.0000:   FLUID VISCOSITY
DFPH.                         10.2000:   FLUID PH
FL  .                          5.0000:   FLUID LOSS
RM  .OHMM                      1.1200:   RM
RMT .DEGF                     75.0000:   RM TEMP
RMF .OHMM                       .8300:   RMF
RMFT.DEGF                     75.0000:   RMF TEMP
FSC .                               M:   RMF CODE
RMC .OHMM                      1.4600:   RMC
RMCT.DEGF                     75.0000:   RMC TEMP
CMC .                               M:   RMC CODE
TMAX.DEGF                    181.0000:   MAX REC TEMP
TIMC.                         24.0000:   TIME SINCE CIRCLN
SON .                          173943:   SERVICE ORDER NUM
LMF .                             MSL:   LOGS MEAS FROM
MUDS.                             PIT:   MUD SOURCE
ENG .                         HADSALL:   ENGINEER
WIT .                        FONTENOT:   WITNESS
~Curve Information Block
#MNEM.UNIT                    API CODE    No Description
#=========                    ========    == ===========
DEPT.F                   00 001 00 00:     1  DEPTH
CNCF.%                               :     2  Field Normalized CNC
DT24.US/F                            :     3  Unrecognised
CILD.MMHO                            :     4  Deep Induction Conductivity
RFOC.OHMM                            :     5  Medium Resistivity
RILD.OHMM                            :     6  Deep Resistivity
RILM.OHMM                            :     7  Medium Resistivity
RWAZ.OHMM                            :     8  Unrecognised
SP.MV                                :     9  Spontaneous Potential
GR.GAPI                              :    10  Gamma Ray
PORZ.%                               :    11  Neutron Porosity
ZCOR.G/C3                            :    12  Density Correction
ZDEN.G/C3                            :    13  Bulk Density
~ASCII
 4703.0000    54.4399   108.2200  3948.6875     1.1110      .2530      .2860      .1640   280.9966    25.7480    65.4719     -.1360     1.5700
 4703.5000    54.3719   107.1559  4127.4687     1.1060      .2420      .2920      .1540   282.0469    29.3110    64.8589     -.1390     1.5800
 4704.0000    54.0099   105.7219  4142.6641     1.0860      .2410      .2890      .1430   282.9790    30.9330    62.7960     -.1300     1.6140
 4704.5000    53.2590   105.7529  4013.5742     1.0100      .2490      .2880      .1250   283.3579    28.6240    58.0779     -.0900     1.6920
 4705.0000    52.9319   105.7500  3985.5625      .9450      .2510      .3060      .1190   283.1157    31.8630    56.5890     -.0450     1.7160
 4705.5000    52.2360   105.7500  4001.7578      .9500      .2500      .3230      .1230   282.6929    34.0210    57.6020     -.0400     1.7000
 4706.0000    48.7750   105.7500  4015.3398      .9690      .2490      .3200      .1030   281.6328    33.6980    53.1860     -.0060     1.7720
 4706.5000    49.4180   105.7469  4022.0352      .9800      .2490      .3120      .0770   281.6069    34.9630    46.3100      .0150     1.8860
 4707.0000    48.5439   105.7780  4078.5859     1.0020      .2450      .2990      .0550   281.1157    36.0720    39.9730      .0330     1.9900
 4707.5000    47.2590   105.4359  4170.5078     1.0190      .2400      .2870      .0410   280.8906    37.0699    35.4290      .0470     2.0650
 4708.0000    43.2430   104.0890  4242.5937     1.0200      .2360      .2750      .0350   281.3726    35.8080    33.0450      .0440     2.1050
 4708.5000    40.1310   103.0559  4268.7187      .9560      .2340      .2630      .0350   281.8506    33.3230    33.2320      .0490     2.1020
 4709.0000    39.3450   103.0299  4100.8750      .7790      .2440      .2580      .0410   285.1040    34.1760    34.9900      .0410     2.0730
 4709.5000    38.0340   104.0800  3943.5859      .6440      .2540      .2580      .0440   287.2788    30.6450    35.3220      .0440     2.0670
 4710.0000    37.4330   106.9290  3943.2109      .6250      .2540      .2600      .0440   286.5669    32.4600    35.3690      .0390     2.0660
 4710.5000    35.5320   109.9290  4000.7266      .6690      .2500      .2590      .0470   284.4746    35.4620    36.6140      .0010     2.0460
 4711.0000    35.4529   111.8419  4048.9375      .7300      .2470      .2570      .0410   283.2446    37.5740    34.8820      .0020     2.0740
 4711.5000    35.0580   112.9690  4131.2422      .7540      .2420      .2540      .0370   282.9580    35.7140    33.3310      .0070     2.1000
 4712.0000    36.1780   112.9500  4226.2266      .6930      .2370      .2510      .0370   283.7676    34.2159    33.6910      .0160     2.0940
 4712.5000    38.1700   111.6399  4270.7969      .6330      .2340      .2500      .0390   284.7358    34.0290    34.9650      .0130     2.0730
 4713.0000    37.6020   109.0680  4248.5859      .6200      .2350      .2510      .0400   287.5127    35.9720    35.1370      .0080     2.0700
 4713.5000    36.9680   104.7000  4122.7109      .6140      .2430      .2560      .0420   291.0220    32.9130    35.2599      .0050     2.0680
 4714.0000    37.2480   100.3440  3833.9727      .6050      .2610      .2720      .0420   294.8428    31.1390    34.3730      .0260     2.0830
 4714.5000    37.1600    97.1809  3471.2461      .5660      .2880      .3060      .0480   298.3818    31.1080    34.8250      .0280     2.0750
 4715.0000    37.2000    95.0449  3205.7812      .5500      .3120      .3570      .0520   299.7778    32.4529    34.6670      .0140     2.0780
 4715.5000    36.5210    96.3789  3073.6094      .7560      .3250      .3990      .0520   297.1978    36.8700    34.1689      .0210     2.0860
 4716.0000    36.4220   100.0509  3029.1172     1.3680      .3300      .4040      .0540   293.0420    34.9059    34.5990     -.0140     2.0790
 4716.5000    35.8660   103.5780  2954.4961     1.5630      .3380      .3870      .0550   289.6719    34.5740    34.4890      .0030     2.0810
 4717.0000    35.9980   107.2410  2811.0703     1.1430      .3560      .3710      .0690   276.6836    34.8290    37.4430     -.0160     2.0320
 4717.5000    34.4090   110.0599  2687.6875      .9180      .3720      .3630      .0700    93.0559    33.5460    36.9010     -.0030     2.0410
 4718.0000    37.1960   110.4989  2664.1289      .8560      .3750      .3620      .0650   -37.9230    34.3660    35.3060      .0130     2.0670
 4718.5000    41.7180   108.9430  2679.3438      .8770      .3730      .3710      .0650   -44.2079    33.2280    35.6150      .0010     2.0620
 4719.0000    39.4760   106.7329  2648.8945      .9170      .3770      .3980      .0660   -48.2660    36.9390    35.5410      .0000     2.0640
 4719.5000    32.6520   102.0599  2545.9844      .9790      .3930      .4420      .0670   -46.4080    35.2150    35.2580      .0020     2.0680
 4720.0000    31.5300    94.3839  2343.6445     1.0950      .4270      .4930      .0750   -46.5090    37.0300    35.5970      .0030     2.0630
 4720.5000    32.4410    85.3539  2192.9922     1.2020      .4560      .5300      .0780   -45.8600    38.1250    35.1450      .0180     2.0700
 4721.0000    28.9280    77.3090  2106.0156     1.2710      .4750      .5310      .0920   -46.2500    37.5250    37.3260     -.0080     2.0340
 4721.5000    26.3210    73.0179  2094.7969     1.3700      .4770      .4980      .0930   -49.3340    37.9820    37.4250     -.0080     2.0330
 4722.0000    29.5260    72.3529  2214.5664     1.3620      .4520      .4510      .0930   -52.3100    38.7500    38.3539      .0000     2.0170
 4722.5000    31.2740    75.2939  2464.1523     1.2020      .4060      .3910      .0810   -53.9789    38.0820    37.9319      .0050     2.0240
 4723.0000    33.1150    78.9390  2803.9297     1.0830      .3570      .3420      .0650   -56.4960    40.9250    36.2820      .0290     2.0510
 4723.5000    33.5490    80.8319  3232.6328     1.0530      .3090      .3070      .0530   -56.1819    46.0099    35.2209      .0140     2.0690
 4724.0000    32.7800    83.0079  3636.2695     1.0460      .2750      .2880      .0470   -57.7990    44.7830    35.0950      .0010     2.0710
 4724.5000    33.8310    84.8450  3893.5117     1.0040      .2570      .2770      .0460   -57.0150    41.3660    35.9360     -.0050     2.0570
 4725.0000    36.5820    85.6270  4026.9453      .9690      .2480      .2720      .0430   -56.0880    40.7209    35.3350      .0160     2.0670
 4725.5000    35.2820    86.1790  4064.5664      .9810      .2460      .2710      .0430   -55.5110    43.5710    35.6550      .0320     2.0620
 4726.0000    34.0250    84.8450  4043.2344     1.0180      .2470      .2700      .0450   -57.7650    41.6210    36.0779      .0060     2.0550
 4726.5000    34.9290    82.0420  4007.0898     1.0160      .2500      .2690      .0470   -55.3210    41.6100    36.8560      .0080     2.0420
 4727.0000    35.6030    79.0370  3941.6484      .9410      .2540      .2680      .0510   -52.4590    42.8160    37.8409     -.0040     2.0260
 4727.5000    36.5380    75.1379  3882.6914      .8610      .2580      .2680      .0500   -54.0049    41.2729    37.2289      .0100     2.0360
 4728.0000    36.5380    72.0349  3858.3203      .8360      .2590      .2660      .0490   -54.4700    33.6470    36.9540      .0230     2.0400
 4728.5000    37.9150    70.2510  3860.8672      .8250      .2590      .2630      .0480   -53.7980    28.6770    36.3990      .0180     2.0490
 4729.0000    37.1000    68.8350  3872.1055      .8030      .2580      .2600      .0490   -52.5980    27.7250    37.1100      .0000     2.0380
 4729.5000    36.7120    68.2579  3876.9844      .7840      .2580      .2570      .0490   -52.3199    24.6400    36.9420     -.0080     2.0400
 4730.0000    34.0350    68.2469  3876.0117      .7720      .2580      .2550      .0460   -51.6100    25.6850    35.8700      .0180     2.0580
 4730.5000    32.0210    68.2500  3868.9844      .7540      .2590      .2540      .0450   -50.9690    25.0510    35.4440      .0090     2.0650
