~VERSION INFORMATION
VERS.                             2.0:   CWLS Log ASCII Standard-VERSION 2.0
WRAP.                              NO:   One line per depth step
~Well Information Block
STRT.F                      3120.0000:   Top Depth
STOP.F                     12040.0000:   Bottom Depth
STEP.F                         .50000:   Depth Increment
NULL.                        -999.250:   Null Value
FLD .                      GA BLK 254:   Field Name
WELL.       OCSG01776   001 ST00 BP00:   NAME
API .                    42706300290000:   WELL API
R1  .                      SUN OIL CO:   COMMENT  1
EDF .F                        57.0000:   ELEV DRILL FLOOR
COMP.                      SUN OIL CO:   OPERATOR
BN  .                             254:   BLOCK
CTRY.                             USA:   COUNTRY NAME
CNTY.                              GA:   COUNTY
CNTY.                        GLVSTN L:   COUNTY NAME
EKB .F                        58.0000:   ELEV KELLY BUSHING
TDD .F                      12003.000:   FINAL TD DRILLER
STAT.                           TEXAS:   STATE NAME
UWI .                    42706300290000:   WELL API
DICO.               IHS : Digitizing Company
~PARAMETER INFORMATION (zones)
#MNEM.UNIT                       Value     Description
#=========                       =====     ===========
#ZONATION                           IE:   ZONATION NAME
#ZONE                            RUN_2:   ZONE NAME
TOP .                       7847.0000:   TOP DEPTH
BOT .                      10079.0000:   BOTTOM DEPTH
RUN .                               2:   RUN NUMBER
LCCD.                             440:   LOGGING CONTRACTOR
SRVC.                    Schlumberger:   LOGGING CONT NAME
DICO.          QC Data Collectors Ltd:   DIG COMPANY NAME
LDAT.                      11/28/1970:   DATE LOGGED
ELD .F                        58.0000:   LOG DATUM ELEVATION
TDD .F                     10076.0000:   TOTAL DEPTH DRILLER
TDL .F                     10080.0000:   TOTAL DEPTH LOGGER
BOTL.F                     10079.0000:   BOTTOM DEPTH LOGGED
TOPL.F                      7847.0000:   TOP DEPTH LOGGED
CS1 .IN                        9.6250:   CASING SIZE 1
BS1 .IN                        8.5000:   BIT SIZE 1
DDB1.F                     10076.0000:   DEPTH DRILLED BIT 1
BHF .                              99:   FLUID CODE
DPT .                   Miscellaneous:   DRILLING FLUID TYPE
MUDD.                         15.4000:   FLUID DENSITY
MUDV.                         48.0000:   FLUID VISCOSITY
DFPH.                         11.5000:   FLUID PH
FL  .                          3.2000:   FLUID LOSS
RM  .OHMM                       .8400:   RM
RMT .DEGF                     75.0000:   RM TEMP
RMF .OHMM                       .4600:   RMF
RMFT.DEGF                     75.0000:   RMF TEMP
FSC .                               M:   RMF CODE
RMC .OHMM                      1.3100:   RMC
RMCT.DEGF                     75.0000:   RMC TEMP
CMC .                               C:   RMC CODE
TMAX.DEGF                    202.0000:   MAX REC TEMP
TIMC.                          3.5000:   TIME SINCE CIRCLN
~PARAMETER INFORMATION (zones)
#MNEM.UNIT                       Value     Description
#=========                       =====     ===========
#ZONATION                           IE:   ZONATION NAME
#ZONE                            RUN_3:   ZONE NAME
TOP .                      10074.0000:   TOP DEPTH
BOT .                      12002.0000:   BOTTOM DEPTH
RUN .                               3:   RUN NUMBER
LCCD.                             440:   LOGGING CONTRACTOR
SRVC.                    Schlumberger:   LOGGING CONT NAME
DICO.          QC Data Collectors Ltd:   DIG COMPANY NAME
LDAT.                      12/17/1970:   DATE LOGGED
ELD .F                        58.0000:   LOG DATUM ELEVATION
TDD .F                     12000.0000:   TOTAL DEPTH DRILLER
TDL .F                     12003.0000:   TOTAL DEPTH LOGGER
BOTL.F                     12002.0000:   BOTTOM DEPTH LOGGED
TOPL.F                     10074.0000:   TOP DEPTH LOGGED
CS1 .IN                        7.6250:   CASING SIZE 1
BS1 .IN                        6.5000:   BIT SIZE 1
DDB1.F                     12000.0000:   DEPTH DRILLED BIT 1
BHF .                              99:   FLUID CODE
DPT .                   Miscellaneous:   DRILLING FLUID TYPE
MUDD.                         15.9000:   FLUID DENSITY
MUDV.                         48.0000:   FLUID VISCOSITY
DFPH.                         12.0000:   FLUID PH
FL  .                          3.0000:   FLUID LOSS
RM  .OHMM                      1.0500:   RM
RMT .DEGF                     70.0000:   RM TEMP
RMF .OHMM                       .5100:   RMF
RMFT.DEGF                     70.0000:   RMF TEMP
FSC .                               M:   RMF CODE
RMC .OHMM                      1.3000:   RMC
RMCT.DEGF                     70.0000:   RMC TEMP
CMC .                               C:   RMC CODE
TMAX.DEGF                    240.0000:   MAX REC TEMP
TIMC.                          5.0000:   TIME SINCE CIRCLN
~PARAMETER INFORMATION (zones)
#MNEM.UNIT                       Value     Description
#=========                       =====     ===========
#ZONATION                           IE:   ZONATION NAME
#ZONE                            RUN_1:   ZONE NAME
TOP .                       3120.0000:   TOP DEPTH
BOT .                      12002.5000:   BOTTOM DEPTH
RUN .                               1:   RUN NUMBER
LCCD.                             440:   LOGGING CONTRACTOR
SRVC.                    Schlumberger:   LOGGING CONT NAME
DICO.          QC Data Collectors Ltd:   DIG COMPANY NAME
LDAT.                      11/19/1970:   DATE LOGGED
ELD .F                        58.0000:   LOG DATUM ELEVATION
TDD .F                      7850.0000:   TOTAL DEPTH DRILLER
TDL .F                      7847.0000:   TOTAL DEPTH LOGGER
BOTL.F                      7847.0000:   BOTTOM DEPTH LOGGED
TOPL.F                      3120.0000:   TOP DEPTH LOGGED
CS1 .IN                       13.3750:   CASING SIZE 1
BS1 .IN                       12.2500:   BIT SIZE 1
DDB1.F                      7850.0000:   DEPTH DRILLED BIT 1
BHF .                              99:   FLUID CODE
DPT .                   Miscellaneous:   DRILLING FLUID TYPE
MUDD.                         12.5000:   FLUID DENSITY
MUDV.                         46.0000:   FLUID VISCOSITY
DFPH.                         10.5000:   FLUID PH
FL  .                          4.0000:   FLUID LOSS
RM  .OHMM                       .7900:   RM
RMT .DEGF                     80.0000:   RM TEMP
RMF .OHMM                       .5200:   RMF
RMFT.DEGF                     75.0000:   RMF TEMP
FSC .                               M:   RMF CODE
RMC .OHMM                      1.2300:   RMC
RMCT.DEGF                     75.0000:   RMC TEMP
CMC .                               M:   RMC CODE
TMAX.DEGF                    152.0000:   MAX REC TEMP
TIMC.                          4.0000:   TIME SINCE CIRCLN
~Curve Information Block
#MNEM.UNIT         API  CODE                       CURVE DESCRIPTION
#---------        ------------                    --------------------
 DEPT.F           00 001 00 00                    :1   DEPTH
 C1-3.IN          00 000 00 00                    :2
 C2-4.IN          00 000 00 00                    :3
 CALI.IN          00 000 00 00                    :4   Density Caliper
 CILD.MMHO        00 000 00 00                    :5   Deep Induction Conductivity
 CORR.G/CC        00 000 00 00                    :6   Density Correction
 DT  .US/FT       00 000 00 00                    :7   Delta-T Compressional
 GR  .API         00 000 00 00                    :8   Gamma Ray
 ILD .OHMM        00 000 00 00                    :9   Induction Deep Resistivity
 IND .OHMM        00 000 00 00                    :10
 RHOB.G/CC        00 000 00 00                    :11  Bulk Density
 SN16.OHMM        00 000 00 00                    :12  Short Normal 16 Inch
 SP  .MV          00 000 00 00                    :13  Spontaneous Potential
~A    DEPT        C1-3        C2-4        CALI        CILD        CORR          DT          GR         ILD         IND        RHOB        SN16          SP
# ...
   7327.5000     12.4400     12.1200   -999.2500   1393.8398   -999.2500    108.5000   -999.2500      0.7601      0.8200   -999.2500      0.8980    -18.2353
   7328.0000     12.4400     12.0400   -999.2500   1385.3320   -999.2500    110.0980   -999.2500      0.7491      0.8400   -999.2500      0.9061    -20.2000
   7328.5000     12.4865     12.0055   -999.2500   1376.8242   -999.2500    111.0784   -999.2500      0.7397      0.8400   -999.2500      0.9061    -20.4000
   7329.0000     12.6159     11.9758   -999.2500   1363.2383   -999.2500    111.1765   -999.2500      0.7449      0.8400   -999.2500      0.9020    -18.2353
   7329.5000     12.6652     11.9868   -999.2500   1348.1016   -999.2500    110.4902   -999.2500      0.7501      0.8600   -999.2500      0.9061    -15.0980
   7330.0000     12.7563     12.0762   -999.2500   1332.9902   -999.2500    109.5000   -999.2500      0.7553      0.8600   -999.2500      0.9143    -13.5294
   7330.5000     12.7555     12.1989   -999.2500   1320.0254   -999.2500    109.2869   -999.2500      0.7605      0.8600   -999.2500      0.9145    -12.9412
   7331.0000     12.8269     12.2364   -999.2500   1309.9316   -999.2500    109.1595   -999.2500      0.7657      0.8600   -999.2500      0.9110    -11.7647
   7331.5000     12.8189     12.2341   -999.2500   1315.6719   -999.2500    110.1353   -999.2500      0.7709      0.8600   -999.2500      0.9154    -10.9804
   7332.0000     12.7339     12.2315   -999.2500   1329.4746   -999.2500    111.8048   -999.2500      0.7722      0.8600   -999.2500      0.9238    -10.3922
   7332.5000     12.6923     12.1923   -999.2500   1345.4102   -999.2500    113.2889   -999.2500      0.7723      0.8400   -999.2500      0.9280    -10.1961
   7333.0000     12.6538     12.1538   -999.2500   1367.6816   -999.2500    111.7860   -999.2500      0.7724      0.8400   -999.2500      0.9320    -10.0000
   7333.5000     12.6154     12.0769   -999.2500   1389.9551   -999.2500    111.4801   -999.2500      0.7725      0.8200   -999.2500      0.9320    -10.1961
   7334.0000     12.5769     12.0769   -999.2500   1412.2285   -999.2500    110.7858   -999.2500      0.7726      0.8000   -999.2500      0.9240    -10.7843
   7334.5000     12.5362     12.1101   -999.2500   1430.4629   -999.2500    108.2873   -999.2500      0.7700      0.8000   -999.2500      0.9120    -11.7647
   7335.0000     12.4917     12.1794   -999.2500   1446.1055   -999.2500    109.9619   -999.2500      0.7657      0.8000   -999.2500      0.9040    -12.7451
   7335.5000     12.4867     12.2501   -999.2500   1461.7246   -999.2500    112.9139   -999.2500      0.7613      0.7800   -999.2500      0.8960    -13.7255
   7336.0000     12.4816     12.2029   -999.2500   1467.7949   -999.2500    113.9021   -999.2500      0.7570      0.7800   -999.2500      0.8920    -14.1176
   7336.5000     12.4800     12.1200   -999.2500   1458.0801   -999.2500    114.3875   -999.2500      0.7527      0.7800   -999.2500      0.8960    -13.9216
   7337.0000     12.4800     12.0400   -999.2500   1448.3672   -999.2500    112.8758   -999.2500      0.7485      0.7800   -999.2500      0.8960    -13.7255
   7337.5000     12.4800     11.9615   -999.2500   1438.8047   -999.2500    111.2835   -999.2500      0.7464      0.7800   -999.2500      0.9000    -14.1176
   7338.0000     12.4800     12.0000   -999.2500   1434.0430   -999.2500    111.1783   -999.2500      0.7442      0.7800   -999.2500      0.8960    -14.1176
   7338.5000     12.4767     12.0398   -999.2500   1429.2754   -999.2500    111.9513   -999.2500      0.7421      0.7773   -999.2500      0.8840    -12.9412
   7339.0000     12.4720     12.0787   -999.2500   1424.5137   -999.2500    113.5178   -999.2500      0.7399      0.7718   -999.2500      0.8840    -11.3725
   7339.5000     12.4285     12.1169   -999.2500   1419.7520   -999.2500    113.6102   -999.2500      0.7378      0.7873   -999.2500      0.8960    -10.0000
   7340.0000     12.5410     11.9602   -999.2500   1414.9902   -999.2500    113.4029   -999.2500      0.7356      0.7818   -999.2500      0.9000     -9.4000
   7340.5000     12.6154     11.9200   -999.2500   1410.2207   -999.2500    112.8913   -999.2500      0.7335      0.7800   -999.2500      0.9000     -9.0000
   7341.0000     12.7692     11.9200   -999.2500   1405.4590   -999.2500    112.4802   -999.2500      0.7313      0.7800   -999.2500      0.8920     -9.0000
   7341.5000     12.8077     11.9200   -999.2500   1404.5332   -999.2500    112.7641   -999.2500      0.7292      0.7800   -999.2500      0.8840     -9.6000
   7342.0000     12.7692     12.0769   -999.2500   1407.2031   -999.2500    113.1434   -999.2500      0.7270      0.7800   -999.2500      0.8920    -10.0000
   7342.5000     12.6923     12.1538   -999.2500   1409.8750   -999.2500    113.8235   -999.2500      0.7255      0.7800   -999.2500      0.8960    -10.5882
   7343.0000     12.6923     12.3846   -999.2500   1412.5449   -999.2500    114.4118   -999.2500      0.7269      0.7800   -999.2500      0.8960    -11.5686
   7343.5000     12.6538     12.3462   -999.2500   1415.2148   -999.2500    114.7059   -999.2500      0.7284      0.7800   -999.2500      0.8960    -11.7647
   7344.0000     12.5769     12.1538   -999.2500   1417.8848   -999.2500    114.0196   -999.2500      0.7298      0.8000   -999.2500      0.8920    -11.7647
   7344.5000     12.5385     12.0769   -999.2500   1418.2930   -999.2500    111.7647   -999.2500      0.7313      0.8000   -999.2500      0.8880    -11.7647
   7345.0000     12.4615     12.1154   -999.2500   1417.9160   -999.2500    111.2745   -999.2500      0.7327      0.8000   -999.2500      0.8800    -11.5686
   7345.5000     12.5385     12.1154   -999.2500   1417.5391   -999.2500    111.5686   -999.2500      0.7342      0.8000   -999.2500      0.8760    -11.3725
   7346.0000     12.6154     12.1154   -999.2500   1417.1641   -999.2500    112.0588   -999.2500      0.7356      0.8000   -999.2500      0.8800    -11.1765
   7346.5000     12.7308     12.1923   -999.2500   1416.8672   -999.2500    113.2353   -999.2500      0.7370      0.8000   -999.2500      0.8920    -10.7843
   7347.0000     12.8077     12.1923   -999.2500   1416.7070   -999.2500    114.1176   -999.2500      0.7394      0.8000   -999.2500      0.8960    -10.5882
   7347.5000     13.0000     12.2308   -999.2500   1416.5449   -999.2500    112.9412   -999.2500      0.7443      0.8000   -999.2500      0.9000    -10.9804
   7348.0000     13.0800     12.2692   -999.2500   1416.3828   -999.2500    110.6863   -999.2500      0.7491      0.8200   -999.2500      0.9080    -11.1765
   7348.5000     13.1200     12.2692   -999.2500   1416.2227   -999.2500    110.2809   -999.2500      0.7540      0.8200   -999.2500      0.9000    -10.9833
   7349.0000     13.1200     12.2692   -999.2500   1415.4883   -999.2500    109.7638   -999.2500      0.7589      0.8200   -999.2500      0.8920    -10.5929
   7349.5000     13.1200     12.2692   -999.2500   1412.6367   -999.2500    110.1324   -999.2500      0.7637      0.8200   -999.2500      0.8920    -10.0000
   7350.0000     13.1600     12.2692   -999.2500   1409.7832   -999.2500    110.5082   -999.2500      0.7686      0.8200   -999.2500      0.9000    -10.5988
   7350.5000     13.2000     12.2647   -999.2500   1406.9297   -999.2500    110.3988   -999.2500      0.7735      0.8200   -999.2500      0.9034    -11.8234
   7351.0000     13.2400     12.2966   -999.2500   1404.0781   -999.2500    110.1984   -999.2500      0.7783      0.8200   -999.2500      0.8984    -12.4575
   7351.5000     13.2000     12.2898   -999.2500   1401.2246   -999.2500    111.2832   -999.2500      0.7832      0.8200   -999.2500      0.8855    -11.9079
   7352.0000     12.9602     12.2828   -999.2500   1398.3711   -999.2500    111.9646   -999.2500      0.7881      0.8400   -999.2500      0.8925    -11.7493
   7352.5000     12.7600     12.1600   -999.2500   1395.1113   -999.2500    112.2549   -999.2500      0.7930      0.8400   -999.2500      0.9040    -11.7647
