~VERSION INFORMATION
VERS.                             2.0:   CWLS Log ASCII Standard-VERSION 2.0
WRAP.                              NO:   One line per depth step
~Well Information Block
STRT.F                      4703.0000:   Top Depth
STOP.F                      9304.5000:   Bottom Depth
STEP.F                         .50000:   Depth Increment
NULL.                        -999.250:   Null Value
FLD .                      BA BLK 399:   Field Name
WELL.       OCSG07218  A003 ST00 BP00:   NAME
API .                  42704403090000:   WELL API
EDF .F                       113.0000:   ELEV DRILL FLOOR
COMP.       SEAGULL ENERGY E AND P IN:   OPERATOR
EGL .F                       -62.0000:   ELEV GROUND LEVEL
EKB .F                       114.0000:   ELEV KELLY BUSHING
TDD .F                      9314.0000:   FINAL TD DRILLER
UWI .                  42704403090000:   WELL API
DICO.               IHS : Digitizing Company
~PARAMETER INFORMATION (zones)
#MNEM.UNIT                       Value     Description
#=========                       =====     ===========
#ZONATION                          CNL:   ZONATION NAME
#ZONE                            RUN_1:   ZONE NAME
TOP .                       4703.0000:   TOP DEPTH
BOT .                       9200.5000:   BOTTOM DEPTH
RUN .                               1:   RUN NUMBER
LCCD.                             510:   LOGGING CONTRACTOR
SRVC.                   Western Atlas:   LOGGING CONT NAME
DICO.          QC Data Collectors Ltd:   DIG COMPANY NAME
LDAT.                      03/24/1997:   DATE LOGGED
TDD .F                      9314.0000:   TOTAL DEPTH DRILLER
TDL .F                      9307.0000:   TOTAL DEPTH LOGGER
BOTL.F                      9305.0000:   BOTTOM DEPTH LOGGED
TOPL.F                      4703.0000:   TOP DEPTH LOGGED
CS1 .                         10.7500:   CASING SIZE 1
BS1 .                          9.8750:   BIT SIZE 1
DDB1.F                      9314.0000:   DEPTH DRILLED BIT 1
BHF .                              99:   FLUID CODE
DPT .                   Miscellaneous:   DRILLING FLUID TYPE
MUDD.                         11.5000:   FLUID DENSITY
MUDV.                         41.0000:   FLUID VISCOSITY
DFPH.                         10.2000:   FLUID PH
FL  .                          5.0000:   FLUID LOSS
RM  .OHMM                      1.1200:   RM
RMT .DEGF                     75.0000:   RM TEMP
RMF .OHMM                       .8300:   RMF
RMFT.DEGF                     75.0000:   RMF TEMP
FSC .                               M:   RMF CODE
RMC .OHMM                      1.4600:   RMC
RMCT.DEGF                     75.0000:   RMC TEMP
CMC .                               M:   RMC CODE
TMAX.DEGF                    181.0000:   MAX REC TEMP
TIMC.                         24.0000:   TIME SINCE CIRCLN
SON .                          173943:   SERVICE ORDER NUM
LMF .                             MSL:   LOGS MEAS FROM
MUDS.                             PIT:   MUD SOURCE
ENG .                         HADSALL:   ENGINEER
WIT .                        FONTENOT:   WITNESS
~PARAMETER INFORMATION (zones)
#MNEM.UNIT                       Value     Description
#=========                       =====     ===========
#ZONATION                          DAL:   ZONATION NAME
#ZONE                            RUN_1:   ZONE NAME
TOP .                       4703.0000:   TOP DEPTH
BOT .                       9242.5000:   BOTTOM DEPTH
RUN .                               1:   RUN NUMBER
LCCD.                             510:   LOGGING CONTRACTOR
SRVC.                   Western Atlas:   LOGGING CONT NAME
DICO.          QC Data Collectors Ltd:   DIG COMPANY NAME
LDAT.                      03/24/1997:   DATE LOGGED
TDD .F                      9314.0000:   TOTAL DEPTH DRILLER
TDL .F                      9307.0000:   TOTAL DEPTH LOGGER
BOTL.F                      9305.0000:   BOTTOM DEPTH LOGGED
TOPL.F                      4703.0000:   TOP DEPTH LOGGED
CS1 .                         10.7500:   CASING SIZE 1
BS1 .                          9.8750:   BIT SIZE 1
DDB1.F                      9314.0000:   DEPTH DRILLED BIT 1
BHF .                              99:   FLUID CODE
DPT .                   Miscellaneous:   DRILLING FLUID TYPE
MUDD.                         11.5000:   FLUID DENSITY
MUDV.                         41.0000:   FLUID VISCOSITY
DFPH.                         10.2000:   FLUID PH
FL  .                          5.0000:   FLUID LOSS
RM  .OHMM                      1.1200:   RM
RMT .DEGF                     75.0000:   RM TEMP
RMF .OHMM                       .8300:   RMF
RMFT.DEGF                     75.0000:   RMF TEMP
FSC .                               M:   RMF CODE
RMC .OHMM                      1.4600:   RMC
RMCT.DEGF                     75.0000:   RMC TEMP
CMC .                               M:   RMC CODE
TMAX.DEGF                    181.0000:   MAX REC TEMP
TIMC.                         24.0000:   TIME SINCE CIRCLN
SON .                          173943:   SERVICE ORDER NUM
LMF .                             MSL:   LOGS MEAS FROM
MUDS.                             PIT:   MUD SOURCE
ENG .                         HADSALL:   ENGINEER
WIT .                        FONTENOT:   WITNESS
~PARAMETER INFORMATION (zones)
#MNEM.UNIT                       Value     Description
#=========                       =====     ===========
#ZONATION                          DIL:   ZONATION NAME
#ZONE                            RUN_1:   ZONE NAME
TOP .                       4703.0000:   TOP DEPTH
BOT .                       9305.5000:   BOTTOM DEPTH
RUN .                               1:   RUN NUMBER
LCCD.                             510:   LOGGING CONTRACTOR
SRVC.                   Western Atlas:   LOGGING CONT NAME
DICO.          QC Data Collectors Ltd:   DIG COMPANY NAME
LDAT.                      03/24/1997:   DATE LOGGED
TDD .F                      9314.0000:   TOTAL DEPTH DRILLER
TDL .F                      9307.0000:   TOTAL DEPTH LOGGER
BOTL.F                      9305.0000:   BOTTOM DEPTH LOGGED
TOPL.F                      4703.0000:   TOP DEPTH LOGGED
CS1 .                         10.7500:   CASING SIZE 1
BS1 .                          9.8750:   BIT SIZE 1
DDB1.F                      9314.0000:   DEPTH DRILLED BIT 1
BHF .                              99:   FLUID CODE
DPT .                   Miscellaneous:   DRILLING FLUID TYPE
MUDD.                         11.5000:   FLUID DENSITY
MUDV.                         41.0000:   FLUID VISCOSITY
DFPH.                         10.2000:   FLUID PH
FL  .                          5.0000:   FLUID LOSS
RM  .OHMM                      1.1200:   RM
RMT .DEGF                     75.0000:   RM TEMP
RMF .OHMM                       .8300:   RMF
RMFT.DEGF                     75.0000:   RMF TEMP
FSC .                               M:   RMF CODE
RMC .OHMM                      1.4600:   RMC
RMCT.DEGF                     75.0000:   RMC TEMP
CMC .                               M:   RMC CODE
TMAX.DEGF                    181.0000:   MAX REC TEMP
TIMC.                         24.0000:   TIME SINCE CIRCLN
SON .                          173943:   SERVICE ORDER NUM
LMF .                             MSL:   LOGS MEAS FROM
MUDS.                             PIT:   MUD SOURCE
ENG .                         HADSALL:   ENGINEER
WIT .                        FONTENOT:   WITNESS
~PARAMETER INFORMATION (zones)
#MNEM.UNIT                       Value     Description
#=========                       =====     ===========
#ZONATION                          FDC:   ZONATION NAME
#ZONE                            RUN_1:   ZONE NAME
TOP .                       4703.0000:   TOP DEPTH
BOT .                       9228.5000:   BOTTOM DEPTH
RUN .                               1:   RUN NUMBER
LCCD.                             510:   LOGGING CONTRACTOR
SRVC.                   Western Atlas:   LOGGING CONT NAME
DICO.          QC Data Collectors Ltd:   DIG COMPANY NAME
LDAT.                      03/24/1997:   DATE LOGGED
TDD .F                      9314.0000:   TOTAL DEPTH DRILLER
TDL .F                      9307.0000:   TOTAL DEPTH LOGGER
BOTL.F                      9305.0000:   BOTTOM DEPTH LOGGED
TOPL.F                      4703.0000:   TOP DEPTH LOGGED
CS1 .                         10.7500:   CASING SIZE 1
BS1 .                          9.8750:   BIT SIZE 1
DDB1.F                      9314.0000:   DEPTH DRILLED BIT 1
BHF .                              99:   FLUID CODE
DPT .                   Miscellaneous:   DRILLING FLUID TYPE
MUDD.                         11.5000:   FLUID DENSITY
MUDV.                         41.0000:   FLUID VISCOSITY
DFPH.                         10.2000:   FLUID PH
FL  .                          5.0000:   FLUID LOSS
RM  .OHMM                      1.1200:   RM
RMT .DEGF                     75.0000:   RM TEMP
RMF .OHMM                       .8300:   RMF
RMFT.DEGF                     75.0000:   RMF TEMP
FSC .                               M:   RMF CODE
RMC .OHMM                      1.4600:   RMC
RMCT.DEGF                     75.0000:   RMC TEMP
CMC .                               M:   RMC CODE
TMAX.DEGF                    181.0000:   MAX REC TEMP
TIMC.                         24.0000:   TIME SINCE CIRCLN
SON .                          173943:   SERVICE ORDER NUM
LMF .                             MSL:   LOGS MEAS FROM
MUDS.                             PIT:   MUD SOURCE
ENG .                         HADSALL:   ENGINEER
WIT .                        FONTENOT:   WITNESS
~Curve Information Block
#MNEM.UNIT                    API CODE    No Description
#=========                    ========    == ===========
DEPT.F                   00 001 00 00:     1  DEPTH
CNCF.%                               :     2  Field Normalized CNC
DT24.US/F                            :     3  Unrecognised
CILD.MMHO                            :     4  Deep Induction Conductivity
RFOC.OHMM                            :     5  Medium Resistivity
RILD.OHMM                            :     6  Deep Resistivity
RILM.OHMM                            :     7  Medium Resistivity
RWAZ.OHMM                            :     8  Unrecognised
SP.MV                                :     9  Spontaneous Potential
GR.GAPI                              :    10  Gamma Ray
PORZ.%                               :    11  Neutron Porosity
ZCOR.G/C3                            :    12  Density Correction
ZDEN.G/C3                            :    13  Bulk Density
~ASCII
# ...
 8315.0000    40.0519   109.1670  1057.1309     1.2830      .9460      .9060      .0580     3.0490   184.7129    21.9170      .0440     2.2880
 8315.5000    38.9529   111.1420  1069.9824     1.2530      .9350      .8950      .0570     2.7210   102.9230    21.8220      .0320     2.2900
 8316.0000    38.9600   112.8080  1088.4863     1.2530      .9190      .8820      .0600     2.5030    71.4349    22.5570      .0360     2.2780
 8316.5000    40.2240   113.7529  1103.4043     1.2310      .9060      .8730      .0660     2.4670    65.6110    23.6160      .0520     2.2600
 8317.0000    40.0330   112.7610  1112.7129     1.1850      .8990      .8690      .0580     2.3910    65.5619    22.4390      .0540     2.2800
 8317.5000    40.5260   110.9220  1120.1582     1.1810      .8930      .8660      .0540     2.3470    66.0599    21.7660      .0460     2.2910
 8318.0000    39.8480   108.8199  1128.0781     1.2390      .8870      .8610      .0550     2.5370    67.3550    21.9620      .0510     2.2880
 8318.5000    39.4100   107.5399  1130.3242     1.2690      .8850      .8590      .0550     2.5670    65.4810    21.9700      .0310     2.2870
 8319.0000    40.6710   108.4729  1121.1406     1.2500      .8920      .8610      .0530     2.3410    65.8400    21.4920      .0380     2.2950
 8319.5000    41.2100   110.0890  1113.5156     1.2380      .8980      .8620      .0540     2.7890    66.4819    21.6940      .0550     2.2920
 8320.0000    41.0020   111.3500  1119.0625     1.2280      .8940      .8590      .0560     2.0920    65.9120    22.1030      .0480     2.2850
 8320.5000    44.6370   112.6169  1125.6816     1.2300      .8880      .8570      .0570     2.3560    61.7670    22.3820      .0460     2.2810
 8321.0000    44.0950   113.9850  1132.0215     1.2250      .8830      .8560      .0590     2.2900    63.4130    22.7250      .0440     2.2750
 8321.5000    39.1620   115.1759  1140.4668     1.1990      .8770      .8580      .0600     1.8360    63.6720    22.9040      .0430     2.2720
 8322.0000    40.4360   115.3929  1139.8066     1.1870      .8770      .8620      .0610     1.9580    60.5660    23.2020      .0270     2.2670
 8322.5000    39.4460   113.3949  1133.2031     1.1980      .8820      .8680      .0580     1.4500    63.5620    22.6380      .0450     2.2760
 8323.0000    40.2790   110.1549  1125.0000     1.2150      .8890      .8800      .0580     1.8140    64.2909    22.5790      .0420     2.2770
 8323.5000    40.8600   106.9290  1103.0723     1.2290      .9070      .8950      .0600     1.6700    61.8230    22.6860      .0350     2.2760
 8324.0000    40.9650   103.6189  1078.7520     1.2450      .9270      .9090      .0530     1.4440    62.9300    21.1710      .0520     2.3010
 8324.5000    40.4360   100.2450  1066.8242     1.2710      .9370      .9160      .0500     1.2450    67.2219    20.4300      .0560     2.3130
 8325.0000    39.4789    98.3269  1064.2031     1.3400      .9400      .9140      .0500      .8260    65.9059    20.4120      .0420     2.3130
 8325.5000    39.4370    99.7450  1067.2637     1.3620      .9370      .9070      .0570      .1830    63.0519    21.8510      .0330     2.2890
 8326.0000    41.0569   104.3140  1066.9531     1.2600      .9370      .9050      .0640      .8620    61.9410    22.9120      .0450     2.2720
 8326.5000    42.4620   110.0520  1065.5996     1.1750      .9380      .9010      .0640     1.0310    62.7560    23.0520      .0460     2.2700
 8327.0000    43.3760   113.5879  1081.1328     1.1690      .9250      .8910      .0620      .8610    60.8160    22.7360      .0440     2.2750
 8327.5000    43.1390   113.1909  1108.5273     1.1960      .9020      .8830      .0580     1.0210    59.1460    22.3110      .0470     2.2820
 8328.0000    42.6180   110.2269  1123.3555     1.2260      .8900      .8780      .0560     1.1580    61.5860    22.1740      .0450     2.2840
 8328.5000    43.2980   107.8140  1126.5508     1.2310      .8880      .8740      .0560     1.2410    59.9390    22.1200      .0570     2.2850
 8329.0000    43.3600   107.0089  1123.3594     1.1950      .8900      .8700      .0550     1.4360    60.5750    21.9270      .0630     2.2880
 8329.5000    42.9820   106.2679  1116.1621     1.1800      .8960      .8650      .0570     1.5320    60.7050    22.2020      .0530     2.2840
 8330.0000    41.6089   106.1029  1120.8125     1.2050      .8920      .8590      .0650      .8090    60.5840    23.7170      .0300     2.2590
 8330.5000    41.3580   106.6189  1132.1484     1.2170      .8830      .8570      .0700     1.5450    57.9410    24.5640     -.0530     2.2450
 8331.0000    41.9839   107.7710  1138.1348     1.2080      .8790      .8550      .0670      .4740    59.1500    24.1360      .0290     2.2520
 8331.5000    43.1180   110.5249  1138.3789     1.1900      .8780      .8490      .0650     1.2030    62.2580    23.7830      .0430     2.2580
 8332.0000    43.3860   112.9550  1144.8730     1.1550      .8730      .8410      .0650     1.4550    59.4059    23.9510      .0530     2.2550
 8332.5000    44.0359   112.9230  1151.3848     1.1530      .8680      .8350      .0640      .9420    60.9900    23.7680      .0610     2.2580
 8333.0000    43.9020   112.3999  1159.4883     1.1760      .8620      .8280      .0610      .9300    62.0590    23.3310      .0380     2.2650
 8333.5000    43.4720   111.8500  1170.2520     1.1710      .8540      .8230      .0600     1.7420    59.2480    23.3080      .0490     2.2650
 8334.0000    43.9700   111.4779  1174.1953     1.1550      .8520      .8190      .0640     1.3750    60.4839    23.9800      .0410     2.2540
 8334.5000    43.3610   113.0229  1181.3809     1.1550      .8460      .8120      .0650     1.4120    63.6320    24.2710      .0460     2.2500
 8335.0000    42.1210   114.6339  1198.1758     1.1340      .8350      .8030      .0610     1.0810    60.1700    23.7030      .0540     2.2590
 8335.5000    43.1760   115.7599  1210.3906     1.1090      .8260      .7990      .0620      .2560    62.8799    23.9350      .0350     2.2550
 8336.0000    42.6769   116.9480  1219.8926     1.1030      .8200      .7970      .0660     1.2160    62.8010    24.7340      .0420     2.2420
 8336.5000    44.3940   118.0349  1226.2754     1.1030      .8160      .7980      .0640      .8800    67.1909    24.5540      .0470     2.2450
 8337.0000    45.6100   118.8069  1224.6660     1.1090      .8170      .8030      .0640     -.6200    62.9560    24.5020      .0300     2.2460
 8337.5000    45.2380   118.9569  1224.0625     1.1350      .8170      .8100      .0600     -.0460    60.0730    23.8060      .0550     2.2570
 8338.0000    43.3830   120.1489  1218.6621     1.1550      .8210      .8170      .0580     -.5550    57.4030    23.2500      .0480     2.2660
 8338.5000    42.6080   121.1489  1205.1953     1.1540      .8300      .8270      .0600      .3860    60.5130    23.6480      .0410     2.2600
 8339.0000    41.2240   118.9719  1188.3418     1.1460      .8410      .8360      .0690      .9160    59.6050    24.9690      .0420     2.2380
 8339.5000    40.2440   114.6670  1177.3555     1.1630      .8490      .8450      .0700     1.5100    57.8010    25.1040      .0340     2.2360
 8340.0000    40.7020   110.2339  1174.7793     1.1820      .8510      .8560      .0610     1.8510    58.9690    23.4770      .0450     2.2630
 8340.5000    38.9940   107.9230  1170.8809     1.1740      .8540      .8730      .0560     1.5640    59.6780    22.4860      .0470     2.2790
 8341.0000    38.8279   108.5320  1142.2969     1.1350      .8750      .9000      .0620     1.2340    60.2480    23.3140      .0330     2.2650
 8341.5000    38.2820   108.6780  1100.6777     1.1400      .9090      .9260      .0630     1.2780    61.9590    23.1290      .0440     2.2680
 8342.0000    35.4770   105.6699  1075.6055     1.3090      .9300      .9400      .0570      .3290    59.7110    21.8210      .0590     2.2900
 8342.5000    35.6299   101.0900  1065.3633     1.4980      .9390      .9400      .0480    -1.6500    55.9170    20.0450      .0510     2.3190
