~VERSION INFORMATION
VERS.                             2.0:   CWLS Log ASCII Standard-VERSION 2.0
WRAP.                              NO:   One line per depth step
~Well Information Block
STRT.F                      4122.0000:   Top Depth
STOP.F                     10958.0000:   Bottom Depth
STEP.F                         .50000:   Depth Increment
NULL.                        -999.250:   Null Value
FLD .                      GA BLK 273:   Field Name
WELL.       OCSG09037   003 ST00 BP00:   NAME
API .                  42706402950000:   WELL API
EDF .F                        95.0000:   ELEV DRILL FLOOR
COMP.       SEAGULL ENERGY E AND P IN:   OPERATOR
BN  .                             273:   BLOCK
CTRY.                             USA:   COUNTRY NAME
CNTY.                              GA:   COUNTY
CNTY.                        GLVSTN L:   COUNTY NAME
EKB .F                        96.0000:   ELEV KELLY BUSHING
TDD .F                      10964.000:   FINAL TD DRILLER
STAT.                           TEXAS:   STATE NAME
UWI .                  42706402950000:   WELL API
DICO.               IHS : Digitizing Company
~PARAMETER INFORMATION (zones)
#MNEM.UNIT                       Value     Description
#=========                       =====     ===========
#ZONATION                          DIL:   ZONATION NAME
#ZONE                            RUN_1:   ZONE NAME
TOP .                       4122.0000:   TOP DEPTH
BOT .                       9366.5000:   BOTTOM DEPTH
RUN .                               1:   RUN NUMBER
LCCD.                             440:   LOGGING CONTRACTOR
SRVC.                    Schlumberger:   LOGGING CONT NAME
DICO.          QC Data Collectors Ltd:   DIG COMPANY NAME
LDAT.                      05/20/1991:   DATE LOGGED
ELD .F                        96.0000:   LOG DATUM ELEVATION
TDD .F                      9360.0000:   TOTAL DEPTH DRILLER
TDL .F                      9366.0000:   TOTAL DEPTH LOGGER
BOTL.F                      9366.0000:   BOTTOM DEPTH LOGGED
TOPL.F                      4402.0000:   TOP DEPTH LOGGED
CS1 .IN                       10.7500:   CASING SIZE 1
BS1 .IN                        9.8750:   BIT SIZE 1
DDB1.F                      9360.0000:   DEPTH DRILLED BIT 1
BHF .                              81:   FLUID CODE
DPT .          Lignosulfonate (Ligno):   DRILLING FLUID TYPE
MUDD.                         12.5000:   FLUID DENSITY
MUDV.                         45.0000:   FLUID VISCOSITY
DFPH.                         10.0000:   FLUID PH
FL  .                          8.0000:   FLUID LOSS
RM  .OHMM                       .5080:   RM
RMT .DEGF                     67.0000:   RM TEMP
RMF .OHMM                       .3460:   RMF
RMFT.DEGF                     67.0000:   RMF TEMP
FSC .                               M:   RMF CODE
RMC .OHMM                       .6820:   RMC
RMCT.DEGF                     67.0000:   RMC TEMP
CMC .                               M:   RMC CODE
TMAX.DEGF                    170.0000:   MAX REC TEMP
TIMC.                          6.6800:   TIME SINCE CIRCLN
~PARAMETER INFORMATION (zones)
#MNEM.UNIT                       Value     Description
#=========                       =====     ===========
#ZONATION                          DIL:   ZONATION NAME
#ZONE                            RUN_2:   ZONE NAME
TOP .                       9092.0000:   TOP DEPTH
BOT .                      10398.5000:   BOTTOM DEPTH
RUN .                               2:   RUN NUMBER
LCCD.                             440:   LOGGING CONTRACTOR
SRVC.                    Schlumberger:   LOGGING CONT NAME
DICO.          QC Data Collectors Ltd:   DIG COMPANY NAME
LDAT.                      06/04/1991:   DATE LOGGED
ELD .F                        96.0000:   LOG DATUM ELEVATION
TDD .F                     10401.0000:   TOTAL DEPTH DRILLER
TDL .F                     10404.0000:   TOTAL DEPTH LOGGER
BOTL.F                     10398.0000:   BOTTOM DEPTH LOGGED
TOPL.F                      9292.0000:   TOP DEPTH LOGGED
CS1 .IN                        7.6250:   CASING SIZE 1
BS1 .IN                        6.7500:   BIT SIZE 1
DDB1.F                     10401.0000:   DEPTH DRILLED BIT 1
BHF .                              99:   FLUID CODE
DPT .                   Miscellaneous:   DRILLING FLUID TYPE
MUDD.                         14.1000:   FLUID DENSITY
MUDV.                         40.0000:   FLUID VISCOSITY
DFPH.                          9.8000:   FLUID PH
FL  .                          3.4000:   FLUID LOSS
RM  .OHMM                       .5160:   RM
RMT .DEGF                     80.0000:   RM TEMP
RMF .OHMM                       .2580:   RMF
RMFT.DEGF                     80.0000:   RMF TEMP
FSC .                               M:   RMF CODE
RMC .OHMM                      1.8700:   RMC
RMCT.DEGF                     80.0000:   RMC TEMP
CMC .                               M:   RMC CODE
TMAX.DEGF                    192.0000:   MAX REC TEMP
TIMC.                          7.4000:   TIME SINCE CIRCLN
~PARAMETER INFORMATION (zones)
#MNEM.UNIT                       Value     Description
#=========                       =====     ===========
#ZONATION                          DIL:   ZONATION NAME
#ZONE                            RUN_3:   ZONE NAME
TOP .                       9320.0000:   TOP DEPTH
BOT .                      10958.5000:   BOTTOM DEPTH
RUN .                               3:   RUN NUMBER
LCCD.                             440:   LOGGING CONTRACTOR
SRVC.                    Schlumberger:   LOGGING CONT NAME
DICO.          QC Data Collectors Ltd:   DIG COMPANY NAME
LDAT.                      06/09/1991:   DATE LOGGED
ELD .F                        96.0000:   LOG DATUM ELEVATION
TDD .F                     10960.0000:   TOTAL DEPTH DRILLER
TDL .F                     10964.0000:   TOTAL DEPTH LOGGER
BOTL.F                     10958.0000:   BOTTOM DEPTH LOGGED
TOPL.F                      9404.0000:   TOP DEPTH LOGGED
CS1 .IN                        7.6250:   CASING SIZE 1
BS1 .IN                        6.7500:   BIT SIZE 1
DDB1.F                     10960.0000:   DEPTH DRILLED BIT 1
BHF .                              99:   FLUID CODE
DPT .                   Miscellaneous:   DRILLING FLUID TYPE
MUDD.                         14.7000:   FLUID DENSITY
MUDV.                         46.0000:   FLUID VISCOSITY
DFPH.                         10.0000:   FLUID PH
FL  .                          2.3000:   FLUID LOSS
RM  .OHMM                       .4570:   RM
RMT .DEGF                     74.0000:   RM TEMP
RMF .OHMM                       .2190:   RMF
RMFT.DEGF                     74.0000:   RMF TEMP
FSC .                               M:   RMF CODE
RMC .OHMM                       .7110:   RMC
RMCT.DEGF                     74.0000:   RMC TEMP
CMC .                               M:   RMC CODE
TMAX.DEGF                    202.0000:   MAX REC TEMP
TIMC.                          7.3800:   TIME SINCE CIRCLN
~Curve Information Block
#MNEM.UNIT                    API CODE    No Description
#=========                    ========    == ===========
DEPT.F                   00 001 00 00:     1  DEPTH
DT.US/F                              :     2  Sonic Transit Time
GR.GAPI                              :     3  Gamma Ray
ILD.OHMM                             :     4  Deep Induction Resistivity
ILM.OHMM                             :     5  Medium Induction Resistivity
SFL.OHMM                             :     6  Medium Resistivity
SP.MV                                :     7  Spontaneous Potential
~ASCII
# ...
 8282.0000   108.9854    71.9423      .7646      .7685      .7165   -51.0107
 8282.5000   110.4010    72.5320      .7710      .7729      .7236   -50.6423
 8283.0000   111.1385    72.4556      .7812      .7773      .7412   -50.4559
 8283.5000   111.3436    71.6887      .7915      .7854      .7568   -50.0530
 8284.0000   110.8939    70.2764      .8028      .7986      .7582   -49.2947
 8284.5000   110.1046    67.9963      .8143      .8123      .7588   -48.4684
 8285.0000   109.1458    66.3971      .8266      .8270      .7666   -47.9651
 8285.5000   108.0847    67.3849      .8388      .8419      .7755   -47.7117
 8286.0000   107.2313    69.1069      .8494      .8586      .7826   -47.6094
 8286.5000   108.1700    69.2231      .8477      .8446      .7808   -47.3017
 8287.0000   109.1716    67.9509      .8348      .8354      .7744   -46.9193
 8287.5000   110.5304    66.3944      .8200      .8268      .7714   -46.4934
 8288.0000   111.8942    65.0088      .8048      .8236      .7698   -45.9588
 8288.5000   113.3978    64.3480      .7965      .8380      .7720   -45.4335
 8289.0000   114.3037    64.2375      .8053      .8536      .7837   -45.3795
 8289.5000   114.0216    65.2971      .8200      .8731      .7959   -45.9454
 8290.0000   110.9521    67.7587      .8471      .8930      .8169   -46.4874
 8290.5000   107.8000    66.8082      .8774      .9135      .8379   -46.5727
 8291.0000   104.8549    64.3840      .9087      .9344      .8586   -46.4797
 8291.5000   103.5453    62.5927      .9377      .9485      .8820   -46.1617
 8292.0000   104.9764    63.4417      .9645      .9609      .8978   -45.8066
 8292.5000   104.5883    65.0088      .9866      .9742      .9059   -45.5096
 8293.0000   102.6603    66.9124     1.0091      .9896      .9123   -45.2860
 8293.5000   101.0065    68.9041     1.0280     1.0052      .9211   -45.1613
 8294.0000    99.3553    67.7213     1.0446     1.0191      .9298   -45.2376
 8294.5000    98.0134    65.3239     1.0608     1.0331      .9385   -45.3374
 8295.0000    98.4314    63.0038     1.0719     1.0510      .9444   -45.5991
 8295.5000   100.0050    61.4579     1.0831     1.0708      .9502   -45.8186
 8296.0000   101.4750    62.6313     1.0922     1.0690      .9528   -45.8426
 8296.5000   102.5968    64.1517     1.0978     1.0562      .9549   -45.7522
 8297.0000   103.2684    63.4930     1.1005     1.0448      .9588   -45.5396
 8297.5000   103.3134    64.0129     1.1004     1.0306      .9472   -45.2856
 8298.0000   103.1432    67.0859     1.0899     1.0096      .9252   -45.0110
 8298.5000   103.1584    70.9225     1.0746      .9829      .9036   -44.7817
 8299.0000   103.1177    73.2185     1.0522      .9577      .8803   -44.6646
 8299.5000   103.5790    72.2627     1.0312      .9390      .8567   -44.7806
 8300.0000   106.1592    70.3351     1.0114      .9192      .8349   -44.8350
 8300.5000   109.6841    68.8386      .9930      .8951      .8147   -44.7369
 8301.0000   112.7120    67.7467      .9764      .8725      .7949   -44.6387
 8301.5000   115.0283    68.3888      .9581      .8528      .7751   -44.5571
 8302.0000   115.4061    70.1055      .9388      .8361      .7558   -44.5049
 8302.5000   113.9569    71.8008      .9209      .8298      .7359   -44.4642
 8303.0000   112.6681    70.9425      .9052      .8396      .7265   -44.5486
 8303.5000   111.8347    70.4656      .8898      .8579      .7246   -44.7988
 8304.0000   110.7400    70.9198      .8810      .8793      .7298   -45.2239
 8304.5000   109.6271    72.4950      .8820      .9049      .7405   -45.4789
 8305.0000   108.4030    73.1874      .9223      .9392      .7710   -45.5663
 8305.5000   107.0676    70.6794      .9822      .9850      .8401   -45.2997
 8306.0000   105.8267    67.5238     1.0550     1.0368      .9406   -45.2874
 8306.5000   104.6375    64.8459     1.1317     1.0939     1.0462   -45.8774
 8307.0000   103.6799    62.4458     1.2003     1.1645     1.1577   -46.8131
 8307.5000   102.8932    60.8333     1.2651     1.2377     1.2513   -47.7089
 8308.0000   102.4680    60.5609     1.3358     1.2873     1.3443   -48.5452
 8308.5000   103.7162    64.0903     1.2356     1.1920     1.2366   -48.6440
 8309.0000   105.5977    66.6213     1.0843     1.0889     1.0817   -48.0319
 8309.5000   107.4688    67.2415      .9714     1.0086      .9318   -47.3818
 8310.0000   108.8794    67.7954      .9136      .9415      .8214   -46.6382
 8310.5000   108.8574    68.4622      .8877      .9146      .7751   -45.9027
 8311.0000   108.9235    69.3833      .8763      .9070      .7400   -45.1739
 8311.5000   110.1862    70.3832      .8744      .8963      .7148   -44.8601
 8312.0000   113.4160    71.4805      .8763      .8684      .7003   -44.7729
 8312.5000   116.8994    72.7606      .8782      .8362      .7010   -44.6696
 8313.0000   115.8745    73.8579      .8811      .8255      .7426   -44.4650
 8313.5000   113.4521    74.8604      .8855      .8308      .7965   -44.2808
 8314.0000   111.0557    72.0625      .8885      .8498      .8471   -44.1116
 8314.5000   109.6077    66.9470      .8904      .8649      .8864   -44.0285
 8315.0000   110.2197    64.6650      .8920      .8560      .8436   -43.9758
 8315.5000   110.9341    65.4907      .8897      .8252      .7997   -44.0928
 8316.0000   111.6483    66.5853      .8857      .7966      .7556   -44.2952
 8316.5000   112.0194    68.1698      .8796      .7908      .7187   -44.4939
 8317.0000   111.8373    68.5903      .8754      .7959      .7085   -44.5388
 8317.5000   110.8719    69.3206      .8713      .8029      .7107   -44.5837
 8318.0000   109.1587    71.1414      .8676      .8083      .7182   -43.6721
 8318.5000   107.5309    72.9568      .8693      .8144      .7256   -42.8730
 8319.0000   105.9418    72.6525      .8709      .8233      .7330   -43.0640
 8319.5000   104.3553    70.4685      .8745      .8360      .7475   -43.5346
 8320.0000   102.7664    68.4529      .8822      .8542      .7738   -43.8687
 8320.5000   102.3005    67.2919      .8881      .8813      .8114   -44.1884
 8321.0000   104.0009    67.0259      .8910      .9018      .8548   -44.5084
 8321.5000   106.3533    66.8965      .8925      .9043      .9064   -44.8281
 8322.0000   109.1302    66.8149      .8874      .8973      .9195   -45.1482
 8322.5000   111.7441    67.2675      .8818      .8814      .8327   -44.7160
 8323.0000   113.5815    68.5436      .8731      .8660      .7705   -44.2397
 8323.5000   114.5983    69.2565      .8661      .8519      .7347   -43.9507
 8324.0000   114.0707    68.2352      .8696      .8464      .7362   -43.6908
 8324.5000   113.1390    67.1647      .8758      .8409      .7535   -43.5049
 8325.0000   112.0961    66.2275      .8887      .8422      .7766   -43.6948
 8325.5000   111.0531    66.3347      .9040      .8441      .7907   -44.2641
 8326.0000   110.1589    66.5081      .9210      .8592      .7980   -44.5555
 8326.5000   109.4764    66.3397      .9422      .8764      .8239   -44.4717
 8327.0000   109.1342    64.8032      .9623      .8982      .8538   -43.8229
 8327.5000   109.4467    62.5847      .9821      .9200      .8766   -43.0353
 8328.0000   110.0762    60.7424     1.0018      .9412      .8725   -42.3078
 8328.5000   110.4359    59.5905     1.0142      .9657      .8692   -42.3816
 8329.0000   109.3787    59.3161     1.0245      .9859      .8707   -42.5981
 8329.5000   105.7865    60.5716     1.0324     1.0065      .8741   -43.0787
 8330.0000   101.8632    62.3150     1.0389     1.0176      .8854   -43.7242
 8330.5000    98.0562    64.0424     1.0439     1.0284      .8952   -44.5011
 8331.0000    96.7415    66.0153     1.0487     1.0249      .9028   -45.2573
 8331.5000    98.8326    67.9323     1.0523     1.0184      .9094   -45.8807
 8332.0000   101.0090    69.7450     1.0559     1.0113      .9115   -46.4961
 8332.5000   103.0122    70.6074     1.0617     1.0067      .9098   -46.7471
 8333.0000   104.6245    69.5142     1.0694     1.0088      .9065   -46.2979
 8333.5000   105.6248    67.8735     1.0770     1.0110      .9054   -46.0466
