~VERSION INFORMATION
VERS.                             2.0:   CWLS Log ASCII Standard-VERSION 2.0
WRAP.                              NO:   One line per depth step
~Well Information Block
STRT.F                      4703.0000:   Top Depth
STOP.F                      9304.5000:   Bottom Depth
STEP.F                         .50000:   Depth Increment
NULL.                        -999.250:   Null Value
FLD .                      BA BLK 399:   Field Name
WELL.       OCSG07218  A003 ST00 BP00:   NAME
API .                  42704403090000:   WELL API
EDF .F                       113.0000:   ELEV DRILL FLOOR
COMP.       SEAGULL ENERGY E AND P IN:   OPERATOR
EGL .F                       -62.0000:   ELEV GROUND LEVEL
EKB .F                       114.0000:   ELEV KELLY BUSHING
TDD .F                      9314.0000:   FINAL TD DRILLER
UWI .                  42704403090000:   WELL API
DICO.               IHS : Digitizing Company
~PARAMETER INFORMATION (zones)
#MNEM.UNIT                       Value     Description
#=========                       =====     ===========
#ZONATION                          CNL:   ZONATION NAME
#ZONE                            RUN_1:   ZONE NAME
TOP .                       4703.0000:   TOP DEPTH
BOT .                       9200.5000:   BOTTOM DEPTH
RUN .                               1:   RUN NUMBER
LCCD.                             510:   LOGGING CONTRACTOR
SRVC.                   Western Atlas:   LOGGING CONT NAME
DICO.          QC Data Collectors Ltd:   DIG COMPANY NAME
LDAT.                      03/24/1997:   DATE LOGGED
TDD .F                      9314.0000:   TOTAL DEPTH DRILLER
TDL .F                      9307.0000:   TOTAL DEPTH LOGGER
BOTL.F                      9305.0000:   BOTTOM DEPTH LOGGED
TOPL.F                      4703.0000:   TOP DEPTH LOGGED
CS1 .                         10.7500:   CASING SIZE 1
BS1 .                          9.8750:   BIT SIZE 1
DDB1.F                      9314.0000:   DEPTH DRILLED BIT 1
BHF .                              99:   FLUID CODE
DPT .                   Miscellaneous:   DRILLING FLUID TYPE
MUDD.                         11.5000:   FLUID DENSITY
MUDV.                         41.0000:   FLUID VISCOSITY
DFPH.                         10.2000:   FLUID PH
FL  .                          5.0000:   FLUID LOSS
RM  .OHMM                      1.1200:   RM
RMT .DEGF                     75.0000:   RM TEMP
RMF .OHMM                       .8300:   RMF
RMFT.DEGF                     75.0000:   RMF TEMP
FSC .                               M:   RMF CODE
RMC .OHMM                      1.4600:   RMC
RMCT.DEGF                     75.0000:   RMC TEMP
CMC .                               M:   RMC CODE
TMAX.DEGF                    181.0000:   MAX REC TEMP
TIMC.                         24.0000:   TIME SINCE CIRCLN
SON .                          173943:   SERVICE ORDER NUM
LMF .                             MSL:   LOGS MEAS FROM
MUDS.                             PIT:   MUD SOURCE
ENG .                         HADSALL:   ENGINEER
WIT .                        FONTENOT:   WITNESS
~PARAMETER INFORMATION (zones)
#MNEM.UNIT                       Value     Description
#=========                       =====     ===========
#ZONATION                          DAL:   ZONATION NAME
#ZONE                            RUN_1:   ZONE NAME
TOP .                       4703.0000:   TOP DEPTH
BOT .                       9242.5000:   BOTTOM DEPTH
RUN .                               1:   RUN NUMBER
LCCD.                             510:   LOGGING CONTRACTOR
SRVC.                   Western Atlas:   LOGGING CONT NAME
DICO.          QC Data Collectors Ltd:   DIG COMPANY NAME
LDAT.                      03/24/1997:   DATE LOGGED
TDD .F                      9314.0000:   TOTAL DEPTH DRILLER
TDL .F                      9307.0000:   TOTAL DEPTH LOGGER
BOTL.F                      9305.0000:   BOTTOM DEPTH LOGGED
TOPL.F                      4703.0000:   TOP DEPTH LOGGED
CS1 .                         10.7500:   CASING SIZE 1
BS1 .                          9.8750:   BIT SIZE 1
DDB1.F                      9314.0000:   DEPTH DRILLED BIT 1
BHF .                              99:   FLUID CODE
DPT .                   Miscellaneous:   DRILLING FLUID TYPE
MUDD.                         11.5000:   FLUID DENSITY
MUDV.                         41.0000:   FLUID VISCOSITY
DFPH.                         10.2000:   FLUID PH
FL  .                          5.0000:   FLUID LOSS
RM  .OHMM                      1.1200:   RM
RMT .DEGF                     75.0000:   RM TEMP
RMF .OHMM                       .8300:   RMF
RMFT.DEGF                     75.0000:   RMF TEMP
FSC .                               M:   RMF CODE
RMC .OHMM                      1.4600:   RMC
RMCT.DEGF                     75.0000:   RMC TEMP
CMC .                               M:   RMC CODE
TMAX.DEGF                    181.0000:   MAX REC TEMP
TIMC.                         24.0000:   TIME SINCE CIRCLN
SON .                          173943:   SERVICE ORDER NUM
LMF .                             MSL:   LOGS MEAS FROM
MUDS.                             PIT:   MUD SOURCE
ENG .                         HADSALL:   ENGINEER
WIT .                        FONTENOT:   WITNESS
~PARAMETER INFORMATION (zones)
#MNEM.UNIT                       Value     Description
#=========                       =====     ===========
#ZONATION                          DIL:   ZONATION NAME
#ZONE                            RUN_1:   ZONE NAME
TOP .                       4703.0000:   TOP DEPTH
BOT .                       9305.5000:   BOTTOM DEPTH
RUN .                               1:   RUN NUMBER
LCCD.                             510:   LOGGING CONTRACTOR
SRVC.                   Western Atlas:   LOGGING CONT NAME
DICO.          QC Data Collectors Ltd:   DIG COMPANY NAME
LDAT.                      03/24/1997:   DATE LOGGED
TDD .F                      9314.0000:   TOTAL DEPTH DRILLER
TDL .F                      9307.0000:   TOTAL DEPTH LOGGER
BOTL.F                      9305.0000:   BOTTOM DEPTH LOGGED
TOPL.F                      4703.0000:   TOP DEPTH LOGGED
CS1 .                         10.7500:   CASING SIZE 1
BS1 .                          9.8750:   BIT SIZE 1
DDB1.F                      9314.0000:   DEPTH DRILLED BIT 1
BHF .                              99:   FLUID CODE
DPT .                   Miscellaneous:   DRILLING FLUID TYPE
MUDD.                         11.5000:   FLUID DENSITY
MUDV.                         41.0000:   FLUID VISCOSITY
DFPH.                         10.2000:   FLUID PH
FL  .                          5.0000:   FLUID LOSS
RM  .OHMM                      1.1200:   RM
RMT .DEGF                     75.0000:   RM TEMP
RMF .OHMM                       .8300:   RMF
RMFT.DEGF                     75.0000:   RMF TEMP
FSC .                               M:   RMF CODE
RMC .OHMM                      1.4600:   RMC
RMCT.DEGF                     75.0000:   RMC TEMP
CMC .                               M:   RMC CODE
TMAX.DEGF                    181.0000:   MAX REC TEMP
TIMC.                         24.0000:   TIME SINCE CIRCLN
SON .                          173943:   SERVICE ORDER NUM
LMF .                             MSL:   LOGS MEAS FROM
MUDS.                             PIT:   MUD SOURCE
ENG .                         HADSALL:   ENGINEER
WIT .                        FONTENOT:   WITNESS
~PARAMETER INFORMATION (zones)
#MNEM.UNIT                       Value     Description
#=========                       =====     ===========
#ZONATION                          FDC:   ZONATION NAME
#ZONE                            RUN_1:   ZONE NAME
TOP .                       4703.0000:   TOP DEPTH
BOT .                       9228.5000:   BOTTOM DEPTH
RUN .                               1:   RUN NUMBER
LCCD.                             510:   LOGGING CONTRACTOR
SRVC.                   Western Atlas:   LOGGING CONT NAME
DICO.          QC Data Collectors Ltd:   DIG COMPANY NAME
LDAT.                      03/24/1997:   DATE LOGGED
TDD .F                      9314.0000:   TOTAL DEPTH DRILLER
TDL .F                      9307.0000:   TOTAL DEPTH LOGGER
BOTL.F                      9305.0000:   BOTTOM DEPTH LOGGED
TOPL.F                      4703.0000:   TOP DEPTH LOGGED
CS1 .                         10.7500:   CASING SIZE 1
BS1 .                          9.8750:   BIT SIZE 1
DDB1.F                      9314.0000:   DEPTH DRILLED BIT 1
BHF .                              99:   FLUID CODE
DPT .                   Miscellaneous:   DRILLING FLUID TYPE
MUDD.                         11.5000:   FLUID DENSITY
MUDV.                         41.0000:   FLUID VISCOSITY
DFPH.                         10.2000:   FLUID PH
FL  .                          5.0000:   FLUID LOSS
RM  .OHMM                      1.1200:   RM
RMT .DEGF                     75.0000:   RM TEMP
RMF .OHMM                       .8300:   RMF
RMFT.DEGF                     75.0000:   RMF TEMP
FSC .                               M:   RMF CODE
RMC .OHMM                      1.4600:   RMC
RMCT.DEGF                     75.0000:   RMC TEMP
CMC .                               M:   RMC CODE
TMAX.DEGF                    181.0000:   MAX REC TEMP
TIMC.                         24.0000:   TIME SINCE CIRCLN
SON .                          173943:   SERVICE ORDER NUM
LMF .                             MSL:   LOGS MEAS FROM
MUDS.                             PIT:   MUD SOURCE
ENG .                         HADSALL:   ENGINEER
WIT .                        FONTENOT:   WITNESS
~Curve Information Block
#MNEM.UNIT                    API CODE    No Description
#=========                    ========    == ===========
DEPT.F                   00 001 00 00:     1  DEPTH
CNCF.%                               :     2  Field Normalized CNC
DT24.US/F                            :     3  Unrecognised
CILD.MMHO                            :     4  Deep Induction Conductivity
RFOC.OHMM                            :     5  Medium Resistivity
RILD.OHMM                            :     6  Deep Resistivity
RILM.OHMM                            :     7  Medium Resistivity
RWAZ.OHMM                            :     8  Unrecognised
SP.MV                                :     9  Spontaneous Potential
GR.GAPI                              :    10  Gamma Ray
PORZ.%                               :    11  Neutron Porosity
ZCOR.G/C3                            :    12  Density Correction
ZDEN.G/C3                            :    13  Bulk Density
~ASCII
# ...
 6803.0000    48.2230   133.7688  1285.8594     1.2350      .7780      .7570      .1160     4.0610   130.0139    32.9850      .0600     2.1060
 6803.5000    47.9940   133.0168  1280.4258     1.2370      .7810      .7580      .1220     4.2660   205.2178    33.7870      .0610     2.0920
 6804.0000    49.2230   132.6050  1268.6094     1.2280      .7880      .7630      .1320     4.1300   273.4268    34.8210      .0460     2.0760
 6804.5000    49.4140   132.5859  1264.1191     1.1920      .7910      .7700      .1380     3.9880   309.1670    35.5560      .0450     2.0630
 6805.0000    49.8620   132.6509  1265.0039     1.1930      .7900      .7750      .1400     3.8710   194.9900    35.7640      .0560     2.0600
 6805.5000    49.6710   132.2290  1257.4063     1.2420      .7950      .7800      .1380     4.0660    97.9369    35.4410      .0690     2.0650
 6806.0000    49.5980   131.4458  1236.9629     1.2590      .8080      .7880      .1330     4.2600    71.9359    34.5950      .0580     2.0790
 6806.5000    49.8520   131.7268  1221.1621     1.2370      .8190      .7940      .1270     4.2920    65.6029    33.6810      .0660     2.0940
 6807.0000    49.3570   133.9910  1214.1445     1.2430      .8240      .7960      .1250     4.1210    63.3520    33.2770      .0730     2.1010
 6807.5000    49.5150   136.3708  1204.7188     1.2740      .8300      .8000      .1220     4.2010    61.0690    32.7530      .0570     2.1100
 6808.0000    47.5810   137.2090  1193.5605     1.2490      .8380      .8070      .1180     4.3660    61.1290    32.1400      .0620     2.1200
 6808.5000    45.5690   135.7898  1180.9102     1.2110      .8470      .8140      .1140     4.1410    63.3940    31.5530      .0550     2.1290
 6809.0000    45.9560   132.2258  1173.2168     1.2180      .8520      .8200      .1120     3.4430    65.0669    31.0980      .0640     2.1370
 6809.5000    47.9839   128.7319  1169.3984     1.2370      .8550      .8250      .1110     2.9960    68.2500    30.9120      .0650     2.1400
 6810.0000    47.5779   127.1429  1164.7715     1.2730      .8590      .8260      .1140     2.4220    63.6800    31.2650      .0540     2.1340
 6810.5000    46.5760   127.1470  1164.8457     1.2970      .8590      .8210      .1120     1.5430    59.3140    31.0280      .0690     2.1380
 6811.0000    45.3719   128.8750  1163.8730     1.2520      .8590      .8160      .1070     1.1930    62.4680    30.3830      .0750     2.1490
 6811.5000    44.4870   130.8760  1163.2715     1.1960      .8600      .8110      .1040      .8570    62.8080    29.9970      .0720     2.1550
 6812.0000    44.5080   131.7478  1171.8477     1.2020      .8530      .8020      .1050    -3.2600    64.4550    30.2600      .0630     2.1510
 6812.5000    44.4620   132.6589  1194.5820     1.2320      .8370      .7880      .1120    -3.1740    64.8400    31.4520      .0570     2.1310
 6813.0000    44.1520   132.3838  1222.4473     1.2140      .8180      .7740      .1110     1.2940    66.3130    31.6350      .0590     2.1280
 6813.5000    44.2950   131.8130  1247.5723     1.1790      .8020      .7630      .1060     1.7000    65.3429    31.1910      .0520     2.1350
 6814.0000    44.5790   133.0000  1274.7285     1.1760      .7850      .7510      .1030     2.4180    60.9000    31.1360      .0430     2.1360
 6814.5000    44.3470   134.6968  1309.5879     1.1910      .7640      .7380      .0960     2.8040    61.0710    30.5030      .0530     2.1470
 6815.0000    45.1840   135.9358  1348.5254     1.1870      .7420      .7230      .0960     2.8110    62.5690    30.9200      .0590     2.1400
 6815.5000    46.5439   136.7620  1379.5664     1.1490      .7250      .7080      .0990     2.9340    59.1039    31.7710      .0490     2.1260
 6816.0000    47.3370   136.6990  1399.8027     1.1030      .7140      .6980      .0930     3.3980    61.2460    31.0550      .0510     2.1380
 6816.5000    48.1060   136.5229  1413.3496     1.0950      .7070      .6930      .0860     3.3000    63.5309    30.0840      .0540     2.1540
 6817.0000    49.8539   136.6689  1427.7305     1.1340      .7000      .6900      .0910     3.3360    61.9520    30.9190      .0380     2.1400
 6817.5000    49.6490   136.7100  1450.2910     1.1640      .6890      .6860      .0890     3.6690    59.4850    30.8400      .0590     2.1410
 6818.0000    49.9540   136.9448  1467.0918     1.1570      .6820      .6830      .0940     3.5490    60.9770    31.9110      .0550     2.1240
 6818.5000    51.3420   136.7639  1473.8516     1.1290      .6780      .6790      .0960     3.4240    60.3069    32.2830      .0480     2.1170
 6819.0000    51.5970   136.5928  1470.1992     1.1160      .6800      .6760      .0970     3.5730    57.9659    32.2870      .0400     2.1170
 6819.5000    51.8690   137.3518  1465.6113     1.1090      .6820      .6760      .0970     3.3600    60.2610    32.3320      .0390     2.1160
 6820.0000    52.2660   138.3369  1457.2441     1.1000      .6860      .6800      .1000     3.5620    65.4590    32.6700      .0400     2.1110
 6820.5000    49.8550   138.7500  1443.2344     1.1140      .6930      .6890      .1110     3.6940    64.2980    34.1460      .0300     2.0870
 6821.0000    47.7980   138.9900  1430.6328     1.1600      .6990      .6980      .1200     4.0000    60.1990    35.2630      .0280     2.0680
 6821.5000    45.8570   138.4968  1413.7969     1.1990      .7070      .7050      .1710     3.8230    59.3950    41.3220     -.0790     1.9680
 6822.0000    46.7880   136.7539  1379.9961     1.1780      .7250      .7140      .1730     3.6610    59.7790    41.1250     -.0900     1.9710
 6822.5000    46.1750   135.5068  1341.0469     1.1380      .7460      .7260      .1160     3.4140    58.3710    33.6420      .0320     2.0950
 6823.0000    45.1899   135.0540  1314.3320     1.1590      .7610      .7350      .1160     3.3980    59.6689    33.3170      .0370     2.1000
 6823.5000    45.7390   134.7878  1310.2910     1.2180      .7630      .7370      .1230     3.3390    57.3409    34.1899      .0350     2.0860
 6824.0000    47.0200   134.9070  1314.6270     1.2380      .7610      .7350      .1250     4.4550    57.4960    34.5350      .0340     2.0800
 6824.5000    47.9430   134.4028  1313.1895     1.2000      .7620      .7340      .1190     7.2890    60.5620    33.7970      .0270     2.0920
 6825.0000    47.9070   133.1648  1310.7461     1.1580      .7630      .7330      .0980     8.0250    60.3669    30.8700      .0310     2.1410
 6825.5000    47.3240   132.2798  1315.2656     1.1470      .7600      .7300      .0910     8.2000    55.2920    29.8460      .0390     2.1580
 6826.0000    47.2750   132.1228  1322.3477     1.1690      .7560      .7290      .0980     8.0050    56.2580    30.8940      .0320     2.1400
 6826.5000    47.9420   132.4128  1331.2285     1.2010      .7510      .7290      .0920     8.1150    57.4740    30.0880      .0400     2.1540
 6827.0000    48.1640   132.7839  1332.4883     1.2110      .7510      .7290      .0920     7.9910    58.8900    30.1730      .0430     2.1520
 6827.5000    47.2400   132.8799  1330.7441     1.1990      .7520      .7280      .0970     7.8410    54.1940    30.8240      .0510     2.1410
 6828.0000    47.1190   132.7659  1327.5488     1.1940      .7530      .7280      .0950     8.4080    54.4260    30.6150      .0410     2.1450
 6828.5000    47.7010   132.7959  1330.2383     1.1930      .7520      .7260      .0940     8.8070    62.1790    30.3980      .0350     2.1480
 6829.0000    47.3329   132.8269  1337.4004     1.1920      .7480      .7230      .0890     8.7900    63.8430    29.6760      .0530     2.1600
 6829.5000    48.6640   132.9170  1344.8359     1.1820      .7440      .7200      .0910     8.6980    61.0770    30.0940      .0510     2.1540
 6830.0000    49.4189   133.1448  1350.8047     1.1680      .7400      .7150      .0960     8.2880    55.2500    30.8950      .0330     2.1400
 6830.5000    48.1510   133.3999  1354.8730     1.1740      .7380      .7110      .0990     8.2190    55.8979    31.4070      .0150     2.1320
