~VERSION INFORMATION
VERS.                             2.0:   CWLS Log ASCII Standard-VERSION 2.0
WRAP.                              NO:   One line per depth step
~Well Information Block
STRT.F                      3511.0000:   Top Depth
STOP.F                      7755.0000:   Bottom Depth
STEP.F                         .50000:   Depth Increment
NULL.                        -999.250:   Null Value
FLD .                      BA BLK 431:   Field Name
WELL.       OCSG09017   002 ST01 BP00:   NAME
API .                  42704402350100:   WELL API
EDF .F                        89.0000:   ELEV DRILL FLOOR
COMP.       SEAGULL ENERGY E AND P IN:   OPERATOR
BN  .                             481:   BLOCK
CTRY.                             USA:   COUNTRY NAME
CNTY.                        BRAZOS L:   COUNTY NAME
EKB .F                        90.0000:   ELEV KELLY BUSHING
TDD .F                          0.000:   FINAL TD DRILLER
STAT.                           TEXAS:   STATE NAME
UWI .                  42704402350100:   WELL API
DICO.               IHS : Digitizing Company
~PARAMETER INFORMATION (zones)
#MNEM.UNIT                       Value     Description
#=========                       =====     ===========
#ZONATION                          CNL:   ZONATION NAME
#ZONE                            RUN_0:   ZONE NAME
TOP .                       3511.0000:   TOP DEPTH
BOT .                       7755.5000:   BOTTOM DEPTH
RUN .                               0:   RUN NUMBER
LCCD.                             280:   LOGGING CONTRACTOR
SRVC.                     Halliburton:   LOGGING CONT NAME
DICO.          QC Data Collectors Ltd:   DIG COMPANY NAME
LDAT.                        --/--/--:   DATE LOGGED
BHF .                              99:   FLUID CODE
DPT .                   Miscellaneous:   DRILLING FLUID TYPE
~PARAMETER INFORMATION (zones)
#MNEM.UNIT                       Value     Description
#=========                       =====     ===========
#ZONATION                          DIL:   ZONATION NAME
#ZONE                            RUN_0:   ZONE NAME
TOP .                       3511.0000:   TOP DEPTH
BOT .                       7755.5000:   BOTTOM DEPTH
RUN .                               0:   RUN NUMBER
LCCD.                             280:   LOGGING CONTRACTOR
SRVC.                     Halliburton:   LOGGING CONT NAME
DICO.          QC Data Collectors Ltd:   DIG COMPANY NAME
LDAT.                        --/--/--:   DATE LOGGED
BHF .                              99:   FLUID CODE
DPT .                   Miscellaneous:   DRILLING FLUID TYPE
~PARAMETER INFORMATION (zones)
#MNEM.UNIT                       Value     Description
#=========                       =====     ===========
#ZONATION                          FDC:   ZONATION NAME
#ZONE                            RUN_0:   ZONE NAME
TOP .                       3511.0000:   TOP DEPTH
BOT .                       7755.5000:   BOTTOM DEPTH
RUN .                               0:   RUN NUMBER
LCCD.                             280:   LOGGING CONTRACTOR
SRVC.                     Halliburton:   LOGGING CONT NAME
DICO.          QC Data Collectors Ltd:   DIG COMPANY NAME
LDAT.                        --/--/--:   DATE LOGGED
BHF .                              99:   FLUID CODE
DPT .                   Miscellaneous:   DRILLING FLUID TYPE
~PARAMETER INFORMATION (zones)
#MNEM.UNIT                       Value     Description
#=========                       =====     ===========
#ZONATION                        SONIC:   ZONATION NAME
#ZONE                            RUN_0:   ZONE NAME
TOP .                       3511.0000:   TOP DEPTH
BOT .                       7731.5000:   BOTTOM DEPTH
RUN .                               0:   RUN NUMBER
LCCD.                             280:   LOGGING CONTRACTOR
SRVC.                     Halliburton:   LOGGING CONT NAME
DICO.          QC Data Collectors Ltd:   DIG COMPANY NAME
LDAT.                        --/--/--:   DATE LOGGED
BHF .                              99:   FLUID CODE
DPT .                   Miscellaneous:   DRILLING FLUID TYPE
~Curve Information Block
#MNEM.UNIT                    API CODE    No Description
#=========                    ========    == ===========
DEPT.F                   00 001 00 00:     1  DEPTH
NPHI.%                               :     2  Neutron Porosity
GR.GAPI                              :     3  Gamma Ray
GRD.OHMM                             :     4  Unrecognised
ILD.OHMM                             :     5  Deep Induction Resistivity
ILM.OHMM                             :     6  Medium Induction Resistivity
SP.MV                                :     7  Spontaneous Potential
DPHI.%                               :     8  Porosity
CALI.IN                              :     9  Caliper
DT.US/F                              :    10  Sonic Transit Time
GR.GAPI                              :    11  Gamma Ray
~ASCII
# ...
 6325.0000    41.0624    74.1317      .9590      .6326      .7086   -53.2762    21.2687     9.6012   107.6583    70.0933
 6325.5000    42.1074    76.1691      .9968      .6488      .7175   -52.6719    21.1801     9.5971   109.4275    72.2057
 6326.0000    43.1531    78.2584      .9364      .6614      .7233   -52.4730    20.1053     9.5874   109.5553    74.3898
 6326.5000    43.7634    80.7043      .8916      .6667      .7237   -52.7493    19.4621     9.5794   108.0684    75.7426
 6327.0000    43.9833    77.3374      .8941      .6622      .7192   -53.4030    19.4812     9.5774   109.6218    73.9312
 6327.5000    43.8855    73.8976      .9129      .6499      .7146   -54.0568    19.4235     9.5783   110.4165    69.7609
 6328.0000    43.7003    71.8173      .9153      .6384      .7099   -54.8068    19.3776     9.5812   104.2346    66.0885
 6328.5000    43.6585    70.2001      .9089      .6272      .7065   -55.8846    20.4344     9.5858   101.2981    64.4725
 6329.0000    43.4160    75.1777      .9071      .6166      .7128   -56.9625    21.5193     9.5909    99.2134    63.3179
 6329.5000    43.1427    80.1318      .9072      .6078      .7196   -57.1993    21.5824     9.5936    96.7216    62.4813
 6330.0000    43.2450    84.5657      .9171      .5957      .7200   -57.0954    20.9817     9.5962    99.6394    64.5338
 6330.5000    44.3323    86.5016      .8890      .5805      .7128   -57.1097    19.8593     9.5932   103.5211    65.9191
 6331.0000    45.4243    87.2094      .8747      .5649      .6993   -57.3541    19.5052     9.5900   108.6381    69.6201
 6331.5000    46.2120    85.8875      .8588      .5497      .6860   -58.1315    19.3368     9.5878   112.9830    74.6191
 6332.0000    47.0109    83.7045      .8467      .5347      .6653   -61.0015    19.1978     9.5860   113.3687    76.6202
 6332.5000    46.6666    80.0331      .8216      .5097      .6427   -64.9148    20.5894     9.5817   113.7598    76.3915
 6333.0000    45.4059    74.1005      .7795      .4648      .6144   -70.1553    23.1682     9.5764   113.3503    71.5750
 6333.5000    43.7363    66.5859      .7464      .4219      .5485   -75.7235    27.1179     9.5687   107.7595    65.7679
 6334.0000    42.3734    61.1062      .7230      .3699      .4884   -77.9846    29.7670     9.5772   103.9551    55.1965
 6334.5000    41.9304    55.4963      .7114      .3182      .4462   -79.4768    31.1507     9.5944   101.6309    52.0010
 6335.0000    41.5626    50.4797      .7068      .2948      .4126   -80.2520    32.1022     9.6298   100.9646    49.2930
 6335.5000    41.3159    47.7918      .6738      .2872      .3848   -80.5804    32.5503     9.6693   101.4119    48.2485
 6336.0000    41.2534    46.9175      .6386      .2828      .3653   -80.5060    32.4784     9.7156   101.7903    48.0830
 6336.5000    41.9747    55.9698      .6051      .2919      .3503   -79.8138    31.5445     9.7794   101.4524    49.2800
 6337.0000    42.6770    63.8383      .5797      .3050      .3615   -76.8501    30.0626     9.8018   100.7196    50.3896
 6337.5000    43.2062    68.5400      .5560      .3190      .3782   -73.2281    28.4553     9.7712   102.2751    51.4603
 6338.0000    43.2240    71.0354      .5453      .3337      .3964   -70.5819    26.6833     9.7624   107.5571    52.9472
 6338.5000    42.7596    68.9694      .5751      .3447      .4156   -71.7061    25.7574     9.7487   110.7732    54.8577
 6339.0000    42.2787    63.6666      .6209      .3458      .4281   -75.2083    26.5731     9.7187   109.7136    58.1404
 6339.5000    41.9160    58.7436      .6647      .3437      .4282   -77.6724    28.4281     9.6816   105.6509    58.2283
 6340.0000    41.6884    54.0522      .7019      .3416      .4156   -79.1100    30.2080     9.6584   101.9823    56.8594
 6340.5000    41.9133    50.7399      .7189      .3383      .3974   -79.8047    32.0151     9.6687    98.8353    53.6014
 6341.0000    42.2560    49.3192      .6827      .3350      .3855   -80.0015    32.7708     9.6935    99.5343    51.2439
 6341.5000    42.5460    51.5699      .6346      .3317      .3744   -79.6407    33.1613     9.7314   100.9000    50.1505
 6342.0000    42.6075    53.9325      .5827      .3302      .3624   -78.2449    31.2530     9.7795   102.0396    48.7314
 6342.5000    42.2080    56.3550      .5310      .3295      .3835   -76.0878    29.4251     9.8356   100.4155    48.9672
 6343.0000    41.6816    57.8862      .5306      .3305      .3990   -74.1440    27.9280     9.9173   103.6595    53.5571
 6343.5000    41.1551    57.3970      .5895      .3310      .4123   -77.3159    26.9717     9.9633   107.1152    56.2468
 6344.0000    40.8235    55.2881      .6294      .3327      .4223   -79.7527    26.3370     9.8744   105.2836    55.8455
 6344.5000    40.7225    53.0374      .6684      .3357      .4199   -81.4297    27.9983     9.7678   102.6798    54.8420
 6345.0000    40.8170    50.8205      .6849      .3302      .4075   -81.1978    29.5226     9.7017   101.0558    52.3607
 6345.5000    40.9656    49.0278      .6375      .3101      .3947   -81.0760    30.8407     9.6623   103.2576    48.6805
 6346.0000    41.1453    47.4327      .6065      .2921      .3820   -81.2065    31.7291     9.6411   103.6895    45.6363
 6346.5000    41.3384    46.8937      .5947      .2777      .3691   -81.5530    31.6979     9.6318   102.0701    44.6224
 6347.0000    41.5273    46.8284      .5940      .2651      .3567   -81.9464    31.7722     9.6396   100.6151    42.7224
 6347.5000    41.5873    46.7607      .5962      .2533      .3461   -82.0251    31.9053     9.6703   101.5123    40.5330
 6348.0000    41.5563    46.5487      .5948      .2463      .3362   -82.1406    31.9919     9.7254   102.5813    39.1516
 6348.5000    41.3915    46.3077      .5797      .2578      .3450   -82.2743    31.6136     9.8066   102.9259    38.5326
 6349.0000    41.1791    46.0631      .5599      .2741      .3653   -81.1356    31.4078     9.7436   102.9325    39.4201
 6349.5000    40.4033    46.1271      .5335      .2965      .3869   -79.7371    31.1850     9.6851   103.0643    41.4921
 6350.0000    34.7680    46.0114      .5085      .3207      .4097   -78.4855    30.3646     9.6830    90.7898    43.7884
 6350.5000    28.9106    43.5532      .6499      .3482      .4386   -77.3107    25.7247     9.7242    51.8454    45.7513
 6351.0000    24.0150    40.8627      .9548      .3804      .4697   -76.6127    18.9118     9.6993    51.9146    44.9052
 6351.5000    20.8371    38.6490     1.4854      .4157      .5029   -76.1417    13.9971     9.6597    53.4427    43.4573
 6352.0000    19.9663    40.2695     2.3172      .4516      .5378   -75.6923    10.5171     9.6204    61.2167    42.0981
 6352.5000    21.1678    43.4855     2.7956      .4865      .5647   -75.2428     8.2962     9.5984    73.6232    45.3757
 6353.0000    25.4499    48.0806     2.0576      .5156      .5830   -74.5161    17.4546     9.5844    86.0297    49.8169
 6353.5000    30.5691    53.4199      .9404      .5292      .5976   -73.1501    21.5289     9.5776    98.4360    54.1956
 6354.0000    34.7328    59.6699      .7358      .5397      .6099   -70.1240    23.2162     9.5878   109.7456    58.7568
 6354.5000    38.6027    63.8539      .6692      .5510      .6247   -64.7119    23.4194     9.6246   109.6232    63.2319
 6355.0000    41.2390    68.3345      .6804      .5725      .6432   -60.5604    22.2783     9.6470   105.4698    65.8982
 6355.5000    42.1193    70.3550      .7028      .5993      .6704   -59.1332    21.1583     9.6364   101.8225    66.8157
 6356.0000    41.9536    71.5753      .7465      .6297      .7008   -58.3416    20.6030     9.6179    98.1804    66.1719
 6356.5000    41.3548    72.3857      .7967      .6646      .7344   -57.6833    21.0953     9.6473    94.5331    65.0264
 6357.0000    40.4865    72.0240      .8474      .7121      .7745   -57.0380    20.7308     9.6918    91.3516    64.3807
 6357.5000    39.7135    68.9121      .9006      .7532      .8205   -56.0915    19.7187     9.7313    87.6429    64.3560
 6358.0000    39.2146    65.1471      .9577      .7824      .8625   -54.6838    19.0804     9.6888    89.7249    65.8800
