~VERSION INFORMATION
VERS.                             2.0:   CWLS Log ASCII Standard-VERSION 2.0
WRAP.                              NO:   One line per depth step
~Well Information Block
STRT.F                      4122.0000:   Top Depth
STOP.F                     10958.0000:   Bottom Depth
STEP.F                         .50000:   Depth Increment
NULL.                        -999.250:   Null Value
FLD .                      GA BLK 273:   Field Name
WELL.       OCSG09037   003 ST00 BP00:   NAME
API .                  42706402950000:   WELL API
EDF .F                        95.0000:   ELEV DRILL FLOOR
COMP.       SEAGULL ENERGY E AND P IN:   OPERATOR
BN  .                             273:   BLOCK
CTRY.                             USA:   COUNTRY NAME
CNTY.                              GA:   COUNTY
CNTY.                        GLVSTN L:   COUNTY NAME
EKB .F                        96.0000:   ELEV KELLY BUSHING
TDD .F                      10964.000:   FINAL TD DRILLER
STAT.                           TEXAS:   STATE NAME
UWI .                  42706402950000:   WELL API
DICO.               IHS : Digitizing Company
~PARAMETER INFORMATION (zones)
#MNEM.UNIT                       Value     Description
#=========                       =====     ===========
#ZONATION                          DIL:   ZONATION NAME
#ZONE                            RUN_1:   ZONE NAME
TOP .                       4122.0000:   TOP DEPTH
BOT .                       9366.5000:   BOTTOM DEPTH
RUN .                               1:   RUN NUMBER
LCCD.                             440:   LOGGING CONTRACTOR
SRVC.                    Schlumberger:   LOGGING CONT NAME
DICO.          QC Data Collectors Ltd:   DIG COMPANY NAME
LDAT.                      05/20/1991:   DATE LOGGED
ELD .F                        96.0000:   LOG DATUM ELEVATION
TDD .F                      9360.0000:   TOTAL DEPTH DRILLER
TDL .F                      9366.0000:   TOTAL DEPTH LOGGER
BOTL.F                      9366.0000:   BOTTOM DEPTH LOGGED
TOPL.F                      4402.0000:   TOP DEPTH LOGGED
CS1 .IN                       10.7500:   CASING SIZE 1
BS1 .IN                        9.8750:   BIT SIZE 1
DDB1.F                      9360.0000:   DEPTH DRILLED BIT 1
BHF .                              81:   FLUID CODE
DPT .          Lignosulfonate (Ligno):   DRILLING FLUID TYPE
MUDD.                         12.5000:   FLUID DENSITY
MUDV.                         45.0000:   FLUID VISCOSITY
DFPH.                         10.0000:   FLUID PH
FL  .                          8.0000:   FLUID LOSS
RM  .OHMM                       .5080:   RM
RMT .DEGF                     67.0000:   RM TEMP
RMF .OHMM                       .3460:   RMF
RMFT.DEGF                     67.0000:   RMF TEMP
FSC .                               M:   RMF CODE
RMC .OHMM                       .6820:   RMC
RMCT.DEGF                     67.0000:   RMC TEMP
CMC .                               M:   RMC CODE
TMAX.DEGF                    170.0000:   MAX REC TEMP
TIMC.                          6.6800:   TIME SINCE CIRCLN
~PARAMETER INFORMATION (zones)
#MNEM.UNIT                       Value     Description
#=========                       =====     ===========
#ZONATION                          DIL:   ZONATION NAME
#ZONE                            RUN_2:   ZONE NAME
TOP .                       9092.0000:   TOP DEPTH
BOT .                      10398.5000:   BOTTOM DEPTH
RUN .                               2:   RUN NUMBER
LCCD.                             440:   LOGGING CONTRACTOR
SRVC.                    Schlumberger:   LOGGING CONT NAME
DICO.          QC Data Collectors Ltd:   DIG COMPANY NAME
LDAT.                      06/04/1991:   DATE LOGGED
ELD .F                        96.0000:   LOG DATUM ELEVATION
TDD .F                     10401.0000:   TOTAL DEPTH DRILLER
TDL .F                     10404.0000:   TOTAL DEPTH LOGGER
BOTL.F                     10398.0000:   BOTTOM DEPTH LOGGED
TOPL.F                      9292.0000:   TOP DEPTH LOGGED
CS1 .IN                        7.6250:   CASING SIZE 1
BS1 .IN                        6.7500:   BIT SIZE 1
DDB1.F                     10401.0000:   DEPTH DRILLED BIT 1
BHF .                              99:   FLUID CODE
DPT .                   Miscellaneous:   DRILLING FLUID TYPE
MUDD.                         14.1000:   FLUID DENSITY
MUDV.                         40.0000:   FLUID VISCOSITY
DFPH.                          9.8000:   FLUID PH
FL  .                          3.4000:   FLUID LOSS
RM  .OHMM                       .5160:   RM
RMT .DEGF                     80.0000:   RM TEMP
RMF .OHMM                       .2580:   RMF
RMFT.DEGF                     80.0000:   RMF TEMP
FSC .                               M:   RMF CODE
RMC .OHMM                      1.8700:   RMC
RMCT.DEGF                     80.0000:   RMC TEMP
CMC .                               M:   RMC CODE
TMAX.DEGF                    192.0000:   MAX REC TEMP
TIMC.                          7.4000:   TIME SINCE CIRCLN
~PARAMETER INFORMATION (zones)
#MNEM.UNIT                       Value     Description
#=========                       =====     ===========
#ZONATION                          DIL:   ZONATION NAME
#ZONE                            RUN_3:   ZONE NAME
TOP .                       9320.0000:   TOP DEPTH
BOT .                      10958.5000:   BOTTOM DEPTH
RUN .                               3:   RUN NUMBER
LCCD.                             440:   LOGGING CONTRACTOR
SRVC.                    Schlumberger:   LOGGING CONT NAME
DICO.          QC Data Collectors Ltd:   DIG COMPANY NAME
LDAT.                      06/09/1991:   DATE LOGGED
ELD .F                        96.0000:   LOG DATUM ELEVATION
TDD .F                     10960.0000:   TOTAL DEPTH DRILLER
TDL .F                     10964.0000:   TOTAL DEPTH LOGGER
BOTL.F                     10958.0000:   BOTTOM DEPTH LOGGED
TOPL.F                      9404.0000:   TOP DEPTH LOGGED
CS1 .IN                        7.6250:   CASING SIZE 1
BS1 .IN                        6.7500:   BIT SIZE 1
DDB1.F                     10960.0000:   DEPTH DRILLED BIT 1
BHF .                              99:   FLUID CODE
DPT .                   Miscellaneous:   DRILLING FLUID TYPE
MUDD.                         14.7000:   FLUID DENSITY
MUDV.                         46.0000:   FLUID VISCOSITY
DFPH.                         10.0000:   FLUID PH
FL  .                          2.3000:   FLUID LOSS
RM  .OHMM                       .4570:   RM
RMT .DEGF                     74.0000:   RM TEMP
RMF .OHMM                       .2190:   RMF
RMFT.DEGF                     74.0000:   RMF TEMP
FSC .                               M:   RMF CODE
RMC .OHMM                       .7110:   RMC
RMCT.DEGF                     74.0000:   RMC TEMP
CMC .                               M:   RMC CODE
TMAX.DEGF                    202.0000:   MAX REC TEMP
TIMC.                          7.3800:   TIME SINCE CIRCLN
~Curve Information Block
#MNEM.UNIT                    API CODE    No Description
#=========                    ========    == ===========
DEPT.F                   00 001 00 00:     1  DEPTH
DT.US/F                              :     2  Sonic Transit Time
GR.GAPI                              :     3  Gamma Ray
ILD.OHMM                             :     4  Deep Induction Resistivity
ILM.OHMM                             :     5  Medium Induction Resistivity
SFL.OHMM                             :     6  Medium Resistivity
SP.MV                                :     7  Spontaneous Potential
~ASCII
# ...
 4382.0000  -999.2500    24.3049  -999.2500  -999.2500  -999.2500  -999.2500
 4382.5000  -999.2500    25.8509  -999.2500  -999.2500  -999.2500  -999.2500
 4383.0000  -999.2500    25.7654  -999.2500  -999.2500  -999.2500  -999.2500
 4383.5000  -999.2500    24.3262  -999.2500  -999.2500  -999.2500  -999.2500
 4384.0000  -999.2500    22.0416  -999.2500  -999.2500  -999.2500  -999.2500
 4384.5000  -999.2500    20.2290  -999.2500  -999.2500  -999.2500  -999.2500
 4385.0000  -999.2500    19.1796  -999.2500  -999.2500  -999.2500  -999.2500
 4385.5000  -999.2500    19.3696  -999.2500  -999.2500  -999.2500  -999.2500
 4386.0000  -999.2500    19.7895  -999.2500  -999.2500  -999.2500  -999.2500
 4386.5000  -999.2500    20.3507  -999.2500  -999.2500  -999.2500  -999.2500
 4387.0000  -999.2500    20.9179  -999.2500  -999.2500  -999.2500  -999.2500
 4387.5000  -999.2500    21.6087  -999.2500  -999.2500  -999.2500  -999.2500
 4388.0000  -999.2500    22.3162  -999.2500  -999.2500  -999.2500  -999.2500
 4388.5000  -999.2500    23.2118  -999.2500  -999.2500  -999.2500  -999.2500
 4389.0000  -999.2500    23.7915  -999.2500  -999.2500  -999.2500  -999.2500
 4389.5000  -999.2500    23.0762  -999.2500  -999.2500  -999.2500  -999.2500
 4390.0000  -999.2500    22.1407  -999.2500  -999.2500  -999.2500  -999.2500
 4390.5000  -999.2500    21.2856  -999.2500  -999.2500  -999.2500  -999.2500
 4391.0000  -999.2500    20.4352  -999.2500  -999.2500  -999.2500  -999.2500
 4391.5000  -999.2500    19.6183  -999.2500  -999.2500  -999.2500  -999.2500
 4392.0000  -999.2500    20.1612  -999.2500  -999.2500  -999.2500  -999.2500
 4392.5000  -999.2500    22.0868  -999.2500  -999.2500  -999.2500  -999.2500
 4393.0000  -999.2500    24.2252  -999.2500  -999.2500  -999.2500  -999.2500
 4393.5000  -999.2500    25.9965  -999.2500  -999.2500  -999.2500  -999.2500
 4394.0000  -999.2500    26.3559  -999.2500  -999.2500  -999.2500  -999.2500
 4394.5000  -999.2500    26.0600  -999.2500  -999.2500  -999.2500  -999.2500
 4395.0000  -999.2500    26.3971  -999.2500  -999.2500  -999.2500  -999.2500
 4395.5000  -999.2500    26.7633  -999.2500  -999.2500  -999.2500  -999.2500
 4396.0000  -999.2500    26.7219  -999.2500  -999.2500  -999.2500  -999.2500
 4396.5000  -999.2500    26.2463  -999.2500  -999.2500  -999.2500  -999.2500
 4397.0000  -999.2500    25.9988  -999.2500  -999.2500  -999.2500  -999.2500
 4397.5000  -999.2500    25.8484  -999.2500  -999.2500  -999.2500  -999.2500
 4398.0000  -999.2500    25.9120  -999.2500  -999.2500  -999.2500  -999.2500
 4398.5000  -999.2500    27.3848  -999.2500  -999.2500  -999.2500  -999.2500
 4399.0000  -999.2500    28.9274  -999.2500  -999.2500  -999.2500  -999.2500
 4399.5000  -999.2500    30.1329  -999.2500  -999.2500  -999.2500  -999.2500
 4400.0000  -999.2500    29.9308  -999.2500  -999.2500  -999.2500  -999.2500
 4400.5000  -999.2500    28.5218  -999.2500  -999.2500  -999.2500  -999.2500
 4401.0000  -999.2500    27.0271  -999.2500  -999.2500  -999.2500  -999.2500
 4401.5000  -999.2500    26.6042  -999.2500  -999.2500  -999.2500  -999.2500
 4402.0000  -999.2500    27.8316     2.8028  1656.3320      .2433  -108.3346
 4402.5000  -999.2500    29.6269     1.8292  1412.6152      .3319  -101.1428
 4403.0000  -999.2500    31.5139    25.3051   946.5176      .4803   -94.0947
 4403.5000  -999.2500    33.4967    30.6322   480.4199      .7799   -89.2142
 4404.0000    80.0200    34.8884      .5568    14.3223      .9747   -84.7434
 4404.5000    79.8054    35.8857      .2976      .8071     1.1391   -81.2126
 4405.0000    80.4946    36.8356      .3078      .4975     1.2387   -80.1136
 4405.5000    83.7454    37.2661      .3184      .3890     1.2098   -79.6133
 4406.0000    92.3242    38.0646      .3717      .3658     1.1027   -78.9952
 4406.5000    95.9983    38.9716      .4854      .4524     1.1403   -78.3097
 4407.0000    93.4756    38.8273      .5941      .5863     1.2366   -77.6488
 4407.5000    88.2177    38.0248      .6886      .7689     1.1961   -77.0194
 4408.0000    77.8015    37.3339      .7823     1.0684     1.0647   -76.4742
 4408.5000  -999.2500    36.2674      .8028     1.2989      .9505   -75.8142
 4409.0000  -999.2500    35.4961      .7874     1.1642      .8827   -75.1008
 4409.5000  -999.2500    35.0612      .7466     1.0586      .9604   -74.2238
 4410.0000  -999.2500    34.7391      .6906      .9239     1.1352   -73.4452
 4410.5000   115.7531    34.4382      .6515      .8122     1.2055   -72.6865
 4411.0000   115.8275    34.1260      .6165      .7448     1.0491   -71.8540
 4411.5000   118.6465    34.2867      .5922      .6989      .8553   -71.0255
 4412.0000   120.9274    35.1882      .5729      .6665      .7323   -70.2090
 4412.5000   119.3071    36.9609      .5564      .6368      .6793   -69.5548
 4413.0000   118.5914    39.5660      .5416      .6109      .6789   -68.8732
 4413.5000   118.4753    41.8999      .5282      .5907      .6858   -68.1924
 4414.0000   119.3188    44.1433      .5170      .5781      .6830   -67.6079
 4414.5000   120.9493    45.6171      .5088      .5724      .6629   -67.1650
 4415.0000   116.8545    45.1168      .5015      .5728      .6414   -66.8658
 4415.5000   114.8265    41.9478      .4947      .5727      .6159   -66.7460
 4416.0000   114.6450    38.0301      .4918      .5637      .6022   -67.1704
 4416.5000   117.1917    34.7361      .4910      .5518      .6060   -68.4476
 4417.0000   120.1688    33.3304      .4927      .5509      .6183   -69.7722
 4417.5000   123.2782    33.8751      .4981      .5682      .6322   -71.2616
 4418.0000   124.8912    34.8146      .5037      .5833      .6451   -72.8455
 4418.5000   121.9037    35.7281      .5108      .5984      .6543   -74.3641
 4419.0000   119.4426    34.8917      .5182      .6182      .6680   -75.4492
 4419.5000   117.0710    34.1869      .5249      .6342      .6624   -75.8239
 4420.0000   114.9886    33.6130      .5241      .6299      .6311   -75.3481
 4420.5000   113.1240    33.7092      .5150      .6271      .6081   -74.9648
 4421.0000   112.7180    34.3990      .5025      .6209      .5948   -74.8816
 4421.5000   113.2043    35.3997      .4894      .6144      .5972   -74.8271
 4422.0000   114.2456    36.3765      .4749      .5864      .6048   -74.8938
 4422.5000   115.9806    37.2568      .4602      .5575      .6131   -75.1115
 4423.0000   117.9619    36.2840      .4415      .5295      .6205   -75.4689
 4423.5000   119.7383    35.4349      .4216      .5074      .6225   -75.9752
 4424.0000   121.0895    34.3092      .3997      .4842      .5945   -76.4257
 4424.5000   121.8684    32.6815      .3808      .4582      .5364   -76.8492
 4425.0000   121.4269    31.0997      .3621      .4209      .4726   -77.2358
 4425.5000   120.7698    30.2938      .3436      .3833      .4221   -77.6461
 4426.0000   120.1620    29.4454      .3254      .3546      .3868   -78.0400
 4426.5000   119.6223    28.6162      .3106      .3318      .3929   -78.3575
 4427.0000   120.3361    29.1279      .2986      .3167      .3976   -78.5916
 4427.5000   121.1659    29.1675      .2874      .3048      .4009   -78.7328
 4428.0000   121.7592    29.1993      .2835      .2971      .4031   -78.8240
 4428.5000   122.2354    29.0428      .2809      .2903      .3998   -78.9442
 4429.0000   122.5931    28.4241      .2793      .2852      .3909   -79.0568
 4429.5000   122.7872    27.6049      .2776      .2812      .3749   -79.1619
 4430.0000   123.0017    26.8682      .2758      .2784      .3583   -79.1639
 4430.5000   123.1066    26.9713      .2745      .2772      .3402   -79.0050
 4431.0000   123.1844    28.9806      .2744      .2769      .3190   -78.6888
 4431.5000   123.2971    31.3650      .2752      .2793      .3037   -78.3203
 4432.0000   123.0804    33.7653      .2774      .2849      .2972   -77.9500
 4432.5000   122.4296    35.9170      .2796      .2914      .2971   -77.6660
 4433.0000   121.8445    35.8189      .2831      .2965      .3047   -77.4728
 4433.5000   121.3550    35.5056      .2876      .2962      .3175   -77.3274
