~VERSION INFORMATION
VERS.                             2.0:   CWLS Log ASCII Standard-VERSION 2.0
WRAP.                              NO:   One line per depth step
~Well Information Block
STRT.F                       302.0000:   Top Depth
STOP.F                     11038.0000:   Bottom Depth
STEP.F                         .50000:   Depth Increment
NULL.                        -999.250:   Null Value
FLD .                         WILDCAT:   Field Name
WELL.       OCSG04565   001 ST00 BP00:   NAME
API .                    42706400940000:   WELL API
EDF .F                        76.8000:   ELEV DRILL FLOOR
COMP.                  TENNECO OIL CO:   OPERATOR
BN  .                             303:   BLOCK
CTRY.                             USA:   COUNTRY NAME
CNTY.                              GA:   COUNTY
CNTY.                        GLVSTN L:   COUNTY NAME
EKB .F                        79.0000:   ELEV KELLY BUSHING
TDD .F                      11050.000:   FINAL TD DRILLER
STAT.                           TEXAS:   STATE NAME
UWI .                    42706400940000:   WELL API
DICO.               IHS : Digitizing Company
~PARAMETER INFORMATION (zones)
#MNEM.UNIT                       Value     Description
#=========                       =====     ===========
#ZONATION                          CNL:   ZONATION NAME
#ZONE                            RUN_1:   ZONE NAME
TOP .                       4297.0000:   TOP DEPTH
BOT .                       7582.5000:   BOTTOM DEPTH
RUN .                               1:   RUN NUMBER
LCCD.                              20:   LOGGING CONTRACTOR
SRVC.                          Baroil:   LOGGING CONT NAME
DICO.          QC Data Collectors Ltd:   DIG COMPANY NAME
LDAT.                      03/12/1983:   DATE LOGGED
ELD .F                        77.8000:   LOG DATUM ELEVATION
TDD .F                      7587.0000:   TOTAL DEPTH DRILLER
TDL .F                      7584.0000:   TOTAL DEPTH LOGGER
BOTL.F                      7582.0000:   BOTTOM DEPTH LOGGED
TOPL.F                      4300.0000:   TOP DEPTH LOGGED
CS1 .IN                       13.3750:   CASING SIZE 1
BS1 .IN                       12.2500:   BIT SIZE 1
DDB1.F                      7587.0000:   DEPTH DRILLED BIT 1
BHF .                              70:   FLUID CODE
DPT .                       Phosphate:   DRILLING FLUID TYPE
MUDD.                         13.5000:   FLUID DENSITY
MUDV.                         49.0000:   FLUID VISCOSITY
DFPH.                         11.4000:   FLUID PH
FL  .                         12.8000:   FLUID LOSS
RM  .OHMM                       .0680:   RM
RMT .DEGF                     65.0000:   RM TEMP
RMF .OHMM                       .0530:   RMF
RMFT.DEGF                     65.0000:   RMF TEMP
FSC .                               M:   RMF CODE
RMC .OHMM                       .1020:   RMC
RMCT.DEGF                     65.0000:   RMC TEMP
CMC .                               C:   RMC CODE
TMAX.DEGF                    161.0000:   MAX REC TEMP
TIMC.                         10.0000:   TIME SINCE CIRCLN
~PARAMETER INFORMATION (zones)
#MNEM.UNIT                       Value     Description
#=========                       =====     ===========
#ZONATION                          DIL:   ZONATION NAME
#ZONE                            RUN_1:   ZONE NAME
TOP .                        302.0000:   TOP DEPTH
BOT .                      11038.5000:   BOTTOM DEPTH
RUN .                               1:   RUN NUMBER
LCCD.                             150:   LOGGING CONTRACTOR
SRVC.                   Dresser Atlas:   LOGGING CONT NAME
DICO.          QC Data Collectors Ltd:   DIG COMPANY NAME
LDAT.                      02/22/1983:   DATE LOGGED
ELD .F                        77.8000:   LOG DATUM ELEVATION
TDD .F                       841.0000:   TOTAL DEPTH DRILLER
TDL .F                       832.0000:   TOTAL DEPTH LOGGER
BOTL.F                     11038.0000:   BOTTOM DEPTH LOGGED
TOPL.F                       302.0000:   TOP DEPTH LOGGED
CS1 .IN                       30.6250:   CASING SIZE 1
BS1 .IN                       17.5000:   BIT SIZE 1
DDB1.F                       841.0000:   DEPTH DRILLED BIT 1
BHF .                              99:   FLUID CODE
DPT .                   Miscellaneous:   DRILLING FLUID TYPE
MUDD.                          8.7000:   FLUID DENSITY
MUDV.                         50.0000:   FLUID VISCOSITY
DFPH.                         12.0000:   FLUID PH
FL  .                         20.4000:   FLUID LOSS
RM  .OHMM                      1.1500:   RM
RMT .DEGF                     65.0000:   RM TEMP
RMF .OHMM                       .8000:   RMF
RMFT.DEGF                     65.0000:   RMF TEMP
FSC .                               M:   RMF CODE
RMC .OHMM                      1.4300:   RMC
RMCT.DEGF                     65.0000:   RMC TEMP
CMC .                               C:   RMC CODE
TMAX.DEGF                     85.0000:   MAX REC TEMP
TIMC.                          3.0000:   TIME SINCE CIRCLN
~PARAMETER INFORMATION (zones)
#MNEM.UNIT                       Value     Description
#=========                       =====     ===========
#ZONATION                          FDC:   ZONATION NAME
#ZONE                            RUN_4:   ZONE NAME
TOP .                      11038.0000:   TOP DEPTH
BOT .                      11040.0000:   BOTTOM DEPTH
RUN .                               4:   RUN NUMBER
LCCD.                             150:   LOGGING CONTRACTOR
SRVC.                   Dresser Atlas:   LOGGING CONT NAME
DICO.          QC Data Collectors Ltd:   DIG COMPANY NAME
LDAT.                      03/25/1983:   DATE LOGGED
ELD .F                        77.8000:   LOG DATUM ELEVATION
TDD .F                     11050.0000:   TOTAL DEPTH DRILLER
TDL .F                     11040.0000:   TOTAL DEPTH LOGGER
BOTL.F                     11038.0000:   BOTTOM DEPTH LOGGED
TOPL.F                      7555.0000:   TOP DEPTH LOGGED
CS1 .IN                        9.6250:   CASING SIZE 1
BS1 .IN                        8.5000:   BIT SIZE 1
DDB1.F                     11050.0000:   DEPTH DRILLED BIT 1
BHF .                              99:   FLUID CODE
DPT .                   Miscellaneous:   DRILLING FLUID TYPE
MUDD.                         16.6000:   FLUID DENSITY
MUDV.                         50.0000:   FLUID VISCOSITY
DFPH.                         11.4000:   FLUID PH
FL  .                         10.0000:   FLUID LOSS
RM  .OHMM                      1.7000:   RM
RMT .DEGF                     75.0000:   RM TEMP
RMF .OHMM                      1.2000:   RMF
RMFT.DEGF                     75.0000:   RMF TEMP
FSC .                               M:   RMF CODE
RMC .OHMM                      2.2000:   RMC
RMCT.DEGF                     75.0000:   RMC TEMP
CMC .                               M:   RMC CODE
TMAX.DEGF                    228.0000:   MAX REC TEMP
TIMC.                          4.0000:   TIME SINCE CIRCLN
~PARAMETER INFORMATION (zones)
#MNEM.UNIT                       Value     Description
#=========                       =====     ===========
#ZONATION                          FDC:   ZONATION NAME
#ZONE                            RUN_2:   ZONE NAME
TOP .                       4512.0000:   TOP DEPTH
BOT .                       7583.5000:   BOTTOM DEPTH
RUN .                               2:   RUN NUMBER
LCCD.                             150:   LOGGING CONTRACTOR
SRVC.                   Dresser Atlas:   LOGGING CONT NAME
DICO.          QC Data Collectors Ltd:   DIG COMPANY NAME
LDAT.                      02/28/1983:   DATE LOGGED
ELD .F                        77.8000:   LOG DATUM ELEVATION
TDD .F                      4512.0000:   TOTAL DEPTH DRILLER
TDL .F                      4505.0000:   TOTAL DEPTH LOGGER
BOTL.F                      7583.0000:   BOTTOM DEPTH LOGGED
TOPL.F                      4512.0000:   TOP DEPTH LOGGED
CS1 .IN                       20.0000:   CASING SIZE 1
BS1 .IN                       17.5000:   BIT SIZE 1
DDB1.F                      4512.0000:   DEPTH DRILLED BIT 1
BHF .                              99:   FLUID CODE
DPT .                   Miscellaneous:   DRILLING FLUID TYPE
MUDD.                          9.4000:   FLUID DENSITY
MUDV.                         40.0000:   FLUID VISCOSITY
DFPH.                         12.0000:   FLUID PH
FL  .                         38.0000:   FLUID LOSS
RM  .OHMM                       .2900:   RM
RMT .DEGF                     65.0000:   RM TEMP
RMF .OHMM                       .2100:   RMF
RMFT.DEGF                     65.0000:   RMF TEMP
FSC .                               M:   RMF CODE
RMC .OHMM                       .3400:   RMC
RMCT.DEGF                     65.0000:   RMC TEMP
CMC .                               C:   RMC CODE
TMAX.DEGF                     90.0000:   MAX REC TEMP
TIMC.                          3.0000:   TIME SINCE CIRCLN
~PARAMETER INFORMATION (zones)
#MNEM.UNIT                       Value     Description
#=========                       =====     ===========
#ZONATION                          FDC:   ZONATION NAME
#ZONE                            RUN_1:   ZONE NAME
TOP .                       4297.0000:   TOP DEPTH
BOT .                       7582.5000:   BOTTOM DEPTH
RUN .                               1:   RUN NUMBER
LCCD.                              20:   LOGGING CONTRACTOR
SRVC.                          Baroil:   LOGGING CONT NAME
DICO.          QC Data Collectors Ltd:   DIG COMPANY NAME
LDAT.                      03/12/1983:   DATE LOGGED
ELD .F                        77.8000:   LOG DATUM ELEVATION
TDD .F                      7587.0000:   TOTAL DEPTH DRILLER
TDL .F                      7584.0000:   TOTAL DEPTH LOGGER
BOTL.F                      7582.0000:   BOTTOM DEPTH LOGGED
TOPL.F                      4300.0000:   TOP DEPTH LOGGED
CS1 .IN                       13.3750:   CASING SIZE 1
BS1 .IN                       12.2500:   BIT SIZE 1
DDB1.F                      7587.0000:   DEPTH DRILLED BIT 1
BHF .                              70:   FLUID CODE
DPT .                       Phosphate:   DRILLING FLUID TYPE
MUDD.                         13.5000:   FLUID DENSITY
MUDV.                         49.0000:   FLUID VISCOSITY
DFPH.                         11.4000:   FLUID PH
FL  .                         12.8000:   FLUID LOSS
RM  .OHMM                       .0680:   RM
RMT .DEGF                     65.0000:   RM TEMP
RMF .OHMM                       .0530:   RMF
RMFT.DEGF                     65.0000:   RMF TEMP
FSC .                               M:   RMF CODE
RMC .OHMM                       .1020:   RMC
RMCT.DEGF                     65.0000:   RMC TEMP
CMC .                               C:   RMC CODE
TMAX.DEGF                    161.0000:   MAX REC TEMP
TIMC.                         10.0000:   TIME SINCE CIRCLN
~Curve Information Block
#MNEM.UNIT                    API CODE    No Description
#=========                    ========    == ===========
DEPT.F                   00 001 00 00:     1  DEPTH
NPHI.%                               :     2  Neutron Porosity
CILD.MMHO                            :     3  Deep Induction Conductivity
DT.US/F                              :     4  Sonic Transit Time
GR1.GAPI                              :     5  Gamma Ray
ILD.OHMM                             :     6  Deep Induction Resistivity
ILM.OHMM                             :     7  Medium Induction Resistivity
LN.OHMM                              :     8  Medium Resistivity
RFOC.OHMM                            :     9  Medium Resistivity
SN.OHMM                              :    10  Short-Normal Resistivity
SP.MV                                :    11  Spontaneous Potential
CALI.IN                              :    12  Caliper
DRHO.G/C3                            :    13  Bulk Density Correction
GR2.GAPI                              :    14  Gamma Ray
RHOB.G/C3                            :    15  Bulk Density
~ASCII
# ...
 9661.0000  -999.2500  1832.8555   111.5862    52.6606      .5299      .6444  -999.2500      .9336  -999.2500   -61.7767  -999.2500  -999.2500  -999.2500  -999.2500
 9661.5000  -999.2500  1827.8848   113.8568    55.1341      .5296      .6512  -999.2500      .8734  -999.2500   -57.7985  -999.2500  -999.2500  -999.2500  -999.2500
 9662.0000  -999.2500  1814.5586   116.4271    57.9075      .5305      .6481  -999.2500      .8166  -999.2500   -55.4480  -999.2500  -999.2500  -999.2500  -999.2500
 9662.5000  -999.2500  1819.0332   118.7151    60.3416      .5347      .6808  -999.2500      .7961  -999.2500   -55.5341  -999.2500  -999.2500  -999.2500  -999.2500
 9663.0000  -999.2500  1838.4902   119.0146    59.8302      .5390      .6992  -999.2500      .8528  -999.2500   -56.4758  -999.2500  -999.2500  -999.2500  -999.2500
 9663.5000  -999.2500  1859.8008   116.2141    57.0421      .5372      .6818  -999.2500      .9141  -999.2500   -57.3228  -999.2500  -999.2500  -999.2500  -999.2500
 9664.0000  -999.2500  1876.0195   113.8828    54.5513      .5326      .6531  -999.2500      .9782  -999.2500   -57.7334  -999.2500  -999.2500  -999.2500  -999.2500
 9664.5000  -999.2500  1864.5723   116.0804    53.2778      .5281      .6349  -999.2500      .9124  -999.2500   -56.9330  -999.2500  -999.2500  -999.2500  -999.2500
 9665.0000  -999.2500  1852.1875   119.5125    53.0906      .5276      .6247  -999.2500      .8304  -999.2500   -55.0497  -999.2500  -999.2500  -999.2500  -999.2500
 9665.5000  -999.2500  1834.4609   122.7166    53.0538      .5301      .6315  -999.2500      .7741  -999.2500   -53.3770  -999.2500  -999.2500  -999.2500  -999.2500
 9666.0000  -999.2500  1834.1641   123.5287    53.4843      .5327      .6383  -999.2500      .8256  -999.2500   -53.5486  -999.2500  -999.2500  -999.2500  -999.2500
 9666.5000  -999.2500  1844.8320   121.7360    54.8391      .5338      .6392  -999.2500      .8464  -999.2500   -54.3441  -999.2500  -999.2500  -999.2500  -999.2500
 9667.0000  -999.2500  1850.4805   120.3488    56.1790      .5336      .6332  -999.2500      .8529  -999.2500   -54.8490  -999.2500  -999.2500  -999.2500  -999.2500
 9667.5000  -999.2500  1856.1172   119.8739    57.3346      .5333      .6273  -999.2500      .8482  -999.2500   -54.7768  -999.2500  -999.2500  -999.2500  -999.2500
 9668.0000  -999.2500  1861.7676   120.3022    58.3992      .5331      .6215  -999.2500      .8436  -999.2500   -54.4928  -999.2500  -999.2500  -999.2500  -999.2500
 9668.5000  -999.2500  1872.7070   121.3695    57.7919      .5305      .6116  -999.2500      .8391  -999.2500   -53.9433  -999.2500  -999.2500  -999.2500  -999.2500
 9669.0000  -999.2500  1883.8066   122.3884    56.7126      .5249      .6008  -999.2500      .8374  -999.2500   -53.7142  -999.2500  -999.2500  -999.2500  -999.2500
 9669.5000  -999.2500  1894.9082   123.0236    56.0075      .5193      .5902  -999.2500      .8362  -999.2500   -53.7491  -999.2500  -999.2500  -999.2500  -999.2500
 9670.0000  -999.2500  1906.0078   123.6599    56.5699      .5138      .5826  -999.2500      .8350  -999.2500   -53.7627  -999.2500  -999.2500  -999.2500  -999.2500
 9670.5000  -999.2500  1938.1719   124.2017    58.6525      .5040      .5759  -999.2500      .8341  -999.2500   -53.7737  -999.2500  -999.2500  -999.2500  -999.2500
 9671.0000  -999.2500  1974.4648   124.4047    60.0982      .4938      .5692  -999.2500      .8349  -999.2500   -53.4694  -999.2500  -999.2500  -999.2500  -999.2500
 9671.5000  -999.2500  2010.7578   124.4871    61.1167      .4838      .5625  -999.2500      .8357  -999.2500   -53.0710  -999.2500  -999.2500  -999.2500  -999.2500
 9672.0000  -999.2500  2049.3750   125.1333    60.6551      .4740      .5558  -999.2500      .8365  -999.2500   -53.0022  -999.2500  -999.2500  -999.2500  -999.2500
 9672.5000  -999.2500  2102.9727   125.7795    59.9802      .4645      .5492  -999.2500      .8369  -999.2500   -53.1872  -999.2500  -999.2500  -999.2500  -999.2500
 9673.0000  -999.2500  2156.4727   126.7156    59.3704      .4551      .5410  -999.2500      .8365  -999.2500   -53.1538  -999.2500  -999.2500  -999.2500  -999.2500
 9673.5000  -999.2500  2204.9805   127.6342    58.9973      .4465      .5302  -999.2500      .8361  -999.2500   -52.9930  -999.2500  -999.2500  -999.2500  -999.2500
 9674.0000  -999.2500  2243.3477   128.2371    59.4799      .4395      .5196  -999.2500      .8356  -999.2500   -52.4521  -999.2500  -999.2500  -999.2500  -999.2500
 9674.5000  -999.2500  2276.1914   128.8208    60.3220      .4325      .5128  -999.2500      .8340  -999.2500   -51.9124  -999.2500  -999.2500  -999.2500  -999.2500
 9675.0000  -999.2500  2283.0273   129.2332    61.5218      .4257      .5091  -999.2500      .8323  -999.2500   -51.5516  -999.2500  -999.2500  -999.2500  -999.2500
 9675.5000  -999.2500  2289.8633   129.3330    62.7217      .4231      .5088  -999.2500      .8306  -999.2500   -51.2756  -999.2500  -999.2500  -999.2500  -999.2500
 9676.0000  -999.2500  2243.1016   128.7187    63.8649      .4269      .5132  -999.2500      .8308  -999.2500   -51.0214  -999.2500  -999.2500  -999.2500  -999.2500
 9676.5000  -999.2500  2194.8438   128.0452    64.7347      .4307      .5176  -999.2500      .8325  -999.2500   -51.0128  -999.2500  -999.2500  -999.2500  -999.2500
 9677.0000  -999.2500  2139.0664   127.5575    63.3953      .4381      .5282  -999.2500      .8341  -999.2500   -50.9957  -999.2500  -999.2500  -999.2500  -999.2500
 9677.5000  -999.2500  2048.4844   127.0536    61.6767      .4552      .5427  -999.2500      .8404  -999.2500   -50.8781  -999.2500  -999.2500  -999.2500  -999.2500
 9678.0000  -999.2500  1957.9004   125.9950    60.6182      .4730      .5577  -999.2500      .8493  -999.2500   -50.7601  -999.2500  -999.2500  -999.2500  -999.2500
 9678.5000  -999.2500  1884.5234   124.9364    59.7305      .4931      .5731  -999.2500      .8581  -999.2500   -50.6754  -999.2500  -999.2500  -999.2500  -999.2500
 9679.0000  -999.2500  1813.1250   123.8258    59.7982      .5152      .5866  -999.2500      .8658  -999.2500   -50.6095  -999.2500  -999.2500  -999.2500  -999.2500
 9679.5000  -999.2500  1750.1309   122.7115    60.9194      .5380      .5994  -999.2500      .8736  -999.2500   -50.5436  -999.2500  -999.2500  -999.2500  -999.2500
 9680.0000  -999.2500  1694.2578   121.6047    62.0308      .5609      .6125  -999.2500      .8767  -999.2500   -50.7820  -999.2500  -999.2500  -999.2500  -999.2500
 9680.5000  -999.2500  1678.2129   120.5078    63.1273      .5833      .6250  -999.2500      .8750  -999.2500   -51.2565  -999.2500  -999.2500  -999.2500  -999.2500
 9681.0000  -999.2500  1679.8437   119.4133    63.8373      .5880      .6341  -999.2500      .8734  -999.2500   -51.7316  -999.2500  -999.2500  -999.2500  -999.2500
 9681.5000  -999.2500  1692.8242   118.7089    64.0005      .5881      .6433  -999.2500      .8801  -999.2500   -52.6266  -999.2500  -999.2500  -999.2500  -999.2500
 9682.0000  -999.2500  1697.8594   119.1335    63.6990      .5849      .6527  -999.2500      .8868  -999.2500   -53.4503  -999.2500  -999.2500  -999.2500  -999.2500
 9682.5000  -999.2500  1697.1367   120.7654    63.1052      .5841      .6454  -999.2500      .8953  -999.2500   -53.9261  -999.2500  -999.2500  -999.2500  -999.2500
 9683.0000  -999.2500  1696.4141   122.0157    62.5317      .5868      .6341  -999.2500      .8772  -999.2500   -53.0839  -999.2500  -999.2500  -999.2500  -999.2500
 9683.5000  -999.2500  1695.0859   123.1239    62.0191      .5895      .6295  -999.2500      .8503  -999.2500   -52.2406  -999.2500  -999.2500  -999.2500  -999.2500
 9684.0000  -999.2500  1697.3242   122.6893    61.5275      .5910      .6354  -999.2500      .8438  -999.2500   -51.7464  -999.2500  -999.2500  -999.2500  -999.2500
 9684.5000  -999.2500  1736.3848   121.3497    61.5403      .5923      .6399  -999.2500      .8497  -999.2500   -51.3499  -999.2500  -999.2500  -999.2500  -999.2500
 9685.0000  -999.2500  1776.9805   119.7501    61.4019      .5693      .6433  -999.2500      .8684  -999.2500   -50.9535  -999.2500  -999.2500  -999.2500  -999.2500
