~VERSION INFORMATION
VERS.                             2.0:   CWLS Log ASCII Standard-VERSION 2.0
WRAP.                              NO:   One line per depth step
~Well Information Block
STRT.F                      3120.0000:   Top Depth
STOP.F                     12040.0000:   Bottom Depth
STEP.F                         .50000:   Depth Increment
NULL.                        -999.250:   Null Value
FLD .                      GA BLK 254:   Field Name
WELL.       OCSG01776   001 ST00 BP00:   NAME
API .                    42706300290000:   WELL API
R1  .                      SUN OIL CO:   COMMENT  1
EDF .F                        57.0000:   ELEV DRILL FLOOR
COMP.                      SUN OIL CO:   OPERATOR
BN  .                             254:   BLOCK
CTRY.                             USA:   COUNTRY NAME
CNTY.                              GA:   COUNTY
CNTY.                        GLVSTN L:   COUNTY NAME
EKB .F                        58.0000:   ELEV KELLY BUSHING
TDD .F                      12003.000:   FINAL TD DRILLER
STAT.                           TEXAS:   STATE NAME
UWI .                    42706300290000:   WELL API
DICO.               IHS : Digitizing Company
~PARAMETER INFORMATION (zones)
#MNEM.UNIT                       Value     Description
#=========                       =====     ===========
#ZONATION                           IE:   ZONATION NAME
#ZONE                            RUN_2:   ZONE NAME
TOP .                       7847.0000:   TOP DEPTH
BOT .                      10079.0000:   BOTTOM DEPTH
RUN .                               2:   RUN NUMBER
LCCD.                             440:   LOGGING CONTRACTOR
SRVC.                    Schlumberger:   LOGGING CONT NAME
DICO.          QC Data Collectors Ltd:   DIG COMPANY NAME
LDAT.                      11/28/1970:   DATE LOGGED
ELD .F                        58.0000:   LOG DATUM ELEVATION
TDD .F                     10076.0000:   TOTAL DEPTH DRILLER
TDL .F                     10080.0000:   TOTAL DEPTH LOGGER
BOTL.F                     10079.0000:   BOTTOM DEPTH LOGGED
TOPL.F                      7847.0000:   TOP DEPTH LOGGED
CS1 .IN                        9.6250:   CASING SIZE 1
BS1 .IN                        8.5000:   BIT SIZE 1
DDB1.F                     10076.0000:   DEPTH DRILLED BIT 1
BHF .                              99:   FLUID CODE
DPT .                   Miscellaneous:   DRILLING FLUID TYPE
MUDD.                         15.4000:   FLUID DENSITY
MUDV.                         48.0000:   FLUID VISCOSITY
DFPH.                         11.5000:   FLUID PH
FL  .                          3.2000:   FLUID LOSS
RM  .OHMM                       .8400:   RM
RMT .DEGF                     75.0000:   RM TEMP
RMF .OHMM                       .4600:   RMF
RMFT.DEGF                     75.0000:   RMF TEMP
FSC .                               M:   RMF CODE
RMC .OHMM                      1.3100:   RMC
RMCT.DEGF                     75.0000:   RMC TEMP
CMC .                               C:   RMC CODE
TMAX.DEGF                    202.0000:   MAX REC TEMP
TIMC.                          3.5000:   TIME SINCE CIRCLN
~PARAMETER INFORMATION (zones)
#MNEM.UNIT                       Value     Description
#=========                       =====     ===========
#ZONATION                           IE:   ZONATION NAME
#ZONE                            RUN_3:   ZONE NAME
TOP .                      10074.0000:   TOP DEPTH
BOT .                      12002.0000:   BOTTOM DEPTH
RUN .                               3:   RUN NUMBER
LCCD.                             440:   LOGGING CONTRACTOR
SRVC.                    Schlumberger:   LOGGING CONT NAME
DICO.          QC Data Collectors Ltd:   DIG COMPANY NAME
LDAT.                      12/17/1970:   DATE LOGGED
ELD .F                        58.0000:   LOG DATUM ELEVATION
TDD .F                     12000.0000:   TOTAL DEPTH DRILLER
TDL .F                     12003.0000:   TOTAL DEPTH LOGGER
BOTL.F                     12002.0000:   BOTTOM DEPTH LOGGED
TOPL.F                     10074.0000:   TOP DEPTH LOGGED
CS1 .IN                        7.6250:   CASING SIZE 1
BS1 .IN                        6.5000:   BIT SIZE 1
DDB1.F                     12000.0000:   DEPTH DRILLED BIT 1
BHF .                              99:   FLUID CODE
DPT .                   Miscellaneous:   DRILLING FLUID TYPE
MUDD.                         15.9000:   FLUID DENSITY
MUDV.                         48.0000:   FLUID VISCOSITY
DFPH.                         12.0000:   FLUID PH
FL  .                          3.0000:   FLUID LOSS
RM  .OHMM                      1.0500:   RM
RMT .DEGF                     70.0000:   RM TEMP
RMF .OHMM                       .5100:   RMF
RMFT.DEGF                     70.0000:   RMF TEMP
FSC .                               M:   RMF CODE
RMC .OHMM                      1.3000:   RMC
RMCT.DEGF                     70.0000:   RMC TEMP
CMC .                               C:   RMC CODE
TMAX.DEGF                    240.0000:   MAX REC TEMP
TIMC.                          5.0000:   TIME SINCE CIRCLN
~PARAMETER INFORMATION (zones)
#MNEM.UNIT                       Value     Description
#=========                       =====     ===========
#ZONATION                           IE:   ZONATION NAME
#ZONE                            RUN_1:   ZONE NAME
TOP .                       3120.0000:   TOP DEPTH
BOT .                      12002.5000:   BOTTOM DEPTH
RUN .                               1:   RUN NUMBER
LCCD.                             440:   LOGGING CONTRACTOR
SRVC.                    Schlumberger:   LOGGING CONT NAME
DICO.          QC Data Collectors Ltd:   DIG COMPANY NAME
LDAT.                      11/19/1970:   DATE LOGGED
ELD .F                        58.0000:   LOG DATUM ELEVATION
TDD .F                      7850.0000:   TOTAL DEPTH DRILLER
TDL .F                      7847.0000:   TOTAL DEPTH LOGGER
BOTL.F                      7847.0000:   BOTTOM DEPTH LOGGED
TOPL.F                      3120.0000:   TOP DEPTH LOGGED
CS1 .IN                       13.3750:   CASING SIZE 1
BS1 .IN                       12.2500:   BIT SIZE 1
DDB1.F                      7850.0000:   DEPTH DRILLED BIT 1
BHF .                              99:   FLUID CODE
DPT .                   Miscellaneous:   DRILLING FLUID TYPE
MUDD.                         12.5000:   FLUID DENSITY
MUDV.                         46.0000:   FLUID VISCOSITY
DFPH.                         10.5000:   FLUID PH
FL  .                          4.0000:   FLUID LOSS
RM  .OHMM                       .7900:   RM
RMT .DEGF                     80.0000:   RM TEMP
RMF .OHMM                       .5200:   RMF
RMFT.DEGF                     75.0000:   RMF TEMP
FSC .                               M:   RMF CODE
RMC .OHMM                      1.2300:   RMC
RMCT.DEGF                     75.0000:   RMC TEMP
CMC .                               M:   RMC CODE
TMAX.DEGF                    152.0000:   MAX REC TEMP
TIMC.                          4.0000:   TIME SINCE CIRCLN
~Curve Information Block
#MNEM.UNIT         API  CODE                       CURVE DESCRIPTION
#---------        ------------                    --------------------
 DEPT.F           00 001 00 00                    :1   DEPTH
 C1-3.IN          00 000 00 00                    :2
 C2-4.IN          00 000 00 00                    :3
 CALI.IN          00 000 00 00                    :4   Density Caliper
 CILD.MMHO        00 000 00 00                    :5   Deep Induction Conductivity
 CORR.G/CC        00 000 00 00                    :6   Density Correction
 DT  .US/FT       00 000 00 00                    :7   Delta-T Compressional
 GR  .API         00 000 00 00                    :8   Gamma Ray
 ILD .OHMM        00 000 00 00                    :9   Induction Deep Resistivity
 IND .OHMM        00 000 00 00                    :10
 RHOB.G/CC        00 000 00 00                    :11  Bulk Density
 SN16.OHMM        00 000 00 00                    :12  Short Normal 16 Inch
 SP  .MV          00 000 00 00                    :13  Spontaneous Potential
~A    DEPT        C1-3        C2-4        CALI        CILD        CORR          DT          GR         ILD         IND        RHOB        SN16          SP
# ...
   5950.5000     12.0800     11.7928   -999.2500   2201.9414   -999.2500    104.7000   -999.2500      0.5297      0.4200   -999.2500      0.5804    -86.8627
   5951.0000     11.9180     11.7953   -999.2500   2396.1719   -999.2500    104.4000   -999.2500      0.4911      0.3800   -999.2500      0.5137    -89.6078
   5951.5000     11.7567     11.7567   -999.2500   2451.2813   -999.2500    105.0980   -999.2500      0.4493      0.3400   -999.2500      0.4431    -92.8000
   5952.0000     11.8394     11.7189   -999.2500   2505.9844   -999.2500    105.9804   -999.2500      0.4076      0.3400   -999.2500      0.3960    -94.6000
   5952.5000     11.9200     11.7200   -999.2500   2587.8633   -999.2500    106.2745   -999.2500      0.3658      0.3200   -999.2500      0.3600    -95.0000
   5953.0000     11.9200     11.7200   -999.2500   2629.5625   -999.2500    105.8824   -999.2500      0.3240      0.3200   -999.2500      0.3360    -94.4000
   5953.5000     11.9200     11.7600   -999.2500   2661.5898   -999.2500    104.9000   -999.2500      0.2939      0.3200   -999.2500      0.3200    -93.0000
   5954.0000     11.9600     11.8000   -999.2500   2664.7617   -999.2500    104.0000   -999.2500      0.2862      0.3200   -999.2500      0.3000    -91.4000
   5954.5000     12.0000     11.8409   -999.2500   2498.0625   -999.2500    104.0000   -999.2500      0.2786      0.3400   -999.2500      0.2880    -90.0000
   5955.0000     12.0400     11.8425   -999.2500   2424.3125   -999.2500    104.8000   -999.2500      0.2709      0.3400   -999.2500      0.2800    -88.6275
   5955.5000     12.0400     11.8830   -999.2500   2341.0117   -999.2500    106.0784   -999.2500      0.2632      0.3400   -999.2500      0.2720    -87.4510
   5956.0000     12.0400     11.9228   -999.2500   2277.2656   -999.2500    107.0588   -999.2500      0.2583      0.3400   -999.2500      0.2720    -86.6667
   5956.5000     12.0400     11.8846   -999.2500   2224.8477   -999.2500    108.3333   -999.2500      0.2535      0.3400   -999.2500      0.2720    -86.0784
   5957.0000     12.0400     11.8462   -999.2500   2175.3242   -999.2500    109.5098   -999.2500      0.2487      0.3400   -999.2500      0.2680    -85.2941
   5957.5000     11.9615     11.7692   -999.2500   2132.7617   -999.2500    110.4000   -999.2500      0.2440      0.3400   -999.2500      0.2680    -84.7059
   5958.0000     11.8846     11.6538   -999.2500   2102.4648   -999.2500    111.1000   -999.2500      0.2392      0.3400   -999.2500      0.2720    -83.1373
   5958.5000     11.8506     11.5797   -999.2500   2084.4570   -999.2500    111.7000   -999.2500      0.2344      0.3430   -999.2500      0.2804    -83.1373
   5959.0000     11.8586     11.5863   -999.2500   2081.8164   -999.2500    111.8000   -999.2500      0.2296      0.3480   -999.2500      0.2810    -85.2941
   5959.5000     11.8683     11.6709   -999.2500   2108.1523   -999.2500    111.7000   -999.2500      0.2274      0.3530   -999.2500      0.2736    -89.6078
   5960.0000     11.8766     11.7571   -999.2500   2195.7461   -999.2500    110.6000   -999.2500      0.2258      0.3580   -999.2500      0.2743    -92.6000
   5960.5000     11.8800     11.7600   -999.2500   2422.7891   -999.2500    110.5984   -999.2500      0.2243      0.3600   -999.2500      0.2745    -93.4000
   5961.0000     11.8800     11.7200   -999.2500   2693.0039   -999.2500    110.4960   -999.2500      0.2235      0.3600   -999.2500      0.2706    -93.0000
   5961.5000     11.8800     11.6400   -999.2500   2802.4102   -999.2500    110.0000   -999.2500      0.2232      0.3600   -999.2500      0.2627    -92.8000
   5962.0000     11.8400     11.6400   -999.2500   2928.7813   -999.2500    110.4911   -999.2500      0.2230      0.3600   -999.2500      0.2510    -92.0000
   5962.5000     11.8400     11.6400   -999.2500   2987.9063   -999.2500    111.2745   -999.2500      0.2227      0.3600   -999.2500      0.2471    -90.4000
   5963.0000     11.8400     11.6400   -999.2500   3029.5547   -999.2500    112.0588   -999.2500      0.2235      0.3400   -999.2500      0.2431    -89.0196
   5963.5000     11.8400     11.6400   -999.2500   3067.8516   -999.2500    113.3333   -999.2500      0.2249      0.3400   -999.2500      0.2431    -88.4314
   5964.0000     11.8400     11.6000   -999.2500   3104.7305   -999.2500    113.6275   -999.2500      0.2263      0.3400   -999.2500      0.2471    -88.8235
   5964.5000     11.8400     11.6000   -999.2500   3141.3008   -999.2500    114.1176   -999.2500      0.2278      0.3200   -999.2500      0.2471    -88.8235
   5965.0000     11.8400     11.6000   -999.2500   3180.4609   -999.2500    113.9216   -999.2500      0.2292      0.3200   -999.2500      0.2471    -88.0392
   5965.5000     11.8800     11.7600   -999.2500   3220.4336   -999.2500    113.3333   -999.2500      0.2306      0.3200   -999.2500      0.2471    -86.2745
   5966.0000     11.8800     11.7600   -999.2500   3262.9492   -999.2500    111.6667   -999.2500      0.2320      0.3200   -999.2500      0.2471    -84.1176
   5966.5000     11.8800     11.7200   -999.2500   3307.7461   -999.2500    110.8824   -999.2500      0.2362      0.3200   -999.2500      0.2471    -81.7647
   5967.0000     11.8800     11.6400   -999.2500   3370.8828   -999.2500    110.4902   -999.2500      0.2444      0.3200   -999.2500      0.2549    -80.5882
   5967.5000     11.8800     11.6000   -999.2500   3459.0586   -999.2500    110.9804   -999.2500      0.2526      0.3200   -999.2500      0.2745    -80.7843
   5968.0000     11.8800     11.5600   -999.2500   3552.7695   -999.2500    112.1569   -999.2500      0.2608      0.3400   -999.2500      0.3020    -82.9412
   5968.5000     11.8800     11.5200   -999.2500   3619.3086   -999.2500    112.4510   -999.2500      0.2690      0.3400   -999.2500      0.3490    -85.9025
   5969.0000     11.8400     11.5200   -999.2500   3687.2188   -999.2500    112.2549   -999.2500      0.2772      0.3400   -999.2500      0.4040    -88.2964
   5969.5000     11.8400     11.5200   -999.2500   3729.2500   -999.2500    113.5294   -999.2500      0.2854      0.3400   -999.2500      0.4520    -90.7333
   5970.0000     11.8400     11.5600   -999.2500   3698.4922   -999.2500    113.5294   -999.2500      0.2936      0.3600   -999.2500      0.4880    -91.3810
   5970.5000     11.9600     11.6000   -999.2500   3642.2656   -999.2500    113.4419   -999.2500      0.3018      0.3800   -999.2500      0.5040    -91.6000
   5971.0000     12.0800     11.8800   -999.2500   3585.8867   -999.2500    113.6553   -999.2500      0.3064      0.4000   -999.2500      0.5200    -91.4000
   5971.5000     12.2400     12.2400   -999.2500   3527.3750   -999.2500    113.7751   -999.2500      0.3100      0.4000   -999.2500      0.5280    -90.8000
   5972.0000     12.4000     12.6000   -999.2500   3468.8594   -999.2500    113.5932   -999.2500      0.3136      0.4000   -999.2500      0.5320    -90.4000
   5972.5000     12.5600     12.7200   -999.2500   3413.9023   -999.2500    114.9000   -999.2500      0.3171      0.4000   -999.2500      0.5360    -90.2000
   5973.0000     12.6000     12.8400   -999.2500   3359.7578   -999.2500    120.1000   -999.2500      0.3207      0.4200   -999.2500      0.5400    -89.8000
   5973.5000     12.6400     12.8400   -999.2500   3321.6133   -999.2500    122.2000   -999.2500      0.3243      0.4200   -999.2500      0.5400    -89.8000
   5974.0000     12.6400     12.8400   -999.2500   3286.6172   -999.2500    120.6000   -999.2500      0.3279      0.4200   -999.2500      0.5440    -89.8000
   5974.5000     12.6000     12.8000   -999.2500   3260.1406   -999.2500    118.8235   -999.2500      0.3300      0.4200   -999.2500      0.5360    -89.8000
   5975.0000     12.4400     12.7200   -999.2500   3272.9531   -999.2500    114.6000   -999.2500      0.3298      0.4000   -999.2500      0.5320    -90.2000
   5975.5000     12.4400     12.6800   -999.2500   3300.6875   -999.2500    103.0612   -999.2500      0.3295      0.4000   -999.2500      0.5320    -90.2000
