~VERSION INFORMATION
VERS.                             2.0:   CWLS Log ASCII Standard-VERSION 2.0
WRAP.                              NO:   One line per depth step
~Well Information Block
STRT.F                       302.0000:   Top Depth
STOP.F                     11038.0000:   Bottom Depth
STEP.F                         .50000:   Depth Increment
NULL.                        -999.250:   Null Value
FLD .                         WILDCAT:   Field Name
WELL.       OCSG04565   001 ST00 BP00:   NAME
API .                    42706400940000:   WELL API
EDF .F                        76.8000:   ELEV DRILL FLOOR
COMP.                  TENNECO OIL CO:   OPERATOR
BN  .                             303:   BLOCK
CTRY.                             USA:   COUNTRY NAME
CNTY.                              GA:   COUNTY
CNTY.                        GLVSTN L:   COUNTY NAME
EKB .F                        79.0000:   ELEV KELLY BUSHING
TDD .F                      11050.000:   FINAL TD DRILLER
STAT.                           TEXAS:   STATE NAME
UWI .                    42706400940000:   WELL API
DICO.               IHS : Digitizing Company
~PARAMETER INFORMATION (zones)
#MNEM.UNIT                       Value     Description
#=========                       =====     ===========
#ZONATION                          CNL:   ZONATION NAME
#ZONE                            RUN_1:   ZONE NAME
TOP .                       4297.0000:   TOP DEPTH
BOT .                       7582.5000:   BOTTOM DEPTH
RUN .                               1:   RUN NUMBER
LCCD.                              20:   LOGGING CONTRACTOR
SRVC.                          Baroil:   LOGGING CONT NAME
DICO.          QC Data Collectors Ltd:   DIG COMPANY NAME
LDAT.                      03/12/1983:   DATE LOGGED
ELD .F                        77.8000:   LOG DATUM ELEVATION
TDD .F                      7587.0000:   TOTAL DEPTH DRILLER
TDL .F                      7584.0000:   TOTAL DEPTH LOGGER
BOTL.F                      7582.0000:   BOTTOM DEPTH LOGGED
TOPL.F                      4300.0000:   TOP DEPTH LOGGED
CS1 .IN                       13.3750:   CASING SIZE 1
BS1 .IN                       12.2500:   BIT SIZE 1
DDB1.F                      7587.0000:   DEPTH DRILLED BIT 1
BHF .                              70:   FLUID CODE
DPT .                       Phosphate:   DRILLING FLUID TYPE
MUDD.                         13.5000:   FLUID DENSITY
MUDV.                         49.0000:   FLUID VISCOSITY
DFPH.                         11.4000:   FLUID PH
FL  .                         12.8000:   FLUID LOSS
RM  .OHMM                       .0680:   RM
RMT .DEGF                     65.0000:   RM TEMP
RMF .OHMM                       .0530:   RMF
RMFT.DEGF                     65.0000:   RMF TEMP
FSC .                               M:   RMF CODE
RMC .OHMM                       .1020:   RMC
RMCT.DEGF                     65.0000:   RMC TEMP
CMC .                               C:   RMC CODE
TMAX.DEGF                    161.0000:   MAX REC TEMP
TIMC.                         10.0000:   TIME SINCE CIRCLN
~PARAMETER INFORMATION (zones)
#MNEM.UNIT                       Value     Description
#=========                       =====     ===========
#ZONATION                          DIL:   ZONATION NAME
#ZONE                            RUN_1:   ZONE NAME
TOP .                        302.0000:   TOP DEPTH
BOT .                      11038.5000:   BOTTOM DEPTH
RUN .                               1:   RUN NUMBER
LCCD.                             150:   LOGGING CONTRACTOR
SRVC.                   Dresser Atlas:   LOGGING CONT NAME
DICO.          QC Data Collectors Ltd:   DIG COMPANY NAME
LDAT.                      02/22/1983:   DATE LOGGED
ELD .F                        77.8000:   LOG DATUM ELEVATION
TDD .F                       841.0000:   TOTAL DEPTH DRILLER
TDL .F                       832.0000:   TOTAL DEPTH LOGGER
BOTL.F                     11038.0000:   BOTTOM DEPTH LOGGED
TOPL.F                       302.0000:   TOP DEPTH LOGGED
CS1 .IN                       30.6250:   CASING SIZE 1
BS1 .IN                       17.5000:   BIT SIZE 1
DDB1.F                       841.0000:   DEPTH DRILLED BIT 1
BHF .                              99:   FLUID CODE
DPT .                   Miscellaneous:   DRILLING FLUID TYPE
MUDD.                          8.7000:   FLUID DENSITY
MUDV.                         50.0000:   FLUID VISCOSITY
DFPH.                         12.0000:   FLUID PH
FL  .                         20.4000:   FLUID LOSS
RM  .OHMM                      1.1500:   RM
RMT .DEGF                     65.0000:   RM TEMP
RMF .OHMM                       .8000:   RMF
RMFT.DEGF                     65.0000:   RMF TEMP
FSC .                               M:   RMF CODE
RMC .OHMM                      1.4300:   RMC
RMCT.DEGF                     65.0000:   RMC TEMP
CMC .                               C:   RMC CODE
TMAX.DEGF                     85.0000:   MAX REC TEMP
TIMC.                          3.0000:   TIME SINCE CIRCLN
~PARAMETER INFORMATION (zones)
#MNEM.UNIT                       Value     Description
#=========                       =====     ===========
#ZONATION                          FDC:   ZONATION NAME
#ZONE                            RUN_4:   ZONE NAME
TOP .                      11038.0000:   TOP DEPTH
BOT .                      11040.0000:   BOTTOM DEPTH
RUN .                               4:   RUN NUMBER
LCCD.                             150:   LOGGING CONTRACTOR
SRVC.                   Dresser Atlas:   LOGGING CONT NAME
DICO.          QC Data Collectors Ltd:   DIG COMPANY NAME
LDAT.                      03/25/1983:   DATE LOGGED
ELD .F                        77.8000:   LOG DATUM ELEVATION
TDD .F                     11050.0000:   TOTAL DEPTH DRILLER
TDL .F                     11040.0000:   TOTAL DEPTH LOGGER
BOTL.F                     11038.0000:   BOTTOM DEPTH LOGGED
TOPL.F                      7555.0000:   TOP DEPTH LOGGED
CS1 .IN                        9.6250:   CASING SIZE 1
BS1 .IN                        8.5000:   BIT SIZE 1
DDB1.F                     11050.0000:   DEPTH DRILLED BIT 1
BHF .                              99:   FLUID CODE
DPT .                   Miscellaneous:   DRILLING FLUID TYPE
MUDD.                         16.6000:   FLUID DENSITY
MUDV.                         50.0000:   FLUID VISCOSITY
DFPH.                         11.4000:   FLUID PH
FL  .                         10.0000:   FLUID LOSS
RM  .OHMM                      1.7000:   RM
RMT .DEGF                     75.0000:   RM TEMP
RMF .OHMM                      1.2000:   RMF
RMFT.DEGF                     75.0000:   RMF TEMP
FSC .                               M:   RMF CODE
RMC .OHMM                      2.2000:   RMC
RMCT.DEGF                     75.0000:   RMC TEMP
CMC .                               M:   RMC CODE
TMAX.DEGF                    228.0000:   MAX REC TEMP
TIMC.                          4.0000:   TIME SINCE CIRCLN
~PARAMETER INFORMATION (zones)
#MNEM.UNIT                       Value     Description
#=========                       =====     ===========
#ZONATION                          FDC:   ZONATION NAME
#ZONE                            RUN_2:   ZONE NAME
TOP .                       4512.0000:   TOP DEPTH
BOT .                       7583.5000:   BOTTOM DEPTH
RUN .                               2:   RUN NUMBER
LCCD.                             150:   LOGGING CONTRACTOR
SRVC.                   Dresser Atlas:   LOGGING CONT NAME
DICO.          QC Data Collectors Ltd:   DIG COMPANY NAME
LDAT.                      02/28/1983:   DATE LOGGED
ELD .F                        77.8000:   LOG DATUM ELEVATION
TDD .F                      4512.0000:   TOTAL DEPTH DRILLER
TDL .F                      4505.0000:   TOTAL DEPTH LOGGER
BOTL.F                      7583.0000:   BOTTOM DEPTH LOGGED
TOPL.F                      4512.0000:   TOP DEPTH LOGGED
CS1 .IN                       20.0000:   CASING SIZE 1
BS1 .IN                       17.5000:   BIT SIZE 1
DDB1.F                      4512.0000:   DEPTH DRILLED BIT 1
BHF .                              99:   FLUID CODE
DPT .                   Miscellaneous:   DRILLING FLUID TYPE
MUDD.                          9.4000:   FLUID DENSITY
MUDV.                         40.0000:   FLUID VISCOSITY
DFPH.                         12.0000:   FLUID PH
FL  .                         38.0000:   FLUID LOSS
RM  .OHMM                       .2900:   RM
RMT .DEGF                     65.0000:   RM TEMP
RMF .OHMM                       .2100:   RMF
RMFT.DEGF                     65.0000:   RMF TEMP
FSC .                               M:   RMF CODE
RMC .OHMM                       .3400:   RMC
RMCT.DEGF                     65.0000:   RMC TEMP
CMC .                               C:   RMC CODE
TMAX.DEGF                     90.0000:   MAX REC TEMP
TIMC.                          3.0000:   TIME SINCE CIRCLN
~PARAMETER INFORMATION (zones)
#MNEM.UNIT                       Value     Description
#=========                       =====     ===========
#ZONATION                          FDC:   ZONATION NAME
#ZONE                            RUN_1:   ZONE NAME
TOP .                       4297.0000:   TOP DEPTH
BOT .                       7582.5000:   BOTTOM DEPTH
RUN .                               1:   RUN NUMBER
LCCD.                              20:   LOGGING CONTRACTOR
SRVC.                          Baroil:   LOGGING CONT NAME
DICO.          QC Data Collectors Ltd:   DIG COMPANY NAME
LDAT.                      03/12/1983:   DATE LOGGED
ELD .F                        77.8000:   LOG DATUM ELEVATION
TDD .F                      7587.0000:   TOTAL DEPTH DRILLER
TDL .F                      7584.0000:   TOTAL DEPTH LOGGER
BOTL.F                      7582.0000:   BOTTOM DEPTH LOGGED
TOPL.F                      4300.0000:   TOP DEPTH LOGGED
CS1 .IN                       13.3750:   CASING SIZE 1
BS1 .IN                       12.2500:   BIT SIZE 1
DDB1.F                      7587.0000:   DEPTH DRILLED BIT 1
BHF .                              70:   FLUID CODE
DPT .                       Phosphate:   DRILLING FLUID TYPE
MUDD.                         13.5000:   FLUID DENSITY
MUDV.                         49.0000:   FLUID VISCOSITY
DFPH.                         11.4000:   FLUID PH
FL  .                         12.8000:   FLUID LOSS
RM  .OHMM                       .0680:   RM
RMT .DEGF                     65.0000:   RM TEMP
RMF .OHMM                       .0530:   RMF
RMFT.DEGF                     65.0000:   RMF TEMP
FSC .                               M:   RMF CODE
RMC .OHMM                       .1020:   RMC
RMCT.DEGF                     65.0000:   RMC TEMP
CMC .                               C:   RMC CODE
TMAX.DEGF                    161.0000:   MAX REC TEMP
TIMC.                         10.0000:   TIME SINCE CIRCLN
~Curve Information Block
#MNEM.UNIT                    API CODE    No Description
#=========                    ========    == ===========
DEPT.F                   00 001 00 00:     1  DEPTH
NPHI.%                               :     2  Neutron Porosity
CILD.MMHO                            :     3  Deep Induction Conductivity
DT.US/F                              :     4  Sonic Transit Time
GR1.GAPI                              :     5  Gamma Ray
ILD.OHMM                             :     6  Deep Induction Resistivity
ILM.OHMM                             :     7  Medium Induction Resistivity
LN.OHMM                              :     8  Medium Resistivity
RFOC.OHMM                            :     9  Medium Resistivity
SN.OHMM                              :    10  Short-Normal Resistivity
SP.MV                                :    11  Spontaneous Potential
CALI.IN                              :    12  Caliper
DRHO.G/C3                            :    13  Bulk Density Correction
GR2.GAPI                              :    14  Gamma Ray
RHOB.G/C3                            :    15  Bulk Density
~ASCII
# ...
 2188.5000  -999.2500  1289.9316   149.3691    61.4539      .7651      .7985  -999.2500     1.0085  -999.2500   -79.9182  -999.2500  -999.2500  -999.2500  -999.2500
 2189.0000  -999.2500  1303.8262   150.4976    63.3043      .7549      .7892  -999.2500     1.0027  -999.2500   -79.5760  -999.2500  -999.2500  -999.2500  -999.2500
 2189.5000  -999.2500  1318.3105   152.6304    65.1719      .7426      .7817  -999.2500      .9914  -999.2500   -80.5223  -999.2500  -999.2500  -999.2500  -999.2500
 2190.0000  -999.2500  1332.6406   155.4949    65.5627      .7305      .7787  -999.2500      .9824  -999.2500   -81.3790  -999.2500  -999.2500  -999.2500  -999.2500
 2190.5000  -999.2500  1346.8789   157.8098    63.6780      .7200      .7786  -999.2500      .9795  -999.2500   -81.5679  -999.2500  -999.2500  -999.2500  -999.2500
 2191.0000  -999.2500  1361.8457   158.8772    61.1351      .7090      .7777  -999.2500      .9767  -999.2500   -81.2411  -999.2500  -999.2500  -999.2500  -999.2500
 2191.5000  -999.2500  1378.7227   158.0383    61.3993      .6959      .7744  -999.2500      .9762  -999.2500   -80.9497  -999.2500  -999.2500  -999.2500  -999.2500
 2192.0000  -999.2500  1393.8574   156.8284    62.6159      .6882      .7640  -999.2500      .9767  -999.2500   -80.9186  -999.2500  -999.2500  -999.2500  -999.2500
 2192.5000  -999.2500  1407.1973   155.6467    62.1511      .6846      .7552  -999.2500      .9773  -999.2500   -81.4712  -999.2500  -999.2500  -999.2500  -999.2500
 2193.0000  -999.2500  1415.2969   154.6426    61.7078      .6818      .7522  -999.2500      .9757  -999.2500   -81.4694  -999.2500  -999.2500  -999.2500  -999.2500
 2193.5000  -999.2500  1421.1211   154.1506    63.2128      .6800      .7496  -999.2500      .9741  -999.2500   -80.5623  -999.2500  -999.2500  -999.2500  -999.2500
 2194.0000  -999.2500  1423.2695   154.7395    65.5505      .6783      .7478  -999.2500      .9729  -999.2500   -79.6381  -999.2500  -999.2500  -999.2500  -999.2500
 2194.5000  -999.2500  1425.4141   155.4058    65.4547      .6763      .7460  -999.2500      .9719  -999.2500   -79.6510  -999.2500  -999.2500  -999.2500  -999.2500
 2195.0000  -999.2500  1427.4863   155.9097    63.3552      .6740      .7454  -999.2500      .9714  -999.2500   -79.8514  -999.2500  -999.2500  -999.2500  -999.2500
 2195.5000  -999.2500  1429.5605   156.1221    62.9066      .6717      .7449  -999.2500      .9713  -999.2500   -79.4058  -999.2500  -999.2500  -999.2500  -999.2500
 2196.0000  -999.2500  1429.0195   155.6311    63.8892      .6717      .7459  -999.2500      .9661  -999.2500   -78.6260  -999.2500  -999.2500  -999.2500  -999.2500
 2196.5000  -999.2500  1427.5332   155.0137    64.4153      .6726      .7517  -999.2500      .9709  -999.2500   -77.8518  -999.2500  -999.2500  -999.2500  -999.2500
 2197.0000  -999.2500  1424.3613   154.4460    64.9260      .6739      .7558  -999.2500      .9806  -999.2500   -77.4358  -999.2500  -999.2500  -999.2500  -999.2500
 2197.5000  -999.2500  1420.0625   154.9158    65.3262      .6772      .7575  -999.2500      .9888  -999.2500   -78.3470  -999.2500  -999.2500  -999.2500  -999.2500
 2198.0000  -999.2500  1414.5996   155.6326    65.5563      .6806      .7561  -999.2500      .9940  -999.2500   -79.4333  -999.2500  -999.2500  -999.2500  -999.2500
 2198.5000  -999.2500  1407.3027   156.4382    64.7784      .6841      .7539  -999.2500      .9998  -999.2500   -80.0219  -999.2500  -999.2500  -999.2500  -999.2500
 2199.0000  -999.2500  1398.4863   157.1960    63.4509      .6853      .7489  -999.2500     1.0036  -999.2500   -79.6981  -999.2500  -999.2500  -999.2500  -999.2500
 2199.5000  -999.2500  1403.0234   157.7739    62.2020      .6804      .7435  -999.2500      .9972  -999.2500   -79.7502  -999.2500  -999.2500  -999.2500  -999.2500
 2200.0000  -999.2500  1416.8574   158.3521    61.4846      .6746      .7376  -999.2500      .9914  -999.2500   -79.8429  -999.2500  -999.2500  -999.2500  -999.2500
 2200.5000  -999.2500  1430.7109   158.8003    62.8090      .6655      .7318  -999.2500      .9891  -999.2500   -80.0000  -999.2500  -999.2500  -999.2500  -999.2500
 2201.0000  -999.2500  1438.4004   159.1821    65.2688      .6566      .7202  -999.2500      .9868  -999.2500   -80.1716  -999.2500  -999.2500  -999.2500  -999.2500
 2201.5000  -999.2500  1445.5176   158.8538    66.2703      .6521      .7073  -999.2500      .9834  -999.2500   -80.1785  -999.2500  -999.2500  -999.2500  -999.2500
 2202.0000  -999.2500  1455.1367   158.7258    66.3004      .6478      .6998  -999.2500      .9799  -999.2500   -80.0673  -999.2500  -999.2500  -999.2500  -999.2500
 2202.5000  -999.2500  1466.0723   158.5947    66.4539      .6471      .6949  -999.2500      .9767  -999.2500   -79.4727  -999.2500  -999.2500  -999.2500  -999.2500
 2203.0000  -999.2500  1486.7773   158.4084    66.6088      .6472      .6956  -999.2500      .9735  -999.2500   -79.0728  -999.2500  -999.2500  -999.2500  -999.2500
 2203.5000  -999.2500  1494.6719   158.1204    65.2491      .6465      .6967  -999.2500      .9718  -999.2500   -79.2787  -999.2500  -999.2500  -999.2500  -999.2500
 2204.0000  -999.2500  1499.2852   157.6599    62.8198      .6453      .6991  -999.2500      .9720  -999.2500   -80.0768  -999.2500  -999.2500  -999.2500  -999.2500
 2204.5000  -999.2500  1501.9922   157.1646    62.9504      .6441      .7016  -999.2500      .9718  -999.2500   -79.8262  -999.2500  -999.2500  -999.2500  -999.2500
 2205.0000  -999.2500  1503.6719   156.6150    63.6523      .6420      .7035  -999.2500      .9712  -999.2500   -78.8871  -999.2500  -999.2500  -999.2500  -999.2500
 2205.5000  -999.2500  1505.0957   156.1199    63.0621      .6399      .7053  -999.2500      .9706  -999.2500   -78.4287  -999.2500  -999.2500  -999.2500  -999.2500
 2206.0000  -999.2500  1507.6895   156.2537    62.2149      .6378      .7055  -999.2500      .9697  -999.2500   -79.0018  -999.2500  -999.2500  -999.2500  -999.2500
 2206.5000  -999.2500  1512.1582   156.4739    61.4750      .6372      .7050  -999.2500      .9687  -999.2500   -79.3937  -999.2500  -999.2500  -999.2500  -999.2500
 2207.0000  -999.2500  1515.5391   156.6982    61.5611      .6369      .7049  -999.2500      .9677  -999.2500   -79.3469  -999.2500  -999.2500  -999.2500  -999.2500
 2207.5000  -999.2500  1514.6074   156.6506    63.2693      .6363      .7051  -999.2500      .9667  -999.2500   -79.2352  -999.2500  -999.2500  -999.2500  -999.2500
 2208.0000  -999.2500  1513.9238   156.6506    66.1710      .6322      .7013  -999.2500      .9657  -999.2500   -79.1770  -999.2500  -999.2500  -999.2500  -999.2500
 2208.5000  -999.2500  1533.7910   156.7571    66.1741      .6281      .6971  -999.2500      .9647  -999.2500   -79.2334  -999.2500  -999.2500  -999.2500  -999.2500
 2209.0000  -999.2500  1551.7188   156.9221    64.5261      .6221      .6924  -999.2500      .9636  -999.2500   -78.3738  -999.2500  -999.2500  -999.2500  -999.2500
 2209.5000  -999.2500  1568.4277   157.7852    63.0631      .6160      .6882  -999.2500      .9626  -999.2500   -77.4655  -999.2500  -999.2500  -999.2500  -999.2500
 2210.0000  -999.2500  1571.4512   159.0330    62.8029      .6121      .6844  -999.2500      .9613  -999.2500   -76.8010  -999.2500  -999.2500  -999.2500  -999.2500
 2210.5000  -999.2500  1573.6543   160.2712    63.6188      .6091      .6809  -999.2500      .9593  -999.2500   -76.8922  -999.2500  -999.2500  -999.2500  -999.2500
 2211.0000  -999.2500  1576.3086   161.3062    64.6272      .6093      .6774  -999.2500      .9574  -999.2500   -77.8563  -999.2500  -999.2500  -999.2500  -999.2500
 2211.5000  -999.2500  1571.5469   161.8284    65.7356      .6241      .6892  -999.2500      .9563  -999.2500   -78.7250  -999.2500  -999.2500  -999.2500  -999.2500
 2212.0000  -999.2500  1536.9492   161.5232    66.8915      .6414      .7074  -999.2500      .9561  -999.2500   -78.9104  -999.2500  -999.2500  -999.2500  -999.2500
 2212.5000  -999.2500  1486.1934   159.8472    66.0579      .6611      .7295  -999.2500      .9575  -999.2500   -78.7516  -999.2500  -999.2500  -999.2500  -999.2500
