~VERSION INFORMATION
VERS.                             2.0:   CWLS Log ASCII Standard-VERSION 2.0
WRAP.                              NO:   One line per depth step
~Well Information Block
STRT.F                      3120.0000:   Top Depth
STOP.F                     12040.0000:   Bottom Depth
STEP.F                         .50000:   Depth Increment
NULL.                        -999.250:   Null Value
FLD .                      GA BLK 254:   Field Name
WELL.       OCSG01776   001 ST00 BP00:   NAME
API .                    42706300290000:   WELL API
R1  .                      SUN OIL CO:   COMMENT  1
EDF .F                        57.0000:   ELEV DRILL FLOOR
COMP.                      SUN OIL CO:   OPERATOR
BN  .                             254:   BLOCK
CTRY.                             USA:   COUNTRY NAME
CNTY.                              GA:   COUNTY
CNTY.                        GLVSTN L:   COUNTY NAME
EKB .F                        58.0000:   ELEV KELLY BUSHING
TDD .F                      12003.000:   FINAL TD DRILLER
STAT.                           TEXAS:   STATE NAME
UWI .                    42706300290000:   WELL API
DICO.               IHS : Digitizing Company
~PARAMETER INFORMATION (zones)
#MNEM.UNIT                       Value     Description
#=========                       =====     ===========
#ZONATION                           IE:   ZONATION NAME
#ZONE                            RUN_2:   ZONE NAME
TOP .                       7847.0000:   TOP DEPTH
BOT .                      10079.0000:   BOTTOM DEPTH
RUN .                               2:   RUN NUMBER
LCCD.                             440:   LOGGING CONTRACTOR
SRVC.                    Schlumberger:   LOGGING CONT NAME
DICO.          QC Data Collectors Ltd:   DIG COMPANY NAME
LDAT.                      11/28/1970:   DATE LOGGED
ELD .F                        58.0000:   LOG DATUM ELEVATION
TDD .F                     10076.0000:   TOTAL DEPTH DRILLER
TDL .F                     10080.0000:   TOTAL DEPTH LOGGER
BOTL.F                     10079.0000:   BOTTOM DEPTH LOGGED
TOPL.F                      7847.0000:   TOP DEPTH LOGGED
CS1 .IN                        9.6250:   CASING SIZE 1
BS1 .IN                        8.5000:   BIT SIZE 1
DDB1.F                     10076.0000:   DEPTH DRILLED BIT 1
BHF .                              99:   FLUID CODE
DPT .                   Miscellaneous:   DRILLING FLUID TYPE
MUDD.                         15.4000:   FLUID DENSITY
MUDV.                         48.0000:   FLUID VISCOSITY
DFPH.                         11.5000:   FLUID PH
FL  .                          3.2000:   FLUID LOSS
RM  .OHMM                       .8400:   RM
RMT .DEGF                     75.0000:   RM TEMP
RMF .OHMM                       .4600:   RMF
RMFT.DEGF                     75.0000:   RMF TEMP
FSC .                               M:   RMF CODE
RMC .OHMM                      1.3100:   RMC
RMCT.DEGF                     75.0000:   RMC TEMP
CMC .                               C:   RMC CODE
TMAX.DEGF                    202.0000:   MAX REC TEMP
TIMC.                          3.5000:   TIME SINCE CIRCLN
~PARAMETER INFORMATION (zones)
#MNEM.UNIT                       Value     Description
#=========                       =====     ===========
#ZONATION                           IE:   ZONATION NAME
#ZONE                            RUN_3:   ZONE NAME
TOP .                      10074.0000:   TOP DEPTH
BOT .                      12002.0000:   BOTTOM DEPTH
RUN .                               3:   RUN NUMBER
LCCD.                             440:   LOGGING CONTRACTOR
SRVC.                    Schlumberger:   LOGGING CONT NAME
DICO.          QC Data Collectors Ltd:   DIG COMPANY NAME
LDAT.                      12/17/1970:   DATE LOGGED
ELD .F                        58.0000:   LOG DATUM ELEVATION
TDD .F                     12000.0000:   TOTAL DEPTH DRILLER
TDL .F                     12003.0000:   TOTAL DEPTH LOGGER
BOTL.F                     12002.0000:   BOTTOM DEPTH LOGGED
TOPL.F                     10074.0000:   TOP DEPTH LOGGED
CS1 .IN                        7.6250:   CASING SIZE 1
BS1 .IN                        6.5000:   BIT SIZE 1
DDB1.F                     12000.0000:   DEPTH DRILLED BIT 1
BHF .                              99:   FLUID CODE
DPT .                   Miscellaneous:   DRILLING FLUID TYPE
MUDD.                         15.9000:   FLUID DENSITY
MUDV.                         48.0000:   FLUID VISCOSITY
DFPH.                         12.0000:   FLUID PH
FL  .                          3.0000:   FLUID LOSS
RM  .OHMM                      1.0500:   RM
RMT .DEGF                     70.0000:   RM TEMP
RMF .OHMM                       .5100:   RMF
RMFT.DEGF                     70.0000:   RMF TEMP
FSC .                               M:   RMF CODE
RMC .OHMM                      1.3000:   RMC
RMCT.DEGF                     70.0000:   RMC TEMP
CMC .                               C:   RMC CODE
TMAX.DEGF                    240.0000:   MAX REC TEMP
TIMC.                          5.0000:   TIME SINCE CIRCLN
~PARAMETER INFORMATION (zones)
#MNEM.UNIT                       Value     Description
#=========                       =====     ===========
#ZONATION                           IE:   ZONATION NAME
#ZONE                            RUN_1:   ZONE NAME
TOP .                       3120.0000:   TOP DEPTH
BOT .                      12002.5000:   BOTTOM DEPTH
RUN .                               1:   RUN NUMBER
LCCD.                             440:   LOGGING CONTRACTOR
SRVC.                    Schlumberger:   LOGGING CONT NAME
DICO.          QC Data Collectors Ltd:   DIG COMPANY NAME
LDAT.                      11/19/1970:   DATE LOGGED
ELD .F                        58.0000:   LOG DATUM ELEVATION
TDD .F                      7850.0000:   TOTAL DEPTH DRILLER
TDL .F                      7847.0000:   TOTAL DEPTH LOGGER
BOTL.F                      7847.0000:   BOTTOM DEPTH LOGGED
TOPL.F                      3120.0000:   TOP DEPTH LOGGED
CS1 .IN                       13.3750:   CASING SIZE 1
BS1 .IN                       12.2500:   BIT SIZE 1
DDB1.F                      7850.0000:   DEPTH DRILLED BIT 1
BHF .                              99:   FLUID CODE
DPT .                   Miscellaneous:   DRILLING FLUID TYPE
MUDD.                         12.5000:   FLUID DENSITY
MUDV.                         46.0000:   FLUID VISCOSITY
DFPH.                         10.5000:   FLUID PH
FL  .                          4.0000:   FLUID LOSS
RM  .OHMM                       .7900:   RM
RMT .DEGF                     80.0000:   RM TEMP
RMF .OHMM                       .5200:   RMF
RMFT.DEGF                     75.0000:   RMF TEMP
FSC .                               M:   RMF CODE
RMC .OHMM                      1.2300:   RMC
RMCT.DEGF                     75.0000:   RMC TEMP
CMC .                               M:   RMC CODE
TMAX.DEGF                    152.0000:   MAX REC TEMP
TIMC.                          4.0000:   TIME SINCE CIRCLN
~Curve Information Block
#MNEM.UNIT         API  CODE                       CURVE DESCRIPTION
#---------        ------------                    --------------------
 DEPT.F           00 001 00 00                    :1   DEPTH
 C1-3.IN          00 000 00 00                    :2
 C2-4.IN          00 000 00 00                    :3
 CALI.IN          00 000 00 00                    :4   Density Caliper
 CILD.MMHO        00 000 00 00                    :5   Deep Induction Conductivity
 CORR.G/CC        00 000 00 00                    :6   Density Correction
 DT  .US/FT       00 000 00 00                    :7   Delta-T Compressional
 GR  .API         00 000 00 00                    :8   Gamma Ray
 ILD .OHMM        00 000 00 00                    :9   Induction Deep Resistivity
 IND .OHMM        00 000 00 00                    :10
 RHOB.G/CC        00 000 00 00                    :11  Bulk Density
 SN16.OHMM        00 000 00 00                    :12  Short Normal 16 Inch
 SP  .MV          00 000 00 00                    :13  Spontaneous Potential
~A    DEPT        C1-3        C2-4        CALI        CILD        CORR          DT          GR         ILD         IND        RHOB        SN16          SP
# ...
  11050.5000      7.7586      9.4800      9.9400   1117.6816     -0.0020     86.5000     55.0200      0.8841      0.9771      2.4960      1.2706    -21.4000
  11051.0000      7.7561      9.3600      9.9600   1132.2559     -0.0109     88.9000     51.9400      0.8789      0.9524      2.4810      1.2667    -21.4000
  11051.5000      7.6306      9.2000     10.0200   1146.6016     -0.0217     88.1000     48.8628      0.8727      0.9279      2.4610      1.2196    -21.6000
  11052.0000      7.3770      9.0400     10.0600   1158.7813     -0.0236     91.7000     47.7647      0.8664      0.9234      2.4530      1.1720    -21.6000
  11052.5000      7.1667      8.9600     10.0800   1175.8770     -0.0314     94.8000     49.2800      0.8601      0.8824      2.4530      1.1640    -21.6000
  11053.0000      7.0417      8.9600     10.2600   1196.6191     -0.0255     96.4000     50.5400      0.8538      0.8627      2.4740      1.1560    -22.0000
  11053.5000      7.0833      9.0800     10.4600   1217.4102     -0.0118     96.6000     49.9800      0.8475      0.8627      2.4890      1.1160    -22.0000
  11054.0000      7.2500      9.1600     10.1800   1237.7422     -0.0039     94.9000     46.9412      0.8699      0.8627      2.5100      1.1320    -22.4000
  11054.5000      7.2500      9.1600      9.7200   1044.2480     -0.0010     93.2000     41.1600      0.8981      0.8824      2.5270      1.1920    -22.6000
  11055.0000      7.1667      9.2000      9.6800   1009.1377      0.0050     91.6000     39.3400      0.9263      0.9216      2.5470      1.2314    -22.8000
  11055.5000      7.0833      9.1200      9.7400    973.9756      0.0070     92.2000     42.5490      0.9546      0.9804      2.5160      1.2431    -22.8000
  11056.0000      7.0000      9.0400      9.9200    938.8135      0.0010     93.9000     45.4314      0.9828      1.0400      2.4990      1.2784    -22.8000
  11056.5000      6.9281      8.9200     10.1600    903.6514      0.0010     93.6000     42.5490      1.0097      1.1000      2.5010      1.2471    -23.0000
  11057.0000      6.9367      8.8400     10.2600    901.7627      0.0210     96.1000     43.5098      1.0349      1.1400      2.5040      1.3059    -23.4000
  11057.5000      6.9473      8.8400     10.2600    900.3740      0.0110     95.2000     46.8039      1.0475      1.1200      2.4969      1.4520    -24.0000
  11058.0000      7.1168      8.9200     10.2600    898.9883      0.0040     94.9000     48.5882      1.0272      1.1200      2.4959      1.5960    -24.8000
  11058.5000      7.3221      9.1304     10.3000    904.3643      0.0201     89.0000     48.7255      1.0067      1.0997      2.4999      1.5596    -25.8146
  11059.0000      7.5695      9.3443     10.3000    930.2520      0.0024     84.0000     47.3529      0.9863      1.0794      2.4925      1.4555    -26.0331
  11059.5000      7.8629      9.4726     10.3000    956.1904     -0.0054     81.0000     44.7451      0.9660      1.0395      2.4742      1.4395    -25.2624
  11060.0000      7.9545      9.5181     10.3600   1133.2754     -0.0082     78.2000     46.5294      0.9307      0.9401      2.4640      1.3401    -24.3028
  11060.5000      7.8750      9.5600     10.8600   1342.0059     -0.0041     84.1150     49.0000      0.8953      0.8800      2.4680      1.2040    -23.9216
  11061.0000      7.6667      9.5600     11.3922   1373.9082      0.0040     57.3427     48.7255      0.8599      0.8200      2.4870      1.1280    -23.9216
  11061.5000      7.7083      9.6000     11.6471   1405.7578      0.0140     78.6474     49.2800      0.8244      0.8000      2.5020      1.0680    -24.1176
  11062.0000      7.8333      9.6400     11.6667   1430.7793      0.0110     99.3000     50.1200      0.7890      0.7800      2.5030      1.0200    -24.1176
  11062.5000      7.9167      9.7200     11.6667   1451.0605      0.0080     97.7000     49.5600      0.7536      0.7600      2.4890      0.9920    -23.9216
  11063.0000      8.0800      9.8000     11.6667   1471.3926      0.0090     98.6000     48.5882      0.7366      0.7600      2.4930      0.9680    -23.9216
  11063.5000      8.1600      9.9600     11.6667   1491.7266      0.0120     99.0000     43.9215      0.7254      0.7600      2.5010      0.9560    -23.9216
  11064.0000      8.2000     10.0400     11.6471   1512.0078      0.0200     99.7000     39.9000      0.7142      0.7600      2.5100      0.9560    -23.9216
  11064.5000      8.2400     10.1600     11.6471   1528.7734      0.0260     98.0000     39.7600      0.7030      0.7400      2.5140      0.9600    -23.5294
  11065.0000      8.2000     10.2400     11.6471   1545.2344      0.0180     98.9000     40.6000      0.6917      0.7400      2.5200      0.9320    -23.5294
  11065.5000      8.1600     10.4800     11.6275   1561.6680      0.0060     98.5000     39.0600      0.6805      0.7000      2.5040      0.8840    -23.5294
  11066.0000      8.2000     10.6400     11.6275   1577.3379      0.0040     98.5000     35.9800      0.6772      0.7000      2.5040      0.8640    -23.5294
  11066.5000      8.2414     10.7600     11.6078   1581.7969      0.0080     99.9000     36.2600      0.6815      0.7000      2.5190      0.8480    -23.9216
  11067.0000      8.2846     10.8800     11.5686   1561.4395      0.0160    101.7000     38.6400      0.6858      0.7000      2.5250      0.8360    -23.9216
  11067.5000      8.3285     10.8800     11.5686   1526.4297      0.0090    103.8000     41.8600      0.6901      0.7200      2.5140      0.8440    -23.9216
  11068.0000      8.3734     10.6800     11.5686   1491.4199      0.0020    103.9000     43.0980      0.6944      0.7200      2.4940      0.8640    -23.7255
  11068.5000      8.3750     10.4430     11.5294   1456.4121     -0.0103    103.0000     43.0980      0.6987      0.7400      2.4600      0.8880    -23.3333
  11069.0000      8.4167     10.3660     11.4118   1433.5293     -0.0217    102.9000     42.2745      0.7030      0.7600      2.4362      0.9040    -23.1373
  11069.5000      8.5000     10.3697     11.2549   1412.8906     -0.0188    102.1000     42.2745      0.7073      0.7800      2.4371      0.9160    -22.9412
  11070.0000      8.5833     10.3320     11.3333   1392.2520     -0.0079    101.3000     42.6863      0.7116      0.8000      2.4510      0.9280    -22.7451
  11070.5000      8.5833     10.1250     11.5098   1371.5625     -0.0060    100.4000     44.0588      0.7159      0.8200      2.4590      0.9440    -22.7538
  11071.0000      8.5000      9.9231     11.6471   1350.9238     -0.0060     98.6000     46.9412      0.7222      0.8200      2.4590      0.9520    -22.5696
  11071.5000      8.4167      9.9231     11.6275   1338.9102     -0.0030     96.6000     50.4000      0.7285      0.8200      2.4680      0.9480    -22.7808
  11072.0000      8.3750     10.1667     11.6078   1343.9434     -0.0020     96.1000     56.6863      0.7348      0.8200      2.4720      0.9320    -22.9941
  11072.5000      8.4583     10.3792     11.6078   1348.9883     -0.0031     96.6000     51.2400      0.7412      0.8200      2.4710      0.9280    -23.2000
  11073.0000      8.5417     10.5083     11.6471   1354.0195     -0.0082     95.9000     47.4902      0.7475      0.8000      2.4660      0.9240    -23.6000
  11073.5000      8.5833     10.6755     11.6863   1362.3770     -0.0061     97.2000     45.5686      0.7538      0.8000      2.4740      0.9080    -23.6000
  11074.0000      8.5833     10.7992     11.7255   1371.4355      0.0010     99.5000     44.0588      0.7602      0.8000      2.4860      0.9000    -23.6000
  11074.5000      8.5034     10.8000     11.6863   1380.4941      0.0100    100.3000     45.5686      0.7665      0.7800      2.5000      0.8960    -23.4000
  11075.0000      8.3850     10.8400     11.6667   1389.5527      0.0140    101.1000     48.5882      0.7696      0.7800      2.5010      0.8920    -23.4000
  11075.5000      8.3909     10.8400     11.4314   1398.6094      0.0130    101.1000     53.2000      0.7710      0.7800      2.5070      0.8840    -23.2000
