~VERSION INFORMATION
VERS.                             2.0:   CWLS Log ASCII Standard-VERSION 2.0
WRAP.                              NO:   One line per depth step
~Well Information Block
STRT.F                      3511.0000:   Top Depth
STOP.F                      7755.0000:   Bottom Depth
STEP.F                         .50000:   Depth Increment
NULL.                        -999.250:   Null Value
FLD .                      BA BLK 431:   Field Name
WELL.       OCSG09017   002 ST01 BP00:   NAME
API .                  42704402350100:   WELL API
EDF .F                        89.0000:   ELEV DRILL FLOOR
COMP.       SEAGULL ENERGY E AND P IN:   OPERATOR
BN  .                             481:   BLOCK
CTRY.                             USA:   COUNTRY NAME
CNTY.                        BRAZOS L:   COUNTY NAME
EKB .F                        90.0000:   ELEV KELLY BUSHING
TDD .F                          0.000:   FINAL TD DRILLER
STAT.                           TEXAS:   STATE NAME
UWI .                  42704402350100:   WELL API
DICO.               IHS : Digitizing Company
~PARAMETER INFORMATION (zones)
#MNEM.UNIT                       Value     Description
#=========                       =====     ===========
#ZONATION                          CNL:   ZONATION NAME
#ZONE                            RUN_0:   ZONE NAME
TOP .                       3511.0000:   TOP DEPTH
BOT .                       7755.5000:   BOTTOM DEPTH
RUN .                               0:   RUN NUMBER
LCCD.                             280:   LOGGING CONTRACTOR
SRVC.                     Halliburton:   LOGGING CONT NAME
DICO.          QC Data Collectors Ltd:   DIG COMPANY NAME
LDAT.                        --/--/--:   DATE LOGGED
BHF .                              99:   FLUID CODE
DPT .                   Miscellaneous:   DRILLING FLUID TYPE
~PARAMETER INFORMATION (zones)
#MNEM.UNIT                       Value     Description
#=========                       =====     ===========
#ZONATION                          DIL:   ZONATION NAME
#ZONE                            RUN_0:   ZONE NAME
TOP .                       3511.0000:   TOP DEPTH
BOT .                       7755.5000:   BOTTOM DEPTH
RUN .                               0:   RUN NUMBER
LCCD.                             280:   LOGGING CONTRACTOR
SRVC.                     Halliburton:   LOGGING CONT NAME
DICO.          QC Data Collectors Ltd:   DIG COMPANY NAME
LDAT.                        --/--/--:   DATE LOGGED
BHF .                              99:   FLUID CODE
DPT .                   Miscellaneous:   DRILLING FLUID TYPE
~PARAMETER INFORMATION (zones)
#MNEM.UNIT                       Value     Description
#=========                       =====     ===========
#ZONATION                          FDC:   ZONATION NAME
#ZONE                            RUN_0:   ZONE NAME
TOP .                       3511.0000:   TOP DEPTH
BOT .                       7755.5000:   BOTTOM DEPTH
RUN .                               0:   RUN NUMBER
LCCD.                             280:   LOGGING CONTRACTOR
SRVC.                     Halliburton:   LOGGING CONT NAME
DICO.          QC Data Collectors Ltd:   DIG COMPANY NAME
LDAT.                        --/--/--:   DATE LOGGED
BHF .                              99:   FLUID CODE
DPT .                   Miscellaneous:   DRILLING FLUID TYPE
~PARAMETER INFORMATION (zones)
#MNEM.UNIT                       Value     Description
#=========                       =====     ===========
#ZONATION                        SONIC:   ZONATION NAME
#ZONE                            RUN_0:   ZONE NAME
TOP .                       3511.0000:   TOP DEPTH
BOT .                       7731.5000:   BOTTOM DEPTH
RUN .                               0:   RUN NUMBER
LCCD.                             280:   LOGGING CONTRACTOR
SRVC.                     Halliburton:   LOGGING CONT NAME
DICO.          QC Data Collectors Ltd:   DIG COMPANY NAME
LDAT.                        --/--/--:   DATE LOGGED
BHF .                              99:   FLUID CODE
DPT .                   Miscellaneous:   DRILLING FLUID TYPE
~Curve Information Block
#MNEM.UNIT                    API CODE    No Description
#=========                    ========    == ===========
DEPT.F                   00 001 00 00:     1  DEPTH
NPHI.%                               :     2  Neutron Porosity
GR.GAPI                              :     3  Gamma Ray
GRD.OHMM                             :     4  Unrecognised
ILD.OHMM                             :     5  Deep Induction Resistivity
ILM.OHMM                             :     6  Medium Induction Resistivity
SP.MV                                :     7  Spontaneous Potential
DPHI.%                               :     8  Porosity
CALI.IN                              :     9  Caliper
DT.US/F                              :    10  Sonic Transit Time
GR.GAPI                              :    11  Gamma Ray
~ASCII
# ...
 7162.5000    47.8663    83.8828      .9440      .8064      .8481   -51.4406    17.8398    10.8676   107.5997    79.1125
 7163.0000    47.6038    83.7394      .9519      .8144      .8525   -51.3936    17.8114    10.4371   106.5135    80.4144
 7163.5000    46.8668    80.8623      .9611      .8211      .8612   -51.3547    17.7021     9.9699   107.3715    77.2828
 7164.0000    46.2008    82.0126      .9733      .8230      .8699   -51.3062    17.8789     9.9138   107.3381    75.0955
 7164.5000    46.1147    79.7015      .9822      .8218      .8788   -51.2457    18.5159     9.9712   107.4301    74.4329
 7165.0000    45.6360    77.8339      .9857      .8192      .8859   -51.1709    19.0424    10.0705   108.7832    73.6132
 7165.5000    45.0607    77.6461      .9859      .8154      .8797   -51.1393    19.4098    10.1814   110.3047    72.7480
 7166.0000    44.9559    79.3599      .9775      .8117      .8714   -51.0112    20.1107    10.2549   112.4772    72.9172
 7166.5000    45.4648    79.0051      .9610      .8092      .8617   -50.9491    19.5154    10.2055   112.1589    73.9702
 7167.0000    46.3218    77.9669      .9511      .8083      .8541   -50.9173    18.8192    10.1259   110.4510    75.8390
 7167.5000    47.0588    80.4658      .9424      .8074      .8500   -51.0430    18.3319    10.0563   107.5305    77.8198
 7168.0000    47.5898    80.9692      .9428      .8043      .8459   -51.1299    17.7299     9.9982   106.7198    79.2173
 7168.5000    47.7382    82.8578      .9440      .8008      .8437   -51.2952    17.7090     9.9667   108.1149    78.1013
 7169.0000    47.5182    86.5330      .9543      .7973      .8446   -51.4583    17.8062     9.9434   109.4235    75.8546
 7169.5000    47.2469    88.8857      .9687      .7951      .8456   -51.5399    17.8385     9.9390   107.5837    75.2134
 7170.0000    46.9752    89.9370      .9900      .7929      .8485   -51.5435    17.6081     9.9621   105.4380    76.7655
 7170.5000    46.6392    89.8953      .9953      .7940      .8547   -51.5653    17.6565     9.9948   107.7542    77.2920
 7171.0000    46.3343    83.7133      .9891      .7981      .8610   -51.5572    17.7827     9.9456   110.3340    79.0057
 7171.5000    46.2639    80.4371      .9690      .8033      .8654   -51.5177    18.2726     9.8672   111.7836    78.7164
 7172.0000    46.6259    79.2020      .9505      .8097      .8693   -51.4423    19.0217     9.8994   111.4255    74.5922
 7172.5000    47.0153    78.3217      .9482      .8161      .8733   -51.3896    19.3225     9.9440   108.9070    74.3618
 7173.0000    47.3633    78.5382      .9671      .8183      .8757   -51.3370    19.5524     9.9527   104.4875    73.8549
 7173.5000    47.6890    80.5232      .9671      .8197      .8781   -51.2117    19.6906     9.9570   105.7694    73.4125
 7174.0000    47.7775    82.3530      .9666      .8211      .8827   -51.0521    19.8408     9.9442   107.1245    74.5254
 7174.5000    47.1781    83.8658      .9568      .8222      .8912   -50.8574    19.8841     9.9942   108.5129    75.4714
 7175.0000    46.5875    85.2666      .9469      .8233      .8997   -50.7474    19.6854    10.1148   108.7179    75.7971
 7175.5000    46.1290    85.9774      .9597      .8314      .9046   -50.6816    19.0449    10.3652   106.1781    75.9410
 7176.0000    45.8917    86.0590      .9665      .8475      .9085   -50.6160    18.6638    10.2060   104.6326    75.9390
 7176.5000    46.1442    85.6859      .9647      .8522      .9124   -50.5511    18.8952    10.0354   106.5801    76.3290
 7177.0000    46.2418    85.0481      .9569      .8534      .9161   -50.5769    19.2809     9.9576   109.3196    78.1300
 7177.5000    46.2511    84.6169      .9552      .8499      .9215   -50.5315    19.6610    10.0096   109.5646    79.0083
 7178.0000    45.9922    86.2434      .9601      .8430      .9192   -50.4909    19.8438    10.0982   104.4502    79.7864
 7178.5000    46.0844    83.8881      .9760      .8344      .9127   -50.5134    19.6806    10.1668   102.4309    80.2819
 7179.0000    46.5673    81.5509      .9818      .8258      .8998   -50.5632    19.2773    10.2223   105.6190    78.8180
 7179.5000    46.2762    79.5685      .9719      .8130      .8871   -50.5841    18.8272    10.2699   108.0417    77.9012
 7180.0000    46.0102    79.8998      .9459      .7999      .8737   -50.5802    18.4163    10.2833   109.7562    78.0055
 7180.5000    46.3395    83.3429      .9309      .7870      .8569   -50.5973    18.2303    10.2271   108.1561    78.4597
 7181.0000    46.7336    86.2330      .9313      .7744      .8406   -50.6349    18.3009    10.1343   108.9922    79.3536
 7181.5000    47.1849    88.0511      .9318      .7622      .8292   -50.7057    18.4399    10.0180   109.8241    80.3754
 7182.0000    47.6378    89.6775      .9335      .7544      .8254   -50.8203    18.6815     9.9269   109.8361    80.2307
 7182.5000    47.8515    89.4832      .9416      .7644      .8231   -50.9317    18.8386     9.8958   106.4204    77.1735
 7183.0000    47.6014    86.1600      .9477      .7789      .8305   -51.0505    18.6756     9.9295   103.4012    74.4028
 7183.5000    47.0812    83.6715      .9263      .7950      .8546   -51.1788    18.8122    10.0337   105.8053    72.1034
 7184.0000    46.4323    81.5092      .9133      .8213      .8846   -51.1506    18.7944    10.2349   110.7626    72.6520
 7184.5000    45.6273    79.9196      .9328      .8495      .9146   -51.2117    17.4364    10.3196   104.7405    73.6575
 7185.0000    45.0539    80.9536      .9808      .8807      .9402   -51.3475    16.5106    10.1703   101.4871    75.1534
 7185.5000    44.6638    83.1759     1.0185      .9166      .9681   -51.4401    15.8872    10.0583   102.2964    76.6261
 7186.0000    44.0684    85.3019     1.0358      .9538     1.0025   -51.5185    15.3891    10.0574   103.7314    75.2604
 7186.5000    43.7009    84.5558     1.0489      .9900     1.0388   -51.5840    14.9946    10.1391   102.2192    72.7921
 7187.0000    43.7214    82.2317     1.0581     1.0159     1.0774   -51.5889    14.8746    10.2138    99.6953    70.4437
 7187.5000    43.7164    80.6898     1.1059     1.0344     1.1172   -51.5431    15.7128    10.3004    97.2114    68.6558
 7188.0000    43.3550    80.5385     1.1618     1.0476     1.1402   -51.4462    16.6538    10.3059    95.5634    69.4637
 7188.5000    43.1912    78.7234     1.1790     1.0486     1.1465   -51.3745    17.0459    10.0882    97.7332    71.6636
 7189.0000    43.5139    79.0116     1.1777     1.0408     1.1516   -51.3284    16.4489     9.9228    96.4313    73.4541
 7189.5000    43.1394    80.3491     1.1856     1.0311     1.1569   -51.2872    15.7664     9.8701    98.8247    74.7769
 7190.0000    43.1278    80.9568     1.1957     1.0231     1.1552   -51.2196    15.0502     9.9696   102.2432    76.7694
 7190.5000    43.3649    78.2421     1.1744     1.0236     1.1460   -51.1981    14.2596    10.1844   102.6467    77.4614
 7191.0000    43.4625    79.5020     1.1354     1.0244     1.1360   -51.1987    15.2999    10.4126   102.6050    76.2664
 7191.5000    43.1694    77.4583     1.1013     1.0270     1.1206   -51.2172    15.8960    10.6183   102.8635    77.1708
 7192.0000    42.4840    74.2943     1.0836     1.0286     1.1053   -51.2537    16.6994    10.5377   103.5104    76.9724
 7192.5000    41.8774    75.6949     1.0838     1.0280     1.0903   -51.2907    17.0971    10.2737    99.1283    76.8633
 7193.0000    41.4605    77.5939     1.1085     1.0282     1.0800   -51.2826    16.2057    10.0637    91.3729    77.6139
 7193.5000    40.1914    77.3970     1.1348     1.0300     1.0705   -51.2126    15.2270     9.9758    89.1285    77.0665
 7194.0000    41.3357    76.7794     1.1601     1.0258     1.0600   -51.2044    15.6656     9.9803   104.8975    75.8259
 7194.5000    42.9681    76.1776     1.1262     1.0138     1.0427   -51.1893    15.9156    10.0256   107.2803    74.7378
 7195.0000    44.3685    74.5056     1.0774      .9954     1.0233   -51.0967    16.5402    10.0910   106.5562    73.9519
 7195.5000    45.0071    72.5806     1.0286      .9784     1.0043   -50.9664    17.5117     9.8120   104.6420    73.1375
