~VERSION INFORMATION
VERS.                             2.0:   CWLS Log ASCII Standard-VERSION 2.0
WRAP.                              NO:   One line per depth step
~Well Information Block
STRT.F                      4122.0000:   Top Depth
STOP.F                     10958.0000:   Bottom Depth
STEP.F                         .50000:   Depth Increment
NULL.                        -999.250:   Null Value
FLD .                      GA BLK 273:   Field Name
WELL.       OCSG09037   003 ST00 BP00:   NAME
API .                  42706402950000:   WELL API
EDF .F                        95.0000:   ELEV DRILL FLOOR
COMP.       SEAGULL ENERGY E AND P IN:   OPERATOR
BN  .                             273:   BLOCK
CTRY.                             USA:   COUNTRY NAME
CNTY.                              GA:   COUNTY
CNTY.                        GLVSTN L:   COUNTY NAME
EKB .F                        96.0000:   ELEV KELLY BUSHING
TDD .F                      10964.000:   FINAL TD DRILLER
STAT.                           TEXAS:   STATE NAME
UWI .                  42706402950000:   WELL API
DICO.               IHS : Digitizing Company
~PARAMETER INFORMATION (zones)
#MNEM.UNIT                       Value     Description
#=========                       =====     ===========
#ZONATION                          DIL:   ZONATION NAME
#ZONE                            RUN_1:   ZONE NAME
TOP .                       4122.0000:   TOP DEPTH
BOT .                       9366.5000:   BOTTOM DEPTH
RUN .                               1:   RUN NUMBER
LCCD.                             440:   LOGGING CONTRACTOR
SRVC.                    Schlumberger:   LOGGING CONT NAME
DICO.          QC Data Collectors Ltd:   DIG COMPANY NAME
LDAT.                      05/20/1991:   DATE LOGGED
ELD .F                        96.0000:   LOG DATUM ELEVATION
TDD .F                      9360.0000:   TOTAL DEPTH DRILLER
TDL .F                      9366.0000:   TOTAL DEPTH LOGGER
BOTL.F                      9366.0000:   BOTTOM DEPTH LOGGED
TOPL.F                      4402.0000:   TOP DEPTH LOGGED
CS1 .IN                       10.7500:   CASING SIZE 1
BS1 .IN                        9.8750:   BIT SIZE 1
DDB1.F                      9360.0000:   DEPTH DRILLED BIT 1
BHF .                              81:   FLUID CODE
DPT .          Lignosulfonate (Ligno):   DRILLING FLUID TYPE
MUDD.                         12.5000:   FLUID DENSITY
MUDV.                         45.0000:   FLUID VISCOSITY
DFPH.                         10.0000:   FLUID PH
FL  .                          8.0000:   FLUID LOSS
RM  .OHMM                       .5080:   RM
RMT .DEGF                     67.0000:   RM TEMP
RMF .OHMM                       .3460:   RMF
RMFT.DEGF                     67.0000:   RMF TEMP
FSC .                               M:   RMF CODE
RMC .OHMM                       .6820:   RMC
RMCT.DEGF                     67.0000:   RMC TEMP
CMC .                               M:   RMC CODE
TMAX.DEGF                    170.0000:   MAX REC TEMP
TIMC.                          6.6800:   TIME SINCE CIRCLN
~PARAMETER INFORMATION (zones)
#MNEM.UNIT                       Value     Description
#=========                       =====     ===========
#ZONATION                          DIL:   ZONATION NAME
#ZONE                            RUN_2:   ZONE NAME
TOP .                       9092.0000:   TOP DEPTH
BOT .                      10398.5000:   BOTTOM DEPTH
RUN .                               2:   RUN NUMBER
LCCD.                             440:   LOGGING CONTRACTOR
SRVC.                    Schlumberger:   LOGGING CONT NAME
DICO.          QC Data Collectors Ltd:   DIG COMPANY NAME
LDAT.                      06/04/1991:   DATE LOGGED
ELD .F                        96.0000:   LOG DATUM ELEVATION
TDD .F                     10401.0000:   TOTAL DEPTH DRILLER
TDL .F                     10404.0000:   TOTAL DEPTH LOGGER
BOTL.F                     10398.0000:   BOTTOM DEPTH LOGGED
TOPL.F                      9292.0000:   TOP DEPTH LOGGED
CS1 .IN                        7.6250:   CASING SIZE 1
BS1 .IN                        6.7500:   BIT SIZE 1
DDB1.F                     10401.0000:   DEPTH DRILLED BIT 1
BHF .                              99:   FLUID CODE
DPT .                   Miscellaneous:   DRILLING FLUID TYPE
MUDD.                         14.1000:   FLUID DENSITY
MUDV.                         40.0000:   FLUID VISCOSITY
DFPH.                          9.8000:   FLUID PH
FL  .                          3.4000:   FLUID LOSS
RM  .OHMM                       .5160:   RM
RMT .DEGF                     80.0000:   RM TEMP
RMF .OHMM                       .2580:   RMF
RMFT.DEGF                     80.0000:   RMF TEMP
FSC .                               M:   RMF CODE
RMC .OHMM                      1.8700:   RMC
RMCT.DEGF                     80.0000:   RMC TEMP
CMC .                               M:   RMC CODE
TMAX.DEGF                    192.0000:   MAX REC TEMP
TIMC.                          7.4000:   TIME SINCE CIRCLN
~PARAMETER INFORMATION (zones)
#MNEM.UNIT                       Value     Description
#=========                       =====     ===========
#ZONATION                          DIL:   ZONATION NAME
#ZONE                            RUN_3:   ZONE NAME
TOP .                       9320.0000:   TOP DEPTH
BOT .                      10958.5000:   BOTTOM DEPTH
RUN .                               3:   RUN NUMBER
LCCD.                             440:   LOGGING CONTRACTOR
SRVC.                    Schlumberger:   LOGGING CONT NAME
DICO.          QC Data Collectors Ltd:   DIG COMPANY NAME
LDAT.                      06/09/1991:   DATE LOGGED
ELD .F                        96.0000:   LOG DATUM ELEVATION
TDD .F                     10960.0000:   TOTAL DEPTH DRILLER
TDL .F                     10964.0000:   TOTAL DEPTH LOGGER
BOTL.F                     10958.0000:   BOTTOM DEPTH LOGGED
TOPL.F                      9404.0000:   TOP DEPTH LOGGED
CS1 .IN                        7.6250:   CASING SIZE 1
BS1 .IN                        6.7500:   BIT SIZE 1
DDB1.F                     10960.0000:   DEPTH DRILLED BIT 1
BHF .                              99:   FLUID CODE
DPT .                   Miscellaneous:   DRILLING FLUID TYPE
MUDD.                         14.7000:   FLUID DENSITY
MUDV.                         46.0000:   FLUID VISCOSITY
DFPH.                         10.0000:   FLUID PH
FL  .                          2.3000:   FLUID LOSS
RM  .OHMM                       .4570:   RM
RMT .DEGF                     74.0000:   RM TEMP
RMF .OHMM                       .2190:   RMF
RMFT.DEGF                     74.0000:   RMF TEMP
FSC .                               M:   RMF CODE
RMC .OHMM                       .7110:   RMC
RMCT.DEGF                     74.0000:   RMC TEMP
CMC .                               M:   RMC CODE
TMAX.DEGF                    202.0000:   MAX REC TEMP
TIMC.                          7.3800:   TIME SINCE CIRCLN
~Curve Information Block
#MNEM.UNIT                    API CODE    No Description
#=========                    ========    == ===========
DEPT.F                   00 001 00 00:     1  DEPTH
DT.US/F                              :     2  Sonic Transit Time
GR.GAPI                              :     3  Gamma Ray
ILD.OHMM                             :     4  Deep Induction Resistivity
ILM.OHMM                             :     5  Medium Induction Resistivity
SFL.OHMM                             :     6  Medium Resistivity
SP.MV                                :     7  Spontaneous Potential
~ASCII
# ...
 7398.0000   118.4554    77.1835      .6986      .6511      .5816   -46.6299
 7398.5000   117.2776    78.2220      .7000      .6543      .5823   -46.0272
 7399.0000   116.1581    75.5496      .7015      .6575      .5881   -45.3871
 7399.5000   116.1373    73.7634      .7029      .6607      .5970   -46.2187
 7400.0000   117.8418    71.3473      .7044      .6631      .6169   -46.9576
 7400.5000   118.9626    71.1229      .7078      .6648      .6383   -46.9628
 7401.0000   119.7098    72.7408      .7129      .6644      .6638   -46.7786
 7401.5000   119.8256    74.4496      .7181      .6627      .6553   -46.5081
 7402.0000   119.0339    74.5375      .7253      .6630      .6447   -46.3804
 7402.5000   117.6914    73.4884      .7334      .6696      .6342   -46.6022
 7403.0000   115.7014    72.3457      .7415      .6762      .6302   -46.9439
 7403.5000   113.7634    70.9574      .7496      .6812      .6328   -47.2399
 7404.0000   111.8253    69.2781      .7579      .6835      .6424   -47.4910
 7404.5000   109.5448    70.8987      .7635      .6852      .6555   -47.5631
 7405.0000   107.4900    73.2401      .7657      .6866      .6695   -47.4338
 7405.5000   107.2280    75.3760      .7553      .6835      .6737   -47.1211
 7406.0000   112.0328    74.4282      .7433      .6802      .6516   -46.7964
 7406.5000   116.7080    72.8557      .7304      .6769      .6308   -46.4673
 7407.0000   119.8733    71.2778      .7201      .6736      .6120   -46.0936
 7407.5000   121.7114    69.9615      .7113      .6715      .5986   -45.8096
 7408.0000   118.6021    71.1643      .7053      .6696      .5926   -45.9330
 7408.5000   115.4135    72.4165      .6994      .6671      .5967   -46.4123
 7409.0000   112.9098    72.6140      .6949      .6646      .6027   -46.7313
 7409.5000   111.0314    71.2244      .6905      .6620      .6092   -46.9246
 7410.0000   113.4235    69.4436      .6869      .6588      .6103   -47.1174
 7410.5000   117.5227    69.9696      .6836      .6554      .6022   -47.2616
 7411.0000   120.3325    72.4739      .6821      .6519      .5955   -47.3887
 7411.5000   121.9929    75.4614      .6811      .6472      .5905   -47.5038
 7412.0000   122.3521    76.1462      .6803      .6433      .5870   -47.5481
 7412.5000   121.3767    75.5969      .6807      .6402      .5848   -47.5923
 7413.0000   120.3857    75.2692      .6812      .6353      .5870   -47.5817
 7413.5000   119.5554    74.9254      .6797      .6313      .5931   -47.5164
 7414.0000   118.8381    74.0171      .6777      .6292      .6026   -47.4332
 7414.5000   118.2194    72.3805      .6744      .6272      .6131   -47.3234
 7415.0000   117.7202    70.9468      .6701      .6251      .5988   -47.2137
 7415.5000   117.9171    72.3591      .6652      .6232      .5877   -47.1076
 7416.0000   118.7330    74.3561      .6603      .6231      .5777   -47.0544
 7416.5000   119.6346    76.7456      .6582      .6230      .5738   -47.1285
 7417.0000   120.2184    78.5184      .6572      .6229      .5713   -46.9639
 7417.5000   120.1707    79.8373      .6562      .6229      .5712   -46.6749
 7418.0000   119.6801    80.2732      .6573      .6232      .5768   -46.0799
 7418.5000   119.2971    80.1902      .6589      .6235      .5862   -45.4391
 7419.0000   119.5270    80.6576      .6604      .6238      .5927   -44.8804
 7419.5000   119.9608    81.5153      .6626      .6241      .5972   -44.6985
 7420.0000   119.9537    82.8676      .6649      .6244      .5950   -45.9490
 7420.5000   119.1923    84.1464      .6673      .6247      .5887   -46.6953
 7421.0000   118.1311    82.3416      .6697      .6265      .5879   -47.0320
 7421.5000   116.9727    78.6039      .6741      .6285      .5873   -46.8421
 7422.0000   115.8674    74.8367      .6785      .6305      .5970   -46.7853
 7422.5000   114.9795    71.9532      .6822      .6336      .6056   -46.7391
 7423.0000   115.4667    71.7808      .6826      .6367      .6107   -46.6653
 7423.5000   115.8694    73.0253      .6830      .6385      .6172   -46.5031
 7424.0000   116.2712    73.9657      .6835      .6397      .6241   -46.2491
 7424.5000   116.0316    73.5898      .6845      .6417      .6312   -46.1179
 7425.0000   115.6262    73.3246      .6856      .6440      .6332   -46.1680
 7425.5000   115.1190    73.8608      .6866      .6439      .6336   -46.6379
 7426.0000   115.6339    74.7913      .6874      .6426      .6257   -47.0003
 7426.5000   116.7483    75.7057      .6881      .6398      .6127   -46.9128
 7427.0000   118.0494    76.3878      .6888      .6356      .6012   -46.4449
 7427.5000   119.0885    77.0139      .6880      .6340      .5909   -45.9637
 7428.0000   120.3040    77.6760      .6860      .6333      .5804   -45.4952
 7428.5000   120.8160    76.1370      .6849      .6336      .5686   -45.0433
 7429.0000   120.6185    74.7579      .6838      .6341      .5618   -45.1121
 7429.5000   119.8746    73.8448      .6824      .6320      .5652   -45.7388
 7430.0000   119.0496    73.4154      .6808      .6314      .5729   -46.2080
 7430.5000   118.4081    73.1160      .6794      .6354      .5866   -46.6375
 7431.0000   117.7971    72.3605      .6793      .6394      .5997   -46.8321
 7431.5000   117.3522    71.7631      .6792      .6423      .6118   -46.9567
 7432.0000   117.2189    71.3235      .6796      .6442      .6217   -46.8224
 7432.5000   117.1917    73.2108      .6817      .6463      .6260   -46.6921
 7433.0000   117.1394    75.4935      .6838      .6484      .6296   -46.5746
 7433.5000   116.8741    76.9084      .6861      .6491      .6259   -46.4570
 7434.0000   117.0433    77.0953      .6898      .6484      .6189   -46.4255
 7434.5000   117.6836    76.3385      .6935      .6470      .6070   -46.3707
 7435.0000   118.4606    76.3098      .6973      .6477      .6024   -46.2584
 7435.5000   119.0190    77.6187      .7009      .6504      .6035   -46.1461
 7436.0000   117.8911    79.4368      .7046      .6540      .6162   -46.0497
 7436.5000   115.5587    78.8000      .7082      .6571      .6321   -45.9670
 7437.0000   112.8916    77.9978      .7093      .6601      .6500   -45.8843
 7437.5000   110.0455    77.3931      .7098      .6629      .6666   -45.8276
 7438.0000   110.4891    78.0725      .7112      .6653      .6655   -45.7770
 7438.5000   113.7192    79.4088      .7161      .6677      .6457   -45.7264
 7439.0000   117.1958    77.7788      .7211      .6685      .6260   -45.6721
 7439.5000   120.3844    75.7043      .7258      .6678      .6194   -45.6177
 7440.0000   122.0176    74.9115      .7295      .6670      .6143   -45.5989
 7440.5000   121.8762    74.5029      .7333      .6658      .6143   -45.6183
 7441.0000   120.3300    74.0350      .7340      .6646      .6267   -45.6749
 7441.5000   118.2310    73.1040      .7310      .6638      .6410   -45.7528
 7442.0000   115.8208    72.7863      .7285      .6631      .6578   -45.9182
 7442.5000   114.0540    72.7311      .7260      .6636      .6710   -46.0963
 7443.0000   112.7444    72.7218      .7235      .6641      .6685   -46.3078
 7443.5000   112.5038    72.6663      .7249      .6646      .6599   -46.3602
 7444.0000   113.9657    72.5284      .7277      .6651      .6547   -46.3926
 7444.5000   115.7067    71.2684      .7306      .6657      .6506   -46.1990
 7445.0000   116.1211    70.3848      .7334      .6666      .6465   -45.8463
 7445.5000   115.9937    72.7035      .7366      .6675      .6430   -45.5997
 7446.0000   115.2721    75.6243      .7402      .6692      .6395   -45.3687
 7446.5000   114.1902    77.9497      .7438      .6710      .6382   -45.1284
 7447.0000   113.2042    77.5519      .7474      .6729      .6404   -44.8558
 7447.5000   112.9539    72.9064      .7512      .6757      .6426   -44.6722
 7448.0000   114.0487    69.9963      .7558      .6785      .6436   -45.0687
 7448.5000   115.3317    67.8004      .7605      .6818      .6440   -45.4485
 7449.0000   115.2512    68.5413      .7652      .6855      .6459   -45.8176
 7449.5000   114.7751    70.6718      .7674      .6892      .6504   -46.0250
