~VERSION INFORMATION
VERS.                             2.0:   CWLS Log ASCII Standard-VERSION 2.0
WRAP.                              NO:   One line per depth step
~Well Information Block
STRT.F                      3511.0000:   Top Depth
STOP.F                      7755.0000:   Bottom Depth
STEP.F                         .50000:   Depth Increment
NULL.                        -999.250:   Null Value
FLD .                      BA BLK 431:   Field Name
WELL.       OCSG09017   002 ST01 BP00:   NAME
API .                  42704402350100:   WELL API
EDF .F                        89.0000:   ELEV DRILL FLOOR
COMP.       SEAGULL ENERGY E AND P IN:   OPERATOR
BN  .                             481:   BLOCK
CTRY.                             USA:   COUNTRY NAME
CNTY.                        BRAZOS L:   COUNTY NAME
EKB .F                        90.0000:   ELEV KELLY BUSHING
TDD .F                          0.000:   FINAL TD DRILLER
STAT.                           TEXAS:   STATE NAME
UWI .                  42704402350100:   WELL API
DICO.               IHS : Digitizing Company
~PARAMETER INFORMATION (zones)
#MNEM.UNIT                       Value     Description
#=========                       =====     ===========
#ZONATION                          CNL:   ZONATION NAME
#ZONE                            RUN_0:   ZONE NAME
TOP .                       3511.0000:   TOP DEPTH
BOT .                       7755.5000:   BOTTOM DEPTH
RUN .                               0:   RUN NUMBER
LCCD.                             280:   LOGGING CONTRACTOR
SRVC.                     Halliburton:   LOGGING CONT NAME
DICO.          QC Data Collectors Ltd:   DIG COMPANY NAME
LDAT.                        --/--/--:   DATE LOGGED
BHF .                              99:   FLUID CODE
DPT .                   Miscellaneous:   DRILLING FLUID TYPE
~PARAMETER INFORMATION (zones)
#MNEM.UNIT                       Value     Description
#=========                       =====     ===========
#ZONATION                          DIL:   ZONATION NAME
#ZONE                            RUN_0:   ZONE NAME
TOP .                       3511.0000:   TOP DEPTH
BOT .                       7755.5000:   BOTTOM DEPTH
RUN .                               0:   RUN NUMBER
LCCD.                             280:   LOGGING CONTRACTOR
SRVC.                     Halliburton:   LOGGING CONT NAME
DICO.          QC Data Collectors Ltd:   DIG COMPANY NAME
LDAT.                        --/--/--:   DATE LOGGED
BHF .                              99:   FLUID CODE
DPT .                   Miscellaneous:   DRILLING FLUID TYPE
~PARAMETER INFORMATION (zones)
#MNEM.UNIT                       Value     Description
#=========                       =====     ===========
#ZONATION                          FDC:   ZONATION NAME
#ZONE                            RUN_0:   ZONE NAME
TOP .                       3511.0000:   TOP DEPTH
BOT .                       7755.5000:   BOTTOM DEPTH
RUN .                               0:   RUN NUMBER
LCCD.                             280:   LOGGING CONTRACTOR
SRVC.                     Halliburton:   LOGGING CONT NAME
DICO.          QC Data Collectors Ltd:   DIG COMPANY NAME
LDAT.                        --/--/--:   DATE LOGGED
BHF .                              99:   FLUID CODE
DPT .                   Miscellaneous:   DRILLING FLUID TYPE
~PARAMETER INFORMATION (zones)
#MNEM.UNIT                       Value     Description
#=========                       =====     ===========
#ZONATION                        SONIC:   ZONATION NAME
#ZONE                            RUN_0:   ZONE NAME
TOP .                       3511.0000:   TOP DEPTH
BOT .                       7731.5000:   BOTTOM DEPTH
RUN .                               0:   RUN NUMBER
LCCD.                             280:   LOGGING CONTRACTOR
SRVC.                     Halliburton:   LOGGING CONT NAME
DICO.          QC Data Collectors Ltd:   DIG COMPANY NAME
LDAT.                        --/--/--:   DATE LOGGED
BHF .                              99:   FLUID CODE
DPT .                   Miscellaneous:   DRILLING FLUID TYPE
~Curve Information Block
#MNEM.UNIT                    API CODE    No Description
#=========                    ========    == ===========
DEPT.F                   00 001 00 00:     1  DEPTH
NPHI.%                               :     2  Neutron Porosity
GR.GAPI                              :     3  Gamma Ray
GRD.OHMM                             :     4  Unrecognised
ILD.OHMM                             :     5  Deep Induction Resistivity
ILM.OHMM                             :     6  Medium Induction Resistivity
SP.MV                                :     7  Spontaneous Potential
DPHI.%                               :     8  Porosity
CALI.IN                              :     9  Caliper
DT.US/F                              :    10  Sonic Transit Time
GR.GAPI                              :    11  Gamma Ray
~ASCII
# ...
 6057.0000    41.1779    42.8813      .6001      .2428      .3167   -85.9923    31.5210    10.1666   105.7003    45.2983
 6057.5000    41.4510    41.5225      .5536      .2378      .3141   -86.1194    32.1630    10.1568   104.8357    46.4857
 6058.0000    41.7203    41.5668      .5101      .2378      .3133   -85.8417    32.4916    10.1270   104.8777    47.8973
 6058.5000    41.7779    43.9668      .5008      .2374      .3146   -85.0266    32.1646    10.0955   104.1863    49.1172
 6059.0000    41.5696    46.0779      .5325      .2369      .3159   -84.4617    31.7737    10.0347   103.0521    49.7050
 6059.5000    41.2861    47.8442      .5819      .2355      .3170   -84.0376    31.1975     9.9879   102.1842    49.9556
 6060.0000    41.0557    46.9422      .6242      .2453      .3193   -83.9441    30.8518     9.9856   103.7068    50.1974
 6060.5000    40.8240    44.8284      .6326      .2596      .3251   -83.9174    31.5242     9.9937   105.1451    50.2514
 6061.0000    39.6591    43.6622      .5869      .2710      .3376   -83.9489    32.1438    10.0018   105.1448    50.2621
 6061.5000    37.8192    42.9236      .5456      .2828      .3488   -84.0696    32.3527    10.0106   104.9351    49.5569
 6062.0000    34.7208    43.8757      .5161      .2882      .3598   -84.1202    29.2586    10.0205   103.4319    47.7708
 6062.5000    31.7693    46.1001      .6314      .2810      .3716   -84.0642    24.9560    10.0279    88.6742    46.8849
 6063.0000    28.0257    46.4538      .8258      .2719      .3833   -84.0967    20.9217    10.0320    66.5961    46.1334
 6063.5000    27.1129    47.4706     1.0015      .2632      .3758   -84.1754    17.8616    10.0392    55.7430    44.7491
 6064.0000    27.7446    49.8193     1.0589      .2594      .3566   -84.2090    18.0628    10.0485    67.1910    43.6453
 6064.5000    31.5042    48.9310      .9223      .2596      .3383   -84.0721    25.0806    10.0617    86.6768    43.4880
 6065.0000    34.1777    48.0433      .7645      .2662      .3239   -83.6163    29.6835    10.0728   103.2938    44.2833
 6065.5000    36.1151    47.1439      .6262      .2759      .3253   -82.8790    32.1175    10.0809   109.7230    45.3714
 6066.0000    37.3736    46.2211      .5106      .2989      .3432   -81.5228    32.9727    10.0786   107.8040    47.5660
 6066.5000    38.1546    51.9246      .4979      .3322      .3800   -78.6151    30.4118    10.0519   105.2488    51.0313
 6067.0000    38.9739    57.3598      .5360      .3850      .4232   -75.2545    26.9492    10.0124   102.3402    54.4313
 6067.5000    39.2917    63.2845      .6359      .4566      .4837   -71.6622    24.1351     9.9771    99.3627    60.1851
 6068.0000    38.3351    70.9480      .8215      .5418      .5584   -67.9397    21.8097     9.9478    96.0717    64.5142
 6068.5000    37.3975    76.0605      .9851      .6385      .6530   -64.3136    20.2493     9.9418    95.2244    67.8933
 6069.0000    36.9276    77.9790     1.0529      .7155      .7557   -60.5626    18.3918     9.9536    94.8093    71.0795
 6069.5000    36.9020    75.9929     1.0778      .7703      .7959   -58.1287    17.6320     9.9683    94.1624    73.1213
 6070.0000    37.5005    74.0640     1.0930      .8033      .8068   -56.5602    17.7510     9.9773    94.5039    73.6432
 6070.5000    38.6026    72.1350     1.0633      .8139      .8171   -55.6010    17.9459     9.9877    94.7582    73.4570
 6071.0000    40.1797    71.2682     1.0017      .8134      .8253   -54.2604    18.1401    10.0005    98.0081    75.1371
 6071.5000    42.6936    73.9260      .9046      .8130      .8306   -52.9094    18.3329    10.0141   103.3203    76.9637
 6072.0000    44.3370    77.4351      .8161      .8011      .8294   -52.4145    18.3119    10.0285   108.6115    80.0325
 6072.5000    45.4199    80.9778      .7627      .7885      .8339   -52.5404    18.1846    10.0531   112.6648    83.8057
 6073.0000    44.9886    83.7319      .7450      .7760      .8396   -53.3857    18.0048    10.1056   111.1986    85.7379
 6073.5000    43.6758    85.6752      .7859      .7622      .8453   -54.9372    17.7786    10.1775   106.7177    86.2537
 6074.0000    42.7383    86.5804      .8486      .7463      .8487   -56.9547    17.4440    10.2325   103.5674    85.0530
 6074.5000    41.8016    86.2570      .9137      .7307      .8466   -59.1985    17.0285    10.2440   103.0494    79.7141
 6075.0000    40.9160    82.4590      .9453      .7179      .8382   -62.4810    17.1820    10.2126   102.0002    72.7469
 6075.5000    40.2093    75.5452      .9833      .7064      .8259   -66.5522    17.6428    10.1684    98.2550    69.0181
 6076.0000    39.6958    68.6312     1.0314      .6912      .8112   -68.4408    19.6392    10.1197    99.5220    65.9493
 6076.5000    39.1915    64.3960     1.0301      .6756      .7948   -69.3455    21.3721    10.0707   102.1211    64.0914
 6077.0000    38.6545    61.5040      .9910      .6552      .7808   -69.7795    22.3575    10.0243   103.1597    63.1057
 6077.5000    37.9653    61.2319      .9556      .6384      .7681   -69.1515    22.8063    10.0026   101.4823    62.8135
 6078.0000    37.2494    62.9617      .9265      .6324      .7560   -68.4753    22.6274    10.0164    99.6960    63.4130
 6078.5000    36.8392    64.6927      .9624      .6261      .7445   -67.7373    21.8831    10.0338    98.6003    64.5912
 6079.0000    36.6972    66.1375      .9949      .6197      .7403   -66.9818    21.1461    10.0193    97.9250    63.7065
 6079.5000    37.0238    66.6395     1.0180      .6141      .7413   -66.2152    20.6797     9.9540    97.4971    63.9590
 6080.0000    37.5134    66.8086     1.0139      .6259      .7523   -65.3445    20.2868     9.8832    97.3236    65.1979
 6080.5000    37.9047    69.2612      .9912      .6521      .7660   -62.5018    20.2473     9.8666    96.9456    65.6078
 6081.0000    38.4820    74.6965      .9556      .6873      .7839   -60.0497    20.0712     9.8557    96.0118    66.0022
 6081.5000    39.4626    79.7622      .8746      .7259      .8027   -58.5764    19.2902     9.8349    97.1342    67.0909
 6082.0000    40.2213    83.5237      .8032      .7524      .8225   -57.1681    18.6674     9.8091   102.4014    68.9580
 6082.5000    40.5301    83.9818      .7808      .7734      .8479   -56.6909    18.3012     9.7980   108.2555    72.8304
 6083.0000    40.3254    82.5385      .9121      .7866      .8880   -56.6998    18.0333     9.7927    96.1115    76.0635
 6083.5000    39.6894    81.1002     1.0583      .7977      .9132   -56.7137    17.7558     9.7944    92.7063    77.3147
 6084.0000    39.0761    79.6827     1.1355      .8065      .9141   -56.1229    17.5161     9.7962    90.6956    77.7175
 6084.5000    38.5616    78.8459     1.1365      .8083      .8988   -54.5871    17.4979     9.7941    90.8018    80.7656
 6085.0000    40.4544    78.4417     1.0132      .8002      .8633   -53.6799    18.0133     9.7889   101.6151    81.5916
 6085.5000    43.4698    79.3431      .8750      .7812      .8291   -53.3109    18.7656     9.7834   108.1626    82.8701
 6086.0000    45.4885    80.7748      .7740      .7491      .7963   -53.7079    19.5681     9.7822   114.1150    84.3289
 6086.5000    46.6656    82.5670      .7260      .6944      .7584   -54.6587    19.9171     9.7761   118.3915    84.7241
 6087.0000    47.4307    84.1068      .7508      .6392      .7222   -56.4783    19.9568     9.7791   115.0819    80.1929
 6087.5000    46.2711    82.0997      .7743      .5737      .6897   -62.6606    19.8569     9.8537   111.9423    77.8145
 6088.0000    44.6405    76.2428      .7718      .5130      .6492   -69.4496    21.8640     9.9368   108.2396    75.4646
 6088.5000    42.8773    68.6886      .7532      .4645      .6058   -75.6241    24.3906     9.9335   105.1146    73.0131
 6089.0000    41.8264    59.3486      .7305      .4212      .5502   -79.8334    26.8949     9.8975   103.3044    69.1693
 6089.5000    41.1628    52.9658      .7094      .3697      .4833   -81.8741    28.5000     9.8654   101.0042    64.8717
 6090.0000    41.0705    51.1410      .7157      .3271      .4195   -82.9167    29.3313     9.8545   100.7864    57.8262
