~VERSION INFORMATION
VERS.                             2.0:   CWLS Log ASCII Standard-VERSION 2.0
WRAP.                              NO:   One line per depth step
~Well Information Block
STRT.F                      4122.0000:   Top Depth
STOP.F                     10958.0000:   Bottom Depth
STEP.F                         .50000:   Depth Increment
NULL.                        -999.250:   Null Value
FLD .                      GA BLK 273:   Field Name
WELL.       OCSG09037   003 ST00 BP00:   NAME
API .                  42706402950000:   WELL API
EDF .F                        95.0000:   ELEV DRILL FLOOR
COMP.       SEAGULL ENERGY E AND P IN:   OPERATOR
BN  .                             273:   BLOCK
CTRY.                             USA:   COUNTRY NAME
CNTY.                              GA:   COUNTY
CNTY.                        GLVSTN L:   COUNTY NAME
EKB .F                        96.0000:   ELEV KELLY BUSHING
TDD .F                      10964.000:   FINAL TD DRILLER
STAT.                           TEXAS:   STATE NAME
UWI .                  42706402950000:   WELL API
DICO.               IHS : Digitizing Company
~PARAMETER INFORMATION (zones)
#MNEM.UNIT                       Value     Description
#=========                       =====     ===========
#ZONATION                          DIL:   ZONATION NAME
#ZONE                            RUN_1:   ZONE NAME
TOP .                       4122.0000:   TOP DEPTH
BOT .                       9366.5000:   BOTTOM DEPTH
RUN .                               1:   RUN NUMBER
LCCD.                             440:   LOGGING CONTRACTOR
SRVC.                    Schlumberger:   LOGGING CONT NAME
DICO.          QC Data Collectors Ltd:   DIG COMPANY NAME
LDAT.                      05/20/1991:   DATE LOGGED
ELD .F                        96.0000:   LOG DATUM ELEVATION
TDD .F                      9360.0000:   TOTAL DEPTH DRILLER
TDL .F                      9366.0000:   TOTAL DEPTH LOGGER
BOTL.F                      9366.0000:   BOTTOM DEPTH LOGGED
TOPL.F                      4402.0000:   TOP DEPTH LOGGED
CS1 .IN                       10.7500:   CASING SIZE 1
BS1 .IN                        9.8750:   BIT SIZE 1
DDB1.F                      9360.0000:   DEPTH DRILLED BIT 1
BHF .                              81:   FLUID CODE
DPT .          Lignosulfonate (Ligno):   DRILLING FLUID TYPE
MUDD.                         12.5000:   FLUID DENSITY
MUDV.                         45.0000:   FLUID VISCOSITY
DFPH.                         10.0000:   FLUID PH
FL  .                          8.0000:   FLUID LOSS
RM  .OHMM                       .5080:   RM
RMT .DEGF                     67.0000:   RM TEMP
RMF .OHMM                       .3460:   RMF
RMFT.DEGF                     67.0000:   RMF TEMP
FSC .                               M:   RMF CODE
RMC .OHMM                       .6820:   RMC
RMCT.DEGF                     67.0000:   RMC TEMP
CMC .                               M:   RMC CODE
TMAX.DEGF                    170.0000:   MAX REC TEMP
TIMC.                          6.6800:   TIME SINCE CIRCLN
~PARAMETER INFORMATION (zones)
#MNEM.UNIT                       Value     Description
#=========                       =====     ===========
#ZONATION                          DIL:   ZONATION NAME
#ZONE                            RUN_2:   ZONE NAME
TOP .                       9092.0000:   TOP DEPTH
BOT .                      10398.5000:   BOTTOM DEPTH
RUN .                               2:   RUN NUMBER
LCCD.                             440:   LOGGING CONTRACTOR
SRVC.                    Schlumberger:   LOGGING CONT NAME
DICO.          QC Data Collectors Ltd:   DIG COMPANY NAME
LDAT.                      06/04/1991:   DATE LOGGED
ELD .F                        96.0000:   LOG DATUM ELEVATION
TDD .F                     10401.0000:   TOTAL DEPTH DRILLER
TDL .F                     10404.0000:   TOTAL DEPTH LOGGER
BOTL.F                     10398.0000:   BOTTOM DEPTH LOGGED
TOPL.F                      9292.0000:   TOP DEPTH LOGGED
CS1 .IN                        7.6250:   CASING SIZE 1
BS1 .IN                        6.7500:   BIT SIZE 1
DDB1.F                     10401.0000:   DEPTH DRILLED BIT 1
BHF .                              99:   FLUID CODE
DPT .                   Miscellaneous:   DRILLING FLUID TYPE
MUDD.                         14.1000:   FLUID DENSITY
MUDV.                         40.0000:   FLUID VISCOSITY
DFPH.                          9.8000:   FLUID PH
FL  .                          3.4000:   FLUID LOSS
RM  .OHMM                       .5160:   RM
RMT .DEGF                     80.0000:   RM TEMP
RMF .OHMM                       .2580:   RMF
RMFT.DEGF                     80.0000:   RMF TEMP
FSC .                               M:   RMF CODE
RMC .OHMM                      1.8700:   RMC
RMCT.DEGF                     80.0000:   RMC TEMP
CMC .                               M:   RMC CODE
TMAX.DEGF                    192.0000:   MAX REC TEMP
TIMC.                          7.4000:   TIME SINCE CIRCLN
~PARAMETER INFORMATION (zones)
#MNEM.UNIT                       Value     Description
#=========                       =====     ===========
#ZONATION                          DIL:   ZONATION NAME
#ZONE                            RUN_3:   ZONE NAME
TOP .                       9320.0000:   TOP DEPTH
BOT .                      10958.5000:   BOTTOM DEPTH
RUN .                               3:   RUN NUMBER
LCCD.                             440:   LOGGING CONTRACTOR
SRVC.                    Schlumberger:   LOGGING CONT NAME
DICO.          QC Data Collectors Ltd:   DIG COMPANY NAME
LDAT.                      06/09/1991:   DATE LOGGED
ELD .F                        96.0000:   LOG DATUM ELEVATION
TDD .F                     10960.0000:   TOTAL DEPTH DRILLER
TDL .F                     10964.0000:   TOTAL DEPTH LOGGER
BOTL.F                     10958.0000:   BOTTOM DEPTH LOGGED
TOPL.F                      9404.0000:   TOP DEPTH LOGGED
CS1 .IN                        7.6250:   CASING SIZE 1
BS1 .IN                        6.7500:   BIT SIZE 1
DDB1.F                     10960.0000:   DEPTH DRILLED BIT 1
BHF .                              99:   FLUID CODE
DPT .                   Miscellaneous:   DRILLING FLUID TYPE
MUDD.                         14.7000:   FLUID DENSITY
MUDV.                         46.0000:   FLUID VISCOSITY
DFPH.                         10.0000:   FLUID PH
FL  .                          2.3000:   FLUID LOSS
RM  .OHMM                       .4570:   RM
RMT .DEGF                     74.0000:   RM TEMP
RMF .OHMM                       .2190:   RMF
RMFT.DEGF                     74.0000:   RMF TEMP
FSC .                               M:   RMF CODE
RMC .OHMM                       .7110:   RMC
RMCT.DEGF                     74.0000:   RMC TEMP
CMC .                               M:   RMC CODE
TMAX.DEGF                    202.0000:   MAX REC TEMP
TIMC.                          7.3800:   TIME SINCE CIRCLN
~Curve Information Block
#MNEM.UNIT                    API CODE    No Description
#=========                    ========    == ===========
DEPT.F                   00 001 00 00:     1  DEPTH
DT.US/F                              :     2  Sonic Transit Time
GR.GAPI                              :     3  Gamma Ray
ILD.OHMM                             :     4  Deep Induction Resistivity
ILM.OHMM                             :     5  Medium Induction Resistivity
SFL.OHMM                             :     6  Medium Resistivity
SP.MV                                :     7  Spontaneous Potential
~ASCII
# ...
 6566.0000   112.0524    74.6661      .8091      .7732      .7478   -47.1760
 6566.5000   114.5756    73.6899      .8063      .7654      .7404   -47.2961
 6567.0000   116.7858    72.4210      .8037      .7593      .7144   -47.3967
 6567.5000   117.1365    71.1199      .8020      .7561      .6959   -47.3810
 6568.0000   115.4530    69.9471      .8004      .7529      .6943   -47.3239
 6568.5000   113.7216    69.0005      .7984      .7497      .7041   -47.1656
 6569.0000   114.7296    68.4819      .7960      .7465      .7139   -46.9202
 6569.5000   115.4523    69.1328      .7935      .7434      .7149   -46.5786
 6570.0000   116.1129    71.7671      .7910      .7402      .6945   -46.2142
 6570.5000   113.6569    74.3425      .7896      .7371      .6867   -45.9902
 6571.0000   110.7091    75.3748      .7892      .7359      .6989   -45.7104
 6571.5000   108.2247    72.9050      .7887      .7364      .7219   -45.4225
 6572.0000   108.6141    71.2603      .7883      .7369      .7510   -45.2236
 6572.5000   110.1204    70.0354      .7881      .7369      .7682   -45.0953
 6573.0000   111.2488    69.0459      .7881      .7368      .7763   -45.2101
 6573.5000   111.4105    68.2429      .7881      .7368      .7555   -45.3647
 6574.0000   111.1766    67.6730      .7883      .7368      .7298   -45.8107
 6574.5000   111.1692    67.3757      .7901      .7368      .7114   -46.3289
 6575.0000   111.6124    67.3784      .7919      .7372      .7082   -47.0054
 6575.5000   112.1449    69.3522      .7938      .7353      .7084   -47.5393
 6576.0000   112.7109    73.1631      .7956      .7362      .7157   -47.8977
 6576.5000   113.1118    72.5854      .7966      .7372      .7247   -48.0256
 6577.0000   113.3237    70.1946      .7977      .7382      .7344   -48.0673
 6577.5000   112.8799    68.4041      .8004      .7392      .7429   -48.0227
 6578.0000   112.2231    69.0186      .8053      .7421      .7515   -47.8979
 6578.5000   111.0974    69.8383      .8091      .7452      .7584   -47.7272
 6579.0000   110.5594    70.3182      .8090      .7484      .7653   -47.5490
 6579.5000   111.5270    70.7095      .8111      .7501      .7685   -47.3595
 6580.0000   113.0513    70.8093      .8145      .7514      .7693   -47.1932
 6580.5000   113.5198    70.5797      .8187      .7523      .7586   -47.1579
 6581.0000   111.7883    70.0341      .8230      .7529      .7436   -47.1592
 6581.5000   109.8629    69.1595      .8272      .7527      .7286   -47.1605
 6582.0000   108.4615    68.8259      .8315      .7510      .7234   -47.1341
 6582.5000   110.5565    69.2672      .8335      .7503      .7182   -47.1980
 6583.0000   113.4343    70.1223      .8348      .7502      .7040   -47.3779
 6583.5000   115.8671    71.0510      .8361      .7482      .6871   -47.5978
 6584.0000   115.1062    70.6405      .8364      .7473      .6733   -47.7202
 6584.5000   111.8763    69.9919      .8346      .7473      .6717   -47.6974
 6585.0000   109.5704    70.0258      .8327      .7488      .6833   -47.4460
 6585.5000   109.0117    71.1385      .8305      .7511      .7044   -47.2763
 6586.0000   109.2308    72.5774      .8281      .7537      .7223   -47.1846
 6586.5000   109.5934    73.1698      .8280      .7580      .7384   -47.3884
 6587.0000   110.0492    72.5668      .8292      .7618      .7330   -47.6099
 6587.5000   110.6140    72.3210      .8302      .7651      .7220   -47.7561
 6588.0000   111.4946    72.3745      .8296      .7682      .7140   -47.6885
 6588.5000   112.7770    72.4557      .8289      .7712      .7159   -47.5660
 6589.0000   114.4410    72.5374      .8275      .7738      .7215   -47.3856
 6589.5000   116.2009    72.6033      .8254      .7725      .7230   -47.3307
 6590.0000   117.0032    72.9631      .8236      .7695      .7219   -47.2209
 6590.5000   116.6317    73.6980      .8229      .7663      .7131   -47.0776
 6591.0000   115.6302    73.2908      .8223      .7631      .7021   -46.8901
 6591.5000   113.5198    73.0033      .8226      .7588      .7013   -46.5706
 6592.0000   110.8567    72.8248      .8239      .7542      .7155   -46.1711
 6592.5000   107.9374    72.6807      .8254      .7544      .7284   -46.0464
 6593.0000   106.7495    71.9797      .8290      .7549      .7342   -46.5796
 6593.5000   108.1030    71.0236      .8327      .7565      .7349   -47.1659
 6594.0000   109.2211    70.5148      .8362      .7588      .7330   -47.6132
 6594.5000   110.3223    71.0016      .8396      .7610      .7314   -48.0424
 6595.0000   111.3665    71.7229      .8430      .7638      .7229   -48.3567
 6595.5000   112.3759    71.4977      .8469      .7667      .7115   -48.6168
 6596.0000   113.1632    70.8083      .8460      .7687      .7161   -48.6182
 6596.5000   113.7762    70.5142      .8404      .7700      .7328   -48.5797
 6597.0000   112.7666    70.2313      .8349      .7708      .7518   -48.4566
 6597.5000   110.3934    69.9585      .8306      .7702      .7598   -48.2994
 6598.0000   108.3308    69.8402      .8297      .7695      .7622   -48.0431
 6598.5000   106.6305    70.8578      .8287      .7683      .7518   -47.7072
 6599.0000   106.7858    73.1444      .8277      .7669      .7378   -47.3588
 6599.5000   110.4711    74.4147      .8286      .7628      .7211   -46.9777
 6600.0000   114.3789    72.7458      .8297      .7549      .7018   -46.8160
 6600.5000   117.1818    71.0624      .8306      .7441      .6838   -46.7869
 6601.0000   118.8898    72.0640      .8311      .7331      .6675   -46.7924
 6601.5000   118.9578    75.1956      .8315      .7218      .6624   -46.7980
 6602.0000   116.4390    73.8584      .8302      .7185      .6615   -46.8338
 6602.5000   113.5275    68.8521      .8284      .7186      .6725   -46.8902
 6603.0000   111.0767    65.5385      .8262      .7233      .6837   -47.0291
 6603.5000   110.5844    64.8793      .8239      .7284      .6954   -47.3036
 6604.0000   111.2999    66.6243      .8227      .7375      .7072   -47.7703
 6604.5000   112.0161    69.0178      .8224      .7472      .7154   -48.1310
 6605.0000   112.3445    70.2294      .8222      .7624      .7279   -48.4286
 6605.5000   111.9073    68.1085      .8220      .7773      .7449   -48.4766
 6606.0000   110.2201    65.7819      .8209      .7907      .7641   -48.5059
 6606.5000   107.2645    65.8326      .8138      .7906      .7741   -48.4516
 6607.0000   110.0518    67.0562      .7944      .7734      .7360   -48.3926
 6607.5000   114.0684    68.4135      .7772      .7564      .7096   -48.2131
 6608.0000   117.5441    70.3630      .7624      .7397      .6845   -47.8672
 6608.5000   119.8402    72.1870      .7507      .7279      .6625   -47.4207
 6609.0000   119.8706    73.6692      .7461      .7171      .6418   -47.4785
 6609.5000   118.3062    73.8645      .7443      .7143      .6236   -47.6759
 6610.0000   115.9084    73.0106      .7463      .7115      .6085   -47.8735
 6610.5000   113.4059    71.2750      .7484      .7151      .6065   -48.1257
 6611.0000   111.1077    69.4137      .7508      .7189      .6153   -48.6495
 6611.5000   108.3877    67.2421      .7530      .7274      .6544   -49.5869
 6612.0000   105.3779    64.6747      .7502      .7366      .7247   -50.6901
 6612.5000   102.9581    60.5134      .7235      .7405      .8048   -52.4017
 6613.0000   101.1337    57.7454      .6999      .7251      .8556   -54.0303
 6613.5000   101.4417    55.4294      .6788      .7052      .8764   -55.7981
 6614.0000   103.4369    56.2932      .6622      .6894      .7701   -57.7076
 6614.5000   105.1715    61.4360      .6494      .6729      .7082   -59.7829
 6615.0000   104.6837    64.0984      .6354      .6561      .6653   -61.7512
 6615.5000   104.2573    62.5673      .6209      .6423      .6326   -63.4561
 6616.0000   104.0389    60.2112      .6095      .6339      .6467   -64.6476
 6616.5000   104.2522    57.7481      .5988      .6266      .6798   -65.0708
 6617.0000   105.0143    55.3144      .5930      .6237      .7030   -64.4496
 6617.5000   106.2631    53.3728      .5874      .6233      .7133   -63.1512
