~VERSION INFORMATION
VERS.                             2.0:   CWLS Log ASCII Standard-VERSION 2.0
WRAP.                              NO:   One line per depth step
~Well Information Block
STRT.F                      4703.0000:   Top Depth
STOP.F                      9304.5000:   Bottom Depth
STEP.F                         .50000:   Depth Increment
NULL.                        -999.250:   Null Value
FLD .                      BA BLK 399:   Field Name
WELL.       OCSG07218  A003 ST00 BP00:   NAME
API .                  42704403090000:   WELL API
EDF .F                       113.0000:   ELEV DRILL FLOOR
COMP.       SEAGULL ENERGY E AND P IN:   OPERATOR
EGL .F                       -62.0000:   ELEV GROUND LEVEL
EKB .F                       114.0000:   ELEV KELLY BUSHING
TDD .F                      9314.0000:   FINAL TD DRILLER
UWI .                  42704403090000:   WELL API
DICO.               IHS : Digitizing Company
~PARAMETER INFORMATION (zones)
#MNEM.UNIT                       Value     Description
#=========                       =====     ===========
#ZONATION                          CNL:   ZONATION NAME
#ZONE                            RUN_1:   ZONE NAME
TOP .                       4703.0000:   TOP DEPTH
BOT .                       9200.5000:   BOTTOM DEPTH
RUN .                               1:   RUN NUMBER
LCCD.                             510:   LOGGING CONTRACTOR
SRVC.                   Western Atlas:   LOGGING CONT NAME
DICO.          QC Data Collectors Ltd:   DIG COMPANY NAME
LDAT.                      03/24/1997:   DATE LOGGED
TDD .F                      9314.0000:   TOTAL DEPTH DRILLER
TDL .F                      9307.0000:   TOTAL DEPTH LOGGER
BOTL.F                      9305.0000:   BOTTOM DEPTH LOGGED
TOPL.F                      4703.0000:   TOP DEPTH LOGGED
CS1 .                         10.7500:   CASING SIZE 1
BS1 .                          9.8750:   BIT SIZE 1
DDB1.F                      9314.0000:   DEPTH DRILLED BIT 1
BHF .                              99:   FLUID CODE
DPT .                   Miscellaneous:   DRILLING FLUID TYPE
MUDD.                         11.5000:   FLUID DENSITY
MUDV.                         41.0000:   FLUID VISCOSITY
DFPH.                         10.2000:   FLUID PH
FL  .                          5.0000:   FLUID LOSS
RM  .OHMM                      1.1200:   RM
RMT .DEGF                     75.0000:   RM TEMP
RMF .OHMM                       .8300:   RMF
RMFT.DEGF                     75.0000:   RMF TEMP
FSC .                               M:   RMF CODE
RMC .OHMM                      1.4600:   RMC
RMCT.DEGF                     75.0000:   RMC TEMP
CMC .                               M:   RMC CODE
TMAX.DEGF                    181.0000:   MAX REC TEMP
TIMC.                         24.0000:   TIME SINCE CIRCLN
SON .                          173943:   SERVICE ORDER NUM
LMF .                             MSL:   LOGS MEAS FROM
MUDS.                             PIT:   MUD SOURCE
ENG .                         HADSALL:   ENGINEER
WIT .                        FONTENOT:   WITNESS
~PARAMETER INFORMATION (zones)
#MNEM.UNIT                       Value     Description
#=========                       =====     ===========
#ZONATION                          DAL:   ZONATION NAME
#ZONE                            RUN_1:   ZONE NAME
TOP .                       4703.0000:   TOP DEPTH
BOT .                       9242.5000:   BOTTOM DEPTH
RUN .                               1:   RUN NUMBER
LCCD.                             510:   LOGGING CONTRACTOR
SRVC.                   Western Atlas:   LOGGING CONT NAME
DICO.          QC Data Collectors Ltd:   DIG COMPANY NAME
LDAT.                      03/24/1997:   DATE LOGGED
TDD .F                      9314.0000:   TOTAL DEPTH DRILLER
TDL .F                      9307.0000:   TOTAL DEPTH LOGGER
BOTL.F                      9305.0000:   BOTTOM DEPTH LOGGED
TOPL.F                      4703.0000:   TOP DEPTH LOGGED
CS1 .                         10.7500:   CASING SIZE 1
BS1 .                          9.8750:   BIT SIZE 1
DDB1.F                      9314.0000:   DEPTH DRILLED BIT 1
BHF .                              99:   FLUID CODE
DPT .                   Miscellaneous:   DRILLING FLUID TYPE
MUDD.                         11.5000:   FLUID DENSITY
MUDV.                         41.0000:   FLUID VISCOSITY
DFPH.                         10.2000:   FLUID PH
FL  .                          5.0000:   FLUID LOSS
RM  .OHMM                      1.1200:   RM
RMT .DEGF                     75.0000:   RM TEMP
RMF .OHMM                       .8300:   RMF
RMFT.DEGF                     75.0000:   RMF TEMP
FSC .                               M:   RMF CODE
RMC .OHMM                      1.4600:   RMC
RMCT.DEGF                     75.0000:   RMC TEMP
CMC .                               M:   RMC CODE
TMAX.DEGF                    181.0000:   MAX REC TEMP
TIMC.                         24.0000:   TIME SINCE CIRCLN
SON .                          173943:   SERVICE ORDER NUM
LMF .                             MSL:   LOGS MEAS FROM
MUDS.                             PIT:   MUD SOURCE
ENG .                         HADSALL:   ENGINEER
WIT .                        FONTENOT:   WITNESS
~PARAMETER INFORMATION (zones)
#MNEM.UNIT                       Value     Description
#=========                       =====     ===========
#ZONATION                          DIL:   ZONATION NAME
#ZONE                            RUN_1:   ZONE NAME
TOP .                       4703.0000:   TOP DEPTH
BOT .                       9305.5000:   BOTTOM DEPTH
RUN .                               1:   RUN NUMBER
LCCD.                             510:   LOGGING CONTRACTOR
SRVC.                   Western Atlas:   LOGGING CONT NAME
DICO.          QC Data Collectors Ltd:   DIG COMPANY NAME
LDAT.                      03/24/1997:   DATE LOGGED
TDD .F                      9314.0000:   TOTAL DEPTH DRILLER
TDL .F                      9307.0000:   TOTAL DEPTH LOGGER
BOTL.F                      9305.0000:   BOTTOM DEPTH LOGGED
TOPL.F                      4703.0000:   TOP DEPTH LOGGED
CS1 .                         10.7500:   CASING SIZE 1
BS1 .                          9.8750:   BIT SIZE 1
DDB1.F                      9314.0000:   DEPTH DRILLED BIT 1
BHF .                              99:   FLUID CODE
DPT .                   Miscellaneous:   DRILLING FLUID TYPE
MUDD.                         11.5000:   FLUID DENSITY
MUDV.                         41.0000:   FLUID VISCOSITY
DFPH.                         10.2000:   FLUID PH
FL  .                          5.0000:   FLUID LOSS
RM  .OHMM                      1.1200:   RM
RMT .DEGF                     75.0000:   RM TEMP
RMF .OHMM                       .8300:   RMF
RMFT.DEGF                     75.0000:   RMF TEMP
FSC .                               M:   RMF CODE
RMC .OHMM                      1.4600:   RMC
RMCT.DEGF                     75.0000:   RMC TEMP
CMC .                               M:   RMC CODE
TMAX.DEGF                    181.0000:   MAX REC TEMP
TIMC.                         24.0000:   TIME SINCE CIRCLN
SON .                          173943:   SERVICE ORDER NUM
LMF .                             MSL:   LOGS MEAS FROM
MUDS.                             PIT:   MUD SOURCE
ENG .                         HADSALL:   ENGINEER
WIT .                        FONTENOT:   WITNESS
~PARAMETER INFORMATION (zones)
#MNEM.UNIT                       Value     Description
#=========                       =====     ===========
#ZONATION                          FDC:   ZONATION NAME
#ZONE                            RUN_1:   ZONE NAME
TOP .                       4703.0000:   TOP DEPTH
BOT .                       9228.5000:   BOTTOM DEPTH
RUN .                               1:   RUN NUMBER
LCCD.                             510:   LOGGING CONTRACTOR
SRVC.                   Western Atlas:   LOGGING CONT NAME
DICO.          QC Data Collectors Ltd:   DIG COMPANY NAME
LDAT.                      03/24/1997:   DATE LOGGED
TDD .F                      9314.0000:   TOTAL DEPTH DRILLER
TDL .F                      9307.0000:   TOTAL DEPTH LOGGER
BOTL.F                      9305.0000:   BOTTOM DEPTH LOGGED
TOPL.F                      4703.0000:   TOP DEPTH LOGGED
CS1 .                         10.7500:   CASING SIZE 1
BS1 .                          9.8750:   BIT SIZE 1
DDB1.F                      9314.0000:   DEPTH DRILLED BIT 1
BHF .                              99:   FLUID CODE
DPT .                   Miscellaneous:   DRILLING FLUID TYPE
MUDD.                         11.5000:   FLUID DENSITY
MUDV.                         41.0000:   FLUID VISCOSITY
DFPH.                         10.2000:   FLUID PH
FL  .                          5.0000:   FLUID LOSS
RM  .OHMM                      1.1200:   RM
RMT .DEGF                     75.0000:   RM TEMP
RMF .OHMM                       .8300:   RMF
RMFT.DEGF                     75.0000:   RMF TEMP
FSC .                               M:   RMF CODE
RMC .OHMM                      1.4600:   RMC
RMCT.DEGF                     75.0000:   RMC TEMP
CMC .                               M:   RMC CODE
TMAX.DEGF                    181.0000:   MAX REC TEMP
TIMC.                         24.0000:   TIME SINCE CIRCLN
SON .                          173943:   SERVICE ORDER NUM
LMF .                             MSL:   LOGS MEAS FROM
MUDS.                             PIT:   MUD SOURCE
ENG .                         HADSALL:   ENGINEER
WIT .                        FONTENOT:   WITNESS
~Curve Information Block
#MNEM.UNIT                    API CODE    No Description
#=========                    ========    == ===========
DEPT.F                   00 001 00 00:     1  DEPTH
CNCF.%                               :     2  Field Normalized CNC
DT24.US/F                            :     3  Unrecognised
CILD.MMHO                            :     4  Deep Induction Conductivity
RFOC.OHMM                            :     5  Medium Resistivity
RILD.OHMM                            :     6  Deep Resistivity
RILM.OHMM                            :     7  Medium Resistivity
RWAZ.OHMM                            :     8  Unrecognised
SP.MV                                :     9  Spontaneous Potential
GR.GAPI                              :    10  Gamma Ray
PORZ.%                               :    11  Neutron Porosity
ZCOR.G/C3                            :    12  Density Correction
ZDEN.G/C3                            :    13  Bulk Density
~ASCII
# ...
 5291.0000    32.9340   105.7300  2284.6016     1.4880      .4380      .5150      .0610   -72.8510    42.3450    32.0410      .0360     2.1210
 5291.5000    33.1320   106.7059  2383.0430     1.6210      .4200      .4960      .0620   -73.0590    43.0610    32.8199      .0270     2.1090
 5292.0000    32.9930   106.3929  2468.2344     1.7310      .4050      .4760      .0580   -72.5979    45.9529    32.3320      .0320     2.1160
 5292.5000    32.6100   105.0690  2538.2227     1.6320      .3940      .4610      .0500   -72.6689    46.6650    30.7290      .0460     2.1430
 5293.0000    32.5829   104.3309  2605.9063     1.3930      .3840      .4530      .0480   -74.4839    43.7159    30.5600      .0360     2.1460
 5293.5000    32.6310   103.7350  2703.8984     1.3120      .3700      .4460      .0480   -76.0499    39.7120    31.0970      .0270     2.1370
 5294.0000    33.8710   103.0099  2876.8359     1.3580      .3480      .4340      .0470   -75.6389    35.2660    31.7300      .0290     2.1260
 5294.5000    33.9500   103.0800  3130.3945     1.3520      .3190      .4160      .0430   -74.5800    35.6949    31.4750      .0490     2.1310
 5295.0000    34.2320   102.7770  3287.5273     1.3540      .3040      .3920      .0420   -74.1599    35.4770    31.9790      .0490     2.1220
 5295.5000    34.5190   102.4979  3256.0352     1.3130      .3070      .3740      .0450   -74.7959    34.9480    32.5890      .0210     2.1120
 5296.0000    34.0600   101.8989  3108.5703     1.2760      .3220      .3730      .0430   -74.5640    36.3050    31.3360      .0040     2.1330
 5296.5000    32.7980    99.6010  2857.3828     1.0100      .3500      .4020      .0470   -70.1189    35.5980    31.3870      .0200     2.1320
 5297.0000    33.1830   100.7660  2589.0938      .8110      .3860      .4670      .0550   -55.8840    37.2780    32.2460      .0450     2.1180
 5297.5000    33.4709   105.8099  2310.5313      .9750      .4330      .5620      .0650   -33.9020    40.3620    33.1260      .0690     2.1030
 5298.0000    38.8230   108.6539  2029.2754     1.5490      .4930      .6720      .0700   -24.6120    45.2070    32.2750      .0690     2.1180
 5298.5000    38.4120   108.4330  1757.5176     2.3490      .5690      .7720      .0630   -24.4380    47.9120    28.7720      .0360     2.1750
 5299.0000    31.5570   102.6510  1457.3242     2.6850      .6860      .8310      .0560   -23.2010    50.2800    24.9730      .0410     2.2380
 5299.5000    28.0620    92.9159  1166.1836     2.6030      .8580      .8780      .0670   -19.1560    68.7749    24.4460      .0680     2.2470
 5300.0000    30.2850    91.9180   972.1807     1.7380     1.0290      .9320      .1140   -14.6750   129.4719    28.8220      .1030     2.1740
 5300.5000    30.3440    98.3119   865.8271     1.2880     1.1550      .9690      .1810   -12.2290   220.5759    33.8300      .0980     2.0920
 5301.0000    32.5020   105.0809   825.4307     1.2760     1.2120      .9680      .2160   -10.6260   267.3027    35.9150      .0860     2.0570
 5301.5000    39.1860   113.4619   845.4268     1.4680     1.1830      .9480      .1890    -7.2570   215.1060    34.1210      .0830     2.0870
 5302.0000    40.0439   117.5599   885.3955     1.4890     1.1290      .9380      .1700    -5.3890   133.7788    33.1460      .0730     2.1030
 5302.5000    41.8950   118.6260   892.8818     1.5110     1.1200      .9530      .1720    -3.9320    88.0680    33.4620      .0550     2.0980
 5303.0000    42.3400   121.3230   889.5254     1.5040     1.1240      .9830      .1690    -3.7860    71.9729    33.1200      .0640     2.1030
 5303.5000    42.9730   122.4700   886.8994     1.5680     1.1280     1.0110      .1690    -3.6710    68.3550    33.0880      .0650     2.1040
 5304.0000    42.6080   121.5919   879.1572     1.7120     1.1380     1.0210      .1690    -3.9740    67.2729    32.9420      .0580     2.1060
 5304.5000    42.3260   118.8600   871.3262     1.7120     1.1480     1.0100      .1610    -4.9710    65.7419    32.1340      .0670     2.1200
 5305.0000    42.9420   115.7510   866.3125     1.6070     1.1540     1.0000      .1580    -4.8910    63.1180    31.7480      .0800     2.1260
 5305.5000    42.4490   113.6539   863.8438     1.5260     1.1580      .9950      .1580    -1.8940    64.5690    31.6970      .0860     2.1270
 5306.0000    41.1559   112.2830   877.7822     1.5060     1.1390      .9910      .1660     -.5960    68.3650    32.7040      .0760     2.1100
 5306.5000    40.6730   112.8579   917.3262     1.5510     1.0900      .9750      .1570    -1.0520    66.4919    32.4930      .0890     2.1140
 5307.0000    40.4550   114.2209   969.2236     1.5690     1.0320      .9410      .1550    -1.0720    63.8400    33.1899      .0880     2.1020
 5307.5000    39.8430   116.1360  1003.1836     1.5630      .9970      .9060      .1680    -2.4730    63.1180    34.9319      .0690     2.0740
 5308.0000    40.8610   119.7109  1016.1387     1.4900      .9840      .8870      .1780     -.7820    63.7670    36.1270      .0640     2.0540
 5308.5000    42.2590   123.4390  1013.5859     1.3970      .9870      .8850      .1820     1.0330    65.9769    36.4659      .0590     2.0480
 5309.0000    42.7820   126.1709  1005.4316     1.3900      .9950      .8950      .1720     2.0300    65.9159    35.3770      .0580     2.0660
 5309.5000    42.8470   127.1730  1004.3174     1.4270      .9960      .9100      .1620     1.8430    65.6799    34.4290      .0630     2.0820
 5310.0000    42.7020   126.4490  1016.3984     1.4380      .9840      .9220      .1660     1.6830    65.6260    35.0040      .0630     2.0720
 5310.5000    42.4500   124.2250  1035.3574     1.4590      .9660      .9170      .1670     1.7640    66.2990    35.4160      .0770     2.0660
 5311.0000    43.0300   121.6050  1058.8594     1.4820      .9440      .8930      .1610     1.1960    65.4939    35.1600      .0750     2.0700
 5311.5000    41.2170   120.4130  1085.7246     1.4430      .9210      .8620      .1490     1.0830    63.5770    34.3420      .0790     2.0830
 5312.0000    41.7859   120.9440  1114.7578     1.3480      .8970      .8300      .1490     2.0180    63.8250    34.7510      .0690     2.0770
 5312.5000    42.7950   123.9319  1146.2949     1.2810      .8720      .8010      .1470     3.0000    64.2479    35.0190      .0550     2.0720
 5313.0000    43.5880   128.1780  1185.2793     1.2390      .8440      .7770      .1460     3.1520    64.8049    35.4280      .0500     2.0650
 5313.5000    45.0690   131.1318  1225.3223     1.2120      .8160      .7620      .1380     2.7100    64.3030    35.0300      .0570     2.0720
 5314.0000    44.8390   132.6809  1252.8008     1.2100      .7980      .7610      .1340     2.9230    64.2389    34.9659      .0610     2.0730
 5314.5000    43.6020   133.2520  1259.4219     1.2360      .7940      .7740      .1380     2.6670    61.6039    35.4140      .0650     2.0660
 5315.0000    44.1949   132.9568  1236.9102     1.2960      .8080      .7990      .1400     2.6320    63.2380    35.4430      .0670     2.0650
 5315.5000    44.2890   132.0359  1181.5098     1.3470      .8460      .8400      .1380     1.6940    65.3369    34.4709      .0760     2.0810
 5316.0000    43.0320   130.8318  1109.4258     1.3290      .9010      .9060      .1500     -.4120    64.9330    34.7630      .0620     2.0760
 5316.5000    42.2460   127.9199  1038.4063     1.3540      .9630      .9860      .1630     -.8590    63.0510    35.0060      .0710     2.0720
 5317.0000    41.5740   121.1139   982.6846     1.5000     1.0180     1.0440      .1790    -1.8450    62.0099    35.6920      .0810     2.0610
 5317.5000    38.9820   112.2260   951.4033     1.6280     1.0510     1.0540      .2800    -3.5330    56.7729    43.2490     -.0270     1.9360
 5318.0000    38.2729   101.9969   931.5225     1.5960     1.0740     1.0330      .2960    -3.7960    54.8680    43.9590     -.0340     1.9250
 5318.5000    38.5870    92.9340   911.7080     1.4580     1.0970     1.0130      .2030    -3.7420    55.3110    36.5040      .0950     2.0480
