~VERSION INFORMATION
VERS.                             2.0:   CWLS Log ASCII Standard-VERSION 2.0
WRAP.                              NO:   One line per depth step
~Well Information Block
STRT.F                      3120.0000:   Top Depth
STOP.F                     12040.0000:   Bottom Depth
STEP.F                         .50000:   Depth Increment
NULL.                        -999.250:   Null Value
FLD .                      GA BLK 254:   Field Name
WELL.       OCSG01776   001 ST00 BP00:   NAME
API .                    42706300290000:   WELL API
R1  .                      SUN OIL CO:   COMMENT  1
EDF .F                        57.0000:   ELEV DRILL FLOOR
COMP.                      SUN OIL CO:   OPERATOR
BN  .                             254:   BLOCK
CTRY.                             USA:   COUNTRY NAME
CNTY.                              GA:   COUNTY
CNTY.                        GLVSTN L:   COUNTY NAME
EKB .F                        58.0000:   ELEV KELLY BUSHING
TDD .F                      12003.000:   FINAL TD DRILLER
STAT.                           TEXAS:   STATE NAME
UWI .                    42706300290000:   WELL API
DICO.               IHS : Digitizing Company
~PARAMETER INFORMATION (zones)
#MNEM.UNIT                       Value     Description
#=========                       =====     ===========
#ZONATION                           IE:   ZONATION NAME
#ZONE                            RUN_2:   ZONE NAME
TOP .                       7847.0000:   TOP DEPTH
BOT .                      10079.0000:   BOTTOM DEPTH
RUN .                               2:   RUN NUMBER
LCCD.                             440:   LOGGING CONTRACTOR
SRVC.                    Schlumberger:   LOGGING CONT NAME
DICO.          QC Data Collectors Ltd:   DIG COMPANY NAME
LDAT.                      11/28/1970:   DATE LOGGED
ELD .F                        58.0000:   LOG DATUM ELEVATION
TDD .F                     10076.0000:   TOTAL DEPTH DRILLER
TDL .F                     10080.0000:   TOTAL DEPTH LOGGER
BOTL.F                     10079.0000:   BOTTOM DEPTH LOGGED
TOPL.F                      7847.0000:   TOP DEPTH LOGGED
CS1 .IN                        9.6250:   CASING SIZE 1
BS1 .IN                        8.5000:   BIT SIZE 1
DDB1.F                     10076.0000:   DEPTH DRILLED BIT 1
BHF .                              99:   FLUID CODE
DPT .                   Miscellaneous:   DRILLING FLUID TYPE
MUDD.                         15.4000:   FLUID DENSITY
MUDV.                         48.0000:   FLUID VISCOSITY
DFPH.                         11.5000:   FLUID PH
FL  .                          3.2000:   FLUID LOSS
RM  .OHMM                       .8400:   RM
RMT .DEGF                     75.0000:   RM TEMP
RMF .OHMM                       .4600:   RMF
RMFT.DEGF                     75.0000:   RMF TEMP
FSC .                               M:   RMF CODE
RMC .OHMM                      1.3100:   RMC
RMCT.DEGF                     75.0000:   RMC TEMP
CMC .                               C:   RMC CODE
TMAX.DEGF                    202.0000:   MAX REC TEMP
TIMC.                          3.5000:   TIME SINCE CIRCLN
~PARAMETER INFORMATION (zones)
#MNEM.UNIT                       Value     Description
#=========                       =====     ===========
#ZONATION                           IE:   ZONATION NAME
#ZONE                            RUN_3:   ZONE NAME
TOP .                      10074.0000:   TOP DEPTH
BOT .                      12002.0000:   BOTTOM DEPTH
RUN .                               3:   RUN NUMBER
LCCD.                             440:   LOGGING CONTRACTOR
SRVC.                    Schlumberger:   LOGGING CONT NAME
DICO.          QC Data Collectors Ltd:   DIG COMPANY NAME
LDAT.                      12/17/1970:   DATE LOGGED
ELD .F                        58.0000:   LOG DATUM ELEVATION
TDD .F                     12000.0000:   TOTAL DEPTH DRILLER
TDL .F                     12003.0000:   TOTAL DEPTH LOGGER
BOTL.F                     12002.0000:   BOTTOM DEPTH LOGGED
TOPL.F                     10074.0000:   TOP DEPTH LOGGED
CS1 .IN                        7.6250:   CASING SIZE 1
BS1 .IN                        6.5000:   BIT SIZE 1
DDB1.F                     12000.0000:   DEPTH DRILLED BIT 1
BHF .                              99:   FLUID CODE
DPT .                   Miscellaneous:   DRILLING FLUID TYPE
MUDD.                         15.9000:   FLUID DENSITY
MUDV.                         48.0000:   FLUID VISCOSITY
DFPH.                         12.0000:   FLUID PH
FL  .                          3.0000:   FLUID LOSS
RM  .OHMM                      1.0500:   RM
RMT .DEGF                     70.0000:   RM TEMP
RMF .OHMM                       .5100:   RMF
RMFT.DEGF                     70.0000:   RMF TEMP
FSC .                               M:   RMF CODE
RMC .OHMM                      1.3000:   RMC
RMCT.DEGF                     70.0000:   RMC TEMP
CMC .                               C:   RMC CODE
TMAX.DEGF                    240.0000:   MAX REC TEMP
TIMC.                          5.0000:   TIME SINCE CIRCLN
~PARAMETER INFORMATION (zones)
#MNEM.UNIT                       Value     Description
#=========                       =====     ===========
#ZONATION                           IE:   ZONATION NAME
#ZONE                            RUN_1:   ZONE NAME
TOP .                       3120.0000:   TOP DEPTH
BOT .                      12002.5000:   BOTTOM DEPTH
RUN .                               1:   RUN NUMBER
LCCD.                             440:   LOGGING CONTRACTOR
SRVC.                    Schlumberger:   LOGGING CONT NAME
DICO.          QC Data Collectors Ltd:   DIG COMPANY NAME
LDAT.                      11/19/1970:   DATE LOGGED
ELD .F                        58.0000:   LOG DATUM ELEVATION
TDD .F                      7850.0000:   TOTAL DEPTH DRILLER
TDL .F                      7847.0000:   TOTAL DEPTH LOGGER
BOTL.F                      7847.0000:   BOTTOM DEPTH LOGGED
TOPL.F                      3120.0000:   TOP DEPTH LOGGED
CS1 .IN                       13.3750:   CASING SIZE 1
BS1 .IN                       12.2500:   BIT SIZE 1
DDB1.F                      7850.0000:   DEPTH DRILLED BIT 1
BHF .                              99:   FLUID CODE
DPT .                   Miscellaneous:   DRILLING FLUID TYPE
MUDD.                         12.5000:   FLUID DENSITY
MUDV.                         46.0000:   FLUID VISCOSITY
DFPH.                         10.5000:   FLUID PH
FL  .                          4.0000:   FLUID LOSS
RM  .OHMM                       .7900:   RM
RMT .DEGF                     80.0000:   RM TEMP
RMF .OHMM                       .5200:   RMF
RMFT.DEGF                     75.0000:   RMF TEMP
FSC .                               M:   RMF CODE
RMC .OHMM                      1.2300:   RMC
RMCT.DEGF                     75.0000:   RMC TEMP
CMC .                               M:   RMC CODE
TMAX.DEGF                    152.0000:   MAX REC TEMP
TIMC.                          4.0000:   TIME SINCE CIRCLN
~Curve Information Block
#MNEM.UNIT         API  CODE                       CURVE DESCRIPTION
#---------        ------------                    --------------------
 DEPT.F           00 001 00 00                    :1   DEPTH
 C1-3.IN          00 000 00 00                    :2
 C2-4.IN          00 000 00 00                    :3
 CALI.IN          00 000 00 00                    :4   Density Caliper
 CILD.MMHO        00 000 00 00                    :5   Deep Induction Conductivity
 CORR.G/CC        00 000 00 00                    :6   Density Correction
 DT  .US/FT       00 000 00 00                    :7   Delta-T Compressional
 GR  .API         00 000 00 00                    :8   Gamma Ray
 ILD .OHMM        00 000 00 00                    :9   Induction Deep Resistivity
 IND .OHMM        00 000 00 00                    :10
 RHOB.G/CC        00 000 00 00                    :11  Bulk Density
 SN16.OHMM        00 000 00 00                    :12  Short Normal 16 Inch
 SP  .MV          00 000 00 00                    :13  Spontaneous Potential
~A    DEPT        C1-3        C2-4        CALI        CILD        CORR          DT          GR         ILD         IND        RHOB        SN16          SP
# ...
   5007.0000     11.4400     11.3200   -999.2500   2760.2031   -999.2500   -999.2500   -999.2500      0.4528      0.4400   -999.2500      0.5961    -43.8000
   5007.5000     11.4400     11.2800   -999.2500   2798.6523   -999.2500   -999.2500   -999.2500      0.4571      0.4400   -999.2500      0.6080    -45.0000
   5008.0000     11.4400     11.2400   -999.2500   2828.0625   -999.2500   -999.2500   -999.2500      0.4615      0.4400   -999.2500      0.6320    -46.2000
   5008.5000     11.4400     11.2400   -999.2500   2611.1250   -999.2500   -999.2500   -999.2500      0.4658      0.4627   -999.2500      0.6724    -48.8000
   5009.0000     11.4000     11.2000   -999.2500   2483.9414   -999.2500   -999.2500   -999.2500      0.4701      0.4882   -999.2500      0.7008    -51.0000
   5009.5000     11.4000     11.2000   -999.2500   2414.7109   -999.2500   -999.2500   -999.2500      0.4745      0.5127   -999.2500      0.7329    -53.2000
   5010.0000     11.4000     11.2000   -999.2500   2323.3359   -999.2500   -999.2500   -999.2500      0.4812      0.5382   -999.2500      0.7411    -52.4000
   5010.5000     11.4000     11.2000   -999.2500   2215.2500   -999.2500   -999.2500   -999.2500      0.4926      0.5600   -999.2500      0.7412    -49.0000
   5011.0000     11.4000     11.2000   -999.2500   2126.2109   -999.2500   -999.2500   -999.2500      0.5041      0.5800   -999.2500      0.7373    -44.8000
   5011.5000     11.4000     11.2000   -999.2500   2019.4961   -999.2500   -999.2500   -999.2500      0.5155      0.5800   -999.2500      0.7412    -40.4000
   5012.0000     11.4400     11.2400   -999.2500   1989.3066   -999.2500   -999.2500   -999.2500      0.5270      0.6000   -999.2500      0.7490    -38.4000
   5012.5000     11.4800     11.2800   -999.2500   1965.6641   -999.2500   -999.2500   -999.2500      0.5384      0.6000   -999.2500      0.7451    -38.0000
   5013.0000     11.5200     11.2800   -999.2500   1937.6504   -999.2500   -999.2500   -999.2500      0.5498      0.6200   -999.2500      0.7451    -38.4000
   5013.5000     11.5200     11.2800   -999.2500   1901.8164   -999.2500   -999.2500   -999.2500      0.5613      0.6200   -999.2500      0.7451    -38.8000
   5014.0000     11.5200     11.2800   -999.2500   1862.2754   -999.2500   -999.2500   -999.2500      0.5727      0.6200   -999.2500      0.7412    -39.0000
   5014.5000     11.5200     11.2800   -999.2500   1821.0312   -999.2500   -999.2500   -999.2500      0.5748      0.6200   -999.2500      0.7490    -38.8000
   5015.0000     11.5200     11.2800   -999.2500   1778.9492   -999.2500   -999.2500   -999.2500      0.5724      0.6600   -999.2500      0.7569    -37.0000
   5015.5000     11.5200     11.3600   -999.2500   1735.4199   -999.2500   -999.2500   -999.2500      0.5700      0.6600   -999.2500      0.7569    -35.8000
   5016.0000     11.5200     11.4000   -999.2500   1692.3984   -999.2500   -999.2500   -999.2500      0.5676      0.6600   -999.2500      0.7608    -34.0000
   5016.5000     11.5600     11.4400   -999.2500   1666.4961   -999.2500   -999.2500   -999.2500      0.5652      0.6600   -999.2500      0.7725    -30.9690
   5017.0000     11.7600     11.4800   -999.2500   1640.5918   -999.2500   -999.2500   -999.2500      0.5628      0.6400   -999.2500      0.7686    -29.1093
   5017.5000     11.9200     11.5200   -999.2500   1658.2676   -999.2500   -999.2500   -999.2500      0.5517      0.6400   -999.2500      0.7451    -28.0564
   5018.0000     11.9600     11.5200   -999.2500   1725.7188   -999.2500   -999.2500   -999.2500      0.5396      0.6200   -999.2500      0.7137    -27.6152
   5018.5000     11.8752     11.4768   -999.2500   1847.9258   -999.2500   -999.2500   -999.2500      0.5274      0.6200   -999.2500      0.6980    -28.8000
   5019.0000     11.7081     11.4722   -999.2500   1922.3379   -999.2500   -999.2500   -999.2500      0.5152      0.6200   -999.2500      0.7098    -30.2000
   5019.5000     11.5846     11.4287   -999.2500   1965.4102   -999.2500   -999.2500   -999.2500      0.5031      0.6000   -999.2500      0.7216    -33.2000
   5020.0000     11.5405     11.4247   -999.2500   2080.0391   -999.2500   -999.2500   -999.2500      0.4909      0.5800   -999.2500      0.7176    -36.8000
   5020.5000     11.5000     11.3846   -999.2500   2300.6836   -999.2500   -999.2500   -999.2500      0.4790      0.5600   -999.2500      0.7062    -40.2041
   5021.0000     11.5000     11.3846   -999.2500   2488.0039   -999.2500   -999.2500   -999.2500      0.4672      0.5200   -999.2500      0.6988    -44.0816
   5021.5000     11.5000     11.3846   -999.2500   2592.4844   -999.2500   -999.2500   -999.2500      0.4554      0.5000   -999.2500      0.6834    -48.7755
   5022.0000     11.5000     11.3846   -999.2500   2664.8633   -999.2500   -999.2500   -999.2500      0.4588      0.4800   -999.2500      0.6838    -51.0000
   5022.5000     11.5000     11.3846   -999.2500   2721.8047   -999.2500   -999.2500   -999.2500      0.4736      0.4400   -999.2500      0.6800    -51.4000
   5023.0000     11.5000     11.3846   -999.2500   2739.6836   -999.2500   -999.2500   -999.2500      0.4884      0.4200   -999.2500      0.6600    -49.7959
   5023.5000     11.5769     11.3846   -999.2500   2691.4805   -999.2500   -999.2500   -999.2500      0.5032      0.4600   -999.2500      0.6320    -47.1429
   5024.0000     11.6154     11.4231   -999.2500   2562.8750   -999.2500   -999.2500   -999.2500      0.5181      0.4800   -999.2500      0.6080    -44.6939
   5024.5000     11.6538     11.4231   -999.2500   2464.5391   -999.2500   -999.2500   -999.2500      0.5355      0.4800   -999.2500      0.5922    -41.8314
   5025.0000     11.7308     11.5000   -999.2500   2384.4883   -999.2500   -999.2500   -999.2500      0.5540      0.5000   -999.2500      0.5843    -39.4000
   5025.5000     11.7692     11.5385   -999.2500   2313.7852   -999.2500   -999.2500   -999.2500      0.5725      0.5200   -999.2500      0.5922    -37.4000
   5026.0000     11.8077     11.6154   -999.2500   2253.0898   -999.2500   -999.2500   -999.2500      0.5910      0.5400   -999.2500      0.6040    -34.8000
   5026.5000     11.8462     11.6538   -999.2500   2147.7969   -999.2500   -999.2500   -999.2500      0.6095      0.5600   -999.2500      0.6240    -31.0000
   5027.0000     11.8846     11.6923   -999.2500   1821.6660   -999.2500   -999.2500   -999.2500      0.6280      0.5800   -999.2500      0.6360    -27.9592
   5027.5000     11.8846     11.6923   -999.2500   1769.0957   -999.2500   -999.2500   -999.2500      0.6465      0.6000   -999.2500      0.6520    -25.1020
   5028.0000     11.8846     11.6923   -999.2500   1718.1504   -999.2500   -999.2500   -999.2500      0.6650      0.6200   -999.2500      0.6720    -23.2653
   5028.5000     11.8896     11.6572   -999.2500   1679.3711   -999.2500   -999.2500   -999.2500      0.6835      0.6429   -999.2500      0.6923    -22.6531
   5029.0000     11.8200     11.6245   -999.2500   1642.2422   -999.2500   -999.2500   -999.2500      0.6941      0.6676   -999.2500      0.7206    -23.8776
   5029.5000     11.7491     11.5912   -999.2500   1611.3848   -999.2500   -999.2500   -999.2500      0.6946      0.6933   -999.2500      0.7566    -25.9184
   5030.0000     11.7167     11.5573   -999.2500   1582.2813   -999.2500   -999.2500   -999.2500      0.6950      0.7581   -999.2500      0.7882    -28.3673
   5030.5000     11.7200     11.5600   -999.2500   1545.2031   -999.2500   -999.2500   -999.2500      0.6954      0.7576   -999.2500      0.8240    -30.6000
   5031.0000     11.8000     11.5600   -999.2500   1581.9258   -999.2500   -999.2500   -999.2500      0.6959      0.7537   -999.2500      0.8600    -32.4000
   5031.5000     11.9200     11.5600   -999.2500   1651.2578   -999.2500   -999.2500   -999.2500      0.6963      0.7505   -999.2500      0.8800    -34.0000
   5032.0000     11.9600     11.6000   -999.2500   1712.2598   -999.2500   -999.2500   -999.2500      0.6886      0.7073   -999.2500      0.8720    -36.0000
