~VERSION INFORMATION
VERS.                             2.0:   CWLS Log ASCII Standard-VERSION 2.0
WRAP.                              NO:   One line per depth step
~Well Information Block
STRT.F                      3511.0000:   Top Depth
STOP.F                      7755.0000:   Bottom Depth
STEP.F                         .50000:   Depth Increment
NULL.                        -999.250:   Null Value
FLD .                      BA BLK 431:   Field Name
WELL.       OCSG09017   002 ST01 BP00:   NAME
API .                  42704402350100:   WELL API
EDF .F                        89.0000:   ELEV DRILL FLOOR
COMP.       SEAGULL ENERGY E AND P IN:   OPERATOR
BN  .                             481:   BLOCK
CTRY.                             USA:   COUNTRY NAME
CNTY.                        BRAZOS L:   COUNTY NAME
EKB .F                        90.0000:   ELEV KELLY BUSHING
TDD .F                          0.000:   FINAL TD DRILLER
STAT.                           TEXAS:   STATE NAME
UWI .                  42704402350100:   WELL API
DICO.               IHS : Digitizing Company
~PARAMETER INFORMATION (zones)
#MNEM.UNIT                       Value     Description
#=========                       =====     ===========
#ZONATION                          CNL:   ZONATION NAME
#ZONE                            RUN_0:   ZONE NAME
TOP .                       3511.0000:   TOP DEPTH
BOT .                       7755.5000:   BOTTOM DEPTH
RUN .                               0:   RUN NUMBER
LCCD.                             280:   LOGGING CONTRACTOR
SRVC.                     Halliburton:   LOGGING CONT NAME
DICO.          QC Data Collectors Ltd:   DIG COMPANY NAME
LDAT.                        --/--/--:   DATE LOGGED
BHF .                              99:   FLUID CODE
DPT .                   Miscellaneous:   DRILLING FLUID TYPE
~PARAMETER INFORMATION (zones)
#MNEM.UNIT                       Value     Description
#=========                       =====     ===========
#ZONATION                          DIL:   ZONATION NAME
#ZONE                            RUN_0:   ZONE NAME
TOP .                       3511.0000:   TOP DEPTH
BOT .                       7755.5000:   BOTTOM DEPTH
RUN .                               0:   RUN NUMBER
LCCD.                             280:   LOGGING CONTRACTOR
SRVC.                     Halliburton:   LOGGING CONT NAME
DICO.          QC Data Collectors Ltd:   DIG COMPANY NAME
LDAT.                        --/--/--:   DATE LOGGED
BHF .                              99:   FLUID CODE
DPT .                   Miscellaneous:   DRILLING FLUID TYPE
~PARAMETER INFORMATION (zones)
#MNEM.UNIT                       Value     Description
#=========                       =====     ===========
#ZONATION                          FDC:   ZONATION NAME
#ZONE                            RUN_0:   ZONE NAME
TOP .                       3511.0000:   TOP DEPTH
BOT .                       7755.5000:   BOTTOM DEPTH
RUN .                               0:   RUN NUMBER
LCCD.                             280:   LOGGING CONTRACTOR
SRVC.                     Halliburton:   LOGGING CONT NAME
DICO.          QC Data Collectors Ltd:   DIG COMPANY NAME
LDAT.                        --/--/--:   DATE LOGGED
BHF .                              99:   FLUID CODE
DPT .                   Miscellaneous:   DRILLING FLUID TYPE
~PARAMETER INFORMATION (zones)
#MNEM.UNIT                       Value     Description
#=========                       =====     ===========
#ZONATION                        SONIC:   ZONATION NAME
#ZONE                            RUN_0:   ZONE NAME
TOP .                       3511.0000:   TOP DEPTH
BOT .                       7731.5000:   BOTTOM DEPTH
RUN .                               0:   RUN NUMBER
LCCD.                             280:   LOGGING CONTRACTOR
SRVC.                     Halliburton:   LOGGING CONT NAME
DICO.          QC Data Collectors Ltd:   DIG COMPANY NAME
LDAT.                        --/--/--:   DATE LOGGED
BHF .                              99:   FLUID CODE
DPT .                   Miscellaneous:   DRILLING FLUID TYPE
~Curve Information Block
#MNEM.UNIT                    API CODE    No Description
#=========                    ========    == ===========
DEPT.F                   00 001 00 00:     1  DEPTH
NPHI.%                               :     2  Neutron Porosity
GR.GAPI                              :     3  Gamma Ray
GRD.OHMM                             :     4  Unrecognised
ILD.OHMM                             :     5  Deep Induction Resistivity
ILM.OHMM                             :     6  Medium Induction Resistivity
SP.MV                                :     7  Spontaneous Potential
DPHI.%                               :     8  Porosity
CALI.IN                              :     9  Caliper
DT.US/F                              :    10  Sonic Transit Time
GR.GAPI                              :    11  Gamma Ray
~ASCII
# ...
 3779.0000    77.3804    29.8725      .4019      .3795      .4030   -84.3275    75.9211    23.2777   117.3286    28.9799
 3779.5000    75.0913    28.3777      .3989      .3796      .3961   -84.3590    75.9357    23.2799   119.5875    29.1321
 3780.0000    73.1515    28.0405      .3958      .3839      .3893   -84.4004    75.8073    23.2816   122.1584    29.2843
 3780.5000    73.7965    29.0678      .3948      .3888      .3888   -84.4529    75.7030    23.2831   120.9440    28.5321
 3781.0000    78.9373    29.8002      .3951      .3932      .3916   -84.4917    75.6151    23.2846   116.0703    27.7436
 3781.5000    83.4698    30.2967      .3910      .3981      .3972   -84.5226    75.4827    23.2887   117.8276    26.9168
 3782.0000    83.9510    30.7934      .3851      .4066      .4034   -84.4843    75.3955    23.2943   124.6655    25.7454
 3782.5000    82.3389    31.2827      .3812      .4101      .4080   -84.4561    75.4436    23.2997   129.3691    25.2196
 3783.0000    80.4366    30.3679      .3797      .4067      .4091   -84.4631    75.4871    23.3051   132.2998    25.4704
 3783.5000    78.6304    30.7495      .3805      .4010      .4053   -84.4155    75.4730    23.3084   130.5042    25.5345
 3784.0000    77.7661    30.8361      .3829      .3955      .3979   -84.3293    75.4788    23.2882   129.0605    25.4858
 3784.5000    78.3715    29.3972      .3810      .3900      .3907   -84.2120    75.5286    23.2710   125.9980    26.5326
 3785.0000    80.1761    28.0730      .3790      .3844      .3836   -84.0643    75.4924    23.2705   122.3217    26.8209
 3785.5000    82.1903    27.0209      .3771      .3790      .3781   -83.8923    75.3397    23.2791   119.3433    26.3198
 3786.0000    83.1809    26.7683      .3751      .3739      .3742   -83.7488    75.1689    23.2856   117.3099    26.3535
 3786.5000    85.3153    28.2231      .3729      .3700      .3704   -83.6532    75.0831    23.2880   121.2147    26.8045
 3787.0000    85.5200    28.8084      .3700      .3663      .3678   -83.6206    74.9581    23.2882   125.9875    26.9758
 3787.5000    84.6216    28.6173      .3654      .3636      .3676   -83.6101    74.8712    23.2857   127.8682    27.0727
 3788.0000    87.4270    28.1179      .3623      .3644      .3675   -83.6172    74.9369    23.2824   126.0791    27.5369
 3788.5000    87.2720    27.1134      .3631      .3653      .3674   -83.6077    74.9474    23.2782   124.1758    28.1908
 3789.0000    85.0452    25.8725      .3642      .3670      .3673   -83.5952    74.9093    23.2734   124.8540    28.8838
 3789.5000    83.2869    25.8013      .3637      .3686      .3672   -83.6566    74.8551    23.2668   128.7268    28.8991
 3790.0000    81.5876    26.1042      .3585      .3701      .3691   -83.7505    74.9031    23.2601   131.8579    27.7397
 3790.5000    81.0054    26.1110      .3544      .3735      .3719   -83.8634    75.0856    23.2533   130.9460    25.9291
 3791.0000    83.4259    26.0150      .3553      .3784      .3748   -83.9020    75.2041    23.2462   129.1477    24.7998
 3791.5000    86.9075    26.1465      .3613      .3819      .3795   -83.9169    75.2964    23.2382   128.8330    25.1886
 3792.0000    85.5967    27.3432      .3673      .3848      .3844   -83.8127    75.4241    23.2310   123.3622    26.5703
 3792.5000    82.8121    28.6017      .3688      .3882      .3893   -83.6083    75.5281    23.2289   117.8914    28.2323
 3793.0000    79.8740    29.8458      .3689      .3921      .3949   -83.4401    75.6227    23.2268   110.6287    29.5043
 3793.5000    77.1150    30.6433      .3668      .3966      .4006   -83.3147    75.5209    23.2271   110.4614    30.9522
 3794.0000    76.9231    30.2716      .3660      .4017      .4062   -83.2968    75.3837    23.2285   116.9463    30.6621
 3794.5000    77.3060    29.6407      .3677      .4080      .4117   -83.2926    75.2278    23.2275   129.7939    29.1649
 3795.0000    77.8027    29.3414      .3720      .4161      .4176   -83.2997    75.1567    23.2226   139.4231    28.4866
 3795.5000    78.0349    29.3507      .3749      .4243      .4239   -83.2804    75.0676    23.2202   143.0081    28.5020
 3796.0000    76.4476    29.9037      .3787      .4303      .4290   -83.2524    74.8662    23.2198   148.6514    27.8195
 3796.5000    74.8595    30.0808      .3894      .4298      .4322   -83.2142    74.6213    23.2143   133.7969    28.2446
 3797.0000    73.3728    29.0795      .4011      .4294      .4327   -83.2255    74.4132    23.1993   118.9319    28.6564
 3797.5000    72.3418    28.4545      .4101      .4286      .4309   -83.2518    74.3490    23.1740   107.7352    28.9486
 3798.0000    73.8636    27.8298      .4165      .4277      .4292   -83.2876    74.4469    23.1442   104.3136    29.6065
 3798.5000    76.5715    27.2048      .4205      .4269      .4275   -83.3333    74.5370    23.1085   103.6102    30.3116
 3799.0000    78.9661    26.7305      .4188      .4245      .4234   -83.3923    74.4725    23.0772   112.3248    31.2968
 3799.5000    80.7836    26.3699      .4126      .4198      .4190   -83.4468    74.5896    23.0828   120.5245    31.8594
 3800.0000    79.3657    26.0582      .4027      .4140      .4147   -83.4539    74.7657    23.0793   129.3958    28.9468
 3800.5000    77.5498    25.8575      .3930      .4041      .4105   -83.4819    74.7672    23.0833   134.3755    27.9693
 3801.0000    79.3768    26.1394      .3903      .3954      .4066   -83.5564    74.6219    23.0865   140.9163    28.0897
 3801.5000    79.8434    27.8412      .3887      .3919      .4027   -83.7148    74.4469    23.0859   135.2251    28.3055
 3802.0000    80.0419    29.3347      .3858      .3891      .3977   -83.7925    74.2672    23.0763   129.7197    28.3196
 3802.5000    80.5793    30.9715      .3833      .3908      .3921   -83.8036    74.1135    23.0628   126.6392    28.7544
 3803.0000    81.0066    29.8022      .3863      .3972      .3886   -83.7118    74.1819    23.0499   124.1237    28.9110
 3803.5000    80.4535    27.6296      .3883      .4080      .3851   -83.7109    74.2915    23.0366   124.0771    27.8565
 3804.0000    77.6025    28.6941      .3861      .4098      .3918   -83.7986    74.4221    23.0228   124.3046    27.0703
 3804.5000    73.8923    29.6375      .3878      .4088      .4003   -83.8787    74.5651    23.0039   134.3916    27.5638
 3805.0000    69.8865    30.5141      .3920      .4033      .4042   -83.9351    74.6210    22.9831   143.7539    28.4698
 3805.5000    68.1744    31.2277      .3950      .4021      .4060   -83.9153    74.1489    22.9545   142.2966    29.5270
 3806.0000    67.9572    32.0275      .3979      .4024      .4056   -83.8752    73.5575    22.9620   130.7815    30.1997
 3806.5000    68.3208    33.4090      .4077      .4033      .4043   -83.8483    72.9645    22.9115   119.4655    30.4239
 3807.0000    68.5205    35.6747      .4147      .4044      .4033   -83.8864    71.7263    22.8485   114.4299    29.9093
 3807.5000    68.4869    37.2619      .4174      .4010      .4070   -83.8352    69.2567    22.8094   113.1106    29.0280
 3808.0000    68.8442    38.4527      .4186      .3766      .4107   -83.7209    67.5399    22.8033   113.7845    28.9619
 3808.5000    66.3777    39.4175      .4225      .3503      .4127   -83.6099    65.5033    22.7155   116.0172    29.2350
 3809.0000    63.8138    36.6825      .4288      .3214      .4087   -83.3845    63.6795    22.4803   121.0873    30.2876
 3809.5000    64.7057    33.3829      .4294      .3034      .3974   -83.0020    61.7805    20.7768   124.4797    31.2033
 3810.0000    66.1196    31.0262      .4226      .2949      .3860   -82.7407    58.1537    18.5661   121.9580    32.0547
 3810.5000    67.3280    30.7898      .4143      .2923      .3755   -82.3304    55.9829    18.1189   119.3353    32.7789
 3811.0000    65.9414    31.0467      .4096      .2937      .3650   -81.4584    54.4431    18.2179   118.2058    32.6566
 3811.5000    61.5312    32.0809      .4102      .3017      .3648   -80.2623    54.0831    18.4738   117.1348    32.9744
 3812.0000    57.3168    34.4611      .4241      .3212      .3894   -78.6010    51.9435    18.5890   112.5797    33.8064
