~VERSION INFORMATION
VERS.                             2.0:   CWLS Log ASCII Standard-VERSION 2.0
WRAP.                              NO:   One line per depth step
~Well Information Block
STRT.F                      3120.0000:   Top Depth
STOP.F                     12040.0000:   Bottom Depth
STEP.F                         .50000:   Depth Increment
NULL.                        -999.250:   Null Value
FLD .                      GA BLK 254:   Field Name
WELL.       OCSG01776   001 ST00 BP00:   NAME
API .                    42706300290000:   WELL API
R1  .                      SUN OIL CO:   COMMENT  1
EDF .F                        57.0000:   ELEV DRILL FLOOR
COMP.                      SUN OIL CO:   OPERATOR
BN  .                             254:   BLOCK
CTRY.                             USA:   COUNTRY NAME
CNTY.                              GA:   COUNTY
CNTY.                        GLVSTN L:   COUNTY NAME
EKB .F                        58.0000:   ELEV KELLY BUSHING
TDD .F                      12003.000:   FINAL TD DRILLER
STAT.                           TEXAS:   STATE NAME
UWI .                    42706300290000:   WELL API
DICO.               IHS : Digitizing Company
~PARAMETER INFORMATION (zones)
#MNEM.UNIT                       Value     Description
#=========                       =====     ===========
#ZONATION                           IE:   ZONATION NAME
#ZONE                            RUN_2:   ZONE NAME
TOP .                       7847.0000:   TOP DEPTH
BOT .                      10079.0000:   BOTTOM DEPTH
RUN .                               2:   RUN NUMBER
LCCD.                             440:   LOGGING CONTRACTOR
SRVC.                    Schlumberger:   LOGGING CONT NAME
DICO.          QC Data Collectors Ltd:   DIG COMPANY NAME
LDAT.                      11/28/1970:   DATE LOGGED
ELD .F                        58.0000:   LOG DATUM ELEVATION
TDD .F                     10076.0000:   TOTAL DEPTH DRILLER
TDL .F                     10080.0000:   TOTAL DEPTH LOGGER
BOTL.F                     10079.0000:   BOTTOM DEPTH LOGGED
TOPL.F                      7847.0000:   TOP DEPTH LOGGED
CS1 .IN                        9.6250:   CASING SIZE 1
BS1 .IN                        8.5000:   BIT SIZE 1
DDB1.F                     10076.0000:   DEPTH DRILLED BIT 1
BHF .                              99:   FLUID CODE
DPT .                   Miscellaneous:   DRILLING FLUID TYPE
MUDD.                         15.4000:   FLUID DENSITY
MUDV.                         48.0000:   FLUID VISCOSITY
DFPH.                         11.5000:   FLUID PH
FL  .                          3.2000:   FLUID LOSS
RM  .OHMM                       .8400:   RM
RMT .DEGF                     75.0000:   RM TEMP
RMF .OHMM                       .4600:   RMF
RMFT.DEGF                     75.0000:   RMF TEMP
FSC .                               M:   RMF CODE
RMC .OHMM                      1.3100:   RMC
RMCT.DEGF                     75.0000:   RMC TEMP
CMC .                               C:   RMC CODE
TMAX.DEGF                    202.0000:   MAX REC TEMP
TIMC.                          3.5000:   TIME SINCE CIRCLN
~PARAMETER INFORMATION (zones)
#MNEM.UNIT                       Value     Description
#=========                       =====     ===========
#ZONATION                           IE:   ZONATION NAME
#ZONE                            RUN_3:   ZONE NAME
TOP .                      10074.0000:   TOP DEPTH
BOT .                      12002.0000:   BOTTOM DEPTH
RUN .                               3:   RUN NUMBER
LCCD.                             440:   LOGGING CONTRACTOR
SRVC.                    Schlumberger:   LOGGING CONT NAME
DICO.          QC Data Collectors Ltd:   DIG COMPANY NAME
LDAT.                      12/17/1970:   DATE LOGGED
ELD .F                        58.0000:   LOG DATUM ELEVATION
TDD .F                     12000.0000:   TOTAL DEPTH DRILLER
TDL .F                     12003.0000:   TOTAL DEPTH LOGGER
BOTL.F                     12002.0000:   BOTTOM DEPTH LOGGED
TOPL.F                     10074.0000:   TOP DEPTH LOGGED
CS1 .IN                        7.6250:   CASING SIZE 1
BS1 .IN                        6.5000:   BIT SIZE 1
DDB1.F                     12000.0000:   DEPTH DRILLED BIT 1
BHF .                              99:   FLUID CODE
DPT .                   Miscellaneous:   DRILLING FLUID TYPE
MUDD.                         15.9000:   FLUID DENSITY
MUDV.                         48.0000:   FLUID VISCOSITY
DFPH.                         12.0000:   FLUID PH
FL  .                          3.0000:   FLUID LOSS
RM  .OHMM                      1.0500:   RM
RMT .DEGF                     70.0000:   RM TEMP
RMF .OHMM                       .5100:   RMF
RMFT.DEGF                     70.0000:   RMF TEMP
FSC .                               M:   RMF CODE
RMC .OHMM                      1.3000:   RMC
RMCT.DEGF                     70.0000:   RMC TEMP
CMC .                               C:   RMC CODE
TMAX.DEGF                    240.0000:   MAX REC TEMP
TIMC.                          5.0000:   TIME SINCE CIRCLN
~PARAMETER INFORMATION (zones)
#MNEM.UNIT                       Value     Description
#=========                       =====     ===========
#ZONATION                           IE:   ZONATION NAME
#ZONE                            RUN_1:   ZONE NAME
TOP .                       3120.0000:   TOP DEPTH
BOT .                      12002.5000:   BOTTOM DEPTH
RUN .                               1:   RUN NUMBER
LCCD.                             440:   LOGGING CONTRACTOR
SRVC.                    Schlumberger:   LOGGING CONT NAME
DICO.          QC Data Collectors Ltd:   DIG COMPANY NAME
LDAT.                      11/19/1970:   DATE LOGGED
ELD .F                        58.0000:   LOG DATUM ELEVATION
TDD .F                      7850.0000:   TOTAL DEPTH DRILLER
TDL .F                      7847.0000:   TOTAL DEPTH LOGGER
BOTL.F                      7847.0000:   BOTTOM DEPTH LOGGED
TOPL.F                      3120.0000:   TOP DEPTH LOGGED
CS1 .IN                       13.3750:   CASING SIZE 1
BS1 .IN                       12.2500:   BIT SIZE 1
DDB1.F                      7850.0000:   DEPTH DRILLED BIT 1
BHF .                              99:   FLUID CODE
DPT .                   Miscellaneous:   DRILLING FLUID TYPE
MUDD.                         12.5000:   FLUID DENSITY
MUDV.                         46.0000:   FLUID VISCOSITY
DFPH.                         10.5000:   FLUID PH
FL  .                          4.0000:   FLUID LOSS
RM  .OHMM                       .7900:   RM
RMT .DEGF                     80.0000:   RM TEMP
RMF .OHMM                       .5200:   RMF
RMFT.DEGF                     75.0000:   RMF TEMP
FSC .                               M:   RMF CODE
RMC .OHMM                      1.2300:   RMC
RMCT.DEGF                     75.0000:   RMC TEMP
CMC .                               M:   RMC CODE
TMAX.DEGF                    152.0000:   MAX REC TEMP
TIMC.                          4.0000:   TIME SINCE CIRCLN
~Curve Information Block
#MNEM.UNIT         API  CODE                       CURVE DESCRIPTION
#---------        ------------                    --------------------
 DEPT.F           00 001 00 00                    :1   DEPTH
 C1-3.IN          00 000 00 00                    :2
 C2-4.IN          00 000 00 00                    :3
 CALI.IN          00 000 00 00                    :4   Density Caliper
 CILD.MMHO        00 000 00 00                    :5   Deep Induction Conductivity
 CORR.G/CC        00 000 00 00                    :6   Density Correction
 DT  .US/FT       00 000 00 00                    :7   Delta-T Compressional
 GR  .API         00 000 00 00                    :8   Gamma Ray
 ILD .OHMM        00 000 00 00                    :9   Induction Deep Resistivity
 IND .OHMM        00 000 00 00                    :10
 RHOB.G/CC        00 000 00 00                    :11  Bulk Density
 SN16.OHMM        00 000 00 00                    :12  Short Normal 16 Inch
 SP  .MV          00 000 00 00                    :13  Spontaneous Potential
~A    DEPT        C1-3        C2-4        CALI        CILD        CORR          DT          GR         ILD         IND        RHOB        SN16          SP
# ...
   8730.0000      9.0077      9.6307   -999.2500   2009.8418   -999.2500   -999.2500   -999.2500      0.5591      0.5580   -999.2500      0.6114    -33.1433
   8730.5000      9.0000      9.6250   -999.2500   2022.3516   -999.2500   -999.2500   -999.2500      0.5550      0.5600   -999.2500      0.6157    -33.3143
   8731.0000      9.0000      9.6250   -999.2500   2034.8633   -999.2500   -999.2500   -999.2500      0.5508      0.5800   -999.2500      0.6198    -33.4799
   8731.5000      9.0000      9.5833   -999.2500   2045.8828   -999.2500   -999.2500   -999.2500      0.5467      0.5800   -999.2500      0.6199    -33.6470
   8732.0000      8.9231      9.5000   -999.2500   2052.8516   -999.2500   -999.2500   -999.2500      0.5426      0.5600   -999.2500      0.6160    -33.4106
   8732.5000      8.8462      9.4167   -999.2500   2059.8203   -999.2500   -999.2500   -999.2500      0.5384      0.5600   -999.2500      0.6120    -33.6000
   8733.0000      8.8462      9.3750   -999.2500   2066.7891   -999.2500   -999.2500   -999.2500      0.5343      0.5600   -999.2500      0.6080    -33.4000
   8733.5000      8.9231      9.2917   -999.2500   2073.7578   -999.2500   -999.2500   -999.2500      0.5301      0.5600   -999.2500      0.6000    -33.4000
   8734.0000      9.0833      9.1667   -999.2500   2080.7383   -999.2500   -999.2500   -999.2500      0.5259      0.5600   -999.2500      0.6000    -33.2000
   8734.5000      9.1667      9.1250   -999.2500   2087.7070   -999.2500   -999.2500   -999.2500      0.5218      0.5600   -999.2500      0.5961    -33.2000
   8735.0000      9.2500      9.0833   -999.2500   2094.6758   -999.2500   -999.2500   -999.2500      0.5176      0.5600   -999.2500      0.5922    -33.4000
   8735.5000      9.2917      9.0833   -999.2500   2099.6367   -999.2500   -999.2500   -999.2500      0.5134      0.5600   -999.2500      0.5882    -33.6000
   8736.0000      9.3750      9.0833   -999.2500   2104.0586   -999.2500   -999.2500   -999.2500      0.5093      0.5600   -999.2500      0.5882    -34.0000
   8736.5000      9.4167      9.0833   -999.2500   2108.4727   -999.2500   -999.2500   -999.2500      0.5051      0.5600   -999.2500      0.5882    -34.0000
   8737.0000      9.4167      9.0833   -999.2500   2112.8867   -999.2500   -999.2500   -999.2500      0.5009      0.5600   -999.2500      0.5882    -33.6000
   8737.5000      9.3750      9.0833   -999.2500   2117.3008   -999.2500   -999.2500   -999.2500      0.4968      0.5600   -999.2500      0.5922    -33.4000
   8738.0000      9.2917      9.0833   -999.2500   2121.7148   -999.2500   -999.2500   -999.2500      0.4926      0.5600   -999.2500      0.5882    -33.2000
   8738.5000      9.2083      9.0833   -999.2500   2126.1289   -999.2500   -999.2500   -999.2500      0.4884      0.5634   -999.2500      0.5849    -33.0000
   8739.0000      9.1250      9.0833   -999.2500   2130.2500   -999.2500   -999.2500   -999.2500      0.4843      0.5683   -999.2500      0.5779    -33.2000
   8739.5000      9.0833      9.0833   -999.2500   2127.4141   -999.2500   -999.2500   -999.2500      0.4801      0.5731   -999.2500      0.5748    -33.4000
   8740.0000      9.0833      9.1250   -999.2500   2124.5781   -999.2500   -999.2500   -999.2500      0.4768      0.5780   -999.2500      0.5757    -33.2000
   8740.5000      9.0901      9.2159   -999.2500   2116.9063   -999.2500   -999.2500   -999.2500      0.4762      0.5800   -999.2500      0.5801    -33.2000
   8741.0000      9.0593      9.2709   -999.2500   2099.9102   -999.2500   -999.2500   -999.2500      0.4757      0.5800   -999.2500      0.5802    -33.2000
   8741.5000      9.0706      9.3698   -999.2500   2082.9414   -999.2500   -999.2500   -999.2500      0.4751      0.5800   -999.2500      0.5882    -33.0000
   8742.0000      9.0389      9.4705   -999.2500   2065.9492   -999.2500   -999.2500   -999.2500      0.4746      0.5800   -999.2500      0.5921    -33.0000
   8742.5000      9.0496      9.6157   -999.2500   2052.2148   -999.2500   -999.2500   -999.2500      0.4740      0.5800   -999.2500      0.6000    -32.8000
   8743.0000      9.0147      9.5826   -999.2500   2045.1699   -999.2500   -999.2500   -999.2500      0.4735      0.5800   -999.2500      0.6040    -33.0000
   8743.5000      8.9872      9.4628   -999.2500   2038.1250   -999.2500   -999.2500   -999.2500      0.4729      0.5800   -999.2500      0.6080    -33.4000
   8744.0000      8.9963      9.3430   -999.2500   2033.2441   -999.2500   -999.2500   -999.2500      0.4724      0.5800   -999.2500      0.6040    -33.2000
   8744.5000      9.0115      9.3142   -999.2500   2040.3145   -999.2500   -999.2500   -999.2500      0.4718      0.5800   -999.2500      0.6040    -33.4000
   8745.0000      8.9923      9.4174   -999.2500   2047.3867   -999.2500   -999.2500   -999.2500      0.4713      0.5800   -999.2500      0.6040    -33.0000
   8745.5000      9.0126      9.5637   -999.2500   2054.4570   -999.2500   -999.2500   -999.2500      0.4707      0.5800   -999.2500      0.6040    -33.0000
   8746.0000      8.9923      9.7872   -999.2500   2061.5391   -999.2500   -999.2500   -999.2500      0.4858      0.5800   -999.2500      0.6000    -32.6000
   8746.5000      9.0055      9.7983   -999.2500   2068.2422   -999.2500   -999.2500   -999.2500      0.5018      0.5800   -999.2500      0.6000    -32.2000
   8747.0000      8.9762      9.8086   -999.2500   2073.0234   -999.2500   -999.2500   -999.2500      0.5178      0.5800   -999.2500      0.6000    -32.0000
   8747.5000      8.9487      9.6523   -999.2500   2077.8086   -999.2500   -999.2500   -999.2500      0.5337      0.5800   -999.2500      0.6080    -31.8000
   8748.0000      8.9579      9.6209   -999.2500   2082.5938   -999.2500   -999.2500   -999.2500      0.5497      0.5800   -999.2500      0.6040    -31.4000
   8748.5000      8.9337      9.6331   -999.2500   2087.3750   -999.2500   -999.2500   -999.2500      0.5657      0.5827   -999.2500      0.6005    -31.3726
   8749.0000      8.9517      9.6465   -999.2500   2079.7656   -999.2500   -999.2500   -999.2500      0.5817      0.5882   -999.2500      0.6016    -31.3177
   8749.5000      8.9737      9.6622   -999.2500   2065.8281   -999.2500   -999.2500   -999.2500      0.5977      0.5927   -999.2500      0.6025    -31.2720
   8750.0000      8.9924      9.5946   -999.2500   2051.8750   -999.2500   -999.2500   -999.2500      0.6105      0.5782   -999.2500      0.6075    -31.2172
   8750.5000      8.9543      9.5909   -999.2500   1724.0000   -999.2500   -999.2500   -999.2500      0.6226      0.6000   -999.2500      0.6197    -31.2000
   8751.0000      8.9448      9.4578   -999.2500   1632.6816   -999.2500   -999.2500   -999.2500      0.6346      0.6000   -999.2500      0.6356    -31.2000
   8751.5000      8.8933      9.2857   -999.2500   1567.6563   -999.2500   -999.2500   -999.2500      0.6466      0.6400   -999.2500      0.6477    -31.0000
   8752.0000      8.8838      9.2739   -999.2500   1523.8301   -999.2500   -999.2500   -999.2500      0.6587      0.6600   -999.2500      0.6599    -31.0000
   8752.5000      8.7955      9.3425   -999.2500   1463.6992   -999.2500   -999.2500   -999.2500      0.6707      0.7200   -999.2500      0.6880    -30.8000
   8753.0000      8.7880      9.4145   -999.2500   1392.1504   -999.2500   -999.2500   -999.2500      0.6827      0.7600   -999.2500      0.7360    -30.8000
   8753.5000      8.8182      9.4474   -999.2500   1336.5020   -999.2500   -999.2500   -999.2500      0.6948      0.8000   -999.2500      0.7840    -30.8000
   8754.0000      8.8879      9.4421   -999.2500   1307.9648   -999.2500   -999.2500   -999.2500      0.7068      0.8600   -999.2500      0.8314    -31.4000
   8754.5000      8.9505      9.4288   -999.2500   1279.3770   -999.2500   -999.2500   -999.2500      0.7188      0.8600   -999.2500      0.8784    -32.2000
   8755.0000      9.0095      9.4064   -999.2500   1254.3047   -999.2500   -999.2500   -999.2500      0.7309      0.8400   -999.2500      0.8824    -33.0000
