~VERSION INFORMATION
VERS.                             2.0:   CWLS Log ASCII Standard-VERSION 2.0
WRAP.                              NO:   One line per depth step
~Well Information Block
STRT.F                      4703.0000:   Top Depth
STOP.F                      9304.5000:   Bottom Depth
STEP.F                         .50000:   Depth Increment
NULL.                        -999.250:   Null Value
FLD .                      BA BLK 399:   Field Name
WELL.       OCSG07218  A003 ST00 BP00:   NAME
API .                  42704403090000:   WELL API
EDF .F                       113.0000:   ELEV DRILL FLOOR
COMP.       SEAGULL ENERGY E AND P IN:   OPERATOR
EGL .F                       -62.0000:   ELEV GROUND LEVEL
EKB .F                       114.0000:   ELEV KELLY BUSHING
TDD .F                      9314.0000:   FINAL TD DRILLER
UWI .                  42704403090000:   WELL API
DICO.               IHS : Digitizing Company
~PARAMETER INFORMATION (zones)
#MNEM.UNIT                       Value     Description
#=========                       =====     ===========
#ZONATION                          CNL:   ZONATION NAME
#ZONE                            RUN_1:   ZONE NAME
TOP .                       4703.0000:   TOP DEPTH
BOT .                       9200.5000:   BOTTOM DEPTH
RUN .                               1:   RUN NUMBER
LCCD.                             510:   LOGGING CONTRACTOR
SRVC.                   Western Atlas:   LOGGING CONT NAME
DICO.          QC Data Collectors Ltd:   DIG COMPANY NAME
LDAT.                      03/24/1997:   DATE LOGGED
TDD .F                      9314.0000:   TOTAL DEPTH DRILLER
TDL .F                      9307.0000:   TOTAL DEPTH LOGGER
BOTL.F                      9305.0000:   BOTTOM DEPTH LOGGED
TOPL.F                      4703.0000:   TOP DEPTH LOGGED
CS1 .                         10.7500:   CASING SIZE 1
BS1 .                          9.8750:   BIT SIZE 1
DDB1.F                      9314.0000:   DEPTH DRILLED BIT 1
BHF .                              99:   FLUID CODE
DPT .                   Miscellaneous:   DRILLING FLUID TYPE
MUDD.                         11.5000:   FLUID DENSITY
MUDV.                         41.0000:   FLUID VISCOSITY
DFPH.                         10.2000:   FLUID PH
FL  .                          5.0000:   FLUID LOSS
RM  .OHMM                      1.1200:   RM
RMT .DEGF                     75.0000:   RM TEMP
RMF .OHMM                       .8300:   RMF
RMFT.DEGF                     75.0000:   RMF TEMP
FSC .                               M:   RMF CODE
RMC .OHMM                      1.4600:   RMC
RMCT.DEGF                     75.0000:   RMC TEMP
CMC .                               M:   RMC CODE
TMAX.DEGF                    181.0000:   MAX REC TEMP
TIMC.                         24.0000:   TIME SINCE CIRCLN
SON .                          173943:   SERVICE ORDER NUM
LMF .                             MSL:   LOGS MEAS FROM
MUDS.                             PIT:   MUD SOURCE
ENG .                         HADSALL:   ENGINEER
WIT .                        FONTENOT:   WITNESS
~PARAMETER INFORMATION (zones)
#MNEM.UNIT                       Value     Description
#=========                       =====     ===========
#ZONATION                          DAL:   ZONATION NAME
#ZONE                            RUN_1:   ZONE NAME
TOP .                       4703.0000:   TOP DEPTH
BOT .                       9242.5000:   BOTTOM DEPTH
RUN .                               1:   RUN NUMBER
LCCD.                             510:   LOGGING CONTRACTOR
SRVC.                   Western Atlas:   LOGGING CONT NAME
DICO.          QC Data Collectors Ltd:   DIG COMPANY NAME
LDAT.                      03/24/1997:   DATE LOGGED
TDD .F                      9314.0000:   TOTAL DEPTH DRILLER
TDL .F                      9307.0000:   TOTAL DEPTH LOGGER
BOTL.F                      9305.0000:   BOTTOM DEPTH LOGGED
TOPL.F                      4703.0000:   TOP DEPTH LOGGED
CS1 .                         10.7500:   CASING SIZE 1
BS1 .                          9.8750:   BIT SIZE 1
DDB1.F                      9314.0000:   DEPTH DRILLED BIT 1
BHF .                              99:   FLUID CODE
DPT .                   Miscellaneous:   DRILLING FLUID TYPE
MUDD.                         11.5000:   FLUID DENSITY
MUDV.                         41.0000:   FLUID VISCOSITY
DFPH.                         10.2000:   FLUID PH
FL  .                          5.0000:   FLUID LOSS
RM  .OHMM                      1.1200:   RM
RMT .DEGF                     75.0000:   RM TEMP
RMF .OHMM                       .8300:   RMF
RMFT.DEGF                     75.0000:   RMF TEMP
FSC .                               M:   RMF CODE
RMC .OHMM                      1.4600:   RMC
RMCT.DEGF                     75.0000:   RMC TEMP
CMC .                               M:   RMC CODE
TMAX.DEGF                    181.0000:   MAX REC TEMP
TIMC.                         24.0000:   TIME SINCE CIRCLN
SON .                          173943:   SERVICE ORDER NUM
LMF .                             MSL:   LOGS MEAS FROM
MUDS.                             PIT:   MUD SOURCE
ENG .                         HADSALL:   ENGINEER
WIT .                        FONTENOT:   WITNESS
~PARAMETER INFORMATION (zones)
#MNEM.UNIT                       Value     Description
#=========                       =====     ===========
#ZONATION                          DIL:   ZONATION NAME
#ZONE                            RUN_1:   ZONE NAME
TOP .                       4703.0000:   TOP DEPTH
BOT .                       9305.5000:   BOTTOM DEPTH
RUN .                               1:   RUN NUMBER
LCCD.                             510:   LOGGING CONTRACTOR
SRVC.                   Western Atlas:   LOGGING CONT NAME
DICO.          QC Data Collectors Ltd:   DIG COMPANY NAME
LDAT.                      03/24/1997:   DATE LOGGED
TDD .F                      9314.0000:   TOTAL DEPTH DRILLER
TDL .F                      9307.0000:   TOTAL DEPTH LOGGER
BOTL.F                      9305.0000:   BOTTOM DEPTH LOGGED
TOPL.F                      4703.0000:   TOP DEPTH LOGGED
CS1 .                         10.7500:   CASING SIZE 1
BS1 .                          9.8750:   BIT SIZE 1
DDB1.F                      9314.0000:   DEPTH DRILLED BIT 1
BHF .                              99:   FLUID CODE
DPT .                   Miscellaneous:   DRILLING FLUID TYPE
MUDD.                         11.5000:   FLUID DENSITY
MUDV.                         41.0000:   FLUID VISCOSITY
DFPH.                         10.2000:   FLUID PH
FL  .                          5.0000:   FLUID LOSS
RM  .OHMM                      1.1200:   RM
RMT .DEGF                     75.0000:   RM TEMP
RMF .OHMM                       .8300:   RMF
RMFT.DEGF                     75.0000:   RMF TEMP
FSC .                               M:   RMF CODE
RMC .OHMM                      1.4600:   RMC
RMCT.DEGF                     75.0000:   RMC TEMP
CMC .                               M:   RMC CODE
TMAX.DEGF                    181.0000:   MAX REC TEMP
TIMC.                         24.0000:   TIME SINCE CIRCLN
SON .                          173943:   SERVICE ORDER NUM
LMF .                             MSL:   LOGS MEAS FROM
MUDS.                             PIT:   MUD SOURCE
ENG .                         HADSALL:   ENGINEER
WIT .                        FONTENOT:   WITNESS
~PARAMETER INFORMATION (zones)
#MNEM.UNIT                       Value     Description
#=========                       =====     ===========
#ZONATION                          FDC:   ZONATION NAME
#ZONE                            RUN_1:   ZONE NAME
TOP .                       4703.0000:   TOP DEPTH
BOT .                       9228.5000:   BOTTOM DEPTH
RUN .                               1:   RUN NUMBER
LCCD.                             510:   LOGGING CONTRACTOR
SRVC.                   Western Atlas:   LOGGING CONT NAME
DICO.          QC Data Collectors Ltd:   DIG COMPANY NAME
LDAT.                      03/24/1997:   DATE LOGGED
TDD .F                      9314.0000:   TOTAL DEPTH DRILLER
TDL .F                      9307.0000:   TOTAL DEPTH LOGGER
BOTL.F                      9305.0000:   BOTTOM DEPTH LOGGED
TOPL.F                      4703.0000:   TOP DEPTH LOGGED
CS1 .                         10.7500:   CASING SIZE 1
BS1 .                          9.8750:   BIT SIZE 1
DDB1.F                      9314.0000:   DEPTH DRILLED BIT 1
BHF .                              99:   FLUID CODE
DPT .                   Miscellaneous:   DRILLING FLUID TYPE
MUDD.                         11.5000:   FLUID DENSITY
MUDV.                         41.0000:   FLUID VISCOSITY
DFPH.                         10.2000:   FLUID PH
FL  .                          5.0000:   FLUID LOSS
RM  .OHMM                      1.1200:   RM
RMT .DEGF                     75.0000:   RM TEMP
RMF .OHMM                       .8300:   RMF
RMFT.DEGF                     75.0000:   RMF TEMP
FSC .                               M:   RMF CODE
RMC .OHMM                      1.4600:   RMC
RMCT.DEGF                     75.0000:   RMC TEMP
CMC .                               M:   RMC CODE
TMAX.DEGF                    181.0000:   MAX REC TEMP
TIMC.                         24.0000:   TIME SINCE CIRCLN
SON .                          173943:   SERVICE ORDER NUM
LMF .                             MSL:   LOGS MEAS FROM
MUDS.                             PIT:   MUD SOURCE
ENG .                         HADSALL:   ENGINEER
WIT .                        FONTENOT:   WITNESS
~Curve Information Block
#MNEM.UNIT                    API CODE    No Description
#=========                    ========    == ===========
DEPT.F                   00 001 00 00:     1  DEPTH
CNCF.%                               :     2  Field Normalized CNC
DT24.US/F                            :     3  Unrecognised
CILD.MMHO                            :     4  Deep Induction Conductivity
RFOC.OHMM                            :     5  Medium Resistivity
RILD.OHMM                            :     6  Deep Resistivity
RILM.OHMM                            :     7  Medium Resistivity
RWAZ.OHMM                            :     8  Unrecognised
SP.MV                                :     9  Spontaneous Potential
GR.GAPI                              :    10  Gamma Ray
PORZ.%                               :    11  Neutron Porosity
ZCOR.G/C3                            :    12  Density Correction
ZDEN.G/C3                            :    13  Bulk Density
~ASCII
# ...
 8007.0000    37.6410   100.7159  1012.9199     1.3630      .9870      .9710      .0560     1.6320    56.9560    21.0300      .0830     2.3030
 8007.5000    38.6949   103.3660  1012.2646     1.3750      .9880      .9730      .0590     1.8040    58.1920    21.5190      .0920     2.2950
 8008.0000    40.0120   109.0649  1003.6973     1.3130      .9960      .9800      .0690     1.7940    58.3890    23.1530      .0800     2.2680
 8008.5000    42.8310   113.6740   997.6035     1.2500     1.0020      .9870      .0730     1.1110    58.4500    23.6910      .0740     2.2590
 8009.0000    43.1020   114.2870   996.4180     1.2330     1.0040      .9930      .0740      .8040    58.0900    23.7670      .0740     2.2580
 8009.5000    41.9319   110.3629   995.0459     1.2460     1.0050     1.0000      .0720      .7560    58.6190    23.4600      .0760     2.2630
 8010.0000    39.9220   104.3949   987.0361     1.2770     1.0130     1.0120      .0680      .7150    58.8010    22.7120      .0680     2.2750
 8010.5000    38.0760   101.5530   980.2002     1.3600     1.0200     1.0170      .0610      .6680    60.4860    21.6230      .0570     2.2930
 8011.0000    38.6760   102.4519   974.1172     1.4730     1.0270     1.0130      .0570      .6530    59.3370    20.8970      .0650     2.3050
 8011.5000    36.9560   106.0509   969.1270     1.4540     1.0320     1.0070      .0650     -.5120    59.4579    22.0920      .0810     2.2860
 8012.0000    38.7500   111.0470   963.7988     1.3340     1.0380     1.0010      .0760   -15.7470    63.2320    23.7380      .0640     2.2580
 8012.5000    38.8520   113.1179   972.3037     1.2730     1.0280      .9920      .0810   -11.4730    65.7000    24.5310      .0670     2.2450
 8013.0000    40.0690   113.0320   972.2031     1.2600     1.0290      .9760      .0790     1.8740    65.3949    24.2060      .0760     2.2510
 8013.5000    40.9140   111.0220   972.3223     1.2610     1.0280      .9630      .0760     1.5810    67.8269    23.8220      .0840     2.2570
 8014.0000    42.2110   108.9719  1003.3408     1.2640      .9970      .9580      .0770     1.4930    67.1589    24.3400      .0700     2.2480
 8014.5000    43.2100   108.3700  1033.7441     1.2820      .9670      .9600      .0730     1.2210    67.0029    24.0580      .0720     2.2530
 8015.0000    43.5450   107.4419  1046.0117     1.3000      .9560      .9660      .0690     1.1580    67.9700    23.5420      .0700     2.2620
 8015.5000    42.5010   107.7789  1042.2617     1.3050      .9600      .9710      .0730     1.2330    63.8740    24.1140      .0640     2.2520
 8016.0000    42.6210   108.5170  1030.5215     1.3200      .9700      .9620      .0740      .6760    62.9150    24.2000      .0670     2.2510
 8016.5000    42.3830   108.8569  1016.7158     1.3360      .9840      .9690      .0710      .8830    64.1439    23.5770      .0790     2.2610
 8017.0000    42.8810   109.3710  1001.1338     1.3270      .9990      .9840      .0730      .5820    65.3820    23.7410      .0850     2.2580
 8017.5000    38.5340   108.8579   981.8193     1.3070     1.0180     1.0030      .0720     1.1720    66.8059    23.3320      .0850     2.2650
 8018.0000    37.1960   107.0399   959.7939     1.3160     1.0420     1.0260      .0650     1.4770    65.2250    22.0490      .0970     2.2860
 8018.5000    35.7500   104.3500   942.6611     1.3460     1.0610     1.0560      .0590     1.6900    62.4550    20.8960      .0950     2.3050
 8019.0000    34.5410   100.8340   919.9824     1.4030     1.0870     1.0900      .0600     1.4750    60.6210    20.7810      .0970     2.3070
 8019.5000    32.5840    97.5459   900.0449     1.4670     1.1110     1.1220      .0600      .9490    61.3110    20.5120      .0830     2.3120
 8020.0000    31.6110    94.9860   885.4912     1.5220     1.1290     1.1430      .0550      .3280    60.7150    19.5990      .0620     2.3270
 8020.5000    31.5130    93.6909   872.4785     1.5520     1.1460     1.1530      .0540     -.1130    58.2630    19.4000      .0750     2.3300
 8021.0000    32.7720    94.9679   866.2158     1.5190     1.1540     1.1540      .0620     -.1070    61.3130    20.6040      .0810     2.3100
 8021.5000    33.5920    97.6930   864.6309     1.4910     1.1570     1.1510      .0670     -.5230    61.3340    21.3400      .0800     2.2980
 8022.0000    34.4730   100.7389   868.4844     1.5390     1.1510     1.1440      .0700     -.9250    52.3680    21.7080      .0760     2.2920
 8022.5000    35.2360   104.9030   878.7881     1.4920     1.1380     1.1370      .0670    -1.1460    49.7270    21.4140      .0850     2.2970
 8023.0000    36.4480   108.5709   887.8506     1.4340     1.1260     1.1310      .0680    -1.4440    54.1330    21.6240      .0930     2.2930
 8023.5000    38.0720   109.0969   894.6787     1.3960     1.1180     1.1250      .0680    -1.2190    55.0820    21.7420      .0870     2.2910
 8024.0000    38.8740   107.3860   902.3584     1.3840     1.1080     1.1180      .0660    -1.0480    54.9410    21.5470      .0810     2.2950
 8024.5000    38.2870   104.2329   903.6094     1.3790     1.1070     1.1140      .0660     -.6290    55.5880    21.5930      .0700     2.2940
 8025.0000    38.3920   100.5699   900.5254     1.3920     1.1100     1.1130      .0700     -.7000    54.9360    22.0910      .0630     2.2860
 8025.5000    36.7930    98.3180   895.8418     1.3810     1.1160     1.1140      .0720    -1.0440    55.1250    22.3130      .0710     2.2820
 8026.0000    36.1730    98.1930   890.3096     1.3520     1.1230     1.1140      .0760    -1.5260    54.8220    22.8840      .0620     2.2720
 8026.5000    35.4540    99.8929   887.1924     1.3700     1.1270     1.1130      .0770    -1.9620    55.4080    22.9180      .0600     2.2720
 8027.0000    35.2679   102.9500   885.4170     1.4070     1.1290     1.1130      .0780    -2.4250    66.6940    23.0670      .0570     2.2690
 8027.5000    35.3940   107.7589   881.6475     1.4380     1.1340     1.1140      .0760    -2.4320    89.2999    22.8300      .0670     2.2730
 8028.0000    36.2700   111.5530   880.4795     1.4250     1.1360     1.1160      .0820    -1.9050   124.6320    23.5300      .0560     2.2620
 8028.5000    36.6290   112.9309   881.7695     1.3700     1.1340     1.1180      .0830    -1.8680   155.3030    23.7000      .0640     2.2590
 8029.0000    36.0750   111.9080   887.0098     1.3460     1.1270     1.1160      .0800    -1.9080   195.6899    23.4160      .0690     2.2640
 8029.5000    36.9000   110.4070   893.6016     1.3690     1.1190     1.1100      .0780    -1.8530   269.8828    23.2430      .0620     2.2660
 8030.0000    37.7530   108.5790   895.9238     1.3880     1.1160     1.1060      .0780    -2.0590   290.0649    23.2110      .0710     2.2670
 8030.5000    37.8190   106.1580   895.1855     1.3710     1.1170     1.1040      .0820    -2.1350   199.5369    23.7450      .0640     2.2580
 8031.0000    37.6640   105.8140   893.6084     1.3390     1.1190     1.1060      .0820    -1.8930   114.1959    23.6980      .0730     2.2590
 8031.5000    37.5150   104.3090   888.2412     1.3200     1.1260     1.1140      .0810    -1.8540    78.4769    23.5400      .0670     2.2620
 8032.0000    37.4990   102.7209   876.3242     1.3180     1.1410     1.1280      .0760    -2.2760    63.6500    22.6600      .0740     2.2760
 8032.5000    37.6050   101.6830   865.9297     1.3730     1.1550     1.1420      .0660    -3.0270    61.0760    21.1330      .0860     2.3010
 8033.0000    35.4600    99.1990   860.4727     1.4850     1.1620     1.1450      .0640    -4.3060    58.9650    20.7780      .0780     2.3070
 8033.5000    32.9890   101.4430   852.9531     1.6040     1.1720     1.1430      .0640    -5.0580    58.2079    20.6700      .0710     2.3090
 8034.0000    31.7710   107.5680   845.8750     1.6250     1.1820     1.1450      .0690    -4.1270    60.9410    21.3120      .0730     2.2980
 8034.5000    32.1720   111.8049   841.3330     1.5240     1.1890     1.1510      .0790    -3.9340    60.5840    22.6920      .0850     2.2760
