~VERSION INFORMATION
VERS.                             2.0:   CWLS Log ASCII Standard-VERSION 2.0
WRAP.                              NO:   One line per depth step
~Well Information Block
STRT.F                       302.0000:   Top Depth
STOP.F                     11038.0000:   Bottom Depth
STEP.F                         .50000:   Depth Increment
NULL.                        -999.250:   Null Value
FLD .                         WILDCAT:   Field Name
WELL.       OCSG04565   001 ST00 BP00:   NAME
API .                    42706400940000:   WELL API
EDF .F                        76.8000:   ELEV DRILL FLOOR
COMP.                  TENNECO OIL CO:   OPERATOR
BN  .                             303:   BLOCK
CTRY.                             USA:   COUNTRY NAME
CNTY.                              GA:   COUNTY
CNTY.                        GLVSTN L:   COUNTY NAME
EKB .F                        79.0000:   ELEV KELLY BUSHING
TDD .F                      11050.000:   FINAL TD DRILLER
STAT.                           TEXAS:   STATE NAME
UWI .                    42706400940000:   WELL API
DICO.               IHS : Digitizing Company
~PARAMETER INFORMATION (zones)
#MNEM.UNIT                       Value     Description
#=========                       =====     ===========
#ZONATION                          CNL:   ZONATION NAME
#ZONE                            RUN_1:   ZONE NAME
TOP .                       4297.0000:   TOP DEPTH
BOT .                       7582.5000:   BOTTOM DEPTH
RUN .                               1:   RUN NUMBER
LCCD.                              20:   LOGGING CONTRACTOR
SRVC.                          Baroil:   LOGGING CONT NAME
DICO.          QC Data Collectors Ltd:   DIG COMPANY NAME
LDAT.                      03/12/1983:   DATE LOGGED
ELD .F                        77.8000:   LOG DATUM ELEVATION
TDD .F                      7587.0000:   TOTAL DEPTH DRILLER
TDL .F                      7584.0000:   TOTAL DEPTH LOGGER
BOTL.F                      7582.0000:   BOTTOM DEPTH LOGGED
TOPL.F                      4300.0000:   TOP DEPTH LOGGED
CS1 .IN                       13.3750:   CASING SIZE 1
BS1 .IN                       12.2500:   BIT SIZE 1
DDB1.F                      7587.0000:   DEPTH DRILLED BIT 1
BHF .                              70:   FLUID CODE
DPT .                       Phosphate:   DRILLING FLUID TYPE
MUDD.                         13.5000:   FLUID DENSITY
MUDV.                         49.0000:   FLUID VISCOSITY
DFPH.                         11.4000:   FLUID PH
FL  .                         12.8000:   FLUID LOSS
RM  .OHMM                       .0680:   RM
RMT .DEGF                     65.0000:   RM TEMP
RMF .OHMM                       .0530:   RMF
RMFT.DEGF                     65.0000:   RMF TEMP
FSC .                               M:   RMF CODE
RMC .OHMM                       .1020:   RMC
RMCT.DEGF                     65.0000:   RMC TEMP
CMC .                               C:   RMC CODE
TMAX.DEGF                    161.0000:   MAX REC TEMP
TIMC.                         10.0000:   TIME SINCE CIRCLN
~PARAMETER INFORMATION (zones)
#MNEM.UNIT                       Value     Description
#=========                       =====     ===========
#ZONATION                          DIL:   ZONATION NAME
#ZONE                            RUN_1:   ZONE NAME
TOP .                        302.0000:   TOP DEPTH
BOT .                      11038.5000:   BOTTOM DEPTH
RUN .                               1:   RUN NUMBER
LCCD.                             150:   LOGGING CONTRACTOR
SRVC.                   Dresser Atlas:   LOGGING CONT NAME
DICO.          QC Data Collectors Ltd:   DIG COMPANY NAME
LDAT.                      02/22/1983:   DATE LOGGED
ELD .F                        77.8000:   LOG DATUM ELEVATION
TDD .F                       841.0000:   TOTAL DEPTH DRILLER
TDL .F                       832.0000:   TOTAL DEPTH LOGGER
BOTL.F                     11038.0000:   BOTTOM DEPTH LOGGED
TOPL.F                       302.0000:   TOP DEPTH LOGGED
CS1 .IN                       30.6250:   CASING SIZE 1
BS1 .IN                       17.5000:   BIT SIZE 1
DDB1.F                       841.0000:   DEPTH DRILLED BIT 1
BHF .                              99:   FLUID CODE
DPT .                   Miscellaneous:   DRILLING FLUID TYPE
MUDD.                          8.7000:   FLUID DENSITY
MUDV.                         50.0000:   FLUID VISCOSITY
DFPH.                         12.0000:   FLUID PH
FL  .                         20.4000:   FLUID LOSS
RM  .OHMM                      1.1500:   RM
RMT .DEGF                     65.0000:   RM TEMP
RMF .OHMM                       .8000:   RMF
RMFT.DEGF                     65.0000:   RMF TEMP
FSC .                               M:   RMF CODE
RMC .OHMM                      1.4300:   RMC
RMCT.DEGF                     65.0000:   RMC TEMP
CMC .                               C:   RMC CODE
TMAX.DEGF                     85.0000:   MAX REC TEMP
TIMC.                          3.0000:   TIME SINCE CIRCLN
~PARAMETER INFORMATION (zones)
#MNEM.UNIT                       Value     Description
#=========                       =====     ===========
#ZONATION                          FDC:   ZONATION NAME
#ZONE                            RUN_4:   ZONE NAME
TOP .                      11038.0000:   TOP DEPTH
BOT .                      11040.0000:   BOTTOM DEPTH
RUN .                               4:   RUN NUMBER
LCCD.                             150:   LOGGING CONTRACTOR
SRVC.                   Dresser Atlas:   LOGGING CONT NAME
DICO.          QC Data Collectors Ltd:   DIG COMPANY NAME
LDAT.                      03/25/1983:   DATE LOGGED
ELD .F                        77.8000:   LOG DATUM ELEVATION
TDD .F                     11050.0000:   TOTAL DEPTH DRILLER
TDL .F                     11040.0000:   TOTAL DEPTH LOGGER
BOTL.F                     11038.0000:   BOTTOM DEPTH LOGGED
TOPL.F                      7555.0000:   TOP DEPTH LOGGED
CS1 .IN                        9.6250:   CASING SIZE 1
BS1 .IN                        8.5000:   BIT SIZE 1
DDB1.F                     11050.0000:   DEPTH DRILLED BIT 1
BHF .                              99:   FLUID CODE
DPT .                   Miscellaneous:   DRILLING FLUID TYPE
MUDD.                         16.6000:   FLUID DENSITY
MUDV.                         50.0000:   FLUID VISCOSITY
DFPH.                         11.4000:   FLUID PH
FL  .                         10.0000:   FLUID LOSS
RM  .OHMM                      1.7000:   RM
RMT .DEGF                     75.0000:   RM TEMP
RMF .OHMM                      1.2000:   RMF
RMFT.DEGF                     75.0000:   RMF TEMP
FSC .                               M:   RMF CODE
RMC .OHMM                      2.2000:   RMC
RMCT.DEGF                     75.0000:   RMC TEMP
CMC .                               M:   RMC CODE
TMAX.DEGF                    228.0000:   MAX REC TEMP
TIMC.                          4.0000:   TIME SINCE CIRCLN
~PARAMETER INFORMATION (zones)
#MNEM.UNIT                       Value     Description
#=========                       =====     ===========
#ZONATION                          FDC:   ZONATION NAME
#ZONE                            RUN_2:   ZONE NAME
TOP .                       4512.0000:   TOP DEPTH
BOT .                       7583.5000:   BOTTOM DEPTH
RUN .                               2:   RUN NUMBER
LCCD.                             150:   LOGGING CONTRACTOR
SRVC.                   Dresser Atlas:   LOGGING CONT NAME
DICO.          QC Data Collectors Ltd:   DIG COMPANY NAME
LDAT.                      02/28/1983:   DATE LOGGED
ELD .F                        77.8000:   LOG DATUM ELEVATION
TDD .F                      4512.0000:   TOTAL DEPTH DRILLER
TDL .F                      4505.0000:   TOTAL DEPTH LOGGER
BOTL.F                      7583.0000:   BOTTOM DEPTH LOGGED
TOPL.F                      4512.0000:   TOP DEPTH LOGGED
CS1 .IN                       20.0000:   CASING SIZE 1
BS1 .IN                       17.5000:   BIT SIZE 1
DDB1.F                      4512.0000:   DEPTH DRILLED BIT 1
BHF .                              99:   FLUID CODE
DPT .                   Miscellaneous:   DRILLING FLUID TYPE
MUDD.                          9.4000:   FLUID DENSITY
MUDV.                         40.0000:   FLUID VISCOSITY
DFPH.                         12.0000:   FLUID PH
FL  .                         38.0000:   FLUID LOSS
RM  .OHMM                       .2900:   RM
RMT .DEGF                     65.0000:   RM TEMP
RMF .OHMM                       .2100:   RMF
RMFT.DEGF                     65.0000:   RMF TEMP
FSC .                               M:   RMF CODE
RMC .OHMM                       .3400:   RMC
RMCT.DEGF                     65.0000:   RMC TEMP
CMC .                               C:   RMC CODE
TMAX.DEGF                     90.0000:   MAX REC TEMP
TIMC.                          3.0000:   TIME SINCE CIRCLN
~PARAMETER INFORMATION (zones)
#MNEM.UNIT                       Value     Description
#=========                       =====     ===========
#ZONATION                          FDC:   ZONATION NAME
#ZONE                            RUN_1:   ZONE NAME
TOP .                       4297.0000:   TOP DEPTH
BOT .                       7582.5000:   BOTTOM DEPTH
RUN .                               1:   RUN NUMBER
LCCD.                              20:   LOGGING CONTRACTOR
SRVC.                          Baroil:   LOGGING CONT NAME
DICO.          QC Data Collectors Ltd:   DIG COMPANY NAME
LDAT.                      03/12/1983:   DATE LOGGED
ELD .F                        77.8000:   LOG DATUM ELEVATION
TDD .F                      7587.0000:   TOTAL DEPTH DRILLER
TDL .F                      7584.0000:   TOTAL DEPTH LOGGER
BOTL.F                      7582.0000:   BOTTOM DEPTH LOGGED
TOPL.F                      4300.0000:   TOP DEPTH LOGGED
CS1 .IN                       13.3750:   CASING SIZE 1
BS1 .IN                       12.2500:   BIT SIZE 1
DDB1.F                      7587.0000:   DEPTH DRILLED BIT 1
BHF .                              70:   FLUID CODE
DPT .                       Phosphate:   DRILLING FLUID TYPE
MUDD.                         13.5000:   FLUID DENSITY
MUDV.                         49.0000:   FLUID VISCOSITY
DFPH.                         11.4000:   FLUID PH
FL  .                         12.8000:   FLUID LOSS
RM  .OHMM                       .0680:   RM
RMT .DEGF                     65.0000:   RM TEMP
RMF .OHMM                       .0530:   RMF
RMFT.DEGF                     65.0000:   RMF TEMP
FSC .                               M:   RMF CODE
RMC .OHMM                       .1020:   RMC
RMCT.DEGF                     65.0000:   RMC TEMP
CMC .                               C:   RMC CODE
TMAX.DEGF                    161.0000:   MAX REC TEMP
TIMC.                         10.0000:   TIME SINCE CIRCLN
~Curve Information Block
#MNEM.UNIT                    API CODE    No Description
#=========                    ========    == ===========
DEPT.F                   00 001 00 00:     1  DEPTH
NPHI.%                               :     2  Neutron Porosity
CILD.MMHO                            :     3  Deep Induction Conductivity
DT.US/F                              :     4  Sonic Transit Time
GR1.GAPI                              :     5  Gamma Ray
ILD.OHMM                             :     6  Deep Induction Resistivity
ILM.OHMM                             :     7  Medium Induction Resistivity
LN.OHMM                              :     8  Medium Resistivity
RFOC.OHMM                            :     9  Medium Resistivity
SN.OHMM                              :    10  Short-Normal Resistivity
SP.MV                                :    11  Spontaneous Potential
CALI.IN                              :    12  Caliper
DRHO.G/C3                            :    13  Bulk Density Correction
GR2.GAPI                              :    14  Gamma Ray
RHOB.G/C3                            :    15  Bulk Density
~ASCII
# ...
 2874.5000  -999.2500  1864.6680   133.3816    41.4861      .5133      .6198  -999.2500      .8181  -999.2500   -77.7061  -999.2500  -999.2500  -999.2500  -999.2500
 2875.0000  -999.2500  1870.1914   133.2495    41.9077      .5140      .6167  -999.2500      .8152  -999.2500   -77.8977  -999.2500  -999.2500  -999.2500  -999.2500
 2875.5000  -999.2500  1854.0332   133.1951    42.2175      .5205      .6215  -999.2500      .8123  -999.2500   -78.1035  -999.2500  -999.2500  -999.2500  -999.2500
 2876.0000  -999.2500  1830.9297   133.2209    41.1968      .5270      .6271  -999.2500      .8105  -999.2500   -78.3002  -999.2500  -999.2500  -999.2500  -999.2500
 2876.5000  -999.2500  1808.3008   132.3069    40.6349      .5347      .6328  -999.2500      .8118  -999.2500   -77.8905  -999.2500  -999.2500  -999.2500  -999.2500
 2877.0000  -999.2500  1795.0215   131.1235    40.1477      .5428      .6394  -999.2500      .8241  -999.2500   -77.6576  -999.2500  -999.2500  -999.2500  -999.2500
 2877.5000  -999.2500  1782.8809   130.1707    40.2321      .5510      .6475  -999.2500      .8345  -999.2500   -77.4178  -999.2500  -999.2500  -999.2500  -999.2500
 2878.0000  -999.2500  1770.7383   129.7722    40.4865      .5559      .6524  -999.2500      .8391  -999.2500   -77.0431  -999.2500  -999.2500  -999.2500  -999.2500
 2878.5000  -999.2500  1758.5957   131.3123    42.3108      .5595      .6506  -999.2500      .8398  -999.2500   -76.6685  -999.2500  -999.2500  -999.2500  -999.2500
 2879.0000  -999.2500  1743.7188   132.4448    45.6855      .5631      .6484  -999.2500      .8367  -999.2500   -76.4761  -999.2500  -999.2500  -999.2500  -999.2500
 2879.5000  -999.2500  1729.5723   133.4241    47.4949      .5674      .6459  -999.2500      .8274  -999.2500   -76.9202  -999.2500  -999.2500  -999.2500  -999.2500
 2880.0000  -999.2500  1719.6641   133.0977    46.8573      .5717      .6502  -999.2500      .8241  -999.2500   -77.3722  -999.2500  -999.2500  -999.2500  -999.2500
 2880.5000  -999.2500  1710.2012   132.1848    46.1969      .5762      .6586  -999.2500      .8305  -999.2500   -77.6561  -999.2500  -999.2500  -999.2500  -999.2500
 2881.0000  -999.2500  1702.1211   131.1714    46.2017      .5806      .6705  -999.2500      .8379  -999.2500   -77.6992  -999.2500  -999.2500  -999.2500  -999.2500
 2881.5000  -999.2500  1689.8008   130.1350    46.2239      .5876      .6826  -999.2500      .8483  -999.2500   -77.6854  -999.2500  -999.2500  -999.2500  -999.2500
 2882.0000  -999.2500  1654.4023   129.3992    46.1057      .5947      .6930  -999.2500      .8588  -999.2500   -77.7317  -999.2500  -999.2500  -999.2500  -999.2500
 2882.5000  -999.2500  1614.2949   130.3152    44.9132      .6023      .7032  -999.2500      .8610  -999.2500   -77.4818  -999.2500  -999.2500  -999.2500  -999.2500
 2883.0000  -999.2500  1578.1191   132.4790    43.7202      .6100      .7064  -999.2500      .8597  -999.2500   -76.8901  -999.2500  -999.2500  -999.2500  -999.2500
 2883.5000  -999.2500  1549.6250   134.9741    43.2537      .6180      .7081  -999.2500      .8557  -999.2500   -76.2927  -999.2500  -999.2500  -999.2500  -999.2500
 2884.0000  -999.2500  1544.3965   137.2405    43.7452      .6261      .7077  -999.2500      .8577  -999.2500   -75.7457  -999.2500  -999.2500  -999.2500  -999.2500
 2884.5000  -999.2500  1537.9746   139.2764    44.2367      .6334      .7072  -999.2500      .8627  -999.2500   -75.6801  -999.2500  -999.2500  -999.2500  -999.2500
 2885.0000  -999.2500  1530.9707   140.7588    44.7368      .6360      .7078  -999.2500      .8680  -999.2500   -76.0129  -999.2500  -999.2500  -999.2500  -999.2500
 2885.5000  -999.2500  1523.8848   141.6040    45.2571      .6387      .7084  -999.2500      .8748  -999.2500   -76.2208  -999.2500  -999.2500  -999.2500  -999.2500
 2886.0000  -999.2500  1515.0020   142.4043    45.7776      .6411      .7087  -999.2500      .8779  -999.2500   -76.3269  -999.2500  -999.2500  -999.2500  -999.2500
 2886.5000  -999.2500  1505.3730   143.1392    46.5119      .6435      .7080  -999.2500      .8693  -999.2500   -76.0415  -999.2500  -999.2500  -999.2500  -999.2500
 2887.0000  -999.2500  1500.5977   142.1274    47.3649      .6452      .7012  -999.2500      .8586  -999.2500   -75.4570  -999.2500  -999.2500  -999.2500  -999.2500
 2887.5000  -999.2500  1537.0527   140.5686    48.6172      .6392      .6897  -999.2500      .8449  -999.2500   -74.9757  -999.2500  -999.2500  -999.2500  -999.2500
 2888.0000  -999.2500  1568.8125   138.8303    50.0729      .6238      .6724  -999.2500      .8331  -999.2500   -74.4944  -999.2500  -999.2500  -999.2500  -999.2500
 2888.5000  -999.2500  1601.7559   138.9951    51.6522      .6092      .6574  -999.2500      .8224  -999.2500   -74.1467  -999.2500  -999.2500  -999.2500  -999.2500
 2889.0000  -999.2500  1639.9727   143.0930    51.8148      .5950      .6484  -999.2500      .8140  -999.2500   -73.8649  -999.2500  -999.2500  -999.2500  -999.2500
 2889.5000  -999.2500  1673.5605   146.4590    51.0362      .5819      .6473  -999.2500      .8076  -999.2500   -73.8846  -999.2500  -999.2500  -999.2500  -999.2500
 2890.0000  -999.2500  1707.6973   148.5937    50.1008      .5697      .6478  -999.2500      .8102  -999.2500   -74.5917  -999.2500  -999.2500  -999.2500  -999.2500
 2890.5000  -999.2500  1722.1719   146.2478    48.7173      .5613      .6559  -999.2500      .8145  -999.2500   -75.2061  -999.2500  -999.2500  -999.2500  -999.2500
 2891.0000  -999.2500  1718.9707   142.3823    47.3340      .5685      .6696  -999.2500      .8239  -999.2500   -75.5417  -999.2500  -999.2500  -999.2500  -999.2500
 2891.5000  -999.2500  1711.8457   137.4568    44.9639      .5734      .6790  -999.2500      .8333  -999.2500   -75.5864  -999.2500  -999.2500  -999.2500  -999.2500
 2892.0000  -999.2500  1704.9023   133.7241    43.2963      .5776      .6870  -999.2500      .8424  -999.2500   -75.4315  -999.2500  -999.2500  -999.2500  -999.2500
 2892.5000  -999.2500  1705.0840   131.2576    42.8724      .5685      .6921  -999.2500      .8515  -999.2500   -75.0239  -999.2500  -999.2500  -999.2500  -999.2500
 2893.0000  -999.2500  1737.7891   130.1040    43.6899      .5587      .6943  -999.2500      .8570  -999.2500   -74.6245  -999.2500  -999.2500  -999.2500  -999.2500
 2893.5000  -999.2500  1763.7773   131.3601    45.1215      .5481      .6609  -999.2500      .8589  -999.2500   -74.3026  -999.2500  -999.2500  -999.2500  -999.2500
 2894.0000  -999.2500  1789.6914   132.8730    43.9222      .5404      .6375  -999.2500      .8437  -999.2500   -75.1407  -999.2500  -999.2500  -999.2500  -999.2500
 2894.5000  -999.2500  1808.7754   133.5288    40.9602      .5360      .6288  -999.2500      .8259  -999.2500   -75.9600  -999.2500  -999.2500  -999.2500  -999.2500
 2895.0000  -999.2500  1805.8203   132.8884    39.3674      .5357      .6274  -999.2500      .8107  -999.2500   -76.6201  -999.2500  -999.2500  -999.2500  -999.2500
 2895.5000  -999.2500  1772.9844   131.9973    40.2188      .5373      .6445  -999.2500      .8113  -999.2500   -76.9750  -999.2500  -999.2500  -999.2500  -999.2500
 2896.0000  -999.2500  1720.6836   131.3433    42.2614      .5546      .6644  -999.2500      .8213  -999.2500   -76.5214  -999.2500  -999.2500  -999.2500  -999.2500
 2896.5000  -999.2500  1647.6855   131.0474    43.3162      .5777      .6850  -999.2500      .8353  -999.2500   -75.7194  -999.2500  -999.2500  -999.2500  -999.2500
 2897.0000  -999.2500  1571.2012   131.6990    43.5103      .6047      .7043  -999.2500      .8515  -999.2500   -75.1470  -999.2500  -999.2500  -999.2500  -999.2500
 2897.5000  -999.2500  1488.6484   134.5256    43.6858      .6341      .7225  -999.2500      .8666  -999.2500   -74.7307  -999.2500  -999.2500  -999.2500  -999.2500
 2898.0000  -999.2500  1426.9941   137.7163    43.8489      .6679      .7389  -999.2500      .8798  -999.2500   -74.6265  -999.2500  -999.2500  -999.2500  -999.2500
 2898.5000  -999.2500  1385.7734   139.6753    43.4230      .6928      .7537  -999.2500      .8838  -999.2500   -74.5386  -999.2500  -999.2500  -999.2500  -999.2500
