~VERSION INFORMATION
VERS.                             2.0:   CWLS Log ASCII Standard-VERSION 2.0
WRAP.                              NO:   One line per depth step
~Well Information Block
STRT.F                      4122.0000:   Top Depth
STOP.F                     10958.0000:   Bottom Depth
STEP.F                         .50000:   Depth Increment
NULL.                        -999.250:   Null Value
FLD .                      GA BLK 273:   Field Name
WELL.       OCSG09037   003 ST00 BP00:   NAME
API .                  42706402950000:   WELL API
EDF .F                        95.0000:   ELEV DRILL FLOOR
COMP.       SEAGULL ENERGY E AND P IN:   OPERATOR
BN  .                             273:   BLOCK
CTRY.                             USA:   COUNTRY NAME
CNTY.                              GA:   COUNTY
CNTY.                        GLVSTN L:   COUNTY NAME
EKB .F                        96.0000:   ELEV KELLY BUSHING
TDD .F                      10964.000:   FINAL TD DRILLER
STAT.                           TEXAS:   STATE NAME
UWI .                  42706402950000:   WELL API
DICO.               IHS : Digitizing Company
~PARAMETER INFORMATION (zones)
#MNEM.UNIT                       Value     Description
#=========                       =====     ===========
#ZONATION                          DIL:   ZONATION NAME
#ZONE                            RUN_1:   ZONE NAME
TOP .                       4122.0000:   TOP DEPTH
BOT .                       9366.5000:   BOTTOM DEPTH
RUN .                               1:   RUN NUMBER
LCCD.                             440:   LOGGING CONTRACTOR
SRVC.                    Schlumberger:   LOGGING CONT NAME
DICO.          QC Data Collectors Ltd:   DIG COMPANY NAME
LDAT.                      05/20/1991:   DATE LOGGED
ELD .F                        96.0000:   LOG DATUM ELEVATION
TDD .F                      9360.0000:   TOTAL DEPTH DRILLER
TDL .F                      9366.0000:   TOTAL DEPTH LOGGER
BOTL.F                      9366.0000:   BOTTOM DEPTH LOGGED
TOPL.F                      4402.0000:   TOP DEPTH LOGGED
CS1 .IN                       10.7500:   CASING SIZE 1
BS1 .IN                        9.8750:   BIT SIZE 1
DDB1.F                      9360.0000:   DEPTH DRILLED BIT 1
BHF .                              81:   FLUID CODE
DPT .          Lignosulfonate (Ligno):   DRILLING FLUID TYPE
MUDD.                         12.5000:   FLUID DENSITY
MUDV.                         45.0000:   FLUID VISCOSITY
DFPH.                         10.0000:   FLUID PH
FL  .                          8.0000:   FLUID LOSS
RM  .OHMM                       .5080:   RM
RMT .DEGF                     67.0000:   RM TEMP
RMF .OHMM                       .3460:   RMF
RMFT.DEGF                     67.0000:   RMF TEMP
FSC .                               M:   RMF CODE
RMC .OHMM                       .6820:   RMC
RMCT.DEGF                     67.0000:   RMC TEMP
CMC .                               M:   RMC CODE
TMAX.DEGF                    170.0000:   MAX REC TEMP
TIMC.                          6.6800:   TIME SINCE CIRCLN
~PARAMETER INFORMATION (zones)
#MNEM.UNIT                       Value     Description
#=========                       =====     ===========
#ZONATION                          DIL:   ZONATION NAME
#ZONE                            RUN_2:   ZONE NAME
TOP .                       9092.0000:   TOP DEPTH
BOT .                      10398.5000:   BOTTOM DEPTH
RUN .                               2:   RUN NUMBER
LCCD.                             440:   LOGGING CONTRACTOR
SRVC.                    Schlumberger:   LOGGING CONT NAME
DICO.          QC Data Collectors Ltd:   DIG COMPANY NAME
LDAT.                      06/04/1991:   DATE LOGGED
ELD .F                        96.0000:   LOG DATUM ELEVATION
TDD .F                     10401.0000:   TOTAL DEPTH DRILLER
TDL .F                     10404.0000:   TOTAL DEPTH LOGGER
BOTL.F                     10398.0000:   BOTTOM DEPTH LOGGED
TOPL.F                      9292.0000:   TOP DEPTH LOGGED
CS1 .IN                        7.6250:   CASING SIZE 1
BS1 .IN                        6.7500:   BIT SIZE 1
DDB1.F                     10401.0000:   DEPTH DRILLED BIT 1
BHF .                              99:   FLUID CODE
DPT .                   Miscellaneous:   DRILLING FLUID TYPE
MUDD.                         14.1000:   FLUID DENSITY
MUDV.                         40.0000:   FLUID VISCOSITY
DFPH.                          9.8000:   FLUID PH
FL  .                          3.4000:   FLUID LOSS
RM  .OHMM                       .5160:   RM
RMT .DEGF                     80.0000:   RM TEMP
RMF .OHMM                       .2580:   RMF
RMFT.DEGF                     80.0000:   RMF TEMP
FSC .                               M:   RMF CODE
RMC .OHMM                      1.8700:   RMC
RMCT.DEGF                     80.0000:   RMC TEMP
CMC .                               M:   RMC CODE
TMAX.DEGF                    192.0000:   MAX REC TEMP
TIMC.                          7.4000:   TIME SINCE CIRCLN
~PARAMETER INFORMATION (zones)
#MNEM.UNIT                       Value     Description
#=========                       =====     ===========
#ZONATION                          DIL:   ZONATION NAME
#ZONE                            RUN_3:   ZONE NAME
TOP .                       9320.0000:   TOP DEPTH
BOT .                      10958.5000:   BOTTOM DEPTH
RUN .                               3:   RUN NUMBER
LCCD.                             440:   LOGGING CONTRACTOR
SRVC.                    Schlumberger:   LOGGING CONT NAME
DICO.          QC Data Collectors Ltd:   DIG COMPANY NAME
LDAT.                      06/09/1991:   DATE LOGGED
ELD .F                        96.0000:   LOG DATUM ELEVATION
TDD .F                     10960.0000:   TOTAL DEPTH DRILLER
TDL .F                     10964.0000:   TOTAL DEPTH LOGGER
BOTL.F                     10958.0000:   BOTTOM DEPTH LOGGED
TOPL.F                      9404.0000:   TOP DEPTH LOGGED
CS1 .IN                        7.6250:   CASING SIZE 1
BS1 .IN                        6.7500:   BIT SIZE 1
DDB1.F                     10960.0000:   DEPTH DRILLED BIT 1
BHF .                              99:   FLUID CODE
DPT .                   Miscellaneous:   DRILLING FLUID TYPE
MUDD.                         14.7000:   FLUID DENSITY
MUDV.                         46.0000:   FLUID VISCOSITY
DFPH.                         10.0000:   FLUID PH
FL  .                          2.3000:   FLUID LOSS
RM  .OHMM                       .4570:   RM
RMT .DEGF                     74.0000:   RM TEMP
RMF .OHMM                       .2190:   RMF
RMFT.DEGF                     74.0000:   RMF TEMP
FSC .                               M:   RMF CODE
RMC .OHMM                       .7110:   RMC
RMCT.DEGF                     74.0000:   RMC TEMP
CMC .                               M:   RMC CODE
TMAX.DEGF                    202.0000:   MAX REC TEMP
TIMC.                          7.3800:   TIME SINCE CIRCLN
~Curve Information Block
#MNEM.UNIT                    API CODE    No Description
#=========                    ========    == ===========
DEPT.F                   00 001 00 00:     1  DEPTH
DT.US/F                              :     2  Sonic Transit Time
GR.GAPI                              :     3  Gamma Ray
ILD.OHMM                             :     4  Deep Induction Resistivity
ILM.OHMM                             :     5  Medium Induction Resistivity
SFL.OHMM                             :     6  Medium Resistivity
SP.MV                                :     7  Spontaneous Potential
~ASCII
# ...
 9998.0000   107.4221    61.7075      .7019      .7009      .6737   -50.0388
 9998.5000   105.9996    62.9478      .7142      .7044      .6205   -49.9750
 9999.0000   104.3196    63.6581      .7191      .7195      .6163   -49.7965
 9999.5000   102.6105    64.1233      .7292      .7422      .6505   -49.6012
10000.0000   100.8774    64.3499      .7516      .7687      .6949   -49.4348
10000.5000    99.3488    64.5442      .7913      .7997      .7597   -49.0149
10001.0000    98.3535    62.5624      .8337      .8310      .8279   -48.5618
10001.5000    97.8751    59.1743      .8696      .8561      .8670   -48.2931
10002.0000    97.6606    54.3551      .8989      .8721      .8679   -48.3977
10002.5000    97.6584    55.5126      .9219      .8761      .8956   -48.8676
10003.0000    97.9487    59.4374      .8828      .8762      .8412   -49.1093
10003.5000    98.5040    63.4147      .8745      .8730      .7909   -48.9832
10004.0000    99.0382    67.0239      .8755      .8680      .7394   -48.8904
10004.5000    99.9670    70.6869      .8773      .8630      .7060   -48.7874
10005.0000    98.0695    69.3282      .8831      .8660      .7120   -48.6937
10005.5000    96.5833    67.0239      .8921      .8714      .7594   -48.6685
10006.0000    95.3518    64.3223      .9040      .8790      .8135   -48.5782
10006.5000    94.8988    62.3073      .9181      .8916      .8670   -48.4724
10007.0000    96.0313    61.5168      .9334      .9051      .9138   -48.6499
10007.5000    98.0138    61.2311      .9453      .9090      .9343   -49.0925
10008.0000   100.0626    61.5208      .9568      .9236      .9046   -49.3956
10008.5000    99.6115    62.6032      .9671      .9332      .8672   -49.5836
10009.0000    97.0955    64.1407      .9712      .9256      .8320   -49.5840
10009.5000    96.0823    65.8480      .9581      .9014      .8045   -49.5466
10010.0000    96.4877    65.8401      .9034      .8970      .8014   -49.5027
10010.5000    96.8865    63.3674      .9175      .9189      .8582   -49.5842
10011.0000    96.8672    60.2318      .9539      .9654      .9124   -49.6283
10011.5000    90.3066    57.7512      .9993     1.0199      .9700   -49.7089
10012.0000    84.7756    57.8353     1.0450     1.0757     1.0511   -49.7810
10012.5000    81.7820    59.9687     1.0832     1.1020     1.1656   -49.8718
10013.0000    83.5125    61.6602     1.0957     1.0983     1.2442   -50.0438
10013.5000    87.4828    62.5322     1.0846     1.0936     1.2462   -50.1544
10014.0000    91.5168    61.5431     1.0758     1.0810     1.1905   -50.3019
10014.5000    96.4851    60.7066     1.0764     1.0642     1.0872   -50.8300
10015.0000    95.0944    60.4189     1.0814     1.0427     1.0237   -51.7388
10015.5000    93.2578    60.9841     1.0871     1.0250      .9833   -52.8226
10016.0000    92.0688    61.7680     1.0923     1.0083      .9643   -53.8748
10016.5000    92.4298    61.1893     1.0970     1.0044      .9596   -54.5457
10017.0000    95.0200    59.3295     1.1016     1.0166      .9737   -54.1326
10017.5000    97.8439    58.1221     1.1059     1.0337     1.0088   -53.5565
10018.0000    95.2006    60.5369     1.1064     1.0414     1.0300   -52.9838
10018.5000    90.3013    62.8939     1.1133     1.0325     1.0161   -52.7220
10019.0000    88.4143    63.9645     1.1203     1.0243     1.1309   -52.9088
10019.5000    89.5953    64.7432     1.1187     1.0297     1.2729   -53.1044
10020.0000    95.5826    65.0562     1.1134     1.0362     1.2374   -53.3241
10020.5000   100.6996    63.0018     1.1091     1.0469     1.0988   -53.7124
10021.0000   100.0945    61.5392     1.1054     1.0830      .9621   -54.6061
10021.5000    94.7069    61.8141     1.1066     1.0461      .9022   -55.4716
10022.0000    90.8427    62.3849     1.1064      .9867      .9008   -56.0694
10022.5000    91.9706    63.0110     1.1010      .9524      .9007   -55.8123
10023.0000    94.0593    63.6791     1.0750      .9326      .9030   -54.6824
10023.5000    95.8812    64.3960     1.0428      .9201      .9063   -53.2435
10024.0000    96.5554    63.4700     1.0117      .9188      .9104   -51.7809
10024.5000    96.7239    62.4309      .9858      .9251      .9174   -50.8155
10025.0000    96.4220    63.1649      .9722      .9337      .9191   -50.5363
10025.5000    95.8414    63.0255      .9685      .9445      .9218   -50.4403
10026.0000    95.1687    59.2322      .9716      .9586      .9494   -50.3557
10026.5000    94.6053    56.2728      .9747      .9688      .9793   -50.3255
10027.0000    96.8247    56.1952      .9773      .9774      .9874   -50.3481
10027.5000   100.0679    57.6775      .9811      .9810      .9832   -50.4384
10028.0000   100.6837    59.8162      .9843      .9813      .9624   -50.5692
10028.5000    98.1942    61.8154      .9858      .9717      .9248   -50.6342
10029.0000    96.2037    62.7939      .9886      .9519      .8757   -50.6816
10029.5000    94.5609    60.2160      .9916      .9451      .8471   -50.7324
10030.0000    93.2366    58.6719      .9941      .9626      .9325   -50.7251
10030.5000    92.5399    59.0165      .9950     1.0042     1.0288   -50.9391
10031.0000    93.3387    61.2840      .9961     1.0639     1.1316   -52.5280
10031.5000    93.9257    63.7041      .9988     1.1107     1.2627   -53.9880
10032.0000    93.1649    66.0927     1.0015     1.1399     1.4140   -55.0099
10032.5000    91.8618    68.1498     1.0009     1.1065     1.5306   -55.4098
10033.0000    92.7987    67.6025      .9982     1.0465     1.4563   -55.2059
10033.5000    94.2896    64.8511      .9918      .9873     1.1707   -54.5075
10034.0000    94.3743    62.0265      .9806      .9380      .9682   -53.2882
10034.5000    95.0652    62.6453      .9734      .9402      .8350   -51.7730
10035.0000    96.5620    63.2859      .9586      .9421      .8233   -51.4054
10035.5000    96.6045    63.2648      .9467      .9387      .9158   -51.6464
10036.0000    95.8043    62.0969      .9336      .9309     1.0599   -51.7804
10036.5000    94.9829    60.5369      .9178      .9234     1.1745   -52.0933
10037.0000    94.3512    58.8402      .9128      .8984     1.1224   -52.5276
10037.5000    93.7183    57.4724      .9092      .8953      .9777   -52.7953
10038.0000    93.4283    58.1510      .9100      .8963      .8926   -53.2034
10038.5000    94.9219    61.2998      .9154      .9025      .8676   -53.7249
10039.0000    97.1750    63.6989      .9226      .9042      .8957   -54.4312
10039.5000    97.7537    65.2469      .9298      .8982      .9567   -55.2690
10040.0000    94.2928    66.0177      .9312      .8929     1.0331   -56.2239
10040.5000    91.6866    66.6793      .9272      .8888     1.1205   -57.4787
10041.0000    92.1326    67.8130      .9150      .8790     1.2113   -58.6191
10041.5000    92.8505    69.2493      .8994      .8675     1.1574   -58.9557
10042.0000    92.9889    70.9670      .8806      .8516     1.0674   -57.7102
10042.5000    93.0892    71.5201      .8543      .8415      .9901   -56.1687
10043.0000    93.2856    70.3962      .8312      .8314      .9290   -54.7324
10043.5000    93.8801    67.2922      .8090      .8233      .8533   -53.5171
10044.0000    96.2621    65.4902      .7968      .8159      .7809   -52.9199
10044.5000    98.9799    64.7537      .7942      .8079      .7323   -52.3373
10045.0000   100.4767    64.2328      .7911      .7998      .7309   -51.7256
10045.5000   101.7452    63.7751      .7870      .7923      .7505   -51.2028
10046.0000   103.4014    63.9935      .7828      .7854      .7829   -50.6932
10046.5000   104.5718    66.6293      .7774      .7786      .7525   -50.2302
10047.0000   103.6202    68.3497      .7721      .7719      .7508   -49.8909
10047.5000   102.5547    66.8292      .7670      .7653      .7545   -49.6748
10048.0000   102.0720    65.1299      .7622      .7613      .7599   -49.4171
10048.5000   102.1234    64.5634      .7597      .7580      .7614   -49.1412
10049.0000   102.2783    64.7247      .7604      .7569      .7438   -48.8893
10049.5000   102.3627    64.9480      .7615      .7577      .7296   -48.7054
