~VERSION INFORMATION
VERS.                             2.0:   CWLS Log ASCII Standard-VERSION 2.0
WRAP.                              NO:   One line per depth step
~Well Information Block
STRT.F                       302.0000:   Top Depth
STOP.F                     11038.0000:   Bottom Depth
STEP.F                         .50000:   Depth Increment
NULL.                        -999.250:   Null Value
FLD .                         WILDCAT:   Field Name
WELL.       OCSG04565   001 ST00 BP00:   NAME
API .                    42706400940000:   WELL API
EDF .F                        76.8000:   ELEV DRILL FLOOR
COMP.                  TENNECO OIL CO:   OPERATOR
BN  .                             303:   BLOCK
CTRY.                             USA:   COUNTRY NAME
CNTY.                              GA:   COUNTY
CNTY.                        GLVSTN L:   COUNTY NAME
EKB .F                        79.0000:   ELEV KELLY BUSHING
TDD .F                      11050.000:   FINAL TD DRILLER
STAT.                           TEXAS:   STATE NAME
UWI .                    42706400940000:   WELL API
DICO.               IHS : Digitizing Company
~PARAMETER INFORMATION (zones)
#MNEM.UNIT                       Value     Description
#=========                       =====     ===========
#ZONATION                          CNL:   ZONATION NAME
#ZONE                            RUN_1:   ZONE NAME
TOP .                       4297.0000:   TOP DEPTH
BOT .                       7582.5000:   BOTTOM DEPTH
RUN .                               1:   RUN NUMBER
LCCD.                              20:   LOGGING CONTRACTOR
SRVC.                          Baroil:   LOGGING CONT NAME
DICO.          QC Data Collectors Ltd:   DIG COMPANY NAME
LDAT.                      03/12/1983:   DATE LOGGED
ELD .F                        77.8000:   LOG DATUM ELEVATION
TDD .F                      7587.0000:   TOTAL DEPTH DRILLER
TDL .F                      7584.0000:   TOTAL DEPTH LOGGER
BOTL.F                      7582.0000:   BOTTOM DEPTH LOGGED
TOPL.F                      4300.0000:   TOP DEPTH LOGGED
CS1 .IN                       13.3750:   CASING SIZE 1
BS1 .IN                       12.2500:   BIT SIZE 1
DDB1.F                      7587.0000:   DEPTH DRILLED BIT 1
BHF .                              70:   FLUID CODE
DPT .                       Phosphate:   DRILLING FLUID TYPE
MUDD.                         13.5000:   FLUID DENSITY
MUDV.                         49.0000:   FLUID VISCOSITY
DFPH.                         11.4000:   FLUID PH
FL  .                         12.8000:   FLUID LOSS
RM  .OHMM                       .0680:   RM
RMT .DEGF                     65.0000:   RM TEMP
RMF .OHMM                       .0530:   RMF
RMFT.DEGF                     65.0000:   RMF TEMP
FSC .                               M:   RMF CODE
RMC .OHMM                       .1020:   RMC
RMCT.DEGF                     65.0000:   RMC TEMP
CMC .                               C:   RMC CODE
TMAX.DEGF                    161.0000:   MAX REC TEMP
TIMC.                         10.0000:   TIME SINCE CIRCLN
~PARAMETER INFORMATION (zones)
#MNEM.UNIT                       Value     Description
#=========                       =====     ===========
#ZONATION                          DIL:   ZONATION NAME
#ZONE                            RUN_1:   ZONE NAME
TOP .                        302.0000:   TOP DEPTH
BOT .                      11038.5000:   BOTTOM DEPTH
RUN .                               1:   RUN NUMBER
LCCD.                             150:   LOGGING CONTRACTOR
SRVC.                   Dresser Atlas:   LOGGING CONT NAME
DICO.          QC Data Collectors Ltd:   DIG COMPANY NAME
LDAT.                      02/22/1983:   DATE LOGGED
ELD .F                        77.8000:   LOG DATUM ELEVATION
TDD .F                       841.0000:   TOTAL DEPTH DRILLER
TDL .F                       832.0000:   TOTAL DEPTH LOGGER
BOTL.F                     11038.0000:   BOTTOM DEPTH LOGGED
TOPL.F                       302.0000:   TOP DEPTH LOGGED
CS1 .IN                       30.6250:   CASING SIZE 1
BS1 .IN                       17.5000:   BIT SIZE 1
DDB1.F                       841.0000:   DEPTH DRILLED BIT 1
BHF .                              99:   FLUID CODE
DPT .                   Miscellaneous:   DRILLING FLUID TYPE
MUDD.                          8.7000:   FLUID DENSITY
MUDV.                         50.0000:   FLUID VISCOSITY
DFPH.                         12.0000:   FLUID PH
FL  .                         20.4000:   FLUID LOSS
RM  .OHMM                      1.1500:   RM
RMT .DEGF                     65.0000:   RM TEMP
RMF .OHMM                       .8000:   RMF
RMFT.DEGF                     65.0000:   RMF TEMP
FSC .                               M:   RMF CODE
RMC .OHMM                      1.4300:   RMC
RMCT.DEGF                     65.0000:   RMC TEMP
CMC .                               C:   RMC CODE
TMAX.DEGF                     85.0000:   MAX REC TEMP
TIMC.                          3.0000:   TIME SINCE CIRCLN
~PARAMETER INFORMATION (zones)
#MNEM.UNIT                       Value     Description
#=========                       =====     ===========
#ZONATION                          FDC:   ZONATION NAME
#ZONE                            RUN_4:   ZONE NAME
TOP .                      11038.0000:   TOP DEPTH
BOT .                      11040.0000:   BOTTOM DEPTH
RUN .                               4:   RUN NUMBER
LCCD.                             150:   LOGGING CONTRACTOR
SRVC.                   Dresser Atlas:   LOGGING CONT NAME
DICO.          QC Data Collectors Ltd:   DIG COMPANY NAME
LDAT.                      03/25/1983:   DATE LOGGED
ELD .F                        77.8000:   LOG DATUM ELEVATION
TDD .F                     11050.0000:   TOTAL DEPTH DRILLER
TDL .F                     11040.0000:   TOTAL DEPTH LOGGER
BOTL.F                     11038.0000:   BOTTOM DEPTH LOGGED
TOPL.F                      7555.0000:   TOP DEPTH LOGGED
CS1 .IN                        9.6250:   CASING SIZE 1
BS1 .IN                        8.5000:   BIT SIZE 1
DDB1.F                     11050.0000:   DEPTH DRILLED BIT 1
BHF .                              99:   FLUID CODE
DPT .                   Miscellaneous:   DRILLING FLUID TYPE
MUDD.                         16.6000:   FLUID DENSITY
MUDV.                         50.0000:   FLUID VISCOSITY
DFPH.                         11.4000:   FLUID PH
FL  .                         10.0000:   FLUID LOSS
RM  .OHMM                      1.7000:   RM
RMT .DEGF                     75.0000:   RM TEMP
RMF .OHMM                      1.2000:   RMF
RMFT.DEGF                     75.0000:   RMF TEMP
FSC .                               M:   RMF CODE
RMC .OHMM                      2.2000:   RMC
RMCT.DEGF                     75.0000:   RMC TEMP
CMC .                               M:   RMC CODE
TMAX.DEGF                    228.0000:   MAX REC TEMP
TIMC.                          4.0000:   TIME SINCE CIRCLN
~PARAMETER INFORMATION (zones)
#MNEM.UNIT                       Value     Description
#=========                       =====     ===========
#ZONATION                          FDC:   ZONATION NAME
#ZONE                            RUN_2:   ZONE NAME
TOP .                       4512.0000:   TOP DEPTH
BOT .                       7583.5000:   BOTTOM DEPTH
RUN .                               2:   RUN NUMBER
LCCD.                             150:   LOGGING CONTRACTOR
SRVC.                   Dresser Atlas:   LOGGING CONT NAME
DICO.          QC Data Collectors Ltd:   DIG COMPANY NAME
LDAT.                      02/28/1983:   DATE LOGGED
ELD .F                        77.8000:   LOG DATUM ELEVATION
TDD .F                      4512.0000:   TOTAL DEPTH DRILLER
TDL .F                      4505.0000:   TOTAL DEPTH LOGGER
BOTL.F                      7583.0000:   BOTTOM DEPTH LOGGED
TOPL.F                      4512.0000:   TOP DEPTH LOGGED
CS1 .IN                       20.0000:   CASING SIZE 1
BS1 .IN                       17.5000:   BIT SIZE 1
DDB1.F                      4512.0000:   DEPTH DRILLED BIT 1
BHF .                              99:   FLUID CODE
DPT .                   Miscellaneous:   DRILLING FLUID TYPE
MUDD.                          9.4000:   FLUID DENSITY
MUDV.                         40.0000:   FLUID VISCOSITY
DFPH.                         12.0000:   FLUID PH
FL  .                         38.0000:   FLUID LOSS
RM  .OHMM                       .2900:   RM
RMT .DEGF                     65.0000:   RM TEMP
RMF .OHMM                       .2100:   RMF
RMFT.DEGF                     65.0000:   RMF TEMP
FSC .                               M:   RMF CODE
RMC .OHMM                       .3400:   RMC
RMCT.DEGF                     65.0000:   RMC TEMP
CMC .                               C:   RMC CODE
TMAX.DEGF                     90.0000:   MAX REC TEMP
TIMC.                          3.0000:   TIME SINCE CIRCLN
~PARAMETER INFORMATION (zones)
#MNEM.UNIT                       Value     Description
#=========                       =====     ===========
#ZONATION                          FDC:   ZONATION NAME
#ZONE                            RUN_1:   ZONE NAME
TOP .                       4297.0000:   TOP DEPTH
BOT .                       7582.5000:   BOTTOM DEPTH
RUN .                               1:   RUN NUMBER
LCCD.                              20:   LOGGING CONTRACTOR
SRVC.                          Baroil:   LOGGING CONT NAME
DICO.          QC Data Collectors Ltd:   DIG COMPANY NAME
LDAT.                      03/12/1983:   DATE LOGGED
ELD .F                        77.8000:   LOG DATUM ELEVATION
TDD .F                      7587.0000:   TOTAL DEPTH DRILLER
TDL .F                      7584.0000:   TOTAL DEPTH LOGGER
BOTL.F                      7582.0000:   BOTTOM DEPTH LOGGED
TOPL.F                      4300.0000:   TOP DEPTH LOGGED
CS1 .IN                       13.3750:   CASING SIZE 1
BS1 .IN                       12.2500:   BIT SIZE 1
DDB1.F                      7587.0000:   DEPTH DRILLED BIT 1
BHF .                              70:   FLUID CODE
DPT .                       Phosphate:   DRILLING FLUID TYPE
MUDD.                         13.5000:   FLUID DENSITY
MUDV.                         49.0000:   FLUID VISCOSITY
DFPH.                         11.4000:   FLUID PH
FL  .                         12.8000:   FLUID LOSS
RM  .OHMM                       .0680:   RM
RMT .DEGF                     65.0000:   RM TEMP
RMF .OHMM                       .0530:   RMF
RMFT.DEGF                     65.0000:   RMF TEMP
FSC .                               M:   RMF CODE
RMC .OHMM                       .1020:   RMC
RMCT.DEGF                     65.0000:   RMC TEMP
CMC .                               C:   RMC CODE
TMAX.DEGF                    161.0000:   MAX REC TEMP
TIMC.                         10.0000:   TIME SINCE CIRCLN
~Curve Information Block
#MNEM.UNIT                    API CODE    No Description
#=========                    ========    == ===========
DEPT.F                   00 001 00 00:     1  DEPTH
NPHI.%                               :     2  Neutron Porosity
CILD.MMHO                            :     3  Deep Induction Conductivity
DT.US/F                              :     4  Sonic Transit Time
GR1.GAPI                              :     5  Gamma Ray
ILD.OHMM                             :     6  Deep Induction Resistivity
ILM.OHMM                             :     7  Medium Induction Resistivity
LN.OHMM                              :     8  Medium Resistivity
RFOC.OHMM                            :     9  Medium Resistivity
SN.OHMM                              :    10  Short-Normal Resistivity
SP.MV                                :    11  Spontaneous Potential
CALI.IN                              :    12  Caliper
DRHO.G/C3                            :    13  Bulk Density Correction
GR2.GAPI                              :    14  Gamma Ray
RHOB.G/C3                            :    15  Bulk Density
~ASCII
# ...
 5594.0000    22.6286  1862.7266    80.1827    39.7456      .5266      .6452  -999.2500     1.1824  -999.2500  -112.1381    16.9037     -.0225    36.4553     2.2959
 5594.5000    24.6407  1879.7051    84.6134    40.4719      .5190      .6073  -999.2500     1.1297  -999.2500  -112.5675    16.9038     -.0199    37.9834     2.4184
 5595.0000    28.9005  1916.5332    87.5762    39.9902      .5109      .5795  -999.2500     1.0307  -999.2500  -112.9971    16.9040     -.0068    38.2319     2.4581
 5595.5000    33.1604  1953.3359    86.9940    39.5091      .5057      .5583  -999.2500      .9406  -999.2500  -113.4266    16.9041     -.0136    37.2649     2.4209
 5596.0000    35.9125  1963.1289    84.4358    38.7902      .5011      .5483  -999.2500      .8684  -999.2500  -113.9642    16.9031     -.0400    36.4109     2.3161
 5596.5000    38.4039  1933.4004    99.0945    38.0330      .5054      .5701  -999.2500      .8121  -999.2500  -114.6621    16.9009     -.0700    35.8835     2.2613
 5597.0000    40.2115  1859.9434   127.2179    37.2110      .5154      .5897  -999.2500      .7832  -999.2500  -115.1135    16.8988     -.0864    35.6616     2.1928
 5597.5000    40.4284  1786.5859   151.2559    36.0759      .5427      .6074  -999.2500      .7621  -999.2500  -115.3671    16.8966     -.1032    35.9197     2.1047
 5598.0000    38.7187  1714.5137   154.2017    35.1378      .5676      .6255  -999.2500      .7889  -999.2500  -114.9827    16.8945     -.1252    36.5908     2.0199
 5598.5000    36.8719  1642.4902   133.4741    34.5202      .5879      .6443  -999.2500      .8415  -999.2500  -114.5979    16.8923     -.1538    35.3666     2.0241
 5599.0000    35.1013  1615.8281   125.0420    33.9020      .6011      .6635  -999.2500      .9454  -999.2500  -114.1851    16.8902     -.1584    32.6599     2.0333
 5599.5000    35.6940  1646.3984   119.3483    33.4944      .6048      .6590  -999.2500     1.0199  -999.2500  -113.7688    16.8877     -.1577    30.7261     2.0515
 5600.0000    37.1506  1740.2852   116.8369    33.1677      .5875      .5941  -999.2500     1.0481  -999.2500  -113.6913    16.8850     -.1734    29.8734     2.0250
 5600.5000    38.9718  1835.7539   116.5977    33.2177      .4837      .5292  -999.2500      .9809  -999.2500  -114.4255    16.8824     -.1956    31.4801     2.0083
 5601.0000    38.0326  2106.4336   118.4824    33.9606      .4362      .4619  -999.2500      .9215  -999.2500  -115.3569    16.8797     -.2189    33.0856     1.9536
 5601.5000    37.3641  2402.8320   121.9683    34.5634      .3872      .4101  -999.2500      .8657  -999.2500  -116.3055    16.8770     -.2250    34.6375     2.0089
 5602.0000    37.7313  2912.5352   125.4565    34.9287      .3437      .3675  -999.2500      .8179  -999.2500  -117.2554    16.8744     -.1575    35.0270     2.1214
 5602.5000    39.7731  3304.7031   131.1699    35.0609      .3043      .3367  -999.2500      .7872  -999.2500  -117.5200    16.8717     -.0833    33.8335     2.2441
 5603.0000    42.0898  3622.6719   139.2961    34.8475      .2700      .3106  -999.2500      .7576  -999.2500  -117.4327    16.8739     -.0594    32.5201     2.2790
 5603.5000    44.1460  4051.1133   150.5725    35.1273      .2463      .2878  -999.2500      .7291  -999.2500  -117.3453    16.8762     -.0756    32.4626     2.2202
 5604.0000    44.2424  4374.3203   149.3169    35.7338      .2246      .2698  -999.2500      .7130  -999.2500  -116.2438    16.8785     -.1552    35.6537     2.1063
 5604.5000    41.4301  4651.7266   145.2268    36.6799      .2138      .2560  -999.2500      .6993  -999.2500  -114.4503    16.8808     -.1321    37.2437     1.9743
 5605.0000    37.9445  4807.0547   138.9805    37.6989      .2062      .2538  -999.2500      .6788  -999.2500  -112.7952    16.8831     -.0974    37.0179     2.0312
 5605.5000    35.8447  4736.8125   131.9790    37.2567      .2124      .2579  -999.2500      .6554  -999.2500  -111.7242    16.8854     -.0513    37.8086     2.0652
 5606.0000    33.7870  4445.5547   117.3994    37.0097      .2188      .2847  -999.2500      .6348  -999.2500  -110.6910    16.8847     -.0163    40.3280     2.1003
 5606.5000    28.2950  3893.5469   106.2585    38.6093      .2422      .3241  -999.2500      .6543  -999.2500  -110.4557    16.8830      .0078    41.3224     2.1063
 5607.0000    19.4755  3396.1133    93.9583    40.7683      .2681      .3728  -999.2500      .7863  -999.2500  -110.6719    16.8814      .0065    40.1308     2.1025
 5607.5000    13.2951  3082.8945    88.6543    40.3780      .2991      .4215  -999.2500     1.2509  -999.2500  -111.3932    16.8797     -.0250    34.4977     2.1096
 5608.0000    12.0004  2770.0703    83.0000    38.1893      .3346      .4711  -999.2500     2.6192  -999.2500  -112.1139    16.8781     -.0699    30.5950     2.1823
 5608.5000    11.6216  2484.7500    86.9274    36.5057      .3734      .5106  -999.2500     3.8996  -999.2500  -112.8359    16.8770     -.0566    28.2516     2.4010
 5609.0000    12.1865  2412.2344    93.1490    35.5679      .4032      .4817  -999.2500     2.7591  -999.2500  -113.5579    16.8783     -.0320    28.4351     2.4725
 5609.5000    14.1778  2355.8398    96.2932    35.9650      .4148      .4472  -999.2500     1.3141  -999.2500  -114.3286    16.8796     -.0074    29.8759     2.5745
 5610.0000    19.8898  2485.5430    97.6908    37.4753      .3963      .4204  -999.2500      .8310  -999.2500  -115.1519    16.8808      .0081    33.5289     2.6186
 5610.5000    25.6017  2833.9805    99.4226    39.0477      .3645      .3953  -999.2500      .7438  -999.2500  -115.9319    16.8821      .0193    35.9710     2.5331
 5611.0000    31.3197  3134.9336   101.7515    40.6201      .3315      .3758  -999.2500      .7271  -999.2500  -115.6364    16.8834      .0020    38.0719     2.4529
 5611.5000    34.8806  3457.4531   105.8540    40.3138      .3076      .3662  -999.2500      .7305  -999.2500  -115.3408    16.8871     -.0159    38.3942     2.3405
 5612.0000    37.4866  3579.6836   112.9589    38.6735      .2865      .3568  -999.2500      .7492  -999.2500  -115.0450    16.8907     -.0338    38.1134     2.2686
 5612.5000    39.2686  3577.1602   121.4650    37.0622      .2854      .3587  -999.2500      .7680  -999.2500  -113.7969    16.8944     -.0428    38.7458     2.1275
 5613.0000    39.8778  3488.7148   129.9810    36.8676      .2878      .3657  -999.2500      .7708  -999.2500  -111.9465    16.8980     -.0513    39.5226     2.0991
 5613.5000    39.0780  3373.5586   136.2444    38.7068      .3023      .3727  -999.2500      .7735  -999.2500  -110.5607    16.9017     -.0585    40.3145     2.0827
 5614.0000    39.3710  3192.7109   138.5376    40.5633      .3207      .3988  -999.2500      .7762  -999.2500  -109.5126    16.9117     -.0651    42.4179     2.0680
 5614.5000    40.3749  2998.2070   140.3457    42.5149      .3402      .4286  -999.2500      .7789  -999.2500  -108.7588    16.9222     -.0546    45.1434     2.0948
 5615.0000    40.4472  2806.4766   142.1011    44.4566      .3609      .4621  -999.2500      .7817  -999.2500  -108.7172    16.9327     -.0341    46.8706     2.1297
 5615.5000    37.6221  2617.3203   139.7649    45.8425      .3828      .4996  -999.2500      .7915  -999.2500  -107.9730    16.9432     -.0176    44.7166     2.1596
 5616.0000    32.9375  2396.6992   135.6055    45.2601      .4061      .5398  -999.2500      .8087  -999.2500  -107.2288    16.9536     -.0183    42.7075     2.1870
 5616.5000    31.1047  2176.8711   131.8755    44.4498      .4345      .5807  -999.2500      .8463  -999.2500  -104.8912    16.9626     -.0303    41.0764     2.1808
 5617.0000    31.9162  1982.3730   128.9238    44.1027      .4670      .6224  -999.2500      .8870  -999.2500  -100.9929    16.9694     -.0394    44.5669     2.1558
 5617.5000    33.2553  1812.0098   128.2632    43.7556      .5119      .6623  -999.2500      .8851  -999.2500   -97.7914    16.9762     -.0486    48.7725     2.1433
 5618.0000    33.1845  1649.9590   127.5743    45.4941      .5665      .7012  -999.2500      .8455  -999.2500   -94.4712    16.9830     -.0578    51.8325     2.1653
