~VERSION INFORMATION
VERS.                             2.0:   CWLS Log ASCII Standard-VERSION 2.0
WRAP.                              NO:   One line per depth step
~Well Information Block
STRT.F                       302.0000:   Top Depth
STOP.F                     11038.0000:   Bottom Depth
STEP.F                         .50000:   Depth Increment
NULL.                        -999.250:   Null Value
FLD .                         WILDCAT:   Field Name
WELL.       OCSG04565   001 ST00 BP00:   NAME
API .                    42706400940000:   WELL API
EDF .F                        76.8000:   ELEV DRILL FLOOR
COMP.                  TENNECO OIL CO:   OPERATOR
BN  .                             303:   BLOCK
CTRY.                             USA:   COUNTRY NAME
CNTY.                              GA:   COUNTY
CNTY.                        GLVSTN L:   COUNTY NAME
EKB .F                        79.0000:   ELEV KELLY BUSHING
TDD .F                      11050.000:   FINAL TD DRILLER
STAT.                           TEXAS:   STATE NAME
UWI .                    42706400940000:   WELL API
DICO.               IHS : Digitizing Company
~PARAMETER INFORMATION (zones)
#MNEM.UNIT                       Value     Description
#=========                       =====     ===========
#ZONATION                          CNL:   ZONATION NAME
#ZONE                            RUN_1:   ZONE NAME
TOP .                       4297.0000:   TOP DEPTH
BOT .                       7582.5000:   BOTTOM DEPTH
RUN .                               1:   RUN NUMBER
LCCD.                              20:   LOGGING CONTRACTOR
SRVC.                          Baroil:   LOGGING CONT NAME
DICO.          QC Data Collectors Ltd:   DIG COMPANY NAME
LDAT.                      03/12/1983:   DATE LOGGED
ELD .F                        77.8000:   LOG DATUM ELEVATION
TDD .F                      7587.0000:   TOTAL DEPTH DRILLER
TDL .F                      7584.0000:   TOTAL DEPTH LOGGER
BOTL.F                      7582.0000:   BOTTOM DEPTH LOGGED
TOPL.F                      4300.0000:   TOP DEPTH LOGGED
CS1 .IN                       13.3750:   CASING SIZE 1
BS1 .IN                       12.2500:   BIT SIZE 1
DDB1.F                      7587.0000:   DEPTH DRILLED BIT 1
BHF .                              70:   FLUID CODE
DPT .                       Phosphate:   DRILLING FLUID TYPE
MUDD.                         13.5000:   FLUID DENSITY
MUDV.                         49.0000:   FLUID VISCOSITY
DFPH.                         11.4000:   FLUID PH
FL  .                         12.8000:   FLUID LOSS
RM  .OHMM                       .0680:   RM
RMT .DEGF                     65.0000:   RM TEMP
RMF .OHMM                       .0530:   RMF
RMFT.DEGF                     65.0000:   RMF TEMP
FSC .                               M:   RMF CODE
RMC .OHMM                       .1020:   RMC
RMCT.DEGF                     65.0000:   RMC TEMP
CMC .                               C:   RMC CODE
TMAX.DEGF                    161.0000:   MAX REC TEMP
TIMC.                         10.0000:   TIME SINCE CIRCLN
~PARAMETER INFORMATION (zones)
#MNEM.UNIT                       Value     Description
#=========                       =====     ===========
#ZONATION                          DIL:   ZONATION NAME
#ZONE                            RUN_1:   ZONE NAME
TOP .                        302.0000:   TOP DEPTH
BOT .                      11038.5000:   BOTTOM DEPTH
RUN .                               1:   RUN NUMBER
LCCD.                             150:   LOGGING CONTRACTOR
SRVC.                   Dresser Atlas:   LOGGING CONT NAME
DICO.          QC Data Collectors Ltd:   DIG COMPANY NAME
LDAT.                      02/22/1983:   DATE LOGGED
ELD .F                        77.8000:   LOG DATUM ELEVATION
TDD .F                       841.0000:   TOTAL DEPTH DRILLER
TDL .F                       832.0000:   TOTAL DEPTH LOGGER
BOTL.F                     11038.0000:   BOTTOM DEPTH LOGGED
TOPL.F                       302.0000:   TOP DEPTH LOGGED
CS1 .IN                       30.6250:   CASING SIZE 1
BS1 .IN                       17.5000:   BIT SIZE 1
DDB1.F                       841.0000:   DEPTH DRILLED BIT 1
BHF .                              99:   FLUID CODE
DPT .                   Miscellaneous:   DRILLING FLUID TYPE
MUDD.                          8.7000:   FLUID DENSITY
MUDV.                         50.0000:   FLUID VISCOSITY
DFPH.                         12.0000:   FLUID PH
FL  .                         20.4000:   FLUID LOSS
RM  .OHMM                      1.1500:   RM
RMT .DEGF                     65.0000:   RM TEMP
RMF .OHMM                       .8000:   RMF
RMFT.DEGF                     65.0000:   RMF TEMP
FSC .                               M:   RMF CODE
RMC .OHMM                      1.4300:   RMC
RMCT.DEGF                     65.0000:   RMC TEMP
CMC .                               C:   RMC CODE
TMAX.DEGF                     85.0000:   MAX REC TEMP
TIMC.                          3.0000:   TIME SINCE CIRCLN
~PARAMETER INFORMATION (zones)
#MNEM.UNIT                       Value     Description
#=========                       =====     ===========
#ZONATION                          FDC:   ZONATION NAME
#ZONE                            RUN_4:   ZONE NAME
TOP .                      11038.0000:   TOP DEPTH
BOT .                      11040.0000:   BOTTOM DEPTH
RUN .                               4:   RUN NUMBER
LCCD.                             150:   LOGGING CONTRACTOR
SRVC.                   Dresser Atlas:   LOGGING CONT NAME
DICO.          QC Data Collectors Ltd:   DIG COMPANY NAME
LDAT.                      03/25/1983:   DATE LOGGED
ELD .F                        77.8000:   LOG DATUM ELEVATION
TDD .F                     11050.0000:   TOTAL DEPTH DRILLER
TDL .F                     11040.0000:   TOTAL DEPTH LOGGER
BOTL.F                     11038.0000:   BOTTOM DEPTH LOGGED
TOPL.F                      7555.0000:   TOP DEPTH LOGGED
CS1 .IN                        9.6250:   CASING SIZE 1
BS1 .IN                        8.5000:   BIT SIZE 1
DDB1.F                     11050.0000:   DEPTH DRILLED BIT 1
BHF .                              99:   FLUID CODE
DPT .                   Miscellaneous:   DRILLING FLUID TYPE
MUDD.                         16.6000:   FLUID DENSITY
MUDV.                         50.0000:   FLUID VISCOSITY
DFPH.                         11.4000:   FLUID PH
FL  .                         10.0000:   FLUID LOSS
RM  .OHMM                      1.7000:   RM
RMT .DEGF                     75.0000:   RM TEMP
RMF .OHMM                      1.2000:   RMF
RMFT.DEGF                     75.0000:   RMF TEMP
FSC .                               M:   RMF CODE
RMC .OHMM                      2.2000:   RMC
RMCT.DEGF                     75.0000:   RMC TEMP
CMC .                               M:   RMC CODE
TMAX.DEGF                    228.0000:   MAX REC TEMP
TIMC.                          4.0000:   TIME SINCE CIRCLN
~PARAMETER INFORMATION (zones)
#MNEM.UNIT                       Value     Description
#=========                       =====     ===========
#ZONATION                          FDC:   ZONATION NAME
#ZONE                            RUN_2:   ZONE NAME
TOP .                       4512.0000:   TOP DEPTH
BOT .                       7583.5000:   BOTTOM DEPTH
RUN .                               2:   RUN NUMBER
LCCD.                             150:   LOGGING CONTRACTOR
SRVC.                   Dresser Atlas:   LOGGING CONT NAME
DICO.          QC Data Collectors Ltd:   DIG COMPANY NAME
LDAT.                      02/28/1983:   DATE LOGGED
ELD .F                        77.8000:   LOG DATUM ELEVATION
TDD .F                      4512.0000:   TOTAL DEPTH DRILLER
TDL .F                      4505.0000:   TOTAL DEPTH LOGGER
BOTL.F                      7583.0000:   BOTTOM DEPTH LOGGED
TOPL.F                      4512.0000:   TOP DEPTH LOGGED
CS1 .IN                       20.0000:   CASING SIZE 1
BS1 .IN                       17.5000:   BIT SIZE 1
DDB1.F                      4512.0000:   DEPTH DRILLED BIT 1
BHF .                              99:   FLUID CODE
DPT .                   Miscellaneous:   DRILLING FLUID TYPE
MUDD.                          9.4000:   FLUID DENSITY
MUDV.                         40.0000:   FLUID VISCOSITY
DFPH.                         12.0000:   FLUID PH
FL  .                         38.0000:   FLUID LOSS
RM  .OHMM                       .2900:   RM
RMT .DEGF                     65.0000:   RM TEMP
RMF .OHMM                       .2100:   RMF
RMFT.DEGF                     65.0000:   RMF TEMP
FSC .                               M:   RMF CODE
RMC .OHMM                       .3400:   RMC
RMCT.DEGF                     65.0000:   RMC TEMP
CMC .                               C:   RMC CODE
TMAX.DEGF                     90.0000:   MAX REC TEMP
TIMC.                          3.0000:   TIME SINCE CIRCLN
~PARAMETER INFORMATION (zones)
#MNEM.UNIT                       Value     Description
#=========                       =====     ===========
#ZONATION                          FDC:   ZONATION NAME
#ZONE                            RUN_1:   ZONE NAME
TOP .                       4297.0000:   TOP DEPTH
BOT .                       7582.5000:   BOTTOM DEPTH
RUN .                               1:   RUN NUMBER
LCCD.                              20:   LOGGING CONTRACTOR
SRVC.                          Baroil:   LOGGING CONT NAME
DICO.          QC Data Collectors Ltd:   DIG COMPANY NAME
LDAT.                      03/12/1983:   DATE LOGGED
ELD .F                        77.8000:   LOG DATUM ELEVATION
TDD .F                      7587.0000:   TOTAL DEPTH DRILLER
TDL .F                      7584.0000:   TOTAL DEPTH LOGGER
BOTL.F                      7582.0000:   BOTTOM DEPTH LOGGED
TOPL.F                      4300.0000:   TOP DEPTH LOGGED
CS1 .IN                       13.3750:   CASING SIZE 1
BS1 .IN                       12.2500:   BIT SIZE 1
DDB1.F                      7587.0000:   DEPTH DRILLED BIT 1
BHF .                              70:   FLUID CODE
DPT .                       Phosphate:   DRILLING FLUID TYPE
MUDD.                         13.5000:   FLUID DENSITY
MUDV.                         49.0000:   FLUID VISCOSITY
DFPH.                         11.4000:   FLUID PH
FL  .                         12.8000:   FLUID LOSS
RM  .OHMM                       .0680:   RM
RMT .DEGF                     65.0000:   RM TEMP
RMF .OHMM                       .0530:   RMF
RMFT.DEGF                     65.0000:   RMF TEMP
FSC .                               M:   RMF CODE
RMC .OHMM                       .1020:   RMC
RMCT.DEGF                     65.0000:   RMC TEMP
CMC .                               C:   RMC CODE
TMAX.DEGF                    161.0000:   MAX REC TEMP
TIMC.                         10.0000:   TIME SINCE CIRCLN
~Curve Information Block
#MNEM.UNIT                    API CODE    No Description
#=========                    ========    == ===========
DEPT.F                   00 001 00 00:     1  DEPTH
NPHI.%                               :     2  Neutron Porosity
CILD.MMHO                            :     3  Deep Induction Conductivity
DT.US/F                              :     4  Sonic Transit Time
GR1.GAPI                              :     5  Gamma Ray
ILD.OHMM                             :     6  Deep Induction Resistivity
ILM.OHMM                             :     7  Medium Induction Resistivity
LN.OHMM                              :     8  Medium Resistivity
RFOC.OHMM                            :     9  Medium Resistivity
SN.OHMM                              :    10  Short-Normal Resistivity
SP.MV                                :    11  Spontaneous Potential
CALI.IN                              :    12  Caliper
DRHO.G/C3                            :    13  Bulk Density Correction
GR2.GAPI                              :    14  Gamma Ray
RHOB.G/C3                            :    15  Bulk Density
~ASCII
# ...
 1527.0000  -999.2500   668.2852   139.7566    38.7008     1.5097     1.4055  -999.2500     1.2773  -999.2500   -85.4672  -999.2500  -999.2500  -999.2500  -999.2500
 1527.5000  -999.2500   628.6406   136.1895    37.6483     1.5599     1.4940  -999.2500     1.3030  -999.2500   -86.1582  -999.2500  -999.2500  -999.2500  -999.2500
 1528.0000  -999.2500   589.5967   134.9041    36.8152     1.6115     1.5664  -999.2500     1.3230  -999.2500   -86.9360  -999.2500  -999.2500  -999.2500  -999.2500
 1528.5000  -999.2500   569.0508   134.0181    34.9778     1.6507     1.5996  -999.2500     1.3433  -999.2500   -87.4629  -999.2500  -999.2500  -999.2500  -999.2500
 1529.0000  -999.2500   565.1133   133.3962    34.1490     1.6910     1.5577  -999.2500     1.3563  -999.2500   -87.3057  -999.2500  -999.2500  -999.2500  -999.2500
 1529.5000  -999.2500   580.5801   133.1211    35.0983     1.7035     1.4990  -999.2500     1.3419  -999.2500   -87.2279  -999.2500  -999.2500  -999.2500  -999.2500
 1530.0000  -999.2500   594.9893   132.9075    35.9504     1.6166     1.4446  -999.2500     1.3356  -999.2500   -87.4819  -999.2500  -999.2500  -999.2500  -999.2500
 1530.5000  -999.2500   604.8789   134.8574    36.2495     1.6047     1.3993  -999.2500     1.3293  -999.2500   -88.0441  -999.2500  -999.2500  -999.2500  -999.2500
 1531.0000  -999.2500   610.3867   139.6973    36.2732     1.5998     1.3906  -999.2500     1.3210  -999.2500   -88.5210  -999.2500  -999.2500  -999.2500  -999.2500
 1531.5000  -999.2500   606.7441   143.1221    35.8040     1.6032     1.4182  -999.2500     1.3086  -999.2500   -88.7119  -999.2500  -999.2500  -999.2500  -999.2500
 1532.0000  -999.2500   616.5078   146.2334    34.5514     1.6009     1.4481  -999.2500     1.2963  -999.2500   -89.1036  -999.2500  -999.2500  -999.2500  -999.2500
 1532.5000  -999.2500   625.4160   148.8789    33.3839     1.5868     1.4828  -999.2500     1.2834  -999.2500   -89.5802  -999.2500  -999.2500  -999.2500  -999.2500
 1533.0000  -999.2500   632.0996   150.2561    32.8903     1.5661     1.5186  -999.2500     1.2877  -999.2500   -90.2546  -999.2500  -999.2500  -999.2500  -999.2500
 1533.5000  -999.2500   638.6777   148.6646    34.4515     1.5414     1.5388  -999.2500     1.3194  -999.2500   -90.3282  -999.2500  -999.2500  -999.2500  -999.2500
 1534.0000  -999.2500   643.7520   143.9880    36.0130     1.5335     1.5370  -999.2500     1.3533  -999.2500   -89.7808  -999.2500  -999.2500  -999.2500  -999.2500
 1534.5000  -999.2500   633.9307   140.6077    37.2391     1.5479     1.5228  -999.2500     1.4009  -999.2500   -88.9333  -999.2500  -999.2500  -999.2500  -999.2500
 1535.0000  -999.2500   617.6934   138.4500    37.9354     1.5847     1.5088  -999.2500     1.4107  -999.2500   -88.6978  -999.2500  -999.2500  -999.2500  -999.2500
 1535.5000  -999.2500   601.7217   137.5205    37.3784     1.6214     1.5136  -999.2500     1.4114  -999.2500   -88.7280  -999.2500  -999.2500  -999.2500  -999.2500
 1536.0000  -999.2500   589.8477   138.6274    37.6113     1.6548     1.5197  -999.2500     1.4053  -999.2500   -89.1495  -999.2500  -999.2500  -999.2500  -999.2500
 1536.5000  -999.2500   586.1533   139.7573    38.5411     1.6627     1.5242  -999.2500     1.3971  -999.2500   -89.6154  -999.2500  -999.2500  -999.2500  -999.2500
 1537.0000  -999.2500   598.2080   140.8994    38.6865     1.5899     1.5314  -999.2500     1.3908  -999.2500   -89.9124  -999.2500  -999.2500  -999.2500  -999.2500
 1537.5000  -999.2500   632.0703   141.7554    37.7626     1.5285     1.5493  -999.2500     1.3872  -999.2500   -89.8788  -999.2500  -999.2500  -999.2500  -999.2500
 1538.0000  -999.2500   665.0410   141.9749    37.3227     1.4646     1.4966  -999.2500     1.3897  -999.2500   -89.7959  -999.2500  -999.2500  -999.2500  -999.2500
 1538.5000  -999.2500   692.9551   142.0881    38.5370     1.3954     1.4136  -999.2500     1.3776  -999.2500   -89.7527  -999.2500  -999.2500  -999.2500  -999.2500
 1539.0000  -999.2500   703.5967   144.7795    39.0036     1.3560     1.3363  -999.2500     1.3191  -999.2500   -89.7231  -999.2500  -999.2500  -999.2500  -999.2500
 1539.5000  -999.2500   710.3193   149.7146    38.5685     1.3395     1.2949  -999.2500     1.2686  -999.2500   -89.6892  -999.2500  -999.2500  -999.2500  -999.2500
 1540.0000  -999.2500   715.0361   154.5161    38.1267     1.3426     1.2674  -999.2500     1.2337  -999.2500   -89.6554  -999.2500  -999.2500  -999.2500  -999.2500
 1540.5000  -999.2500   721.5615   158.3567    37.1266     1.3343     1.2561  -999.2500     1.2283  -999.2500   -88.7683  -999.2500  -999.2500  -999.2500  -999.2500
 1541.0000  -999.2500   749.6602   160.3716    36.1458     1.3188     1.2556  -999.2500     1.2490  -999.2500   -89.1913  -999.2500  -999.2500  -999.2500  -999.2500
 1541.5000  -999.2500   778.7129   158.6338    36.8430     1.2980     1.2521  -999.2500     1.2535  -999.2500   -89.5867  -999.2500  -999.2500  -999.2500  -999.2500
 1542.0000  -999.2500   806.3477   154.8020    38.0450     1.2761     1.2488  -999.2500     1.2153  -999.2500   -89.2598  -999.2500  -999.2500  -999.2500  -999.2500
 1542.5000  -999.2500   808.9414   149.9697    38.8827     1.2602     1.2460  -999.2500     1.2072  -999.2500   -88.5790  -999.2500  -999.2500  -999.2500  -999.2500
 1543.0000  -999.2500   789.4043   149.8906    39.1481     1.2585     1.2438  -999.2500     1.2084  -999.2500   -88.4354  -999.2500  -999.2500  -999.2500  -999.2500
 1543.5000  -999.2500   769.8604   153.2014    39.1866     1.2591     1.2417  -999.2500     1.2079  -999.2500   -88.1957  -999.2500  -999.2500  -999.2500  -999.2500
 1544.0000  -999.2500   759.6533   156.5608    38.0756     1.2647     1.2457  -999.2500     1.2231  -999.2500   -87.5559  -999.2500  -999.2500  -999.2500  -999.2500
 1544.5000  -999.2500   759.7266   159.4822    36.0126     1.2703     1.2516  -999.2500     1.2469  -999.2500   -87.8693  -999.2500  -999.2500  -999.2500  -999.2500
 1545.0000  -999.2500   770.1387   159.9043    36.1671     1.2758     1.2575  -999.2500     1.2657  -999.2500   -88.0396  -999.2500  -999.2500  -999.2500  -999.2500
 1545.5000  -999.2500   792.5859   158.2295    35.8428     1.2812     1.2617  -999.2500     1.2738  -999.2500   -86.7292  -999.2500  -999.2500  -999.2500  -999.2500
 1546.0000  -999.2500   805.8584   155.0320    32.5496     1.2820     1.2657  -999.2500     1.2776  -999.2500   -85.2904  -999.2500  -999.2500  -999.2500  -999.2500
 1546.5000  -999.2500   800.0098   152.0405    28.6015     1.2735     1.2668  -999.2500     1.2833  -999.2500   -85.5374  -999.2500  -999.2500  -999.2500  -999.2500
 1547.0000  -999.2500   795.4395   150.0884    24.0818     1.2643     1.2575  -999.2500     1.2896  -999.2500   -86.1250  -999.2500  -999.2500  -999.2500  -999.2500
 1547.5000  -999.2500   802.4160   149.8032    21.5785     1.2468     1.2406  -999.2500     1.2706  -999.2500   -85.7385  -999.2500  -999.2500  -999.2500  -999.2500
 1548.0000  -999.2500   836.6064   150.1406    20.1862     1.2053     1.2123  -999.2500     1.2499  -999.2500   -85.3522  -999.2500  -999.2500  -999.2500  -999.2500
 1548.5000  -999.2500   872.8096   150.4666    19.0584     1.1611     1.1659  -999.2500     1.2266  -999.2500   -86.5609  -999.2500  -999.2500  -999.2500  -999.2500
 1549.0000  -999.2500   910.3857   150.7803    18.0522     1.1138     1.1380  -999.2500     1.2098  -999.2500   -86.5873  -999.2500  -999.2500  -999.2500  -999.2500
 1549.5000  -999.2500   948.9033   151.0942    17.1784     1.0612     1.1146  -999.2500     1.2054  -999.2500   -86.2600  -999.2500  -999.2500  -999.2500  -999.2500
 1550.0000  -999.2500   976.4082   151.3503    17.9732     1.0444     1.1017  -999.2500     1.2016  -999.2500   -85.9171  -999.2500  -999.2500  -999.2500  -999.2500
 1550.5000  -999.2500   983.3975   151.6050    18.4798     1.0451     1.1173  -999.2500     1.1981  -999.2500   -86.0336  -999.2500  -999.2500  -999.2500  -999.2500
 1551.0000  -999.2500   969.7139   151.8499    18.9592     1.0460     1.1492  -999.2500     1.1967  -999.2500   -86.2626  -999.2500  -999.2500  -999.2500  -999.2500
