~VERSION INFORMATION
VERS.                             2.0:   CWLS Log ASCII Standard-VERSION 2.0
WRAP.                              NO:   One line per depth step
~Well Information Block
STRT.F                       302.0000:   Top Depth
STOP.F                     11038.0000:   Bottom Depth
STEP.F                         .50000:   Depth Increment
NULL.                        -999.250:   Null Value
FLD .                         WILDCAT:   Field Name
WELL.       OCSG04565   001 ST00 BP00:   NAME
API .                    42706400940000:   WELL API
EDF .F                        76.8000:   ELEV DRILL FLOOR
COMP.                  TENNECO OIL CO:   OPERATOR
BN  .                             303:   BLOCK
CTRY.                             USA:   COUNTRY NAME
CNTY.                              GA:   COUNTY
CNTY.                        GLVSTN L:   COUNTY NAME
EKB .F                        79.0000:   ELEV KELLY BUSHING
TDD .F                      11050.000:   FINAL TD DRILLER
STAT.                           TEXAS:   STATE NAME
UWI .                    42706400940000:   WELL API
DICO.               IHS : Digitizing Company
~PARAMETER INFORMATION (zones)
#MNEM.UNIT                       Value     Description
#=========                       =====     ===========
#ZONATION                          CNL:   ZONATION NAME
#ZONE                            RUN_1:   ZONE NAME
TOP .                       4297.0000:   TOP DEPTH
BOT .                       7582.5000:   BOTTOM DEPTH
RUN .                               1:   RUN NUMBER
LCCD.                              20:   LOGGING CONTRACTOR
SRVC.                          Baroil:   LOGGING CONT NAME
DICO.          QC Data Collectors Ltd:   DIG COMPANY NAME
LDAT.                      03/12/1983:   DATE LOGGED
ELD .F                        77.8000:   LOG DATUM ELEVATION
TDD .F                      7587.0000:   TOTAL DEPTH DRILLER
TDL .F                      7584.0000:   TOTAL DEPTH LOGGER
BOTL.F                      7582.0000:   BOTTOM DEPTH LOGGED
TOPL.F                      4300.0000:   TOP DEPTH LOGGED
CS1 .IN                       13.3750:   CASING SIZE 1
BS1 .IN                       12.2500:   BIT SIZE 1
DDB1.F                      7587.0000:   DEPTH DRILLED BIT 1
BHF .                              70:   FLUID CODE
DPT .                       Phosphate:   DRILLING FLUID TYPE
MUDD.                         13.5000:   FLUID DENSITY
MUDV.                         49.0000:   FLUID VISCOSITY
DFPH.                         11.4000:   FLUID PH
FL  .                         12.8000:   FLUID LOSS
RM  .OHMM                       .0680:   RM
RMT .DEGF                     65.0000:   RM TEMP
RMF .OHMM                       .0530:   RMF
RMFT.DEGF                     65.0000:   RMF TEMP
FSC .                               M:   RMF CODE
RMC .OHMM                       .1020:   RMC
RMCT.DEGF                     65.0000:   RMC TEMP
CMC .                               C:   RMC CODE
TMAX.DEGF                    161.0000:   MAX REC TEMP
TIMC.                         10.0000:   TIME SINCE CIRCLN
~PARAMETER INFORMATION (zones)
#MNEM.UNIT                       Value     Description
#=========                       =====     ===========
#ZONATION                          DIL:   ZONATION NAME
#ZONE                            RUN_1:   ZONE NAME
TOP .                        302.0000:   TOP DEPTH
BOT .                      11038.5000:   BOTTOM DEPTH
RUN .                               1:   RUN NUMBER
LCCD.                             150:   LOGGING CONTRACTOR
SRVC.                   Dresser Atlas:   LOGGING CONT NAME
DICO.          QC Data Collectors Ltd:   DIG COMPANY NAME
LDAT.                      02/22/1983:   DATE LOGGED
ELD .F                        77.8000:   LOG DATUM ELEVATION
TDD .F                       841.0000:   TOTAL DEPTH DRILLER
TDL .F                       832.0000:   TOTAL DEPTH LOGGER
BOTL.F                     11038.0000:   BOTTOM DEPTH LOGGED
TOPL.F                       302.0000:   TOP DEPTH LOGGED
CS1 .IN                       30.6250:   CASING SIZE 1
BS1 .IN                       17.5000:   BIT SIZE 1
DDB1.F                       841.0000:   DEPTH DRILLED BIT 1
BHF .                              99:   FLUID CODE
DPT .                   Miscellaneous:   DRILLING FLUID TYPE
MUDD.                          8.7000:   FLUID DENSITY
MUDV.                         50.0000:   FLUID VISCOSITY
DFPH.                         12.0000:   FLUID PH
FL  .                         20.4000:   FLUID LOSS
RM  .OHMM                      1.1500:   RM
RMT .DEGF                     65.0000:   RM TEMP
RMF .OHMM                       .8000:   RMF
RMFT.DEGF                     65.0000:   RMF TEMP
FSC .                               M:   RMF CODE
RMC .OHMM                      1.4300:   RMC
RMCT.DEGF                     65.0000:   RMC TEMP
CMC .                               C:   RMC CODE
TMAX.DEGF                     85.0000:   MAX REC TEMP
TIMC.                          3.0000:   TIME SINCE CIRCLN
~PARAMETER INFORMATION (zones)
#MNEM.UNIT                       Value     Description
#=========                       =====     ===========
#ZONATION                          FDC:   ZONATION NAME
#ZONE                            RUN_4:   ZONE NAME
TOP .                      11038.0000:   TOP DEPTH
BOT .                      11040.0000:   BOTTOM DEPTH
RUN .                               4:   RUN NUMBER
LCCD.                             150:   LOGGING CONTRACTOR
SRVC.                   Dresser Atlas:   LOGGING CONT NAME
DICO.          QC Data Collectors Ltd:   DIG COMPANY NAME
LDAT.                      03/25/1983:   DATE LOGGED
ELD .F                        77.8000:   LOG DATUM ELEVATION
TDD .F                     11050.0000:   TOTAL DEPTH DRILLER
TDL .F                     11040.0000:   TOTAL DEPTH LOGGER
BOTL.F                     11038.0000:   BOTTOM DEPTH LOGGED
TOPL.F                      7555.0000:   TOP DEPTH LOGGED
CS1 .IN                        9.6250:   CASING SIZE 1
BS1 .IN                        8.5000:   BIT SIZE 1
DDB1.F                     11050.0000:   DEPTH DRILLED BIT 1
BHF .                              99:   FLUID CODE
DPT .                   Miscellaneous:   DRILLING FLUID TYPE
MUDD.                         16.6000:   FLUID DENSITY
MUDV.                         50.0000:   FLUID VISCOSITY
DFPH.                         11.4000:   FLUID PH
FL  .                         10.0000:   FLUID LOSS
RM  .OHMM                      1.7000:   RM
RMT .DEGF                     75.0000:   RM TEMP
RMF .OHMM                      1.2000:   RMF
RMFT.DEGF                     75.0000:   RMF TEMP
FSC .                               M:   RMF CODE
RMC .OHMM                      2.2000:   RMC
RMCT.DEGF                     75.0000:   RMC TEMP
CMC .                               M:   RMC CODE
TMAX.DEGF                    228.0000:   MAX REC TEMP
TIMC.                          4.0000:   TIME SINCE CIRCLN
~PARAMETER INFORMATION (zones)
#MNEM.UNIT                       Value     Description
#=========                       =====     ===========
#ZONATION                          FDC:   ZONATION NAME
#ZONE                            RUN_2:   ZONE NAME
TOP .                       4512.0000:   TOP DEPTH
BOT .                       7583.5000:   BOTTOM DEPTH
RUN .                               2:   RUN NUMBER
LCCD.                             150:   LOGGING CONTRACTOR
SRVC.                   Dresser Atlas:   LOGGING CONT NAME
DICO.          QC Data Collectors Ltd:   DIG COMPANY NAME
LDAT.                      02/28/1983:   DATE LOGGED
ELD .F                        77.8000:   LOG DATUM ELEVATION
TDD .F                      4512.0000:   TOTAL DEPTH DRILLER
TDL .F                      4505.0000:   TOTAL DEPTH LOGGER
BOTL.F                      7583.0000:   BOTTOM DEPTH LOGGED
TOPL.F                      4512.0000:   TOP DEPTH LOGGED
CS1 .IN                       20.0000:   CASING SIZE 1
BS1 .IN                       17.5000:   BIT SIZE 1
DDB1.F                      4512.0000:   DEPTH DRILLED BIT 1
BHF .                              99:   FLUID CODE
DPT .                   Miscellaneous:   DRILLING FLUID TYPE
MUDD.                          9.4000:   FLUID DENSITY
MUDV.                         40.0000:   FLUID VISCOSITY
DFPH.                         12.0000:   FLUID PH
FL  .                         38.0000:   FLUID LOSS
RM  .OHMM                       .2900:   RM
RMT .DEGF                     65.0000:   RM TEMP
RMF .OHMM                       .2100:   RMF
RMFT.DEGF                     65.0000:   RMF TEMP
FSC .                               M:   RMF CODE
RMC .OHMM                       .3400:   RMC
RMCT.DEGF                     65.0000:   RMC TEMP
CMC .                               C:   RMC CODE
TMAX.DEGF                     90.0000:   MAX REC TEMP
TIMC.                          3.0000:   TIME SINCE CIRCLN
~PARAMETER INFORMATION (zones)
#MNEM.UNIT                       Value     Description
#=========                       =====     ===========
#ZONATION                          FDC:   ZONATION NAME
#ZONE                            RUN_1:   ZONE NAME
TOP .                       4297.0000:   TOP DEPTH
BOT .                       7582.5000:   BOTTOM DEPTH
RUN .                               1:   RUN NUMBER
LCCD.                              20:   LOGGING CONTRACTOR
SRVC.                          Baroil:   LOGGING CONT NAME
DICO.          QC Data Collectors Ltd:   DIG COMPANY NAME
LDAT.                      03/12/1983:   DATE LOGGED
ELD .F                        77.8000:   LOG DATUM ELEVATION
TDD .F                      7587.0000:   TOTAL DEPTH DRILLER
TDL .F                      7584.0000:   TOTAL DEPTH LOGGER
BOTL.F                      7582.0000:   BOTTOM DEPTH LOGGED
TOPL.F                      4300.0000:   TOP DEPTH LOGGED
CS1 .IN                       13.3750:   CASING SIZE 1
BS1 .IN                       12.2500:   BIT SIZE 1
DDB1.F                      7587.0000:   DEPTH DRILLED BIT 1
BHF .                              70:   FLUID CODE
DPT .                       Phosphate:   DRILLING FLUID TYPE
MUDD.                         13.5000:   FLUID DENSITY
MUDV.                         49.0000:   FLUID VISCOSITY
DFPH.                         11.4000:   FLUID PH
FL  .                         12.8000:   FLUID LOSS
RM  .OHMM                       .0680:   RM
RMT .DEGF                     65.0000:   RM TEMP
RMF .OHMM                       .0530:   RMF
RMFT.DEGF                     65.0000:   RMF TEMP
FSC .                               M:   RMF CODE
RMC .OHMM                       .1020:   RMC
RMCT.DEGF                     65.0000:   RMC TEMP
CMC .                               C:   RMC CODE
TMAX.DEGF                    161.0000:   MAX REC TEMP
TIMC.                         10.0000:   TIME SINCE CIRCLN
~Curve Information Block
#MNEM.UNIT                    API CODE    No Description
#=========                    ========    == ===========
DEPT.F                   00 001 00 00:     1  DEPTH
NPHI.%                               :     2  Neutron Porosity
CILD.MMHO                            :     3  Deep Induction Conductivity
DT.US/F                              :     4  Sonic Transit Time
GR1.GAPI                              :     5  Gamma Ray
ILD.OHMM                             :     6  Deep Induction Resistivity
ILM.OHMM                             :     7  Medium Induction Resistivity
LN.OHMM                              :     8  Medium Resistivity
RFOC.OHMM                            :     9  Medium Resistivity
SN.OHMM                              :    10  Short-Normal Resistivity
SP.MV                                :    11  Spontaneous Potential
CALI.IN                              :    12  Caliper
DRHO.G/C3                            :    13  Bulk Density Correction
GR2.GAPI                              :    14  Gamma Ray
RHOB.G/C3                            :    15  Bulk Density
~ASCII
# ...
 6941.5000    32.3466  1168.2852   107.7960    65.6160      .8568      .9768  -999.2500     1.2054  -999.2500   -54.9073    16.8404      .0282    72.1639     2.3566
 6942.0000    33.8841  1175.9551   107.3373    64.8840      .8551      .9739  -999.2500     1.2250  -999.2500   -55.0034    16.8443      .0227    76.2708     2.3582
 6942.5000    34.8619  1186.4785   107.0906    64.5492      .8494      .9709  -999.2500     1.1869  -999.2500   -54.9967    16.8481      .0071    79.5826     2.3521
 6943.0000    35.6403  1197.0039   107.4232    64.5396      .8436      .9549  -999.2500     1.1489  -999.2500   -54.9710    16.8521      .0025    79.5029     2.3462
 6943.5000    36.1738  1210.3867   107.8979    66.6040      .8380      .9385  -999.2500     1.1366  -999.2500   -55.5779    16.8510     -.0007    77.5117     2.3447
 6944.0000    36.9950  1234.9512   108.9044    68.2874      .8144      .9224  -999.2500     1.1307  -999.2500   -56.7474    16.8500      .0102    72.0393     2.3566
 6944.5000    37.7305  1261.0020   109.8314    69.6813      .7904      .9014  -999.2500     1.1375  -999.2500   -58.8157    16.8489      .0210    68.5205     2.3723
 6945.0000    36.8541  1309.8320   110.1553    68.3057      .7503      .8717  -999.2500     1.1424  -999.2500   -61.9394    16.8479      .0329    63.5067     2.3495
 6945.5000    35.8141  1358.6133   109.3384    63.1027      .7084      .8429  -999.2500     1.1411  -999.2500   -67.7406    16.8468      .0241    57.0374     2.3256
 6946.0000    34.8259  1425.0254   106.6257    58.0322      .6702      .8132  -999.2500     1.1346  -999.2500   -74.2628    16.8409      .0052    46.9895     2.2955
 6946.5000    35.0450  1498.6191   102.5927    53.9326      .6350      .7827  -999.2500     1.1231  -999.2500   -78.8625    16.8264     -.0099    43.9194     2.2629
 6947.0000    36.0854  1576.6699    98.4235    50.2890      .6021      .7533  -999.2500     1.1241  -999.2500   -82.7219    16.8119     -.0238    42.3494     2.2268
 6947.5000    37.5824  1662.6445    95.3103    46.2874      .5725      .7227  -999.2500     1.1278  -999.2500   -87.2334    16.7975     -.0344    40.6174     2.2125
 6948.0000    40.2917  1746.5391    95.0568    42.1682      .5443      .6930  -999.2500     1.1013  -999.2500   -89.8019    16.7829     -.0420    38.7733     2.2187
 6948.5000    41.5830  1831.0273    95.8766    42.3000      .5221      .6680  -999.2500     1.0411  -999.2500   -90.7213    16.7647     -.0479    44.0290     2.2206
 6949.0000    42.0322  1924.0332    97.6915    42.6469      .5050      .6533  -999.2500     1.0930  -999.2500   -89.6461    16.7462     -.0509    49.5912     2.2228
 6949.5000    42.6496  1987.2266   100.2039    42.9942      .5081      .6413  -999.2500     1.1264  -999.2500   -88.7034    16.7278     -.0531    53.0476     2.2234
 6950.0000    42.9658  1983.9590   103.7053    43.7717      .5284      .6585  -999.2500     1.0963  -999.2500   -88.1658    16.7093     -.0478    53.9535     2.2155
 6950.5000    42.3798  1885.0098   108.1614    43.4573      .5537      .6827  -999.2500     1.0214  -999.2500   -87.6276    16.6824     -.0398    54.5478     2.2066
 6951.0000    40.8761  1769.7168   111.7123    43.4056      .5808      .7180  -999.2500      .9850  -999.2500   -86.5800    16.6246     -.0319    57.0174     2.2029
 6951.5000    39.2832  1650.1641   113.4729    44.2376      .6137      .7728  -999.2500      .9665  -999.2500   -78.0975    16.5666     -.0210    61.1691     2.2172
 6952.0000    36.9246  1522.9844   113.3505    48.1068      .6533      .8318  -999.2500     1.0209  -999.2500   -70.3593    16.5134      .0103    66.8359     2.2618
 6952.5000    36.3360  1420.6680   112.0708    54.9329      .6663      .8842  -999.2500     1.0926  -999.2500   -63.9304    16.4644      .0333    68.5181     2.3374
 6953.0000    36.0090  1336.0801   110.7911    60.3566      .7340      .9295  -999.2500     1.1261  -999.2500   -59.7131    16.4154      .0433    66.6840     2.3630
 6953.5000    35.7422  1276.4023   110.4814    64.2845      .7978      .9771  -999.2500     1.1288  -999.2500   -57.2979    16.4048      .0523    64.0524     2.3708
 6954.0000    37.4835  1216.7754   110.2765    65.6257      .8309     1.0096  -999.2500     1.1285  -999.2500   -55.9579    16.4009      .0608    64.4934     2.3794
 6954.5000    39.0030  1197.5098   110.0713    66.4646      .8468     1.0313  -999.2500     1.1257  -999.2500   -54.9661    16.3970      .0692    68.0172     2.3914
 6955.0000    37.5659  1180.7227   110.4839    66.7588      .8529     1.0286  -999.2500     1.1308  -999.2500   -54.0393    16.3931      .0665    71.4661     2.4009
 6955.5000    36.6548  1176.6855   110.9896    66.3491      .8584     1.0021  -999.2500     1.1394  -999.2500   -53.6229    16.3893      .0443    73.6765     2.3511
 6956.0000    36.9998  1185.2031   111.4952    65.7158      .8621      .9817  -999.2500     1.1520  -999.2500   -53.5981    16.3855      .0224    74.3157     2.3164
 6956.5000    37.1405  1193.7090   112.1895    66.2976      .8631      .9655  -999.2500     1.1501  -999.2500   -53.5732    16.3817      .0066    72.8890     2.3057
 6957.0000    37.2765  1199.8945   112.9313    67.0209      .8565      .9623  -999.2500     1.1430  -999.2500   -53.6489    16.3780      .0067    70.5515     2.2960
 6957.5000    37.1317  1205.7129   113.1552    68.1182      .8499      .9591  -999.2500     1.1421  -999.2500   -53.7809    16.3742      .0175    68.2140     2.2893
 6958.0000    36.9802  1211.5254   112.5542    69.2607      .8381      .9569  -999.2500     1.1601  -999.2500   -53.9132    16.3704      .0283    67.1761     2.3186
 6958.5000    36.8170  1217.5059   111.9540    70.4033      .8263      .9609  -999.2500     1.1717  -999.2500   -54.1037    16.3680      .0407    68.7672     2.3497
 6959.0000    36.7485  1223.9512   111.4204    71.5459      .8163      .9650  -999.2500     1.1742  -999.2500   -54.4144    16.3683      .0513    70.6737     2.3721
 6959.5000    37.8297  1230.3945   110.9154    72.4513      .8082      .9691  -999.2500     1.1526  -999.2500   -54.7255    16.3685      .0559    72.3134     2.3802
 6960.0000    39.0944  1196.2227   110.6193    71.6060      .8236      .9969  -999.2500     1.1274  -999.2500   -55.3486    16.3688      .0549    73.4573     2.3875
 6960.5000    38.4935  1153.6328   111.1014    69.9460      .8407     1.0256  -999.2500     1.1008  -999.2500   -56.1479    16.3691      .0525    73.9625     2.3933
 6961.0000    36.2577  1105.6426   112.0894    68.4810      .8633     1.0621  -999.2500     1.0943  -999.2500   -57.6755    16.3693      .0498    72.4928     2.3991
 6961.5000    34.2737  1058.2969   112.2717    69.7327      .8880     1.1037  -999.2500     1.0967  -999.2500   -59.5831    16.3724      .0571    69.1335     2.4053
 6962.0000    32.9228  1019.0742   109.1801    72.5720      .9267     1.1532  -999.2500     1.1779  -999.2500   -61.6133    16.3768      .0660    63.6711     2.4069
 6962.5000    32.4648   979.8018   104.7588    69.8308      .9683     1.2062  -999.2500     1.3279  -999.2500   -63.4473    16.3812      .0379    60.6931     2.3798
 6963.0000    32.5695   950.3096    99.8132    63.6912     1.0209     1.2615  -999.2500     1.5222  -999.2500   -64.5702    16.3856     -.0043    63.2524     2.3550
 6963.5000    32.9595   934.3633    95.5996    59.3832     1.0730     1.2528  -999.2500     1.4280  -999.2500   -64.4917    16.3900     -.0302    68.8595     2.3298
 6964.0000    33.1978   928.5625    92.8870    59.9152     1.1150     1.2514  -999.2500     1.5145  -999.2500   -64.4347    16.3943     -.0324    77.0632     2.3294
 6964.5000    32.7729   935.4717    94.9468    62.6369     1.1122     1.2568  -999.2500     1.5608  -999.2500   -64.5846    16.3980     -.0271    75.9966     2.3212
 6965.0000    32.4399   956.5254    96.6357    65.1746     1.0538     1.2660  -999.2500     1.3343  -999.2500   -64.7346    16.3970     -.0218    72.4430     2.3132
 6965.5000    33.2338  1004.0684    96.7566    64.7749      .9581     1.2254  -999.2500     1.2609  -999.2500   -64.9846    16.3960     -.0157    69.5747     2.3277
