~VERSION INFORMATION
VERS.                             2.0:   CWLS Log ASCII Standard-VERSION 2.0
WRAP.                              NO:   One line per depth step
~Well Information Block
STRT.F                      3511.0000:   Top Depth
STOP.F                      7755.0000:   Bottom Depth
STEP.F                         .50000:   Depth Increment
NULL.                        -999.250:   Null Value
FLD .                      BA BLK 431:   Field Name
WELL.       OCSG09017   002 ST01 BP00:   NAME
API .                  42704402350100:   WELL API
EDF .F                        89.0000:   ELEV DRILL FLOOR
COMP.       SEAGULL ENERGY E AND P IN:   OPERATOR
BN  .                             481:   BLOCK
CTRY.                             USA:   COUNTRY NAME
CNTY.                        BRAZOS L:   COUNTY NAME
EKB .F                        90.0000:   ELEV KELLY BUSHING
TDD .F                          0.000:   FINAL TD DRILLER
STAT.                           TEXAS:   STATE NAME
UWI .                  42704402350100:   WELL API
DICO.               IHS : Digitizing Company
~PARAMETER INFORMATION (zones)
#MNEM.UNIT                       Value     Description
#=========                       =====     ===========
#ZONATION                          CNL:   ZONATION NAME
#ZONE                            RUN_0:   ZONE NAME
TOP .                       3511.0000:   TOP DEPTH
BOT .                       7755.5000:   BOTTOM DEPTH
RUN .                               0:   RUN NUMBER
LCCD.                             280:   LOGGING CONTRACTOR
SRVC.                     Halliburton:   LOGGING CONT NAME
DICO.          QC Data Collectors Ltd:   DIG COMPANY NAME
LDAT.                        --/--/--:   DATE LOGGED
BHF .                              99:   FLUID CODE
DPT .                   Miscellaneous:   DRILLING FLUID TYPE
~PARAMETER INFORMATION (zones)
#MNEM.UNIT                       Value     Description
#=========                       =====     ===========
#ZONATION                          DIL:   ZONATION NAME
#ZONE                            RUN_0:   ZONE NAME
TOP .                       3511.0000:   TOP DEPTH
BOT .                       7755.5000:   BOTTOM DEPTH
RUN .                               0:   RUN NUMBER
LCCD.                             280:   LOGGING CONTRACTOR
SRVC.                     Halliburton:   LOGGING CONT NAME
DICO.          QC Data Collectors Ltd:   DIG COMPANY NAME
LDAT.                        --/--/--:   DATE LOGGED
BHF .                              99:   FLUID CODE
DPT .                   Miscellaneous:   DRILLING FLUID TYPE
~PARAMETER INFORMATION (zones)
#MNEM.UNIT                       Value     Description
#=========                       =====     ===========
#ZONATION                          FDC:   ZONATION NAME
#ZONE                            RUN_0:   ZONE NAME
TOP .                       3511.0000:   TOP DEPTH
BOT .                       7755.5000:   BOTTOM DEPTH
RUN .                               0:   RUN NUMBER
LCCD.                             280:   LOGGING CONTRACTOR
SRVC.                     Halliburton:   LOGGING CONT NAME
DICO.          QC Data Collectors Ltd:   DIG COMPANY NAME
LDAT.                        --/--/--:   DATE LOGGED
BHF .                              99:   FLUID CODE
DPT .                   Miscellaneous:   DRILLING FLUID TYPE
~PARAMETER INFORMATION (zones)
#MNEM.UNIT                       Value     Description
#=========                       =====     ===========
#ZONATION                        SONIC:   ZONATION NAME
#ZONE                            RUN_0:   ZONE NAME
TOP .                       3511.0000:   TOP DEPTH
BOT .                       7731.5000:   BOTTOM DEPTH
RUN .                               0:   RUN NUMBER
LCCD.                             280:   LOGGING CONTRACTOR
SRVC.                     Halliburton:   LOGGING CONT NAME
DICO.          QC Data Collectors Ltd:   DIG COMPANY NAME
LDAT.                        --/--/--:   DATE LOGGED
BHF .                              99:   FLUID CODE
DPT .                   Miscellaneous:   DRILLING FLUID TYPE
~Curve Information Block
#MNEM.UNIT                    API CODE    No Description
#=========                    ========    == ===========
DEPT.F                   00 001 00 00:     1  DEPTH
NPHI.%                               :     2  Neutron Porosity
GR.GAPI                              :     3  Gamma Ray
GRD.OHMM                             :     4  Unrecognised
ILD.OHMM                             :     5  Deep Induction Resistivity
ILM.OHMM                             :     6  Medium Induction Resistivity
SP.MV                                :     7  Spontaneous Potential
DPHI.%                               :     8  Porosity
CALI.IN                              :     9  Caliper
DT.US/F                              :    10  Sonic Transit Time
GR.GAPI                              :    11  Gamma Ray
~ASCII
# ...
 5186.0000    43.9752    74.3267      .8591      .6461      .7072   -53.7302    24.6167    10.4185   106.8667    61.3352
 5186.5000    44.3032    75.2405      .8187      .6705      .7186   -53.5720    23.9048    10.4406   112.7765    60.7862
 5187.0000    44.8111    75.2253      .8073      .6958      .7370   -52.9112    22.4314    10.4401   115.1216    64.9988
 5187.5000    45.3406    76.3170      .8038      .7220      .7560   -51.1644    21.2252    10.4272   113.8660    66.8032
 5188.0000    45.6904    77.6561      .8230      .7464      .7755   -50.3047    21.0746    10.4444   111.6990    67.6138
 5188.5000    45.7936    78.4829      .8426      .7684      .7873   -49.9420    21.2325    10.4046   111.6299    71.6755
 5189.0000    45.8702    77.3005      .8431      .7911      .7975   -49.8003    21.4756    10.3565   111.9644    73.2217
 5189.5000    46.3013    75.9940      .8395      .8054      .8079   -49.7385    21.8391    10.3170   111.4948    73.5337
 5190.0000    46.7536    74.8008      .8359      .8147      .8143   -49.6859    22.2192    10.3706   111.0859    74.1305
 5190.5000    47.1871    74.2681      .8398      .8187      .8191   -49.6345    21.9677    10.5944   111.1283    72.5914
 5191.0000    46.9794    75.4977      .8448      .8202      .8239   -49.8712    21.6567    10.6826   111.7847    69.9452
 5191.5000    46.8358    76.6368      .8454      .8246      .8383   -50.1273    21.3100    10.4852   112.4138    68.3042
 5192.0000    46.6922    77.5864      .8479      .8557      .8544   -50.2891    20.8384    10.2979   110.4460    68.9070
 5192.5000    46.5059    78.1914      .8725      .8879      .8758   -50.4845    20.5503    10.0524   108.2126    73.3381
 5193.0000    46.2633    78.1775      .8979      .9181      .9134   -50.7465    20.4100    10.0049   107.3899    75.1622
 5193.5000    46.0231    76.4434      .9293      .9482      .9527   -51.3976    20.0118    10.0091   106.4628    75.3801
 5194.0000    45.8226    74.2968      .9619      .9792      .9858   -52.1395    19.4503    10.0277   103.5398    74.6171
 5194.5000    45.6220    71.9860      .9947     1.0062     1.0113   -52.7224    18.8072    10.0604   100.2952    70.6139
 5195.0000    45.3742    69.7611     1.0265     1.0314     1.0375   -53.3124    17.9281    10.1028    97.0879    67.8752
 5195.5000    44.9239    67.8281     1.0519     1.0476     1.0591   -53.8587    17.0682    10.1216    93.8805    66.3805
 5196.0000    44.4300    69.1829     1.0487     1.0460     1.0617   -53.1268    15.9076    10.1069    89.1252    65.0664
 5196.5000    43.8293    71.6082     1.0195     1.0392     1.0543   -52.3798    16.1404    10.1255    87.8005    63.1241
 5197.0000    43.2173    73.7262      .9760     1.0321     1.0381   -51.9874    17.2330    10.1630    95.9506    62.0339
 5197.5000    42.5854    74.4764      .9264     1.0315     1.0252   -51.8087    18.3264    10.1942   101.8976    63.3466
 5198.0000    42.0891    72.1058      .9146     1.0319     1.0184   -51.8318    19.2351    10.2059   106.6475    65.6831
 5198.5000    41.6036    69.4147      .9559     1.0319     1.0116   -51.9623    19.9766    10.2077   104.4166    67.5319
 5199.0000    41.0885    66.3875     1.0077     1.0313     1.0116   -52.0922    19.9470    10.1762    99.4236    69.1702
 5199.5000    40.5330    64.1235     1.0644     1.0257     1.0177   -52.5022    18.9135    10.1024    96.8235    69.8905
 5200.0000    40.2554    62.6973     1.1110     1.0021     1.0204   -52.9265    18.2452    10.0895    94.7096    71.2852
 5200.5000    40.6378    61.4103     1.0961      .9791     1.0129   -53.3541    18.0147    10.1078    94.1489    72.5660
 5201.0000    41.0989    60.0778     1.0417      .9446      .9926   -53.7657    18.3688    10.1286   101.3927    73.1241
 5201.5000    41.6332    58.7401      .9834      .9068      .9696   -54.5069    19.0383    10.1374   106.7657    73.5834
 5202.0000    42.1779    57.4218      .9266      .8705      .9369   -55.9241    19.7070    10.1471   113.1140    74.4596
 5202.5000    41.7020    56.1205      .8988      .8424      .9054   -57.4169    20.3449    10.2808   117.5491    72.3572
 5203.0000    40.6934    54.8636      .9132      .8170      .8822   -58.7540    20.3985    10.4682   108.9926    67.4082
 5203.5000    39.4456    53.6476     1.0060      .7996      .8684   -59.4307    19.9294    10.5548    98.5016    65.7214
 5204.0000    38.8239    52.6114     1.0101      .7895      .8687   -59.8159    19.5770    10.5284    94.7600    61.8947
 5204.5000    38.9461    52.6563      .9459      .7875      .8774   -60.0798    20.6261    10.4450    99.8621    57.9552
 5205.0000    39.0178    53.2888      .8867      .7930      .8891   -60.2089    21.3776    10.3905   103.1890    56.9788
 5205.5000    39.0560    54.4259      .8502      .8006      .9017   -60.2482    21.7169    10.3513   103.0189    56.2900
 5206.0000    38.7697    55.5618      .8240      .8092      .9162   -60.4561    21.4251    10.3415    95.1108    55.0176
 5206.5000    37.3011    56.7002      .8509      .8096      .9309   -60.7427    19.8494    10.3512    87.2028    53.8997
 5207.0000    34.9111    57.8412      .9420      .8051      .9243   -61.0859    17.1970    10.3705    79.2999    54.4165
 5207.5000    32.8186    58.9836     1.0778      .7958      .9104   -61.7681    14.5846    10.4023    71.4050    55.5575
 5208.0000    31.0781    60.2302     1.1942      .7795      .8888   -62.5588    12.1354    10.4541    79.1670    56.7427
 5208.5000    31.3324    61.3374     1.2628      .7603      .8625   -62.9150    12.4265    10.4900    96.8752    59.2094
 5209.0000    33.0186    62.1157     1.2152      .7415      .8369   -62.3771    16.0356    10.4913   100.4082    60.2287
 5209.5000    34.5927    61.9008     1.1112      .7169      .8015   -61.2712    19.4846    10.3948   101.1667    59.3486
 5210.0000    36.1492    61.3097     1.0161      .6923      .7661   -60.3047    21.1752    10.2462   100.6447    58.2779
 5210.5000    37.5443    60.8740      .9686      .6686      .7389   -59.3564    21.4651    10.1673   101.8936    57.2169
 5211.0000    38.8057    60.8437      .9458      .6492      .7254   -58.5566    21.5031    10.1353   103.0588    58.7618
 5211.5000    39.8551    61.8571      .9299      .6337      .7170   -58.0803    21.5676    10.1203   106.6967    61.3040
 5212.0000    40.8701    62.8419      .9076      .6146      .7058   -58.4765    21.6443    10.0901   112.0763    64.7803
 5212.5000    41.6620    63.7758      .8527      .5977      .6913   -59.3115    21.8385    10.0599   110.2494    66.6771
 5213.0000    41.9200    64.1757      .8216      .5861      .6681   -60.1464    22.1810    10.0383   107.1855    66.1671
 5213.5000    41.9554    62.9343      .8244      .5762      .6453   -61.1338    22.6721    10.0310   105.9075    64.6514
 5214.0000    42.1909    61.6122      .8192      .5611      .6371   -62.1393    23.2029    10.0146   110.9855    62.7143
 5214.5000    42.4859    60.2914      .8034      .5485      .6362   -63.0421    23.7312     9.9951   113.1246    61.0099
 5215.0000    42.8131    58.7752      .7884      .5419      .6369   -63.8822    24.2251     9.9562   114.0640    59.5671
 5215.5000    42.7458    56.5022      .7746      .5501      .6376   -64.2301    24.6299     9.9210   112.7367    60.7433
 5216.0000    42.5674    55.5604      .7651      .5610      .6367   -63.7129    25.1702     9.8906   113.4554    61.2376
 5216.5000    42.8034    59.8798      .7892      .5566      .6348   -63.0378    25.8685     9.8753   113.4515    60.9631
 5217.0000    43.4905    63.7719      .8055      .5367      .6301   -62.6412    25.0614     9.8641   111.0320    62.8418
 5217.5000    44.1776    67.2915      .8087      .5013      .6183   -62.9007    23.7318     9.8619   113.4302    65.4775
 5218.0000    44.7783    69.9331      .7832      .4683      .5823   -68.2334    23.2025     9.8890   114.3125    66.3622
 5218.5000    43.8417    70.7941      .7565      .4357      .5334   -73.8489    21.4124     9.8997   106.8933    64.1089
 5219.0000    43.0370    70.9713      .7539      .4038      .4882   -75.1906    21.3820     9.8943    98.1029    62.5269
