~VERSION INFORMATION
VERS.                             2.0:   CWLS Log ASCII Standard-VERSION 2.0
WRAP.                              NO:   One line per depth step
~Well Information Block
STRT.F                      3120.0000:   Top Depth
STOP.F                     12040.0000:   Bottom Depth
STEP.F                         .50000:   Depth Increment
NULL.                        -999.250:   Null Value
FLD .                      GA BLK 254:   Field Name
WELL.       OCSG01776   001 ST00 BP00:   NAME
API .                    42706300290000:   WELL API
R1  .                      SUN OIL CO:   COMMENT  1
EDF .F                        57.0000:   ELEV DRILL FLOOR
COMP.                      SUN OIL CO:   OPERATOR
BN  .                             254:   BLOCK
CTRY.                             USA:   COUNTRY NAME
CNTY.                              GA:   COUNTY
CNTY.                        GLVSTN L:   COUNTY NAME
EKB .F                        58.0000:   ELEV KELLY BUSHING
TDD .F                      12003.000:   FINAL TD DRILLER
STAT.                           TEXAS:   STATE NAME
UWI .                    42706300290000:   WELL API
DICO.               IHS : Digitizing Company
~PARAMETER INFORMATION (zones)
#MNEM.UNIT                       Value     Description
#=========                       =====     ===========
#ZONATION                           IE:   ZONATION NAME
#ZONE                            RUN_2:   ZONE NAME
TOP .                       7847.0000:   TOP DEPTH
BOT .                      10079.0000:   BOTTOM DEPTH
RUN .                               2:   RUN NUMBER
LCCD.                             440:   LOGGING CONTRACTOR
SRVC.                    Schlumberger:   LOGGING CONT NAME
DICO.          QC Data Collectors Ltd:   DIG COMPANY NAME
LDAT.                      11/28/1970:   DATE LOGGED
ELD .F                        58.0000:   LOG DATUM ELEVATION
TDD .F                     10076.0000:   TOTAL DEPTH DRILLER
TDL .F                     10080.0000:   TOTAL DEPTH LOGGER
BOTL.F                     10079.0000:   BOTTOM DEPTH LOGGED
TOPL.F                      7847.0000:   TOP DEPTH LOGGED
CS1 .IN                        9.6250:   CASING SIZE 1
BS1 .IN                        8.5000:   BIT SIZE 1
DDB1.F                     10076.0000:   DEPTH DRILLED BIT 1
BHF .                              99:   FLUID CODE
DPT .                   Miscellaneous:   DRILLING FLUID TYPE
MUDD.                         15.4000:   FLUID DENSITY
MUDV.                         48.0000:   FLUID VISCOSITY
DFPH.                         11.5000:   FLUID PH
FL  .                          3.2000:   FLUID LOSS
RM  .OHMM                       .8400:   RM
RMT .DEGF                     75.0000:   RM TEMP
RMF .OHMM                       .4600:   RMF
RMFT.DEGF                     75.0000:   RMF TEMP
FSC .                               M:   RMF CODE
RMC .OHMM                      1.3100:   RMC
RMCT.DEGF                     75.0000:   RMC TEMP
CMC .                               C:   RMC CODE
TMAX.DEGF                    202.0000:   MAX REC TEMP
TIMC.                          3.5000:   TIME SINCE CIRCLN
~PARAMETER INFORMATION (zones)
#MNEM.UNIT                       Value     Description
#=========                       =====     ===========
#ZONATION                           IE:   ZONATION NAME
#ZONE                            RUN_3:   ZONE NAME
TOP .                      10074.0000:   TOP DEPTH
BOT .                      12002.0000:   BOTTOM DEPTH
RUN .                               3:   RUN NUMBER
LCCD.                             440:   LOGGING CONTRACTOR
SRVC.                    Schlumberger:   LOGGING CONT NAME
DICO.          QC Data Collectors Ltd:   DIG COMPANY NAME
LDAT.                      12/17/1970:   DATE LOGGED
ELD .F                        58.0000:   LOG DATUM ELEVATION
TDD .F                     12000.0000:   TOTAL DEPTH DRILLER
TDL .F                     12003.0000:   TOTAL DEPTH LOGGER
BOTL.F                     12002.0000:   BOTTOM DEPTH LOGGED
TOPL.F                     10074.0000:   TOP DEPTH LOGGED
CS1 .IN                        7.6250:   CASING SIZE 1
BS1 .IN                        6.5000:   BIT SIZE 1
DDB1.F                     12000.0000:   DEPTH DRILLED BIT 1
BHF .                              99:   FLUID CODE
DPT .                   Miscellaneous:   DRILLING FLUID TYPE
MUDD.                         15.9000:   FLUID DENSITY
MUDV.                         48.0000:   FLUID VISCOSITY
DFPH.                         12.0000:   FLUID PH
FL  .                          3.0000:   FLUID LOSS
RM  .OHMM                      1.0500:   RM
RMT .DEGF                     70.0000:   RM TEMP
RMF .OHMM                       .5100:   RMF
RMFT.DEGF                     70.0000:   RMF TEMP
FSC .                               M:   RMF CODE
RMC .OHMM                      1.3000:   RMC
RMCT.DEGF                     70.0000:   RMC TEMP
CMC .                               C:   RMC CODE
TMAX.DEGF                    240.0000:   MAX REC TEMP
TIMC.                          5.0000:   TIME SINCE CIRCLN
~PARAMETER INFORMATION (zones)
#MNEM.UNIT                       Value     Description
#=========                       =====     ===========
#ZONATION                           IE:   ZONATION NAME
#ZONE                            RUN_1:   ZONE NAME
TOP .                       3120.0000:   TOP DEPTH
BOT .                      12002.5000:   BOTTOM DEPTH
RUN .                               1:   RUN NUMBER
LCCD.                             440:   LOGGING CONTRACTOR
SRVC.                    Schlumberger:   LOGGING CONT NAME
DICO.          QC Data Collectors Ltd:   DIG COMPANY NAME
LDAT.                      11/19/1970:   DATE LOGGED
ELD .F                        58.0000:   LOG DATUM ELEVATION
TDD .F                      7850.0000:   TOTAL DEPTH DRILLER
TDL .F                      7847.0000:   TOTAL DEPTH LOGGER
BOTL.F                      7847.0000:   BOTTOM DEPTH LOGGED
TOPL.F                      3120.0000:   TOP DEPTH LOGGED
CS1 .IN                       13.3750:   CASING SIZE 1
BS1 .IN                       12.2500:   BIT SIZE 1
DDB1.F                      7850.0000:   DEPTH DRILLED BIT 1
BHF .                              99:   FLUID CODE
DPT .                   Miscellaneous:   DRILLING FLUID TYPE
MUDD.                         12.5000:   FLUID DENSITY
MUDV.                         46.0000:   FLUID VISCOSITY
DFPH.                         10.5000:   FLUID PH
FL  .                          4.0000:   FLUID LOSS
RM  .OHMM                       .7900:   RM
RMT .DEGF                     80.0000:   RM TEMP
RMF .OHMM                       .5200:   RMF
RMFT.DEGF                     75.0000:   RMF TEMP
FSC .                               M:   RMF CODE
RMC .OHMM                      1.2300:   RMC
RMCT.DEGF                     75.0000:   RMC TEMP
CMC .                               M:   RMC CODE
TMAX.DEGF                    152.0000:   MAX REC TEMP
TIMC.                          4.0000:   TIME SINCE CIRCLN
~Curve Information Block
#MNEM.UNIT         API  CODE                       CURVE DESCRIPTION
#---------        ------------                    --------------------
 DEPT.F           00 001 00 00                    :1   DEPTH
 C1-3.IN          00 000 00 00                    :2
 C2-4.IN          00 000 00 00                    :3
 CALI.IN          00 000 00 00                    :4   Density Caliper
 CILD.MMHO        00 000 00 00                    :5   Deep Induction Conductivity
 CORR.G/CC        00 000 00 00                    :6   Density Correction
 DT  .US/FT       00 000 00 00                    :7   Delta-T Compressional
 GR  .API         00 000 00 00                    :8   Gamma Ray
 ILD .OHMM        00 000 00 00                    :9   Induction Deep Resistivity
 IND .OHMM        00 000 00 00                    :10
 RHOB.G/CC        00 000 00 00                    :11  Bulk Density
 SN16.OHMM        00 000 00 00                    :12  Short Normal 16 Inch
 SP  .MV          00 000 00 00                    :13  Spontaneous Potential
~A    DEPT        C1-3        C2-4        CALI        CILD        CORR          DT          GR         ILD         IND        RHOB        SN16          SP
# ...
   5466.0000     11.6400     11.4800   -999.2500   2001.9297   -999.2500   -999.2500   -999.2500      0.3207      0.3600   -999.2500      0.4080    -84.4000
   5466.5000     11.6000     11.4800   -999.2500   2024.8125   -999.2500   -999.2500   -999.2500      0.3153      0.3800   -999.2500      0.4640    -83.4000
   5467.0000     11.6000     11.5200   -999.2500   2008.6875   -999.2500   -999.2500   -999.2500      0.3232      0.3600   -999.2500      0.5320    -83.0000
   5467.5000     11.7200     11.6000   -999.2500   1997.8066   -999.2500   -999.2500   -999.2500      0.3312      0.3400   -999.2500      0.6039    -83.0000
   5468.0000     11.8000     11.6400   -999.2500   2026.9375   -999.2500   -999.2500   -999.2500      0.3392      0.3400   -999.2500      0.6588    -84.2000
   5468.5000     11.8800     11.6800   -999.2500   2077.0430   -999.2500   -999.2500   -999.2500      0.3472      0.3419   -999.2500      0.6000    -85.8000
   5469.0000     11.9200     11.6800   -999.2500   2153.1797   -999.2500   -999.2500   -999.2500      0.3552      0.3251   -999.2500      0.4920    -87.2000
   5469.5000     11.8800     11.6800   -999.2500   2219.8203   -999.2500   -999.2500   -999.2500      0.3633      0.3289   -999.2500      0.4120    -88.2000
   5470.0000     11.8000     11.6800   -999.2500   2276.2500   -999.2500   -999.2500   -999.2500      0.3713      0.3124   -999.2500      0.3686    -88.2000
   5470.5000     11.8000     11.7200   -999.2500   2327.8047   -999.2500   -999.2500   -999.2500      0.3793      0.3137   -999.2500      0.3529    -88.2000
   5471.0000     11.8000     11.7200   -999.2500   2482.7227   -999.2500   -999.2500   -999.2500      0.3871      0.3333   -999.2500      0.3529    -88.2000
   5471.5000     11.7600     11.7200   -999.2500   2571.0000   -999.2500   -999.2500   -999.2500      0.3923      0.3333   -999.2500      0.3686    -87.6000
   5472.0000     11.7600     11.6800   -999.2500   2635.9648   -999.2500   -999.2500   -999.2500      0.3974      0.3725   -999.2500      0.4040    -86.6000
   5472.5000     11.7200     11.6800   -999.2500   2699.2773   -999.2500   -999.2500   -999.2500      0.4025      0.3922   -999.2500      0.4640    -85.0000
   5473.0000     11.8800     11.7200   -999.2500   2723.1992   -999.2500   -999.2500   -999.2500      0.4076      0.4118   -999.2500      0.5560    -82.2000
   5473.5000     11.6400     11.8000   -999.2500   2747.1484   -999.2500   -999.2500   -999.2500      0.4127      0.4510   -999.2500      0.7059    -79.2157
   5474.0000     11.8400     12.0000   -999.2500   2769.4609   -999.2500   -999.2500   -999.2500      0.4179      0.4902   -999.2500      0.8040    -77.0588
   5474.5000     12.1600     12.0800   -999.2500   2786.3594   -999.2500   -999.2500   -999.2500      0.4049      0.4902   -999.2500      0.8120    -76.4706
   5475.0000     12.2400     11.9200   -999.2500   2661.8672   -999.2500   -999.2500   -999.2500      0.3901      0.4314   -999.2500      0.7490    -78.0392
   5475.5000     11.8400     11.6800   -999.2500   2611.2266   -999.2500   -999.2500   -999.2500      0.3752      0.4118   -999.2500      0.6863    -80.2000
   5476.0000     11.7200     11.4800   -999.2500   2565.2852   -999.2500   -999.2500   -999.2500      0.3603      0.3725   -999.2500      0.6235    -82.0000
   5476.5000     11.6000     11.4400   -999.2500   2531.3828   -999.2500   -999.2500   -999.2500      0.3454      0.3725   -999.2500      0.5640    -84.4000
   5477.0000     11.4800     11.3600   -999.2500   2495.7773   -999.2500   -999.2500   -999.2500      0.3306      0.3333   -999.2500      0.5360    -85.6000
   5477.5000     11.5200     11.3600   -999.2500   2430.6602   -999.2500   -999.2500   -999.2500      0.3272      0.3333   -999.2500      0.5120    -86.2000
   5478.0000     11.6000     11.2800   -999.2500   2421.8242   -999.2500   -999.2500   -999.2500      0.3261      0.3333   -999.2500      0.4960    -86.4000
   5478.5000     11.6000     11.2800   -999.2500   2460.9336   -999.2500   -999.2500   -999.2500      0.3251      0.3333   -999.2500      0.4920    -85.1822
   5479.0000     11.5600     11.2800   -999.2500   2499.9922   -999.2500   -999.2500   -999.2500      0.3240      0.3529   -999.2500      0.5000    -83.7690
   5479.5000     11.5600     11.3200   -999.2500   2558.3008   -999.2500   -999.2500   -999.2500      0.3285      0.3725   -999.2500      0.5000    -82.1716
   5480.0000     11.5200     11.3600   -999.2500   2702.0469   -999.2500   -999.2500   -999.2500      0.3465      0.4118   -999.2500      0.4880    -81.5717
   5480.5000     11.5200     11.4400   -999.2500   3036.5664   -999.2500   -999.2500   -999.2500      0.3645      0.4314   -999.2500      0.4800    -81.3725
   5481.0000     11.5200     11.5200   -999.2500   3096.7031   -999.2500   -999.2500   -999.2500      0.3825      0.4314   -999.2500      0.4720    -80.9804
   5481.5000     11.5600     11.5200   -999.2500   3119.4570   -999.2500   -999.2500   -999.2500      0.3848      0.4314   -999.2500      0.4760    -79.8000
   5482.0000     11.6400     11.5200   -999.2500   3145.3359   -999.2500   -999.2500   -999.2500      0.3708      0.4314   -999.2500      0.4840    -78.6000
   5482.5000     12.0400     11.5200   -999.2500   3173.4766   -999.2500   -999.2500   -999.2500      0.3568      0.4118   -999.2500      0.5240    -79.8000
   5483.0000     12.1600     11.4800   -999.2500   3201.6172   -999.2500   -999.2500   -999.2500      0.3429      0.4118   -999.2500      0.5640    -82.5490
   5483.5000     11.6000     11.4800   -999.2500   3231.0742   -999.2500   -999.2500   -999.2500      0.3294      0.3725   -999.2500      0.5480    -84.3137
   5484.0000     11.5200     11.4400   -999.2500   3260.9922   -999.2500   -999.2500   -999.2500      0.3166      0.3529   -999.2500      0.5200    -85.0980
   5484.5000     11.4800     11.3600   -999.2500   3289.3984   -999.2500   -999.2500   -999.2500      0.3039      0.3333   -999.2500      0.5000    -86.2745
   5485.0000     11.4800     11.3600   -999.2500   3304.6719   -999.2500   -999.2500   -999.2500      0.2911      0.2941   -999.2500      0.4760    -87.4510
   5485.5000     11.4800     11.3600   -999.2500   3319.9492   -999.2500   -999.2500   -999.2500      0.2784      0.2941   -999.2500      0.4480    -88.2353
   5486.0000     11.4800     11.3600   -999.2500   3335.1875   -999.2500   -999.2500   -999.2500      0.2657      0.2941   -999.2500      0.4280    -89.2157
   5486.5000     11.4800     11.3600   -999.2500   3342.9727   -999.2500   -999.2500   -999.2500      0.2680      0.2941   -999.2500      0.4080    -89.0196
   5487.0000     11.4800     11.3600   -999.2500   3350.7617   -999.2500   -999.2500   -999.2500      0.2723      0.3137   -999.2500      0.4040    -88.4314
   5487.5000     11.5200     11.3600   -999.2500   3357.4102   -999.2500   -999.2500   -999.2500      0.2765      0.3333   -999.2500      0.4080    -87.4510
   5488.0000     11.5200     11.4000   -999.2500   3346.3750   -999.2500   -999.2500   -999.2500      0.2807      0.3529   -999.2500      0.4200    -86.4706
   5488.5000     11.5600     11.4400   -999.2500   3329.0039   -999.2500   -999.2500   -999.2500      0.2850      0.3725   -999.2500      0.4364    -85.0980
   5489.0000     11.5600     11.4400   -999.2500   3290.2227   -999.2500   -999.2500   -999.2500      0.2918      0.3922   -999.2500      0.4889    -83.9216
   5489.5000     11.5600     11.3200   -999.2500   3251.4414   -999.2500   -999.2500   -999.2500      0.3038      0.4118   -999.2500      0.5684    -81.9608
   5490.0000     11.5600     11.2800   -999.2500   3187.0625   -999.2500     99.3000   -999.2500      0.3157      0.4314   -999.2500      0.6399    -81.1765
   5490.5000     11.6000     11.2800   -999.2500   3111.9414   -999.2500     99.3000   -999.2500      0.3277      0.4314   -999.2500      0.7200    -81.7414
   5491.0000     11.6000     11.3200   -999.2500   3013.4023   -999.2500     99.3000   -999.2500      0.3396      0.4118   -999.2500      0.7680    -82.6898
