~VERSION INFORMATION
VERS.                             2.0:   CWLS Log ASCII Standard-VERSION 2.0
WRAP.                              NO:   One line per depth step
~Well Information Block
STRT.F                      3120.0000:   Top Depth
STOP.F                     12040.0000:   Bottom Depth
STEP.F                         .50000:   Depth Increment
NULL.                        -999.250:   Null Value
FLD .                      GA BLK 254:   Field Name
WELL.       OCSG01776   001 ST00 BP00:   NAME
API .                    42706300290000:   WELL API
R1  .                      SUN OIL CO:   COMMENT  1
EDF .F                        57.0000:   ELEV DRILL FLOOR
COMP.                      SUN OIL CO:   OPERATOR
BN  .                             254:   BLOCK
CTRY.                             USA:   COUNTRY NAME
CNTY.                              GA:   COUNTY
CNTY.                        GLVSTN L:   COUNTY NAME
EKB .F                        58.0000:   ELEV KELLY BUSHING
TDD .F                      12003.000:   FINAL TD DRILLER
STAT.                           TEXAS:   STATE NAME
UWI .                    42706300290000:   WELL API
DICO.               IHS : Digitizing Company
~PARAMETER INFORMATION (zones)
#MNEM.UNIT                       Value     Description
#=========                       =====     ===========
#ZONATION                           IE:   ZONATION NAME
#ZONE                            RUN_2:   ZONE NAME
TOP .                       7847.0000:   TOP DEPTH
BOT .                      10079.0000:   BOTTOM DEPTH
RUN .                               2:   RUN NUMBER
LCCD.                             440:   LOGGING CONTRACTOR
SRVC.                    Schlumberger:   LOGGING CONT NAME
DICO.          QC Data Collectors Ltd:   DIG COMPANY NAME
LDAT.                      11/28/1970:   DATE LOGGED
ELD .F                        58.0000:   LOG DATUM ELEVATION
TDD .F                     10076.0000:   TOTAL DEPTH DRILLER
TDL .F                     10080.0000:   TOTAL DEPTH LOGGER
BOTL.F                     10079.0000:   BOTTOM DEPTH LOGGED
TOPL.F                      7847.0000:   TOP DEPTH LOGGED
CS1 .IN                        9.6250:   CASING SIZE 1
BS1 .IN                        8.5000:   BIT SIZE 1
DDB1.F                     10076.0000:   DEPTH DRILLED BIT 1
BHF .                              99:   FLUID CODE
DPT .                   Miscellaneous:   DRILLING FLUID TYPE
MUDD.                         15.4000:   FLUID DENSITY
MUDV.                         48.0000:   FLUID VISCOSITY
DFPH.                         11.5000:   FLUID PH
FL  .                          3.2000:   FLUID LOSS
RM  .OHMM                       .8400:   RM
RMT .DEGF                     75.0000:   RM TEMP
RMF .OHMM                       .4600:   RMF
RMFT.DEGF                     75.0000:   RMF TEMP
FSC .                               M:   RMF CODE
RMC .OHMM                      1.3100:   RMC
RMCT.DEGF                     75.0000:   RMC TEMP
CMC .                               C:   RMC CODE
TMAX.DEGF                    202.0000:   MAX REC TEMP
TIMC.                          3.5000:   TIME SINCE CIRCLN
~PARAMETER INFORMATION (zones)
#MNEM.UNIT                       Value     Description
#=========                       =====     ===========
#ZONATION                           IE:   ZONATION NAME
#ZONE                            RUN_3:   ZONE NAME
TOP .                      10074.0000:   TOP DEPTH
BOT .                      12002.0000:   BOTTOM DEPTH
RUN .                               3:   RUN NUMBER
LCCD.                             440:   LOGGING CONTRACTOR
SRVC.                    Schlumberger:   LOGGING CONT NAME
DICO.          QC Data Collectors Ltd:   DIG COMPANY NAME
LDAT.                      12/17/1970:   DATE LOGGED
ELD .F                        58.0000:   LOG DATUM ELEVATION
TDD .F                     12000.0000:   TOTAL DEPTH DRILLER
TDL .F                     12003.0000:   TOTAL DEPTH LOGGER
BOTL.F                     12002.0000:   BOTTOM DEPTH LOGGED
TOPL.F                     10074.0000:   TOP DEPTH LOGGED
CS1 .IN                        7.6250:   CASING SIZE 1
BS1 .IN                        6.5000:   BIT SIZE 1
DDB1.F                     12000.0000:   DEPTH DRILLED BIT 1
BHF .                              99:   FLUID CODE
DPT .                   Miscellaneous:   DRILLING FLUID TYPE
MUDD.                         15.9000:   FLUID DENSITY
MUDV.                         48.0000:   FLUID VISCOSITY
DFPH.                         12.0000:   FLUID PH
FL  .                          3.0000:   FLUID LOSS
RM  .OHMM                      1.0500:   RM
RMT .DEGF                     70.0000:   RM TEMP
RMF .OHMM                       .5100:   RMF
RMFT.DEGF                     70.0000:   RMF TEMP
FSC .                               M:   RMF CODE
RMC .OHMM                      1.3000:   RMC
RMCT.DEGF                     70.0000:   RMC TEMP
CMC .                               C:   RMC CODE
TMAX.DEGF                    240.0000:   MAX REC TEMP
TIMC.                          5.0000:   TIME SINCE CIRCLN
~PARAMETER INFORMATION (zones)
#MNEM.UNIT                       Value     Description
#=========                       =====     ===========
#ZONATION                           IE:   ZONATION NAME
#ZONE                            RUN_1:   ZONE NAME
TOP .                       3120.0000:   TOP DEPTH
BOT .                      12002.5000:   BOTTOM DEPTH
RUN .                               1:   RUN NUMBER
LCCD.                             440:   LOGGING CONTRACTOR
SRVC.                    Schlumberger:   LOGGING CONT NAME
DICO.          QC Data Collectors Ltd:   DIG COMPANY NAME
LDAT.                      11/19/1970:   DATE LOGGED
ELD .F                        58.0000:   LOG DATUM ELEVATION
TDD .F                      7850.0000:   TOTAL DEPTH DRILLER
TDL .F                      7847.0000:   TOTAL DEPTH LOGGER
BOTL.F                      7847.0000:   BOTTOM DEPTH LOGGED
TOPL.F                      3120.0000:   TOP DEPTH LOGGED
CS1 .IN                       13.3750:   CASING SIZE 1
BS1 .IN                       12.2500:   BIT SIZE 1
DDB1.F                      7850.0000:   DEPTH DRILLED BIT 1
BHF .                              99:   FLUID CODE
DPT .                   Miscellaneous:   DRILLING FLUID TYPE
MUDD.                         12.5000:   FLUID DENSITY
MUDV.                         46.0000:   FLUID VISCOSITY
DFPH.                         10.5000:   FLUID PH
FL  .                          4.0000:   FLUID LOSS
RM  .OHMM                       .7900:   RM
RMT .DEGF                     80.0000:   RM TEMP
RMF .OHMM                       .5200:   RMF
RMFT.DEGF                     75.0000:   RMF TEMP
FSC .                               M:   RMF CODE
RMC .OHMM                      1.2300:   RMC
RMCT.DEGF                     75.0000:   RMC TEMP
CMC .                               M:   RMC CODE
TMAX.DEGF                    152.0000:   MAX REC TEMP
TIMC.                          4.0000:   TIME SINCE CIRCLN
~Curve Information Block
#MNEM.UNIT         API  CODE                       CURVE DESCRIPTION
#---------        ------------                    --------------------
 DEPT.F           00 001 00 00                    :1   DEPTH
 C1-3.IN          00 000 00 00                    :2
 C2-4.IN          00 000 00 00                    :3
 CALI.IN          00 000 00 00                    :4   Density Caliper
 CILD.MMHO        00 000 00 00                    :5   Deep Induction Conductivity
 CORR.G/CC        00 000 00 00                    :6   Density Correction
 DT  .US/FT       00 000 00 00                    :7   Delta-T Compressional
 GR  .API         00 000 00 00                    :8   Gamma Ray
 ILD .OHMM        00 000 00 00                    :9   Induction Deep Resistivity
 IND .OHMM        00 000 00 00                    :10
 RHOB.G/CC        00 000 00 00                    :11  Bulk Density
 SN16.OHMM        00 000 00 00                    :12  Short Normal 16 Inch
 SP  .MV          00 000 00 00                    :13  Spontaneous Potential
~A    DEPT        C1-3        C2-4        CALI        CILD        CORR          DT          GR         ILD         IND        RHOB        SN16          SP
# ...
   8271.0000      8.8400      8.4400   -999.2500   1675.4863   -999.2500   -999.2500   -999.2500      0.7032      0.6400   -999.2500      0.6392    -32.7451
   8271.5000      8.8400      8.4000   -999.2500   1534.6348   -999.2500   -999.2500   -999.2500      0.7226      0.6800   -999.2500      0.6431    -32.7451
   8272.0000      8.8000      8.3200   -999.2500   1365.6523   -999.2500   -999.2500   -999.2500      0.7421      0.6800   -999.2500      0.6588    -32.9412
   8272.5000      8.8000      8.3200   -999.2500   1196.4648   -999.2500   -999.2500   -999.2500      0.7615      0.7400   -999.2500      0.7098    -33.3333
   8273.0000      8.8800      8.3600   -999.2500   1108.3047   -999.2500   -999.2500   -999.2500      0.7810      0.8000   -999.2500      0.7725    -34.1176
   8273.5000      8.9600      8.4800   -999.2500   1069.1172   -999.2500   -999.2500   -999.2500      0.8004      0.8800   -999.2500      0.8360    -35.0980
   8274.0000      9.0000      8.6800   -999.2500   1047.6367   -999.2500   -999.2500   -999.2500      0.8181      0.9200   -999.2500      0.8800    -36.0784
   8274.5000      9.0800      8.8800   -999.2500   1072.1992   -999.2500   -999.2500   -999.2500      0.8351      0.9200   -999.2500      0.8960    -36.4706
   8275.0000      9.1200      9.0000   -999.2500   1096.7617   -999.2500   -999.2500   -999.2500      0.8520      0.9200   -999.2500      0.8840    -36.6667
   8275.5000      9.1200      9.0000   -999.2500   1144.5879   -999.2500   -999.2500   -999.2500      0.8689      0.9000   -999.2500      0.8840    -36.8627
   8276.0000      9.1200      8.9600   -999.2500   1203.7012   -999.2500   -999.2500   -999.2500      0.8664      0.8800   -999.2500      0.8840    -37.6471
   8276.5000      9.0400      8.8400   -999.2500   1282.8926   -999.2500   -999.2500   -999.2500      0.8364      0.8200   -999.2500      0.8440    -37.8431
   8277.0000      8.9200      8.7600   -999.2500   1401.1191   -999.2500   -999.2500   -999.2500      0.8064      0.7600   -999.2500      0.7882    -37.2549
   8277.5000      8.8800      8.6400   -999.2500   1686.0859   -999.2500   -999.2500   -999.2500      0.7760      0.7000   -999.2500      0.7412    -36.4706
   8278.0000      8.8400      8.5200   -999.2500   1810.6328   -999.2500   -999.2500   -999.2500      0.7431      0.6600   -999.2500      0.6941    -35.4902
   8278.5000      8.8400      8.5200   -999.2500   1927.9414   -999.2500   -999.2500   -999.2500      0.7101      0.6200   -999.2500      0.6549    -34.9020
   8279.0000      8.8800      8.6000   -999.2500   1996.2500   -999.2500   -999.2500   -999.2500      0.6772      0.6000   -999.2500      0.6196    -34.1176
   8279.5000      8.9200      8.6800   -999.2500   2043.1953   -999.2500   -999.2500   -999.2500      0.6443      0.5800   -999.2500      0.6078    -33.9216
   8280.0000      8.9600      8.7600   -999.2500   2088.0898   -999.2500   -999.2500   -999.2500      0.6113      0.5600   -999.2500      0.6078    -33.3333
   8280.5000      8.9600      8.8000   -999.2500   2131.9648   -999.2500   -999.2500   -999.2500      0.5784      0.5600   -999.2500      0.6039    -32.9412
   8281.0000      9.0000      8.8000   -999.2500   2186.0352   -999.2500   -999.2500   -999.2500      0.5528      0.5400   -999.2500      0.5920    -32.9412
   8281.5000      9.0000      8.7200   -999.2500   2243.1094   -999.2500   -999.2500   -999.2500      0.5355      0.5400   -999.2500      0.5800    -32.9412
   8282.0000      8.9200      8.6400   -999.2500   2280.6680   -999.2500   -999.2500   -999.2500      0.5285      0.5200   -999.2500      0.5720    -32.5490
   8282.5000      8.8800      8.5600   -999.2500   2309.4336   -999.2500   -999.2500   -999.2500      0.5344      0.5200   -999.2500      0.5640    -32.7451
   8283.0000      8.8000      8.4800   -999.2500   2318.5547   -999.2500   -999.2500   -999.2500      0.5402      0.5600   -999.2500      0.5600    -32.7451
   8283.5000      8.7200      8.4400   -999.2500   2312.1094   -999.2500   -999.2500   -999.2500      0.5460      0.5200   -999.2500      0.5560    -32.7451
   8284.0000      8.6800      8.4400   -999.2500   2238.5234   -999.2500   -999.2500   -999.2500      0.5518      0.5200   -999.2500      0.5480    -32.7451
   8284.5000      8.6800      8.4400   -999.2500   2184.7109   -999.2500   -999.2500   -999.2500      0.5576      0.5200   -999.2500      0.5520    -32.5490
   8285.0000      8.6400      8.4400   -999.2500   2134.2070   -999.2500   -999.2500   -999.2500      0.5635      0.5400   -999.2500      0.5600    -32.7451
   8285.5000      8.6400      8.4400   -999.2500   2100.3203   -999.2500   -999.2500   -999.2500      0.5693      0.5600   -999.2500      0.5680    -32.7451
   8286.0000      8.6400      8.4400   -999.2500   2058.5313   -999.2500   -999.2500   -999.2500      0.5751      0.5600   -999.2500      0.5880    -33.1373
   8286.5000      8.6800      8.4400   -999.2500   2000.3438   -999.2500   -999.2500   -999.2500      0.5809      0.6000   -999.2500      0.6078    -33.1373
   8287.0000      8.7200      8.4800   -999.2500   1978.6465   -999.2500   -999.2500   -999.2500      0.5868      0.5800   -999.2500      0.6196    -33.3333
   8287.5000      8.7600      8.5200   -999.2500   1956.6836   -999.2500   -999.2500   -999.2500      0.5926      0.6000   -999.2500      0.6196    -33.1373
   8288.0000      8.8000      8.5600   -999.2500   1929.2676   -999.2500   -999.2500   -999.2500      0.5984      0.5800   -999.2500      0.6118    -32.7451
   8288.5000      8.8400      8.6000   -999.2500   1895.9902   -999.2500   -999.2500   -999.2500      0.6042      0.5800   -999.2500      0.6078    -32.5490
   8289.0000      8.8400      8.6400   -999.2500   1862.6621   -999.2500   -999.2500   -999.2500      0.6106      0.6000   -999.2500      0.6196    -32.5490
   8289.5000      8.8400      8.6400   -999.2500   1823.6777   -999.2500   -999.2500   -999.2500      0.6170      0.6000   -999.2500      0.6235    -32.3529
   8290.0000      8.8400      8.6400   -999.2500   1783.5723   -999.2500   -999.2500   -999.2500      0.6234      0.6000   -999.2500      0.6275    -32.5490
   8290.5000      8.8400      8.5600   -999.2500   1743.7734   -999.2500   -999.2500   -999.2500      0.6298      0.6400   -999.2500      0.6275    -32.3529
   8291.0000      8.8800      8.4400   -999.2500   1712.0762   -999.2500   -999.2500   -999.2500      0.6362      0.6200   -999.2500      0.6314    -32.1569
   8291.5000      8.9200      8.4800   -999.2500   1680.3789   -999.2500   -999.2500   -999.2500      0.6426      0.6600   -999.2500      0.6431    -32.1569
   8292.0000      8.9600      8.5200   -999.2500   1648.6816   -999.2500   -999.2500   -999.2500      0.6491      0.6600   -999.2500      0.6549    -31.9608
   8292.5000      9.0000      8.6000   -999.2500   1632.9102   -999.2500   -999.2500   -999.2500      0.6555      0.6800   -999.2500      0.6784    -32.1569
   8293.0000      9.0800      8.7600   -999.2500   1618.8965   -999.2500   -999.2500   -999.2500      0.6619      0.7000   -999.2500      0.6980    -32.7451
   8293.5000      9.0800      8.8800   -999.2500   1604.9082   -999.2500   -999.2500   -999.2500      0.6683      0.6800   -999.2500      0.7176    -33.5294
   8294.0000      9.0800      8.8800   -999.2500   1599.6504   -999.2500   -999.2500   -999.2500      0.6747      0.7000   -999.2500      0.7255    -33.7255
   8294.5000      9.0400      8.8800   -999.2500   1603.7363   -999.2500   -999.2500   -999.2500      0.6811      0.6800   -999.2500      0.7255    -33.7255
   8295.0000      8.9600      8.8800   -999.2500   1617.9023   -999.2500   -999.2500   -999.2500      0.6875      0.7000   -999.2500      0.7216    -33.9216
   8295.5000      8.9200      8.8800   -999.2500   1632.0449   -999.2500   -999.2500   -999.2500      0.6940      0.6800   -999.2500      0.7098    -33.9216
   8296.0000      8.8400      8.8800   -999.2500   1646.1855   -999.2500   -999.2500   -999.2500      0.7004      0.6800   -999.2500      0.7098    -33.7255
