~VERSION INFORMATION
VERS.                             2.0:   CWLS Log ASCII Standard-VERSION 2.0
WRAP.                              NO:   One line per depth step
~Well Information Block
STRT.F                      3511.0000:   Top Depth
STOP.F                      7755.0000:   Bottom Depth
STEP.F                         .50000:   Depth Increment
NULL.                        -999.250:   Null Value
FLD .                      BA BLK 431:   Field Name
WELL.       OCSG09017   002 ST01 BP00:   NAME
API .                  42704402350100:   WELL API
EDF .F                        89.0000:   ELEV DRILL FLOOR
COMP.       SEAGULL ENERGY E AND P IN:   OPERATOR
BN  .                             481:   BLOCK
CTRY.                             USA:   COUNTRY NAME
CNTY.                        BRAZOS L:   COUNTY NAME
EKB .F                        90.0000:   ELEV KELLY BUSHING
TDD .F                          0.000:   FINAL TD DRILLER
STAT.                           TEXAS:   STATE NAME
UWI .                  42704402350100:   WELL API
DICO.               IHS : Digitizing Company
~PARAMETER INFORMATION (zones)
#MNEM.UNIT                       Value     Description
#=========                       =====     ===========
#ZONATION                          CNL:   ZONATION NAME
#ZONE                            RUN_0:   ZONE NAME
TOP .                       3511.0000:   TOP DEPTH
BOT .                       7755.5000:   BOTTOM DEPTH
RUN .                               0:   RUN NUMBER
LCCD.                             280:   LOGGING CONTRACTOR
SRVC.                     Halliburton:   LOGGING CONT NAME
DICO.          QC Data Collectors Ltd:   DIG COMPANY NAME
LDAT.                        --/--/--:   DATE LOGGED
BHF .                              99:   FLUID CODE
DPT .                   Miscellaneous:   DRILLING FLUID TYPE
~PARAMETER INFORMATION (zones)
#MNEM.UNIT                       Value     Description
#=========                       =====     ===========
#ZONATION                          DIL:   ZONATION NAME
#ZONE                            RUN_0:   ZONE NAME
TOP .                       3511.0000:   TOP DEPTH
BOT .                       7755.5000:   BOTTOM DEPTH
RUN .                               0:   RUN NUMBER
LCCD.                             280:   LOGGING CONTRACTOR
SRVC.                     Halliburton:   LOGGING CONT NAME
DICO.          QC Data Collectors Ltd:   DIG COMPANY NAME
LDAT.                        --/--/--:   DATE LOGGED
BHF .                              99:   FLUID CODE
DPT .                   Miscellaneous:   DRILLING FLUID TYPE
~PARAMETER INFORMATION (zones)
#MNEM.UNIT                       Value     Description
#=========                       =====     ===========
#ZONATION                          FDC:   ZONATION NAME
#ZONE                            RUN_0:   ZONE NAME
TOP .                       3511.0000:   TOP DEPTH
BOT .                       7755.5000:   BOTTOM DEPTH
RUN .                               0:   RUN NUMBER
LCCD.                             280:   LOGGING CONTRACTOR
SRVC.                     Halliburton:   LOGGING CONT NAME
DICO.          QC Data Collectors Ltd:   DIG COMPANY NAME
LDAT.                        --/--/--:   DATE LOGGED
BHF .                              99:   FLUID CODE
DPT .                   Miscellaneous:   DRILLING FLUID TYPE
~PARAMETER INFORMATION (zones)
#MNEM.UNIT                       Value     Description
#=========                       =====     ===========
#ZONATION                        SONIC:   ZONATION NAME
#ZONE                            RUN_0:   ZONE NAME
TOP .                       3511.0000:   TOP DEPTH
BOT .                       7731.5000:   BOTTOM DEPTH
RUN .                               0:   RUN NUMBER
LCCD.                             280:   LOGGING CONTRACTOR
SRVC.                     Halliburton:   LOGGING CONT NAME
DICO.          QC Data Collectors Ltd:   DIG COMPANY NAME
LDAT.                        --/--/--:   DATE LOGGED
BHF .                              99:   FLUID CODE
DPT .                   Miscellaneous:   DRILLING FLUID TYPE
~Curve Information Block
#MNEM.UNIT                    API CODE    No Description
#=========                    ========    == ===========
DEPT.F                   00 001 00 00:     1  DEPTH
NPHI.%                               :     2  Neutron Porosity
GR.GAPI                              :     3  Gamma Ray
GRD.OHMM                             :     4  Unrecognised
ILD.OHMM                             :     5  Deep Induction Resistivity
ILM.OHMM                             :     6  Medium Induction Resistivity
SP.MV                                :     7  Spontaneous Potential
DPHI.%                               :     8  Porosity
CALI.IN                              :     9  Caliper
DT.US/F                              :    10  Sonic Transit Time
GR.GAPI                              :    11  Gamma Ray
~ASCII
# ...
 4348.5000    43.3420    63.6906      .5764      .2597      .3389   -81.9304    32.7171    10.0606   112.7861    56.1611
 4349.0000    42.9580    61.2375      .5561      .2707      .3382   -80.8275    33.1221    10.2137   113.7379    58.9284
 4349.5000    42.8568    58.5630      .4919      .3150      .3461   -78.4056    33.6836    10.4429   114.1744    58.4352
 4350.0000    43.3674    56.5258      .5002      .3619      .3729   -73.2076    33.9390    10.5524   112.5106    56.7219
 4350.5000    44.6015    61.7922      .5690      .4101      .4170   -67.8300    32.4559    10.6338   109.7988    58.5481
 4351.0000    46.3519    67.5618      .6359      .4560      .4636   -63.1163    30.8966    10.8967   109.5928    60.2718
 4351.5000    48.1262    69.9746      .6906      .5084      .5107   -60.1501    29.7928    11.3616   112.5187    65.3247
 4352.0000    50.8757    72.6125      .7148      .5685      .5723   -58.9692    28.0848    12.7060   121.3422    71.6017
 4352.5000    53.8105    74.6439      .7213      .6282      .6370   -58.4587    26.8955    13.8603   127.4661    75.3839
 4353.0000    56.6750    74.6881      .7620      .6778      .6820   -58.1653    28.2918    12.8676   124.3364    76.1237
 4353.5000    58.6588    70.3574      .7462      .7043      .7000   -58.4262    34.3182    12.6666   119.5636    72.3752
 4354.0000    60.7891    67.4550      .6736      .7093      .7003   -59.1443    44.7469    12.5406   117.5940    68.0997
 4354.5000    62.1481    65.5956      .6222      .7077      .6884   -60.6554    47.3341    10.6793   133.2500    64.5719
 4355.0000    62.6317    63.7284      .5996      .6743      .6732   -62.4458    47.0856    10.1496   138.4636    61.0441
 4355.5000    59.1352    62.8892      .6260      .6201      .6583   -66.8325    43.9253    10.1077   125.5575    58.2924
 4356.0000    56.2722    63.3322      .6734      .5494      .6402   -69.6399    39.9066    10.5578   119.8171    59.0485
 4356.5000    56.1923    62.6724      .7079      .4922      .6220   -72.0149    36.0015    11.0093   110.4429    59.1282
 4357.0000    58.3791    61.8957      .7222      .4592      .5967   -73.4680    33.3895    11.3259   107.2522    57.1008
 4357.5000    59.7186    62.2141      .6496      .4424      .5626   -69.3729    35.3605    10.5829   103.5730    54.7749
 4358.0000    60.3317    66.0878      .5452      .4163      .5228   -67.2753    36.8007    10.1797   103.5518    53.4893
 4358.5000    57.7940    67.9393      .5142      .3834      .4945   -68.2415    35.7729    10.0683   121.8837    54.0468
 4359.0000    53.7562    68.7454      .5311      .3581      .4796   -72.2440    34.8162    10.0351   145.8669    56.7867
 4359.5000    48.9462    63.0943      .6006      .3271      .4584   -75.2233    33.0458    10.0163   132.2148    59.6500
 4360.0000    47.4236    58.2062      .6565      .3110      .4086   -77.8236    32.6422    10.0076   115.2899    60.9574
 4360.5000    46.1113    53.2947      .6796      .2874      .3555   -79.3024    33.0250    10.0251   112.3727    60.8795
 4361.0000    44.6230    50.0056      .6196      .2701      .3335   -79.3429    33.5565    10.0737   113.9746    58.2716
 4361.5000    43.5113    49.0707      .5428      .2676      .3212   -78.3574    33.1645    10.1272   113.7981    53.7521
 4362.0000    42.8759    54.0056      .4539      .2777      .3322   -75.8170    32.8216    10.1854   110.9552    50.2476
 4362.5000    44.1267    60.7505      .4175      .2935      .3526   -69.5565    32.3041    10.3621   109.3425    49.5714
 4363.0000    45.6237    68.7557      .4804      .3087      .3779   -65.1425    30.7240    10.7406   113.2539    52.1296
 4363.5000    46.2761    73.3080      .5641      .3431      .4124   -63.4419    29.6969    10.8928   118.2417    58.2327
 4364.0000    46.6815    74.7428      .6356      .4061      .4500   -62.8389    28.3166    10.5553   120.0945    65.9270
 4364.5000    47.1319    74.5619      .7196      .4762      .4937   -62.8068    27.4958    10.2368   121.6182    69.5613
 4365.0000    47.6131    76.2260      .7301      .5242      .5514   -63.8013    27.0114    10.0974   130.1338    71.1733
 4365.5000    47.5507    75.8795      .7156      .5669      .6289   -66.1163    26.3281    10.0487   137.8423    70.6943
 4366.0000    44.7405    71.9772      .7765      .5837      .6650   -70.0044    25.6775    10.0341   126.3219    70.1317
 4366.5000    42.9982    67.6647      .8660      .5406      .6911   -72.7571    25.2483    10.0302   113.1398    69.8118
 4367.0000    42.2285    63.0240      .9224      .4959      .6492   -75.0266    25.7925    10.0510   105.6899    68.0660
 4367.5000    42.0222    59.4888      .8548      .4665      .5978   -76.3691    28.6115    10.0916   107.0637    64.8107
 4368.0000    42.8199    56.1176      .7274      .4489      .5570   -76.3645    31.3642    10.1448   111.4542    60.2419
 4368.5000    43.6967    54.6326      .6362      .4373      .5252   -74.6334    32.4184    10.1634   114.3104    56.3727
 4369.0000    44.5060    57.4849      .5919      .4249      .5107   -70.7856    32.8139    10.1849   116.8082    56.1650
 4369.5000    44.5156    64.0708      .5676      .4287      .4968   -67.9497    31.8861    10.2284   117.9617    57.9302
 4370.0000    43.3586    66.8717      .6132      .4651      .5389   -66.8143    29.6154    10.2505   120.7489    59.8408
 4370.5000    41.9511    67.7987      .6716      .4970      .5850   -66.2941    26.0411    10.2442   117.6737    61.0064
 4371.0000    40.0521    67.0247      .8110      .5312      .6389   -65.5454    22.4700    10.2302   102.0068    61.3968
 4371.5000    38.6814    66.1034     1.0037      .5646      .6915   -64.7374    19.2842    10.2444    85.2837    59.1464
 4372.0000    38.0026    65.1249     1.1610      .5976      .7294   -64.9060    17.0271    10.2618    90.5156    57.6979
 4372.5000    38.2370    66.3182     1.2667      .6175      .7534   -65.0665    16.8481    10.2836    93.5869    59.4553
 4373.0000    39.5102    69.5787     1.2133      .6276      .7602   -65.1940    19.2219    10.3001   110.2809    62.5523
 4373.5000    41.6970    72.7063     1.1026      .6295      .7505   -64.8071    22.0688    10.3296   113.3137    66.9757
 4374.0000    43.8094    74.6217      .9643      .6310      .7397   -64.1691    24.9733    10.5641   115.7252    70.2427
 4374.5000    45.1906    76.7351      .7781      .6230      .7278   -63.4595    25.9264    10.7391   117.1431    71.0370
 4375.0000    46.0289    79.3822      .7894      .6117      .7160   -62.8335    25.6295    10.8397   114.9846    72.7620
 4375.5000    46.4702    78.5437      .8259      .6006      .7164   -62.7287    24.7503    10.7430   112.1895    71.1927
 4376.0000    46.7275    76.3496      .8761      .5905      .7180   -62.7086    24.1453    10.5479   110.3738    68.0972
 4376.5000    47.5659    77.1517      .9017      .5823      .7205   -62.6926    23.9240    10.5010   110.3738    66.9160
 4377.0000    48.4419    75.5137      .8689      .5783      .7217   -62.8398    24.1197    10.7575   124.8248    65.1729
 4377.5000    48.0826    73.2637      .8356      .5815      .7198   -63.1021    24.4420    11.3663   130.0261    62.0850
 4378.0000    47.3613    72.3232      .8062      .5903      .7179   -63.5450    24.2028    11.9223   123.2428    60.1679
 4378.5000    46.5405    71.6719      .8186      .6019      .7166   -63.7667    25.5815    11.6051   110.3313    61.5775
 4379.0000    45.6797    70.6168      .8389      .6154      .7179   -63.1606    25.7050    11.1995   109.3545    62.7197
 4379.5000    46.3207    70.0266      .8350      .6222      .7189   -62.2101    25.1112    11.2058   114.2521    63.9346
 4380.0000    47.1447    70.9993      .8168      .6286      .7188   -61.4233    24.0717    12.0919   105.9568    66.1239
 4380.5000    47.9320    66.6776      .8039      .6381      .7231   -61.0893    22.8065    12.7318   101.8357    64.9314
 4381.0000    48.5700    62.5552      .8147      .6523      .7303   -61.1249    22.1783    11.3851   103.8491    62.5562
 4381.5000    49.1085    61.3202      .8448      .6692      .7412   -61.0993    23.4004    10.8224   111.7408    60.9545
