~VERSION INFORMATION
VERS.                             2.0:   CWLS Log ASCII Standard-VERSION 2.0
WRAP.                              NO:   One line per depth step
~Well Information Block
STRT.F                      3120.0000:   Top Depth
STOP.F                     12040.0000:   Bottom Depth
STEP.F                         .50000:   Depth Increment
NULL.                        -999.250:   Null Value
FLD .                      GA BLK 254:   Field Name
WELL.       OCSG01776   001 ST00 BP00:   NAME
API .                    42706300290000:   WELL API
R1  .                      SUN OIL CO:   COMMENT  1
EDF .F                        57.0000:   ELEV DRILL FLOOR
COMP.                      SUN OIL CO:   OPERATOR
BN  .                             254:   BLOCK
CTRY.                             USA:   COUNTRY NAME
CNTY.                              GA:   COUNTY
CNTY.                        GLVSTN L:   COUNTY NAME
EKB .F                        58.0000:   ELEV KELLY BUSHING
TDD .F                      12003.000:   FINAL TD DRILLER
STAT.                           TEXAS:   STATE NAME
UWI .                    42706300290000:   WELL API
DICO.               IHS : Digitizing Company
~PARAMETER INFORMATION (zones)
#MNEM.UNIT                       Value     Description
#=========                       =====     ===========
#ZONATION                           IE:   ZONATION NAME
#ZONE                            RUN_2:   ZONE NAME
TOP .                       7847.0000:   TOP DEPTH
BOT .                      10079.0000:   BOTTOM DEPTH
RUN .                               2:   RUN NUMBER
LCCD.                             440:   LOGGING CONTRACTOR
SRVC.                    Schlumberger:   LOGGING CONT NAME
DICO.          QC Data Collectors Ltd:   DIG COMPANY NAME
LDAT.                      11/28/1970:   DATE LOGGED
ELD .F                        58.0000:   LOG DATUM ELEVATION
TDD .F                     10076.0000:   TOTAL DEPTH DRILLER
TDL .F                     10080.0000:   TOTAL DEPTH LOGGER
BOTL.F                     10079.0000:   BOTTOM DEPTH LOGGED
TOPL.F                      7847.0000:   TOP DEPTH LOGGED
CS1 .IN                        9.6250:   CASING SIZE 1
BS1 .IN                        8.5000:   BIT SIZE 1
DDB1.F                     10076.0000:   DEPTH DRILLED BIT 1
BHF .                              99:   FLUID CODE
DPT .                   Miscellaneous:   DRILLING FLUID TYPE
MUDD.                         15.4000:   FLUID DENSITY
MUDV.                         48.0000:   FLUID VISCOSITY
DFPH.                         11.5000:   FLUID PH
FL  .                          3.2000:   FLUID LOSS
RM  .OHMM                       .8400:   RM
RMT .DEGF                     75.0000:   RM TEMP
RMF .OHMM                       .4600:   RMF
RMFT.DEGF                     75.0000:   RMF TEMP
FSC .                               M:   RMF CODE
RMC .OHMM                      1.3100:   RMC
RMCT.DEGF                     75.0000:   RMC TEMP
CMC .                               C:   RMC CODE
TMAX.DEGF                    202.0000:   MAX REC TEMP
TIMC.                          3.5000:   TIME SINCE CIRCLN
~PARAMETER INFORMATION (zones)
#MNEM.UNIT                       Value     Description
#=========                       =====     ===========
#ZONATION                           IE:   ZONATION NAME
#ZONE                            RUN_3:   ZONE NAME
TOP .                      10074.0000:   TOP DEPTH
BOT .                      12002.0000:   BOTTOM DEPTH
RUN .                               3:   RUN NUMBER
LCCD.                             440:   LOGGING CONTRACTOR
SRVC.                    Schlumberger:   LOGGING CONT NAME
DICO.          QC Data Collectors Ltd:   DIG COMPANY NAME
LDAT.                      12/17/1970:   DATE LOGGED
ELD .F                        58.0000:   LOG DATUM ELEVATION
TDD .F                     12000.0000:   TOTAL DEPTH DRILLER
TDL .F                     12003.0000:   TOTAL DEPTH LOGGER
BOTL.F                     12002.0000:   BOTTOM DEPTH LOGGED
TOPL.F                     10074.0000:   TOP DEPTH LOGGED
CS1 .IN                        7.6250:   CASING SIZE 1
BS1 .IN                        6.5000:   BIT SIZE 1
DDB1.F                     12000.0000:   DEPTH DRILLED BIT 1
BHF .                              99:   FLUID CODE
DPT .                   Miscellaneous:   DRILLING FLUID TYPE
MUDD.                         15.9000:   FLUID DENSITY
MUDV.                         48.0000:   FLUID VISCOSITY
DFPH.                         12.0000:   FLUID PH
FL  .                          3.0000:   FLUID LOSS
RM  .OHMM                      1.0500:   RM
RMT .DEGF                     70.0000:   RM TEMP
RMF .OHMM                       .5100:   RMF
RMFT.DEGF                     70.0000:   RMF TEMP
FSC .                               M:   RMF CODE
RMC .OHMM                      1.3000:   RMC
RMCT.DEGF                     70.0000:   RMC TEMP
CMC .                               C:   RMC CODE
TMAX.DEGF                    240.0000:   MAX REC TEMP
TIMC.                          5.0000:   TIME SINCE CIRCLN
~PARAMETER INFORMATION (zones)
#MNEM.UNIT                       Value     Description
#=========                       =====     ===========
#ZONATION                           IE:   ZONATION NAME
#ZONE                            RUN_1:   ZONE NAME
TOP .                       3120.0000:   TOP DEPTH
BOT .                      12002.5000:   BOTTOM DEPTH
RUN .                               1:   RUN NUMBER
LCCD.                             440:   LOGGING CONTRACTOR
SRVC.                    Schlumberger:   LOGGING CONT NAME
DICO.          QC Data Collectors Ltd:   DIG COMPANY NAME
LDAT.                      11/19/1970:   DATE LOGGED
ELD .F                        58.0000:   LOG DATUM ELEVATION
TDD .F                      7850.0000:   TOTAL DEPTH DRILLER
TDL .F                      7847.0000:   TOTAL DEPTH LOGGER
BOTL.F                      7847.0000:   BOTTOM DEPTH LOGGED
TOPL.F                      3120.0000:   TOP DEPTH LOGGED
CS1 .IN                       13.3750:   CASING SIZE 1
BS1 .IN                       12.2500:   BIT SIZE 1
DDB1.F                      7850.0000:   DEPTH DRILLED BIT 1
BHF .                              99:   FLUID CODE
DPT .                   Miscellaneous:   DRILLING FLUID TYPE
MUDD.                         12.5000:   FLUID DENSITY
MUDV.                         46.0000:   FLUID VISCOSITY
DFPH.                         10.5000:   FLUID PH
FL  .                          4.0000:   FLUID LOSS
RM  .OHMM                       .7900:   RM
RMT .DEGF                     80.0000:   RM TEMP
RMF .OHMM                       .5200:   RMF
RMFT.DEGF                     75.0000:   RMF TEMP
FSC .                               M:   RMF CODE
RMC .OHMM                      1.2300:   RMC
RMCT.DEGF                     75.0000:   RMC TEMP
CMC .                               M:   RMC CODE
TMAX.DEGF                    152.0000:   MAX REC TEMP
TIMC.                          4.0000:   TIME SINCE CIRCLN
~Curve Information Block
#MNEM.UNIT         API  CODE                       CURVE DESCRIPTION
#---------        ------------                    --------------------
 DEPT.F           00 001 00 00                    :1   DEPTH
 C1-3.IN          00 000 00 00                    :2
 C2-4.IN          00 000 00 00                    :3
 CALI.IN          00 000 00 00                    :4   Density Caliper
 CILD.MMHO        00 000 00 00                    :5   Deep Induction Conductivity
 CORR.G/CC        00 000 00 00                    :6   Density Correction
 DT  .US/FT       00 000 00 00                    :7   Delta-T Compressional
 GR  .API         00 000 00 00                    :8   Gamma Ray
 ILD .OHMM        00 000 00 00                    :9   Induction Deep Resistivity
 IND .OHMM        00 000 00 00                    :10
 RHOB.G/CC        00 000 00 00                    :11  Bulk Density
 SN16.OHMM        00 000 00 00                    :12  Short Normal 16 Inch
 SP  .MV          00 000 00 00                    :13  Spontaneous Potential
~A    DEPT        C1-3        C2-4        CALI        CILD        CORR          DT          GR         ILD         IND        RHOB        SN16          SP
# ...
  11535.0000      8.3600      9.2000     11.0196   1120.4844     -0.0120     95.9000     47.7647      0.8438      0.9600      2.4196      1.1480    -20.5882
  11535.5000      8.4800      9.4800     10.6600   1112.4336     -0.0150     94.8000     51.8000      0.8192      0.9800      2.4314      1.2039    -21.3725
  11536.0000      8.6000      9.8000     10.1600   1135.0078     -0.0100     87.4510     56.5490      0.7947      0.9600      2.4490      1.2706    -22.3529
  11536.5000      8.7200      9.9600      9.9400   1157.6348     -0.0040     87.8431     54.6000      0.7702      0.9600      2.4660      1.2824    -22.9412
  11537.0000      8.8400     10.0800     10.0600   1180.2090      0.0120     86.0784     51.5200      0.7456      0.9200      2.4890      1.1960    -22.7451
  11537.5000      8.9600     10.0400     10.2000   1202.7852      0.0190     89.0196     52.9200      0.7445      0.9000      2.4810      1.1440    -22.5490
  11538.0000      8.8000      9.6800      9.8400   1233.6660      0.0030     95.4000     58.4706      0.7566      0.8800      2.4500      1.1320    -21.7647
  11538.5000      8.4000      9.2400     10.0600   1281.2617      0.0080     99.1000     59.4314      0.7688      0.8371      2.4650      1.0720    -21.3725
  11539.0000      8.2400      9.2400     10.3400   1328.9609      0.0200    102.8656     56.9608      0.7809      0.8124      2.5020      1.0400    -20.5882
  11539.5000      8.3200      9.4800     10.2600   1364.9375      0.0290    101.5889     51.9400      0.7941      0.7667      2.5480      1.0560    -20.3922
  11540.0000      8.4000      9.4800      9.7200   1332.5273      0.0100    101.2974     52.6400      0.8126      0.7619      2.5460      1.0320    -20.3922
  11540.5000      8.2800      9.4000      9.4400   1258.2285      0.0040     94.6000     56.4118      0.8312      0.7800      2.5090      1.0160    -20.3922
  11541.0000      8.2800      9.4400      9.5000   1157.7363      0.0080     94.5000     59.9804      0.8497      0.8200      2.4780      1.0794    -20.3922
  11541.5000      8.4000      9.4800      9.8800   1108.5078      0.0180     96.0000     61.9020      0.8683      0.8800      2.4780      1.1264    -20.3922
  11542.0000      8.4400      9.3200     10.1800   1069.5762      0.0190     97.6000     63.7000      0.8869      0.9400      2.4800      1.1022    -20.3922
  11542.5000      8.2800      9.1200     10.3600   1044.2617      0.0130     99.0000     62.7255      0.9054      0.9800      2.4680      1.1412    -20.3922
  11543.0000      8.1600      9.0400     10.3800   1036.1465      0.0060     98.6000     60.2549      0.9240      1.0000      2.4550      1.2440    -20.3922
  11543.5000      8.3200      9.0800     10.3400   1050.7461      0.0000     93.4000     55.5800      0.9425      1.0000      2.4441      1.3280    -20.3922
  11544.0000      8.4400      9.4000     10.4600   1067.2832      0.0000     88.2353     53.7600      0.9448      1.0000      2.4510      1.3160    -20.5882
  11544.5000      8.5600      9.6400     10.5000   1083.8184      0.0020     81.8000     52.6400      0.9278      1.0000      2.4490      1.2920    -21.3725
  11545.0000      8.7200      9.6800     10.5000   1100.3301      0.0130     80.4000     55.7200      0.9108      0.9800      2.4620      1.2920    -21.9608
  11545.5000      8.8400      9.7200     10.3200   1141.2246      0.0190     82.6000     53.2000      0.8938      0.9600      2.4850      1.2520    -22.1569
  11546.0000      9.0000      9.7200     10.0600   1212.5684      0.0230     88.0392     53.0600      0.8715      0.9000      2.5010      1.2040    -21.7647
  11546.5000      9.1600      9.7200     10.0400   1292.0664      0.0400     94.4000     51.3800      0.8324      0.8200      2.5180      1.1490    -21.3725
  11547.0000      9.1600     10.0000      9.9800   1362.7480      0.0310     97.4000     51.1000      0.7933      0.7800      2.5170      1.0863    -20.7843
  11547.5000      9.0000      9.8800      9.9800   1393.1191      0.0150     99.4000     54.1800      0.7542      0.7800      2.4860      1.0392    -20.3922
  11548.0000      8.8400      9.7600     10.0400   1391.0801      0.0050     98.9000     56.2745      0.7215      0.8000      2.4550      1.0157    -20.0000
  11548.5000      8.8800      9.6800     10.2400   1358.7715      0.0030     99.7136     61.0785      0.7364      0.8200      2.4500      1.0112    -20.0000
  11549.0000      8.9200      9.6800     10.3000   1325.6484      0.0020    100.1408     61.3529      0.7512      0.8200      2.4550      1.0222    -19.8000
  11549.5000      8.9600      9.6800     10.4000   1292.5762      0.0070     98.5636     60.8039      0.7661      0.8400      2.4660      1.0371    -20.0000
  11550.0000      9.0400      9.7200     10.4200   1259.4512      0.0180     97.5909     61.3529      0.7809      0.8600      2.4770      1.0443    -20.1961
  11550.5000      9.1200      9.7200     10.4000   1231.7559      0.0240     94.3000     65.1000      0.7951      0.8800      2.4940      1.0600    -20.7865
  11551.0000      9.1200      9.8000     10.2200   1220.3652      0.0050     93.3000     63.5600      0.8006      0.8800      2.4830      1.0920    -20.9878
  11551.5000      9.1200      9.8400      9.9800   1208.9766      0.0050     93.8000     60.1176      0.8061      0.8800      2.4720      1.1000    -20.5960
  11552.0000      9.1200      9.9200      9.9200   1199.1543      0.0100     93.7000     59.7059      0.8117      0.9000      2.4690      1.0800    -20.5989
  11552.5000      9.1200      9.9600      9.9000   1207.1660      0.0090     95.5000     60.5294      0.8172      0.9000      2.4680      1.0560    -20.8000
  11553.0000      9.1600      9.9600      9.8000   1215.1934      0.0050     94.7000     61.7647      0.8227      0.9000      2.4630      1.0600    -21.2000
  11553.5000      9.1600     10.0400      9.1400   1223.2188     -0.0020     95.2000     63.1400      0.8282      0.9000      2.4580      1.0600    -20.8000
  11554.0000      9.2400     10.1200      8.4400   1231.2324     -0.0020     96.7000     60.8039      0.8236      0.8800      2.4550      1.0520    -20.4000
  11554.5000      9.2800     10.2800      8.9000   1244.6230      0.0060     97.6000     56.9608      0.8165      0.8600      2.4730      1.0440    -20.4000
  11555.0000      9.3200     10.2800      9.3600   1275.4023      0.0210     96.7000     53.9000      0.8093      0.8600      2.4950      1.0240    -20.4000
  11555.5000      9.4400     10.2800      9.7400   1306.1816      0.0390     96.0000     53.2000      0.8021      0.8400      2.5240      1.0080    -20.4000
  11556.0000      9.5200     10.4000     10.1200   1336.9609      0.0560     94.5000     54.1800      0.7949      0.8400      2.5500      1.0160    -20.4000
  11556.5000      9.6400     10.4800     10.4600   1360.3516      0.0390     95.2000     54.7400      0.7877      0.8400      2.5420      1.0120    -20.4000
  11557.0000      9.7600     10.4000     10.6800   1381.2461      0.0310     97.1000     56.6863      0.7805      0.8200      2.5300      0.9880    -20.0000
  11557.5000      9.8400     10.3200     10.6800   1402.1387      0.0180     97.0000     59.4314      0.7752      0.8000      2.5240      0.9680    -19.8039
  11558.0000      9.8000     10.4400     10.6400   1419.4023      0.0110     97.9000     53.9000      0.7755      0.7800      2.5120      0.9680    -19.8039
  11558.5000      9.8000     10.5200     10.6400   1424.1074      0.0099     97.6143     46.3922      0.7758      0.7800      2.4990      0.9680    -19.8039
  11559.0000      9.7600     10.5600     10.6400   1424.9570      0.0266     97.1381     36.9600      0.7762      0.7800      2.5260      0.9640    -19.8039
  11559.5000      9.7200     10.6000     10.6400   1420.4473      0.0293     98.2667     39.0600      0.7765      0.7800      2.5370      0.9480    -20.0000
  11560.0000      9.7200     10.6400     10.6400   1412.7383      0.0281     96.9905     41.1600      0.7769      0.7800      2.5280      0.9400    -20.2000
