~VERSION INFORMATION
VERS.                             2.0:   CWLS Log ASCII Standard-VERSION 2.0
WRAP.                              NO:   One line per depth step
~Well Information Block
STRT.F                      3120.0000:   Top Depth
STOP.F                     12040.0000:   Bottom Depth
STEP.F                         .50000:   Depth Increment
NULL.                        -999.250:   Null Value
FLD .                      GA BLK 254:   Field Name
WELL.       OCSG01776   001 ST00 BP00:   NAME
API .                    42706300290000:   WELL API
R1  .                      SUN OIL CO:   COMMENT  1
EDF .F                        57.0000:   ELEV DRILL FLOOR
COMP.                      SUN OIL CO:   OPERATOR
BN  .                             254:   BLOCK
CTRY.                             USA:   COUNTRY NAME
CNTY.                              GA:   COUNTY
CNTY.                        GLVSTN L:   COUNTY NAME
EKB .F                        58.0000:   ELEV KELLY BUSHING
TDD .F                      12003.000:   FINAL TD DRILLER
STAT.                           TEXAS:   STATE NAME
UWI .                    42706300290000:   WELL API
DICO.               IHS : Digitizing Company
~PARAMETER INFORMATION (zones)
#MNEM.UNIT                       Value     Description
#=========                       =====     ===========
#ZONATION                           IE:   ZONATION NAME
#ZONE                            RUN_2:   ZONE NAME
TOP .                       7847.0000:   TOP DEPTH
BOT .                      10079.0000:   BOTTOM DEPTH
RUN .                               2:   RUN NUMBER
LCCD.                             440:   LOGGING CONTRACTOR
SRVC.                    Schlumberger:   LOGGING CONT NAME
DICO.          QC Data Collectors Ltd:   DIG COMPANY NAME
LDAT.                      11/28/1970:   DATE LOGGED
ELD .F                        58.0000:   LOG DATUM ELEVATION
TDD .F                     10076.0000:   TOTAL DEPTH DRILLER
TDL .F                     10080.0000:   TOTAL DEPTH LOGGER
BOTL.F                     10079.0000:   BOTTOM DEPTH LOGGED
TOPL.F                      7847.0000:   TOP DEPTH LOGGED
CS1 .IN                        9.6250:   CASING SIZE 1
BS1 .IN                        8.5000:   BIT SIZE 1
DDB1.F                     10076.0000:   DEPTH DRILLED BIT 1
BHF .                              99:   FLUID CODE
DPT .                   Miscellaneous:   DRILLING FLUID TYPE
MUDD.                         15.4000:   FLUID DENSITY
MUDV.                         48.0000:   FLUID VISCOSITY
DFPH.                         11.5000:   FLUID PH
FL  .                          3.2000:   FLUID LOSS
RM  .OHMM                       .8400:   RM
RMT .DEGF                     75.0000:   RM TEMP
RMF .OHMM                       .4600:   RMF
RMFT.DEGF                     75.0000:   RMF TEMP
FSC .                               M:   RMF CODE
RMC .OHMM                      1.3100:   RMC
RMCT.DEGF                     75.0000:   RMC TEMP
CMC .                               C:   RMC CODE
TMAX.DEGF                    202.0000:   MAX REC TEMP
TIMC.                          3.5000:   TIME SINCE CIRCLN
~PARAMETER INFORMATION (zones)
#MNEM.UNIT                       Value     Description
#=========                       =====     ===========
#ZONATION                           IE:   ZONATION NAME
#ZONE                            RUN_3:   ZONE NAME
TOP .                      10074.0000:   TOP DEPTH
BOT .                      12002.0000:   BOTTOM DEPTH
RUN .                               3:   RUN NUMBER
LCCD.                             440:   LOGGING CONTRACTOR
SRVC.                    Schlumberger:   LOGGING CONT NAME
DICO.          QC Data Collectors Ltd:   DIG COMPANY NAME
LDAT.                      12/17/1970:   DATE LOGGED
ELD .F                        58.0000:   LOG DATUM ELEVATION
TDD .F                     12000.0000:   TOTAL DEPTH DRILLER
TDL .F                     12003.0000:   TOTAL DEPTH LOGGER
BOTL.F                     12002.0000:   BOTTOM DEPTH LOGGED
TOPL.F                     10074.0000:   TOP DEPTH LOGGED
CS1 .IN                        7.6250:   CASING SIZE 1
BS1 .IN                        6.5000:   BIT SIZE 1
DDB1.F                     12000.0000:   DEPTH DRILLED BIT 1
BHF .                              99:   FLUID CODE
DPT .                   Miscellaneous:   DRILLING FLUID TYPE
MUDD.                         15.9000:   FLUID DENSITY
MUDV.                         48.0000:   FLUID VISCOSITY
DFPH.                         12.0000:   FLUID PH
FL  .                          3.0000:   FLUID LOSS
RM  .OHMM                      1.0500:   RM
RMT .DEGF                     70.0000:   RM TEMP
RMF .OHMM                       .5100:   RMF
RMFT.DEGF                     70.0000:   RMF TEMP
FSC .                               M:   RMF CODE
RMC .OHMM                      1.3000:   RMC
RMCT.DEGF                     70.0000:   RMC TEMP
CMC .                               C:   RMC CODE
TMAX.DEGF                    240.0000:   MAX REC TEMP
TIMC.                          5.0000:   TIME SINCE CIRCLN
~PARAMETER INFORMATION (zones)
#MNEM.UNIT                       Value     Description
#=========                       =====     ===========
#ZONATION                           IE:   ZONATION NAME
#ZONE                            RUN_1:   ZONE NAME
TOP .                       3120.0000:   TOP DEPTH
BOT .                      12002.5000:   BOTTOM DEPTH
RUN .                               1:   RUN NUMBER
LCCD.                             440:   LOGGING CONTRACTOR
SRVC.                    Schlumberger:   LOGGING CONT NAME
DICO.          QC Data Collectors Ltd:   DIG COMPANY NAME
LDAT.                      11/19/1970:   DATE LOGGED
ELD .F                        58.0000:   LOG DATUM ELEVATION
TDD .F                      7850.0000:   TOTAL DEPTH DRILLER
TDL .F                      7847.0000:   TOTAL DEPTH LOGGER
BOTL.F                      7847.0000:   BOTTOM DEPTH LOGGED
TOPL.F                      3120.0000:   TOP DEPTH LOGGED
CS1 .IN                       13.3750:   CASING SIZE 1
BS1 .IN                       12.2500:   BIT SIZE 1
DDB1.F                      7850.0000:   DEPTH DRILLED BIT 1
BHF .                              99:   FLUID CODE
DPT .                   Miscellaneous:   DRILLING FLUID TYPE
MUDD.                         12.5000:   FLUID DENSITY
MUDV.                         46.0000:   FLUID VISCOSITY
DFPH.                         10.5000:   FLUID PH
FL  .                          4.0000:   FLUID LOSS
RM  .OHMM                       .7900:   RM
RMT .DEGF                     80.0000:   RM TEMP
RMF .OHMM                       .5200:   RMF
RMFT.DEGF                     75.0000:   RMF TEMP
FSC .                               M:   RMF CODE
RMC .OHMM                      1.2300:   RMC
RMCT.DEGF                     75.0000:   RMC TEMP
CMC .                               M:   RMC CODE
TMAX.DEGF                    152.0000:   MAX REC TEMP
TIMC.                          4.0000:   TIME SINCE CIRCLN
~Curve Information Block
#MNEM.UNIT         API  CODE                       CURVE DESCRIPTION
#---------        ------------                    --------------------
 DEPT.F           00 001 00 00                    :1   DEPTH
 C1-3.IN          00 000 00 00                    :2
 C2-4.IN          00 000 00 00                    :3
 CALI.IN          00 000 00 00                    :4   Density Caliper
 CILD.MMHO        00 000 00 00                    :5   Deep Induction Conductivity
 CORR.G/CC        00 000 00 00                    :6   Density Correction
 DT  .US/FT       00 000 00 00                    :7   Delta-T Compressional
 GR  .API         00 000 00 00                    :8   Gamma Ray
 ILD .OHMM        00 000 00 00                    :9   Induction Deep Resistivity
 IND .OHMM        00 000 00 00                    :10
 RHOB.G/CC        00 000 00 00                    :11  Bulk Density
 SN16.OHMM        00 000 00 00                    :12  Short Normal 16 Inch
 SP  .MV          00 000 00 00                    :13  Spontaneous Potential
~A    DEPT        C1-3        C2-4        CALI        CILD        CORR          DT          GR         ILD         IND        RHOB        SN16          SP
# ...
   7812.0000     12.6800     12.5200   -999.2500   1862.1523   -999.2500    122.0588   -999.2500      0.6140      0.6200   -999.2500      0.6840    -10.3922
   7812.5000     12.8400     12.5600   -999.2500   1860.3184   -999.2500    122.5490   -999.2500      0.6171      0.6200   -999.2500      0.6800     -9.8000
   7813.0000     12.9200     12.6400   -999.2500   1844.9531   -999.2500    122.6471   -999.2500      0.6202      0.6200   -999.2500      0.6760     -9.6000
   7813.5000     12.8800     12.6400   -999.2500   1829.6152   -999.2500    123.1373   -999.2500      0.6233      0.6200   -999.2500      0.6800     -9.4000
   7814.0000     12.8400     12.6400   -999.2500   1814.2754   -999.2500    122.5490   -999.2500      0.6263      0.6400   -999.2500      0.6880     -9.4000
   7814.5000     12.8000     12.6400   -999.2500   1798.9375   -999.2500    121.2778   -999.2500      0.6294      0.6400   -999.2500      0.6960     -9.4000
   7815.0000     12.6000     12.6400   -999.2500   1784.1836   -999.2500    120.5926   -999.2500      0.6324      0.6400   -999.2500      0.7040     -9.6000
   7815.5000     12.4800     12.6800   -999.2500   1770.0176   -999.2500    121.1918   -999.2500      0.6351      0.6400   -999.2500      0.7080    -10.0000
   7816.0000     12.4000     12.6800   -999.2500   1755.8770   -999.2500    120.4990   -999.2500      0.6378      0.6400   -999.2500      0.7040    -10.5882
   7816.5000     12.6000     12.6800   -999.2500   1741.7090   -999.2500    120.3000   -999.2500      0.6405      0.6400   -999.2500      0.7000    -10.5882
   7817.0000     12.8400     12.6400   -999.2500   1727.5430   -999.2500    119.9000   -999.2500      0.6432      0.6600   -999.2500      0.6960    -10.7843
   7817.5000     12.8400     12.5600   -999.2500   1713.6172   -999.2500    118.9000   -999.2500      0.6459      0.6600   -999.2500      0.7040    -10.9804
   7818.0000     12.8000     12.5200   -999.2500   1702.0625   -999.2500    121.2000   -999.2500      0.6486      0.6600   -999.2500      0.7120    -11.3725
   7818.5000     12.7200     12.4400   -999.2500   1690.5078   -999.2500    122.5914   -999.2500      0.6513      0.6627   -999.2500      0.7282    -11.5686
   7819.0000     12.6400     12.3200   -999.2500   1683.4297   -999.2500    122.6784   -999.2500      0.6540      0.6682   -999.2500      0.7365    -11.5686
   7819.5000     12.6400     12.2400   -999.2500   1680.3281   -999.2500    121.7769   -999.2500      0.6567      0.6727   -999.2500      0.7447    -11.5686
   7820.0000     12.6800     12.3600   -999.2500   1677.2266   -999.2500    120.7859   -999.2500      0.6594      0.6982   -999.2500      0.7411    -11.5686
   7820.5000     12.7200     12.5200   -999.2500   1674.1211   -999.2500    120.1966   -999.2500      0.6608      0.7000   -999.2500      0.7333    -11.3725
   7821.0000     12.7200     12.6000   -999.2500   1671.0195   -999.2500    120.3951   -999.2500      0.6604      0.7000   -999.2500      0.7255    -11.3725
   7821.5000     12.6000     12.7200   -999.2500   1667.8047   -999.2500    120.8940   -999.2500      0.6600      0.7000   -999.2500      0.7176    -10.9804
   7822.0000     12.5600     12.7200   -999.2500   1663.2832   -999.2500    121.4971   -999.2500      0.6596      0.7000   -999.2500      0.7098    -10.7843
   7822.5000     12.4800     12.6400   -999.2500   1658.7656   -999.2500    120.8000   -999.2500      0.6592      0.7000   -999.2500      0.7176    -10.5882
   7823.0000     12.4400     12.6000   -999.2500   1654.2441   -999.2500    120.4000   -999.2500      0.6588      0.7200   -999.2500      0.7255    -10.5882
   7823.5000     12.4000     12.4800   -999.2500   1649.7266   -999.2500    121.2000   -999.2500      0.6584      0.7200   -999.2500      0.7373    -10.3922
   7824.0000     12.4000     12.2800   -999.2500   1646.0703   -999.2500    124.6000   -999.2500      0.6580      0.7200   -999.2500      0.7373    -10.3922
   7824.5000     12.4800     12.2400   -999.2500   1643.4531   -999.2500    125.1000   -999.2500      0.6576      0.7200   -999.2500      0.7333    -10.5882
   7825.0000     12.5600     12.3200   -999.2500   1655.4609   -999.2500    125.4000   -999.2500      0.6570      0.7200   -999.2500      0.7255    -10.9804
   7825.5000     12.7200     12.4400   -999.2500   1682.0352   -999.2500    124.7000   -999.2500      0.6525      0.7200   -999.2500      0.7216    -11.3725
   7826.0000     12.7200     12.4800   -999.2500   1705.2734   -999.2500    122.6000   -999.2500      0.6480      0.7200   -999.2500      0.7216    -11.5686
   7826.5000     12.7600     12.5600   -999.2500   1728.5117   -999.2500    120.4000   -999.2500      0.6435      0.7200   -999.2500      0.7176    -11.7647
   7827.0000     12.8400     12.6400   -999.2500   1751.7480   -999.2500    121.9000   -999.2500      0.6390      0.7200   -999.2500      0.7098    -11.7647
   7827.5000     12.9600     12.6400   -999.2500   1765.3164   -999.2500    122.0000   -999.2500      0.6345      0.7200   -999.2500      0.7059    -11.5686
   7828.0000     13.1200     12.6400   -999.2500   1774.2988   -999.2500    122.0000   -999.2500      0.6300      0.7200   -999.2500      0.7020    -11.5686
   7828.5000     13.2800     12.6800   -999.2500   1781.1660   -999.2500    121.9091   -999.2500      0.6255      0.7171   -999.2500      0.6938    -11.3770
   7829.0000     13.2800     12.7200   -999.2500   1787.8145   -999.2500    122.4202   -999.2500      0.6210      0.6924   -999.2500      0.6933    -11.1863
   7829.5000     12.8000     12.6400   -999.2500   1793.7266   -999.2500    124.3093   -999.2500      0.6165      0.6667   -999.2500      0.7801    -10.9927
   7830.0000     12.8000     12.5600   -999.2500   1799.6309   -999.2500    125.2000   -999.2500      0.6115      0.6619   -999.2500      0.8320    -34.7906
   7830.5000     12.8000     12.4800   -999.2500   1805.5371   -999.2500    126.2148   -999.2500      0.6054      0.6600   -999.2500      0.8315    -34.8000
   7831.0000     12.8000     12.4400   -999.2500   1811.4414   -999.2500    127.5390   -999.2500      0.5992      0.6600   -999.2500      0.8226    -34.6000
   7831.5000     12.8000     12.4800   -999.2500   1817.3457   -999.2500    149.8000   -999.2500      0.5931      0.6600   -999.2500      0.8176    -34.6000
   7832.0000     12.9200     12.6000   -999.2500   1828.7734   -999.2500    149.9000   -999.2500      0.5869      0.6600   -999.2500      0.8126    -34.6000
   7832.5000     13.0400     12.6400   -999.2500   1841.5020   -999.2500    149.9003   -999.2500      0.5808      0.6600   -999.2500      0.8122    -34.6000
   7833.0000     13.0400     12.6400   -999.2500   1854.2285   -999.2500    149.9008   -999.2500      0.5746      0.6600   -999.2500      0.8082    -34.8000
   7833.5000     13.0800     12.7600   -999.2500   1868.0137   -999.2500    149.9013   -999.2500      0.5685      0.6600   -999.2500      0.8082    -35.0000
   7834.0000     13.1600     12.9200   -999.2500   1898.2324   -999.2500    149.8035   -999.2500      0.5623      0.6600   -999.2500      0.8041    -34.6000
   7834.5000     13.2400     13.0000   -999.2500   1928.5020   -999.2500    124.5238   -999.2500      0.5562      0.6600   -999.2500      0.8000    -34.4000
   7835.0000     13.2800     13.0400   -999.2500   1942.5938   -999.2500    124.5381   -999.2500      0.5500      0.6600   -999.2500      0.7961    -34.2000
   7835.5000     13.3600     13.0400   -999.2500   1915.9160   -999.2500    124.5667   -999.2500      0.5459      0.6600   -999.2500      0.7922    -34.0000
   7836.0000     13.3600     13.0400   -999.2500   1882.3594   -999.2500    124.5905   -999.2500      0.5423      0.6600   -999.2500      0.7882    -34.2000
   7836.5000     13.3600     13.0400   -999.2500   1857.1074   -999.2500    124.6000   -999.2500      0.5387      0.6600   -999.2500      0.7882    -34.6000
   7837.0000     13.4400     13.0400   -999.2500   1831.8320   -999.2500    124.6000   -999.2500      0.5351      0.6600   -999.2500      0.7922    -35.0000
