~VERSION INFORMATION
VERS.                             2.0:   CWLS Log ASCII Standard-VERSION 2.0
WRAP.                              NO:   One line per depth step
~Well Information Block
STRT.F                       302.0000:   Top Depth
STOP.F                     11038.0000:   Bottom Depth
STEP.F                         .50000:   Depth Increment
NULL.                        -999.250:   Null Value
FLD .                         WILDCAT:   Field Name
WELL.       OCSG04565   001 ST00 BP00:   NAME
API .                    42706400940000:   WELL API
EDF .F                        76.8000:   ELEV DRILL FLOOR
COMP.                  TENNECO OIL CO:   OPERATOR
BN  .                             303:   BLOCK
CTRY.                             USA:   COUNTRY NAME
CNTY.                              GA:   COUNTY
CNTY.                        GLVSTN L:   COUNTY NAME
EKB .F                        79.0000:   ELEV KELLY BUSHING
TDD .F                      11050.000:   FINAL TD DRILLER
STAT.                           TEXAS:   STATE NAME
UWI .                    42706400940000:   WELL API
DICO.               IHS : Digitizing Company
~PARAMETER INFORMATION (zones)
#MNEM.UNIT                       Value     Description
#=========                       =====     ===========
#ZONATION                          CNL:   ZONATION NAME
#ZONE                            RUN_1:   ZONE NAME
TOP .                       4297.0000:   TOP DEPTH
BOT .                       7582.5000:   BOTTOM DEPTH
RUN .                               1:   RUN NUMBER
LCCD.                              20:   LOGGING CONTRACTOR
SRVC.                          Baroil:   LOGGING CONT NAME
DICO.          QC Data Collectors Ltd:   DIG COMPANY NAME
LDAT.                      03/12/1983:   DATE LOGGED
ELD .F                        77.8000:   LOG DATUM ELEVATION
TDD .F                      7587.0000:   TOTAL DEPTH DRILLER
TDL .F                      7584.0000:   TOTAL DEPTH LOGGER
BOTL.F                      7582.0000:   BOTTOM DEPTH LOGGED
TOPL.F                      4300.0000:   TOP DEPTH LOGGED
CS1 .IN                       13.3750:   CASING SIZE 1
BS1 .IN                       12.2500:   BIT SIZE 1
DDB1.F                      7587.0000:   DEPTH DRILLED BIT 1
BHF .                              70:   FLUID CODE
DPT .                       Phosphate:   DRILLING FLUID TYPE
MUDD.                         13.5000:   FLUID DENSITY
MUDV.                         49.0000:   FLUID VISCOSITY
DFPH.                         11.4000:   FLUID PH
FL  .                         12.8000:   FLUID LOSS
RM  .OHMM                       .0680:   RM
RMT .DEGF                     65.0000:   RM TEMP
RMF .OHMM                       .0530:   RMF
RMFT.DEGF                     65.0000:   RMF TEMP
FSC .                               M:   RMF CODE
RMC .OHMM                       .1020:   RMC
RMCT.DEGF                     65.0000:   RMC TEMP
CMC .                               C:   RMC CODE
TMAX.DEGF                    161.0000:   MAX REC TEMP
TIMC.                         10.0000:   TIME SINCE CIRCLN
~PARAMETER INFORMATION (zones)
#MNEM.UNIT                       Value     Description
#=========                       =====     ===========
#ZONATION                          DIL:   ZONATION NAME
#ZONE                            RUN_1:   ZONE NAME
TOP .                        302.0000:   TOP DEPTH
BOT .                      11038.5000:   BOTTOM DEPTH
RUN .                               1:   RUN NUMBER
LCCD.                             150:   LOGGING CONTRACTOR
SRVC.                   Dresser Atlas:   LOGGING CONT NAME
DICO.          QC Data Collectors Ltd:   DIG COMPANY NAME
LDAT.                      02/22/1983:   DATE LOGGED
ELD .F                        77.8000:   LOG DATUM ELEVATION
TDD .F                       841.0000:   TOTAL DEPTH DRILLER
TDL .F                       832.0000:   TOTAL DEPTH LOGGER
BOTL.F                     11038.0000:   BOTTOM DEPTH LOGGED
TOPL.F                       302.0000:   TOP DEPTH LOGGED
CS1 .IN                       30.6250:   CASING SIZE 1
BS1 .IN                       17.5000:   BIT SIZE 1
DDB1.F                       841.0000:   DEPTH DRILLED BIT 1
BHF .                              99:   FLUID CODE
DPT .                   Miscellaneous:   DRILLING FLUID TYPE
MUDD.                          8.7000:   FLUID DENSITY
MUDV.                         50.0000:   FLUID VISCOSITY
DFPH.                         12.0000:   FLUID PH
FL  .                         20.4000:   FLUID LOSS
RM  .OHMM                      1.1500:   RM
RMT .DEGF                     65.0000:   RM TEMP
RMF .OHMM                       .8000:   RMF
RMFT.DEGF                     65.0000:   RMF TEMP
FSC .                               M:   RMF CODE
RMC .OHMM                      1.4300:   RMC
RMCT.DEGF                     65.0000:   RMC TEMP
CMC .                               C:   RMC CODE
TMAX.DEGF                     85.0000:   MAX REC TEMP
TIMC.                          3.0000:   TIME SINCE CIRCLN
~PARAMETER INFORMATION (zones)
#MNEM.UNIT                       Value     Description
#=========                       =====     ===========
#ZONATION                          FDC:   ZONATION NAME
#ZONE                            RUN_4:   ZONE NAME
TOP .                      11038.0000:   TOP DEPTH
BOT .                      11040.0000:   BOTTOM DEPTH
RUN .                               4:   RUN NUMBER
LCCD.                             150:   LOGGING CONTRACTOR
SRVC.                   Dresser Atlas:   LOGGING CONT NAME
DICO.          QC Data Collectors Ltd:   DIG COMPANY NAME
LDAT.                      03/25/1983:   DATE LOGGED
ELD .F                        77.8000:   LOG DATUM ELEVATION
TDD .F                     11050.0000:   TOTAL DEPTH DRILLER
TDL .F                     11040.0000:   TOTAL DEPTH LOGGER
BOTL.F                     11038.0000:   BOTTOM DEPTH LOGGED
TOPL.F                      7555.0000:   TOP DEPTH LOGGED
CS1 .IN                        9.6250:   CASING SIZE 1
BS1 .IN                        8.5000:   BIT SIZE 1
DDB1.F                     11050.0000:   DEPTH DRILLED BIT 1
BHF .                              99:   FLUID CODE
DPT .                   Miscellaneous:   DRILLING FLUID TYPE
MUDD.                         16.6000:   FLUID DENSITY
MUDV.                         50.0000:   FLUID VISCOSITY
DFPH.                         11.4000:   FLUID PH
FL  .                         10.0000:   FLUID LOSS
RM  .OHMM                      1.7000:   RM
RMT .DEGF                     75.0000:   RM TEMP
RMF .OHMM                      1.2000:   RMF
RMFT.DEGF                     75.0000:   RMF TEMP
FSC .                               M:   RMF CODE
RMC .OHMM                      2.2000:   RMC
RMCT.DEGF                     75.0000:   RMC TEMP
CMC .                               M:   RMC CODE
TMAX.DEGF                    228.0000:   MAX REC TEMP
TIMC.                          4.0000:   TIME SINCE CIRCLN
~PARAMETER INFORMATION (zones)
#MNEM.UNIT                       Value     Description
#=========                       =====     ===========
#ZONATION                          FDC:   ZONATION NAME
#ZONE                            RUN_2:   ZONE NAME
TOP .                       4512.0000:   TOP DEPTH
BOT .                       7583.5000:   BOTTOM DEPTH
RUN .                               2:   RUN NUMBER
LCCD.                             150:   LOGGING CONTRACTOR
SRVC.                   Dresser Atlas:   LOGGING CONT NAME
DICO.          QC Data Collectors Ltd:   DIG COMPANY NAME
LDAT.                      02/28/1983:   DATE LOGGED
ELD .F                        77.8000:   LOG DATUM ELEVATION
TDD .F                      4512.0000:   TOTAL DEPTH DRILLER
TDL .F                      4505.0000:   TOTAL DEPTH LOGGER
BOTL.F                      7583.0000:   BOTTOM DEPTH LOGGED
TOPL.F                      4512.0000:   TOP DEPTH LOGGED
CS1 .IN                       20.0000:   CASING SIZE 1
BS1 .IN                       17.5000:   BIT SIZE 1
DDB1.F                      4512.0000:   DEPTH DRILLED BIT 1
BHF .                              99:   FLUID CODE
DPT .                   Miscellaneous:   DRILLING FLUID TYPE
MUDD.                          9.4000:   FLUID DENSITY
MUDV.                         40.0000:   FLUID VISCOSITY
DFPH.                         12.0000:   FLUID PH
FL  .                         38.0000:   FLUID LOSS
RM  .OHMM                       .2900:   RM
RMT .DEGF                     65.0000:   RM TEMP
RMF .OHMM                       .2100:   RMF
RMFT.DEGF                     65.0000:   RMF TEMP
FSC .                               M:   RMF CODE
RMC .OHMM                       .3400:   RMC
RMCT.DEGF                     65.0000:   RMC TEMP
CMC .                               C:   RMC CODE
TMAX.DEGF                     90.0000:   MAX REC TEMP
TIMC.                          3.0000:   TIME SINCE CIRCLN
~PARAMETER INFORMATION (zones)
#MNEM.UNIT                       Value     Description
#=========                       =====     ===========
#ZONATION                          FDC:   ZONATION NAME
#ZONE                            RUN_1:   ZONE NAME
TOP .                       4297.0000:   TOP DEPTH
BOT .                       7582.5000:   BOTTOM DEPTH
RUN .                               1:   RUN NUMBER
LCCD.                              20:   LOGGING CONTRACTOR
SRVC.                          Baroil:   LOGGING CONT NAME
DICO.          QC Data Collectors Ltd:   DIG COMPANY NAME
LDAT.                      03/12/1983:   DATE LOGGED
ELD .F                        77.8000:   LOG DATUM ELEVATION
TDD .F                      7587.0000:   TOTAL DEPTH DRILLER
TDL .F                      7584.0000:   TOTAL DEPTH LOGGER
BOTL.F                      7582.0000:   BOTTOM DEPTH LOGGED
TOPL.F                      4300.0000:   TOP DEPTH LOGGED
CS1 .IN                       13.3750:   CASING SIZE 1
BS1 .IN                       12.2500:   BIT SIZE 1
DDB1.F                      7587.0000:   DEPTH DRILLED BIT 1
BHF .                              70:   FLUID CODE
DPT .                       Phosphate:   DRILLING FLUID TYPE
MUDD.                         13.5000:   FLUID DENSITY
MUDV.                         49.0000:   FLUID VISCOSITY
DFPH.                         11.4000:   FLUID PH
FL  .                         12.8000:   FLUID LOSS
RM  .OHMM                       .0680:   RM
RMT .DEGF                     65.0000:   RM TEMP
RMF .OHMM                       .0530:   RMF
RMFT.DEGF                     65.0000:   RMF TEMP
FSC .                               M:   RMF CODE
RMC .OHMM                       .1020:   RMC
RMCT.DEGF                     65.0000:   RMC TEMP
CMC .                               C:   RMC CODE
TMAX.DEGF                    161.0000:   MAX REC TEMP
TIMC.                         10.0000:   TIME SINCE CIRCLN
~Curve Information Block
#MNEM.UNIT                    API CODE    No Description
#=========                    ========    == ===========
DEPT.F                   00 001 00 00:     1  DEPTH
NPHI.%                               :     2  Neutron Porosity
CILD.MMHO                            :     3  Deep Induction Conductivity
DT.US/F                              :     4  Sonic Transit Time
GR1.GAPI                              :     5  Gamma Ray
ILD.OHMM                             :     6  Deep Induction Resistivity
ILM.OHMM                             :     7  Medium Induction Resistivity
LN.OHMM                              :     8  Medium Resistivity
RFOC.OHMM                            :     9  Medium Resistivity
SN.OHMM                              :    10  Short-Normal Resistivity
SP.MV                                :    11  Spontaneous Potential
CALI.IN                              :    12  Caliper
DRHO.G/C3                            :    13  Bulk Density Correction
GR2.GAPI                              :    14  Gamma Ray
RHOB.G/C3                            :    15  Bulk Density
~ASCII
# ...
 4222.0000  -999.2500  1225.0176   135.4651    25.6908      .8125      .8330  -999.2500      .8416  -999.2500   -85.9023  -999.2500  -999.2500  -999.2500  -999.2500
 4222.5000  -999.2500  1427.4766   132.8599    26.6952      .7130      .7278  -999.2500      .8386  -999.2500   -85.9198  -999.2500  -999.2500  -999.2500  -999.2500
 4223.0000  -999.2500  1636.8672   130.8718    28.4317      .6335      .6349  -999.2500      .8351  -999.2500   -85.8654  -999.2500  -999.2500  -999.2500  -999.2500
 4223.5000  -999.2500  1848.8340   129.7385    30.0662      .5539      .5650  -999.2500      .8316  -999.2500   -85.9694  -999.2500  -999.2500  -999.2500  -999.2500
 4224.0000  -999.2500  2082.5898   129.3503    31.6872      .4788      .5114  -999.2500      .8281  -999.2500   -86.4192  -999.2500  -999.2500  -999.2500  -999.2500
 4224.5000  -999.2500  2433.0313   129.4927    29.7356      .4105      .4721  -999.2500      .8236  -999.2500   -86.8619  -999.2500  -999.2500  -999.2500  -999.2500
 4225.0000  -999.2500  2877.3672   129.5767    27.2285      .3579      .4377  -999.2500      .8192  -999.2500   -87.1553  -999.2500  -999.2500  -999.2500  -999.2500
 4225.5000  -999.2500  3148.5664   130.0164    25.8742      .3251      .4095  -999.2500      .8156  -999.2500   -87.4487  -999.2500  -999.2500  -999.2500  -999.2500
 4226.0000  -999.2500  3366.6719   131.2207    27.3453      .2999      .3871  -999.2500      .8148  -999.2500   -87.6532  -999.2500  -999.2500  -999.2500  -999.2500
 4226.5000  -999.2500  3551.9961   132.2905    29.3104      .2787      .3729  -999.2500      .8139  -999.2500   -87.8315  -999.2500  -999.2500  -999.2500  -999.2500
 4227.0000  -999.2500  3697.5508   132.6201    30.0554      .2699      .3646  -999.2500      .8099  -999.2500   -87.9572  -999.2500  -999.2500  -999.2500  -999.2500
 4227.5000  -999.2500  3773.0000   132.2932    29.8539      .2613      .3590  -999.2500      .8052  -999.2500   -87.7539  -999.2500  -999.2500  -999.2500  -999.2500
 4228.0000  -999.2500  3805.8594   130.3411    30.0797      .2597      .3585  -999.2500      .8004  -999.2500   -87.5509  -999.2500  -999.2500  -999.2500  -999.2500
 4228.5000  -999.2500  3783.4492   128.0618    31.4623      .2581      .3580  -999.2500      .7960  -999.2500   -87.2219  -999.2500  -999.2500  -999.2500  -999.2500
 4229.0000  -999.2500  3752.8672   125.1157    32.4109      .2610      .3577  -999.2500      .7926  -999.2500   -86.7178  -999.2500  -999.2500  -999.2500  -999.2500
 4229.5000  -999.2500  3695.1211   122.4548    32.2291      .2681      .3611  -999.2500      .7892  -999.2500   -86.2136  -999.2500  -999.2500  -999.2500  -999.2500
 4230.0000  -999.2500  3637.3750   120.0459    31.6506      .2755      .3645  -999.2500      .7861  -999.2500   -85.8396  -999.2500  -999.2500  -999.2500  -999.2500
 4230.5000  -999.2500  3576.1133   119.0377    31.0759      .2832      .3680  -999.2500      .7864  -999.2500   -85.6866  -999.2500  -999.2500  -999.2500  -999.2500
 4231.0000  -999.2500  3514.6055   118.3058    31.0373      .2893      .3703  -999.2500      .7866  -999.2500   -85.5334  -999.2500  -999.2500  -999.2500  -999.2500
 4231.5000  -999.2500  3468.4727   117.8094    31.0094      .2929      .3724  -999.2500      .7870  -999.2500   -85.3190  -999.2500  -999.2500  -999.2500  -999.2500
 4232.0000  -999.2500  3438.5820   117.3131    31.9649      .2947      .3745  -999.2500      .7876  -999.2500   -85.0503  -999.2500  -999.2500  -999.2500  -999.2500
 4232.5000  -999.2500  3414.4180   116.9996    32.7410      .2965      .3719  -999.2500      .7882  -999.2500   -84.7816  -999.2500  -999.2500  -999.2500  -999.2500
 4233.0000  -999.2500  3418.2383   116.7035    32.8559      .2979      .3684  -999.2500      .7888  -999.2500   -85.1429  -999.2500  -999.2500  -999.2500  -999.2500
 4233.5000  -999.2500  3420.8750   115.7700    31.9108      .2974      .3650  -999.2500      .7866  -999.2500   -85.5829  -999.2500  -999.2500  -999.2500  -999.2500
 4234.0000  -999.2500  3421.8047   115.4181    30.8902      .2969      .3616  -999.2500      .7836  -999.2500   -86.1666  -999.2500  -999.2500  -999.2500  -999.2500
 4234.5000  -999.2500  3421.5352   118.2383    29.7651      .2966      .3582  -999.2500      .7806  -999.2500   -86.8253  -999.2500  -999.2500  -999.2500  -999.2500
 4235.0000  -999.2500  3415.2344   121.3967    28.9147      .2963      .3548  -999.2500      .7776  -999.2500   -87.5172  -999.2500  -999.2500  -999.2500  -999.2500
 4235.5000  -999.2500  3408.9375   124.6440    28.6529      .2961      .3516  -999.2500      .7720  -999.2500   -88.2281  -999.2500  -999.2500  -999.2500  -999.2500
 4236.0000  -999.2500  3402.4805   128.4248    29.0464      .2959      .3513  -999.2500      .7652  -999.2500   -88.4205  -999.2500  -999.2500  -999.2500  -999.2500
 4236.5000  -999.2500  3371.2031   131.9880    29.4397      .2975      .3510  -999.2500      .7584  -999.2500   -87.7120  -999.2500  -999.2500  -999.2500  -999.2500
 4237.0000  -999.2500  3339.9297   134.7886    30.1602      .3002      .3507  -999.2500      .7377  -999.2500   -86.6398  -999.2500  -999.2500  -999.2500  -999.2500
 4237.5000  -999.2500  3275.6953   136.6257    31.0899      .3029      .3560  -999.2500      .7164  -999.2500   -85.5361  -999.2500  -999.2500  -999.2500  -999.2500
 4238.0000  -999.2500  3196.8516   135.3713    32.7870      .3140      .3623  -999.2500      .6973  -999.2500   -84.9186  -999.2500  -999.2500  -999.2500  -999.2500
 4238.5000  -999.2500  3069.5234   126.6887    34.5199      .3266      .3706  -999.2500      .6806  -999.2500   -84.7675  -999.2500  -999.2500  -999.2500  -999.2500
 4239.0000  -999.2500  2933.6289   113.1364    36.2982      .3402      .3821  -999.2500      .6642  -999.2500   -85.4648  -999.2500  -999.2500  -999.2500  -999.2500
 4239.5000  -999.2500  2807.9336   105.7181    35.6763      .3543      .3940  -999.2500      .6481  -999.2500   -86.0044  -999.2500  -999.2500  -999.2500  -999.2500
 4240.0000  -999.2500  2701.2070   101.4706    32.5720      .3688      .4077  -999.2500      .6431  -999.2500   -86.5280  -999.2500  -999.2500  -999.2500  -999.2500
 4240.5000  -999.2500  2629.0977    98.7949    30.7360      .3788      .4227  -999.2500      .6495  -999.2500   -86.7152  -999.2500  -999.2500  -999.2500  -999.2500
 4241.0000  -999.2500  2581.6797    98.3757    29.7282      .3890      .4380  -999.2500      .6560  -999.2500   -86.5433  -999.2500  -999.2500  -999.2500  -999.2500
 4241.5000  -999.2500  2563.8477   102.6213    30.2846      .3930      .4516  -999.2500      .6627  -999.2500   -86.2523  -999.2500  -999.2500  -999.2500  -999.2500
 4242.0000  -999.2500  2626.5234   105.7773    32.6654      .3806      .4458  -999.2500      .6695  -999.2500   -86.7451  -999.2500  -999.2500  -999.2500  -999.2500
 4242.5000  -999.2500  2726.2188   108.4839    34.3325      .3648      .4240  -999.2500      .6741  -999.2500   -87.3359  -999.2500  -999.2500  -999.2500  -999.2500
 4243.0000  -999.2500  2874.1992   111.3954    35.0852      .3468      .4001  -999.2500      .6770  -999.2500   -88.0481  -999.2500  -999.2500  -999.2500  -999.2500
 4243.5000  -999.2500  3017.9180   113.7870    34.7224      .3297      .3822  -999.2500      .6722  -999.2500   -88.4879  -999.2500  -999.2500  -999.2500  -999.2500
 4244.0000  -999.2500  3207.3008   115.1348    34.2421      .3157      .3694  -999.2500      .6622  -999.2500   -88.6102  -999.2500  -999.2500  -999.2500  -999.2500
 4244.5000  -999.2500  3348.7461   116.1843    33.6992      .3044      .3584  -999.2500      .6523  -999.2500   -88.0475  -999.2500  -999.2500  -999.2500  -999.2500
 4245.0000  -999.2500  3443.9336   116.5857    33.0937      .2936      .3531  -999.2500      .6516  -999.2500   -87.3777  -999.2500  -999.2500  -999.2500  -999.2500
 4245.5000  -999.2500  3518.3672   116.4479    32.3151      .2858      .3479  -999.2500      .6509  -999.2500   -86.7795  -999.2500  -999.2500  -999.2500  -999.2500
 4246.0000  -999.2500  3575.8672   116.0947    31.5913      .2788      .3474  -999.2500      .6622  -999.2500   -86.2689  -999.2500  -999.2500  -999.2500  -999.2500
