~VERSION INFORMATION
VERS.                             2.0:   CWLS Log ASCII Standard-VERSION 2.0
WRAP.                              NO:   One line per depth step
~Well Information Block
STRT.F                      4122.0000:   Top Depth
STOP.F                     10958.0000:   Bottom Depth
STEP.F                         .50000:   Depth Increment
NULL.                        -999.250:   Null Value
FLD .                      GA BLK 273:   Field Name
WELL.       OCSG09037   003 ST00 BP00:   NAME
API .                  42706402950000:   WELL API
EDF .F                        95.0000:   ELEV DRILL FLOOR
COMP.       SEAGULL ENERGY E AND P IN:   OPERATOR
BN  .                             273:   BLOCK
CTRY.                             USA:   COUNTRY NAME
CNTY.                              GA:   COUNTY
CNTY.                        GLVSTN L:   COUNTY NAME
EKB .F                        96.0000:   ELEV KELLY BUSHING
TDD .F                      10964.000:   FINAL TD DRILLER
STAT.                           TEXAS:   STATE NAME
UWI .                  42706402950000:   WELL API
DICO.               IHS : Digitizing Company
~PARAMETER INFORMATION (zones)
#MNEM.UNIT                       Value     Description
#=========                       =====     ===========
#ZONATION                          DIL:   ZONATION NAME
#ZONE                            RUN_1:   ZONE NAME
TOP .                       4122.0000:   TOP DEPTH
BOT .                       9366.5000:   BOTTOM DEPTH
RUN .                               1:   RUN NUMBER
LCCD.                             440:   LOGGING CONTRACTOR
SRVC.                    Schlumberger:   LOGGING CONT NAME
DICO.          QC Data Collectors Ltd:   DIG COMPANY NAME
LDAT.                      05/20/1991:   DATE LOGGED
ELD .F                        96.0000:   LOG DATUM ELEVATION
TDD .F                      9360.0000:   TOTAL DEPTH DRILLER
TDL .F                      9366.0000:   TOTAL DEPTH LOGGER
BOTL.F                      9366.0000:   BOTTOM DEPTH LOGGED
TOPL.F                      4402.0000:   TOP DEPTH LOGGED
CS1 .IN                       10.7500:   CASING SIZE 1
BS1 .IN                        9.8750:   BIT SIZE 1
DDB1.F                      9360.0000:   DEPTH DRILLED BIT 1
BHF .                              81:   FLUID CODE
DPT .          Lignosulfonate (Ligno):   DRILLING FLUID TYPE
MUDD.                         12.5000:   FLUID DENSITY
MUDV.                         45.0000:   FLUID VISCOSITY
DFPH.                         10.0000:   FLUID PH
FL  .                          8.0000:   FLUID LOSS
RM  .OHMM                       .5080:   RM
RMT .DEGF                     67.0000:   RM TEMP
RMF .OHMM                       .3460:   RMF
RMFT.DEGF                     67.0000:   RMF TEMP
FSC .                               M:   RMF CODE
RMC .OHMM                       .6820:   RMC
RMCT.DEGF                     67.0000:   RMC TEMP
CMC .                               M:   RMC CODE
TMAX.DEGF                    170.0000:   MAX REC TEMP
TIMC.                          6.6800:   TIME SINCE CIRCLN
~PARAMETER INFORMATION (zones)
#MNEM.UNIT                       Value     Description
#=========                       =====     ===========
#ZONATION                          DIL:   ZONATION NAME
#ZONE                            RUN_2:   ZONE NAME
TOP .                       9092.0000:   TOP DEPTH
BOT .                      10398.5000:   BOTTOM DEPTH
RUN .                               2:   RUN NUMBER
LCCD.                             440:   LOGGING CONTRACTOR
SRVC.                    Schlumberger:   LOGGING CONT NAME
DICO.          QC Data Collectors Ltd:   DIG COMPANY NAME
LDAT.                      06/04/1991:   DATE LOGGED
ELD .F                        96.0000:   LOG DATUM ELEVATION
TDD .F                     10401.0000:   TOTAL DEPTH DRILLER
TDL .F                     10404.0000:   TOTAL DEPTH LOGGER
BOTL.F                     10398.0000:   BOTTOM DEPTH LOGGED
TOPL.F                      9292.0000:   TOP DEPTH LOGGED
CS1 .IN                        7.6250:   CASING SIZE 1
BS1 .IN                        6.7500:   BIT SIZE 1
DDB1.F                     10401.0000:   DEPTH DRILLED BIT 1
BHF .                              99:   FLUID CODE
DPT .                   Miscellaneous:   DRILLING FLUID TYPE
MUDD.                         14.1000:   FLUID DENSITY
MUDV.                         40.0000:   FLUID VISCOSITY
DFPH.                          9.8000:   FLUID PH
FL  .                          3.4000:   FLUID LOSS
RM  .OHMM                       .5160:   RM
RMT .DEGF                     80.0000:   RM TEMP
RMF .OHMM                       .2580:   RMF
RMFT.DEGF                     80.0000:   RMF TEMP
FSC .                               M:   RMF CODE
RMC .OHMM                      1.8700:   RMC
RMCT.DEGF                     80.0000:   RMC TEMP
CMC .                               M:   RMC CODE
TMAX.DEGF                    192.0000:   MAX REC TEMP
TIMC.                          7.4000:   TIME SINCE CIRCLN
~PARAMETER INFORMATION (zones)
#MNEM.UNIT                       Value     Description
#=========                       =====     ===========
#ZONATION                          DIL:   ZONATION NAME
#ZONE                            RUN_3:   ZONE NAME
TOP .                       9320.0000:   TOP DEPTH
BOT .                      10958.5000:   BOTTOM DEPTH
RUN .                               3:   RUN NUMBER
LCCD.                             440:   LOGGING CONTRACTOR
SRVC.                    Schlumberger:   LOGGING CONT NAME
DICO.          QC Data Collectors Ltd:   DIG COMPANY NAME
LDAT.                      06/09/1991:   DATE LOGGED
ELD .F                        96.0000:   LOG DATUM ELEVATION
TDD .F                     10960.0000:   TOTAL DEPTH DRILLER
TDL .F                     10964.0000:   TOTAL DEPTH LOGGER
BOTL.F                     10958.0000:   BOTTOM DEPTH LOGGED
TOPL.F                      9404.0000:   TOP DEPTH LOGGED
CS1 .IN                        7.6250:   CASING SIZE 1
BS1 .IN                        6.7500:   BIT SIZE 1
DDB1.F                     10960.0000:   DEPTH DRILLED BIT 1
BHF .                              99:   FLUID CODE
DPT .                   Miscellaneous:   DRILLING FLUID TYPE
MUDD.                         14.7000:   FLUID DENSITY
MUDV.                         46.0000:   FLUID VISCOSITY
DFPH.                         10.0000:   FLUID PH
FL  .                          2.3000:   FLUID LOSS
RM  .OHMM                       .4570:   RM
RMT .DEGF                     74.0000:   RM TEMP
RMF .OHMM                       .2190:   RMF
RMFT.DEGF                     74.0000:   RMF TEMP
FSC .                               M:   RMF CODE
RMC .OHMM                       .7110:   RMC
RMCT.DEGF                     74.0000:   RMC TEMP
CMC .                               M:   RMC CODE
TMAX.DEGF                    202.0000:   MAX REC TEMP
TIMC.                          7.3800:   TIME SINCE CIRCLN
~Curve Information Block
#MNEM.UNIT                    API CODE    No Description
#=========                    ========    == ===========
DEPT.F                   00 001 00 00:     1  DEPTH
DT.US/F                              :     2  Sonic Transit Time
GR.GAPI                              :     3  Gamma Ray
ILD.OHMM                             :     4  Deep Induction Resistivity
ILM.OHMM                             :     5  Medium Induction Resistivity
SFL.OHMM                             :     6  Medium Resistivity
SP.MV                                :     7  Spontaneous Potential
~ASCII
# ...
 5266.0000   119.9052    56.1207      .6970      .7454      .7988   -57.0482
 5266.5000   121.1263    57.4080      .6877      .7154      .7346   -55.8369
 5267.0000   120.8357    58.6061      .6749      .6965      .6850   -55.3962
 5267.5000   119.6306    60.2905      .6651      .6833      .6642   -55.2613
 5268.0000   118.2061    61.1021      .6586      .6721      .6681   -55.3112
 5268.5000   117.4905    60.9373      .6509      .6640      .6863   -55.3883
 5269.0000   118.1335    60.4847      .6392      .6575      .7037   -55.5657
 5269.5000   118.5994    60.1801      .6271      .6542      .7201   -55.8408
 5270.0000   117.1674    60.4114      .6086      .6461      .6929   -56.1653
 5270.5000   115.1342    60.6223      .5880      .6253      .6492   -56.7963
 5271.0000   114.4601    59.3750      .5609      .5917      .6584   -57.4520
 5271.5000   114.9890    58.1196      .5316      .5604      .6555   -59.1737
 5272.0000   116.7684    56.5445      .5018      .5327      .6174   -61.8336
 5272.5000   120.2471    54.3017      .4728      .5034      .5473   -65.4530
 5273.0000   122.6637    51.4259      .4467      .4737      .4810   -67.5625
 5273.5000   123.7411    49.6402      .4236      .4456      .4289   -68.4774
 5274.0000   124.5020    51.9563      .4045      .4157      .4367   -68.9221
 5274.5000   125.1107    53.5501      .3889      .3931      .4745   -69.1487
 5275.0000   124.8063    47.2867      .3791      .3795      .4344   -69.3846
 5275.5000   124.4165    43.7073      .3772      .3812      .3886   -69.6420
 5276.0000   124.1167    42.4946      .3861      .3908      .3566   -69.8667
 5276.5000   124.1902    46.7377      .4046      .4040      .3752   -67.9023
 5277.0000   124.2559    51.6365      .4260      .4185      .4049   -65.2611
 5277.5000   124.2961    54.7015      .4418      .4351      .4517   -62.7158
 5278.0000   124.3365    56.5165      .4379      .4753      .4996   -60.3731
 5278.5000   124.3755    58.3649      .4334      .4944      .5449   -58.9509
 5279.0000   124.3043    60.1679      .4284      .5005      .5761   -58.9675
 5279.5000   124.2332    61.6498      .4197      .5004      .5474   -61.0287
 5280.0000   124.5084    56.5618      .4079      .4781      .5000   -63.6247
 5280.5000   124.9015    50.7943      .3918      .4402      .4365   -66.1379
 5281.0000   125.4889    49.5469      .3747      .3976      .3930   -67.5066
 5281.5000   126.0405    51.0008      .3575      .3708      .3593   -66.6444
 5282.0000   126.3436    52.9318      .3439      .3662      .3594   -64.5135
 5282.5000   125.6300    55.3305      .3613      .3875      .3945   -62.7398
 5283.0000   125.0167    56.4412      .3747      .4103      .4330   -61.6177
 5283.5000   125.0051    57.2348      .3886      .4349      .4734   -61.1870
 5284.0000   125.7686    57.9544      .3990      .4582      .5011   -60.8910
 5284.5000   125.8644    58.6887      .4056      .4593      .4557   -60.7177
 5285.0000   124.8510    59.8507      .4080      .4599      .4365   -61.0107
 5285.5000   123.6284    60.8948      .4100      .4636      .4211   -61.6264
 5286.0000   122.1754    59.1551      .4113      .4672      .4588   -62.6652
 5286.5000   120.8933    55.8902      .4125      .4704      .4979   -63.8659
 5287.0000   119.7290    52.8225      .4137      .4735      .5008   -65.5916
 5287.5000   118.6801    50.4424      .4179      .4721      .5076   -66.8696
 5288.0000   117.6447    52.9904      .4228      .4706      .5369   -67.6755
 5288.5000   116.6390    55.3824      .4278      .4717      .5785   -67.9955
 5289.0000   116.6105    57.0009      .4323      .4728      .6151   -67.7765
 5289.5000   117.6233    57.7392      .4356      .4769      .6082   -67.1481
 5290.0000   118.4489    58.1263      .4389      .4822      .5980   -66.3918
 5290.5000   119.1583    54.0765      .4426      .4918      .5959   -66.8217
 5291.0000   119.3722    52.1155      .4467      .4964      .5938   -68.0909
 5291.5000   117.9625    51.2580      .4509      .5002      .5935   -69.0485
 5292.0000   114.8828    50.6530      .4567      .5091      .5972   -69.5671
 5292.5000   111.0261    49.5535      .4628      .5201      .6129   -69.8047
 5293.0000   105.1802    48.1956      .4695      .5423      .6383   -69.7426
 5293.5000    98.5236    46.7164      .4775      .5699      .6875   -69.6158
 5294.0000    92.5300    44.8667      .4856      .5914      .7700   -69.4048
 5294.5000    87.8833    43.1623      .4945      .6044      .8906   -69.2170
 5295.0000    92.6233    41.6378      .5020      .6128      .9978   -69.0471
 5295.5000    98.4199    40.4590      .4970      .6088      .9854   -69.4633
 5296.0000   105.1284    39.5596      .4832      .5860      .8618   -70.2039
 5296.5000   112.9609    38.8339      .4619      .5540      .6797   -71.0427
 5297.0000   117.7631    39.7228      .4434      .5197      .6220   -71.9236
 5297.5000   118.1163    40.9675      .4287      .4852      .5980   -72.6385
 5298.0000   117.7032    42.1255      .4145      .4584      .5789   -73.2659
 5298.5000   117.4973    43.2715      .4047      .4383      .5726   -73.7754
 5299.0000   117.7767    43.5661      .3951      .4226      .5653   -73.9025
 5299.5000   118.0060    41.0687      .3870      .4139      .5535   -73.9414
 5300.0000   118.3229    38.9166      .3805      .4102      .5342   -73.9956
 5300.5000   118.7408    38.7850      .3753      .4066      .5109   -73.8883
 5301.0000   119.4065    38.9713      .3763      .4011      .4969   -73.7700
 5301.5000   120.0566    40.8209      .3773      .4026      .4917   -73.4331
 5302.0000   120.5281    45.3891      .3806      .4149      .4949   -73.0374
 5302.5000   120.3898    51.1727      .3842      .4273      .5044   -72.5719
 5303.0000   119.9686    53.8279      .3990      .4386      .5259   -72.1652
 5303.5000   121.2468    54.4656      .4146      .4484      .5555   -71.8053
 5304.0000   149.2539    50.8395      .4351      .4607      .5746   -71.8324
 5304.5000   192.9961    47.2787      .4588      .4826      .5868   -71.9729
 5305.0000   168.3381    44.5082      .4861      .5236      .6062   -72.2781
 5305.5000   144.5295    42.6533      .5167      .5829      .6530   -72.5782
 5306.0000    84.0396    41.0714      .5494      .6724      .8505   -72.6965
 5306.5000    78.3827    42.1508      .5824      .7841     1.1926   -72.1947
 5307.0000    74.9352    42.9957      .6193      .8806     1.4703   -71.3512
 5307.5000    78.3153    41.6751      .6547      .8845     1.6786   -70.3657
 5308.0000    94.4363    40.3238      .6785      .8493     1.8307   -69.6554
 5308.5000   108.7856    38.3982      .6450      .7969     1.4150   -69.5400
 5309.0000   120.6226    36.6738      .6268      .7457     1.0142   -69.7820
 5309.5000   116.9187    37.3054      .6126      .6955      .8230   -70.4990
 5310.0000   105.2942    41.5618      .6073      .6453      .6965   -70.9552
 5310.5000    95.9904    45.9968      .6060      .6173      .7387   -71.1388
 5311.0000    88.2511    48.6381      .6311      .6405      .7892   -70.9468
 5311.5000    79.8124    47.3881      .6721      .7188      .8540   -70.6663
 5312.0000    74.5803    44.3390      .7253      .8317      .9465   -70.1332
 5312.5000    71.7649    41.9909      .7878      .9911     1.0881   -69.5635
 5313.0000    69.3975    40.3384      .8697     1.1304     1.3280   -69.0414
 5313.5000    65.0020    37.7505      .8949     1.2579     1.7884   -68.6670
 5314.0000      .0000    33.6461      .8780     1.2485     2.3948   -69.0631
 5314.5000      .0000    29.6429      .8320     1.1209     2.2683   -70.5969
 5315.0000    46.3750    26.8710      .7510      .9539     1.7713   -73.0010
 5315.5000   108.9100    24.0032      .6631      .7891     1.0449   -75.5503
 5316.0000   116.7996    23.7400      .5560      .6198      .4767   -76.9989
 5316.5000   121.0526    24.4856      .4363      .4606      .3555   -78.2822
 5317.0000   123.3435    24.8092      .3262      .3415      .3104   -79.2103
 5317.5000   124.1414    25.0463      .2855      .3005      .2866   -79.5928
