~VERSION INFORMATION
VERS.                             2.0:   CWLS Log ASCII Standard-VERSION 2.0
WRAP.                              NO:   One line per depth step
~Well Information Block
STRT.F                       302.0000:   Top Depth
STOP.F                     11038.0000:   Bottom Depth
STEP.F                         .50000:   Depth Increment
NULL.                        -999.250:   Null Value
FLD .                         WILDCAT:   Field Name
WELL.       OCSG04565   001 ST00 BP00:   NAME
API .                    42706400940000:   WELL API
EDF .F                        76.8000:   ELEV DRILL FLOOR
COMP.                  TENNECO OIL CO:   OPERATOR
BN  .                             303:   BLOCK
CTRY.                             USA:   COUNTRY NAME
CNTY.                              GA:   COUNTY
CNTY.                        GLVSTN L:   COUNTY NAME
EKB .F                        79.0000:   ELEV KELLY BUSHING
TDD .F                      11050.000:   FINAL TD DRILLER
STAT.                           TEXAS:   STATE NAME
UWI .                    42706400940000:   WELL API
DICO.               IHS : Digitizing Company
~PARAMETER INFORMATION (zones)
#MNEM.UNIT                       Value     Description
#=========                       =====     ===========
#ZONATION                          CNL:   ZONATION NAME
#ZONE                            RUN_1:   ZONE NAME
TOP .                       4297.0000:   TOP DEPTH
BOT .                       7582.5000:   BOTTOM DEPTH
RUN .                               1:   RUN NUMBER
LCCD.                              20:   LOGGING CONTRACTOR
SRVC.                          Baroil:   LOGGING CONT NAME
DICO.          QC Data Collectors Ltd:   DIG COMPANY NAME
LDAT.                      03/12/1983:   DATE LOGGED
ELD .F                        77.8000:   LOG DATUM ELEVATION
TDD .F                      7587.0000:   TOTAL DEPTH DRILLER
TDL .F                      7584.0000:   TOTAL DEPTH LOGGER
BOTL.F                      7582.0000:   BOTTOM DEPTH LOGGED
TOPL.F                      4300.0000:   TOP DEPTH LOGGED
CS1 .IN                       13.3750:   CASING SIZE 1
BS1 .IN                       12.2500:   BIT SIZE 1
DDB1.F                      7587.0000:   DEPTH DRILLED BIT 1
BHF .                              70:   FLUID CODE
DPT .                       Phosphate:   DRILLING FLUID TYPE
MUDD.                         13.5000:   FLUID DENSITY
MUDV.                         49.0000:   FLUID VISCOSITY
DFPH.                         11.4000:   FLUID PH
FL  .                         12.8000:   FLUID LOSS
RM  .OHMM                       .0680:   RM
RMT .DEGF                     65.0000:   RM TEMP
RMF .OHMM                       .0530:   RMF
RMFT.DEGF                     65.0000:   RMF TEMP
FSC .                               M:   RMF CODE
RMC .OHMM                       .1020:   RMC
RMCT.DEGF                     65.0000:   RMC TEMP
CMC .                               C:   RMC CODE
TMAX.DEGF                    161.0000:   MAX REC TEMP
TIMC.                         10.0000:   TIME SINCE CIRCLN
~PARAMETER INFORMATION (zones)
#MNEM.UNIT                       Value     Description
#=========                       =====     ===========
#ZONATION                          DIL:   ZONATION NAME
#ZONE                            RUN_1:   ZONE NAME
TOP .                        302.0000:   TOP DEPTH
BOT .                      11038.5000:   BOTTOM DEPTH
RUN .                               1:   RUN NUMBER
LCCD.                             150:   LOGGING CONTRACTOR
SRVC.                   Dresser Atlas:   LOGGING CONT NAME
DICO.          QC Data Collectors Ltd:   DIG COMPANY NAME
LDAT.                      02/22/1983:   DATE LOGGED
ELD .F                        77.8000:   LOG DATUM ELEVATION
TDD .F                       841.0000:   TOTAL DEPTH DRILLER
TDL .F                       832.0000:   TOTAL DEPTH LOGGER
BOTL.F                     11038.0000:   BOTTOM DEPTH LOGGED
TOPL.F                       302.0000:   TOP DEPTH LOGGED
CS1 .IN                       30.6250:   CASING SIZE 1
BS1 .IN                       17.5000:   BIT SIZE 1
DDB1.F                       841.0000:   DEPTH DRILLED BIT 1
BHF .                              99:   FLUID CODE
DPT .                   Miscellaneous:   DRILLING FLUID TYPE
MUDD.                          8.7000:   FLUID DENSITY
MUDV.                         50.0000:   FLUID VISCOSITY
DFPH.                         12.0000:   FLUID PH
FL  .                         20.4000:   FLUID LOSS
RM  .OHMM                      1.1500:   RM
RMT .DEGF                     65.0000:   RM TEMP
RMF .OHMM                       .8000:   RMF
RMFT.DEGF                     65.0000:   RMF TEMP
FSC .                               M:   RMF CODE
RMC .OHMM                      1.4300:   RMC
RMCT.DEGF                     65.0000:   RMC TEMP
CMC .                               C:   RMC CODE
TMAX.DEGF                     85.0000:   MAX REC TEMP
TIMC.                          3.0000:   TIME SINCE CIRCLN
~PARAMETER INFORMATION (zones)
#MNEM.UNIT                       Value     Description
#=========                       =====     ===========
#ZONATION                          FDC:   ZONATION NAME
#ZONE                            RUN_4:   ZONE NAME
TOP .                      11038.0000:   TOP DEPTH
BOT .                      11040.0000:   BOTTOM DEPTH
RUN .                               4:   RUN NUMBER
LCCD.                             150:   LOGGING CONTRACTOR
SRVC.                   Dresser Atlas:   LOGGING CONT NAME
DICO.          QC Data Collectors Ltd:   DIG COMPANY NAME
LDAT.                      03/25/1983:   DATE LOGGED
ELD .F                        77.8000:   LOG DATUM ELEVATION
TDD .F                     11050.0000:   TOTAL DEPTH DRILLER
TDL .F                     11040.0000:   TOTAL DEPTH LOGGER
BOTL.F                     11038.0000:   BOTTOM DEPTH LOGGED
TOPL.F                      7555.0000:   TOP DEPTH LOGGED
CS1 .IN                        9.6250:   CASING SIZE 1
BS1 .IN                        8.5000:   BIT SIZE 1
DDB1.F                     11050.0000:   DEPTH DRILLED BIT 1
BHF .                              99:   FLUID CODE
DPT .                   Miscellaneous:   DRILLING FLUID TYPE
MUDD.                         16.6000:   FLUID DENSITY
MUDV.                         50.0000:   FLUID VISCOSITY
DFPH.                         11.4000:   FLUID PH
FL  .                         10.0000:   FLUID LOSS
RM  .OHMM                      1.7000:   RM
RMT .DEGF                     75.0000:   RM TEMP
RMF .OHMM                      1.2000:   RMF
RMFT.DEGF                     75.0000:   RMF TEMP
FSC .                               M:   RMF CODE
RMC .OHMM                      2.2000:   RMC
RMCT.DEGF                     75.0000:   RMC TEMP
CMC .                               M:   RMC CODE
TMAX.DEGF                    228.0000:   MAX REC TEMP
TIMC.                          4.0000:   TIME SINCE CIRCLN
~PARAMETER INFORMATION (zones)
#MNEM.UNIT                       Value     Description
#=========                       =====     ===========
#ZONATION                          FDC:   ZONATION NAME
#ZONE                            RUN_2:   ZONE NAME
TOP .                       4512.0000:   TOP DEPTH
BOT .                       7583.5000:   BOTTOM DEPTH
RUN .                               2:   RUN NUMBER
LCCD.                             150:   LOGGING CONTRACTOR
SRVC.                   Dresser Atlas:   LOGGING CONT NAME
DICO.          QC Data Collectors Ltd:   DIG COMPANY NAME
LDAT.                      02/28/1983:   DATE LOGGED
ELD .F                        77.8000:   LOG DATUM ELEVATION
TDD .F                      4512.0000:   TOTAL DEPTH DRILLER
TDL .F                      4505.0000:   TOTAL DEPTH LOGGER
BOTL.F                      7583.0000:   BOTTOM DEPTH LOGGED
TOPL.F                      4512.0000:   TOP DEPTH LOGGED
CS1 .IN                       20.0000:   CASING SIZE 1
BS1 .IN                       17.5000:   BIT SIZE 1
DDB1.F                      4512.0000:   DEPTH DRILLED BIT 1
BHF .                              99:   FLUID CODE
DPT .                   Miscellaneous:   DRILLING FLUID TYPE
MUDD.                          9.4000:   FLUID DENSITY
MUDV.                         40.0000:   FLUID VISCOSITY
DFPH.                         12.0000:   FLUID PH
FL  .                         38.0000:   FLUID LOSS
RM  .OHMM                       .2900:   RM
RMT .DEGF                     65.0000:   RM TEMP
RMF .OHMM                       .2100:   RMF
RMFT.DEGF                     65.0000:   RMF TEMP
FSC .                               M:   RMF CODE
RMC .OHMM                       .3400:   RMC
RMCT.DEGF                     65.0000:   RMC TEMP
CMC .                               C:   RMC CODE
TMAX.DEGF                     90.0000:   MAX REC TEMP
TIMC.                          3.0000:   TIME SINCE CIRCLN
~PARAMETER INFORMATION (zones)
#MNEM.UNIT                       Value     Description
#=========                       =====     ===========
#ZONATION                          FDC:   ZONATION NAME
#ZONE                            RUN_1:   ZONE NAME
TOP .                       4297.0000:   TOP DEPTH
BOT .                       7582.5000:   BOTTOM DEPTH
RUN .                               1:   RUN NUMBER
LCCD.                              20:   LOGGING CONTRACTOR
SRVC.                          Baroil:   LOGGING CONT NAME
DICO.          QC Data Collectors Ltd:   DIG COMPANY NAME
LDAT.                      03/12/1983:   DATE LOGGED
ELD .F                        77.8000:   LOG DATUM ELEVATION
TDD .F                      7587.0000:   TOTAL DEPTH DRILLER
TDL .F                      7584.0000:   TOTAL DEPTH LOGGER
BOTL.F                      7582.0000:   BOTTOM DEPTH LOGGED
TOPL.F                      4300.0000:   TOP DEPTH LOGGED
CS1 .IN                       13.3750:   CASING SIZE 1
BS1 .IN                       12.2500:   BIT SIZE 1
DDB1.F                      7587.0000:   DEPTH DRILLED BIT 1
BHF .                              70:   FLUID CODE
DPT .                       Phosphate:   DRILLING FLUID TYPE
MUDD.                         13.5000:   FLUID DENSITY
MUDV.                         49.0000:   FLUID VISCOSITY
DFPH.                         11.4000:   FLUID PH
FL  .                         12.8000:   FLUID LOSS
RM  .OHMM                       .0680:   RM
RMT .DEGF                     65.0000:   RM TEMP
RMF .OHMM                       .0530:   RMF
RMFT.DEGF                     65.0000:   RMF TEMP
FSC .                               M:   RMF CODE
RMC .OHMM                       .1020:   RMC
RMCT.DEGF                     65.0000:   RMC TEMP
CMC .                               C:   RMC CODE
TMAX.DEGF                    161.0000:   MAX REC TEMP
TIMC.                         10.0000:   TIME SINCE CIRCLN
~Curve Information Block
#MNEM.UNIT                    API CODE    No Description
#=========                    ========    == ===========
DEPT.F                   00 001 00 00:     1  DEPTH
NPHI.%                               :     2  Neutron Porosity
CILD.MMHO                            :     3  Deep Induction Conductivity
DT.US/F                              :     4  Sonic Transit Time
GR1.GAPI                              :     5  Gamma Ray
ILD.OHMM                             :     6  Deep Induction Resistivity
ILM.OHMM                             :     7  Medium Induction Resistivity
LN.OHMM                              :     8  Medium Resistivity
RFOC.OHMM                            :     9  Medium Resistivity
SN.OHMM                              :    10  Short-Normal Resistivity
SP.MV                                :    11  Spontaneous Potential
CALI.IN                              :    12  Caliper
DRHO.G/C3                            :    13  Bulk Density Correction
GR2.GAPI                              :    14  Gamma Ray
RHOB.G/C3                            :    15  Bulk Density
~ASCII
# ...
 7627.5000  -999.2500  1474.9180   131.7451    67.0963      .6817      .7882  -999.2500     1.0099  -999.2500   -56.6705  -999.2500  -999.2500  -999.2500  -999.2500
 7628.0000  -999.2500  1479.1191   129.0251    66.4053      .6827      .7907  -999.2500     1.0238  -999.2500   -56.3693  -999.2500  -999.2500  -999.2500  -999.2500
 7628.5000  -999.2500  1476.9609   125.3887    66.2747      .6883      .7932  -999.2500     1.0380  -999.2500   -56.2534  -999.2500  -999.2500  -999.2500  -999.2500
 7629.0000  -999.2500  1464.9434   122.3789    66.5073      .6940      .7958  -999.2500     1.0291  -999.2500   -56.1375  -999.2500  -999.2500  -999.2500  -999.2500
 7629.5000  -999.2500  1452.5078   122.0085    66.6278      .7007      .8172  -999.2500     1.0177  -999.2500   -56.2245  -999.2500  -999.2500  -999.2500  -999.2500
 7630.0000  -999.2500  1430.3750   121.4500    66.6237      .7106      .8405  -999.2500     1.0089  -999.2500   -56.6259  -999.2500  -999.2500  -999.2500  -999.2500
 7630.5000  -999.2500  1408.2422   120.5718    66.6196      .7206      .8644  -999.2500     1.0620  -999.2500   -57.0272  -999.2500  -999.2500  -999.2500  -999.2500
 7631.0000  -999.2500  1386.0840   119.6936    67.3593      .7306      .8814  -999.2500     1.1053  -999.2500   -57.3767  -999.2500  -999.2500  -999.2500  -999.2500
 7631.5000  -999.2500  1364.0762   118.8154    68.9547      .7407      .8960  -999.2500     1.1194  -999.2500   -57.6462  -999.2500  -999.2500  -999.2500  -999.2500
 7632.0000  -999.2500  1342.2383   117.4121    70.7188      .7513      .9006  -999.2500     1.1189  -999.2500   -57.9158  -999.2500  -999.2500  -999.2500  -999.2500
 7632.5000  -999.2500  1320.4277   116.2577    71.9011      .7621      .8984  -999.2500     1.1162  -999.2500   -57.7712  -999.2500  -999.2500  -999.2500  -999.2500
 7633.0000  -999.2500  1307.7344   118.4921    71.8899      .7731      .8962  -999.2500     1.1165  -999.2500   -57.5421  -999.2500  -999.2500  -999.2500  -999.2500
 7633.5000  -999.2500  1309.7461   119.7666    70.8912      .7811      .8955  -999.2500     1.1125  -999.2500   -57.2585  -999.2500  -999.2500  -999.2500  -999.2500
 7634.0000  -999.2500  1311.7578   120.9694    69.6295      .7871      .8949  -999.2500     1.0966  -999.2500   -56.8504  -999.2500  -999.2500  -999.2500  -999.2500
 7634.5000  -999.2500  1312.8535   122.1720    68.3492      .7876      .8943  -999.2500     1.0792  -999.2500   -56.4416  -999.2500  -999.2500  -999.2500  -999.2500
 7635.0000  -999.2500  1313.9063   122.0547    67.3779      .7870      .8944  -999.2500     1.0578  -999.2500   -56.0850  -999.2500  -999.2500  -999.2500  -999.2500
 7635.5000  -999.2500  1314.9590   121.1824    67.2864      .7864      .9059  -999.2500     1.0632  -999.2500   -55.8002  -999.2500  -999.2500  -999.2500  -999.2500
 7636.0000  -999.2500  1309.3965   119.0619    67.0780      .7861      .9176  -999.2500     1.0952  -999.2500   -55.5152  -999.2500  -999.2500  -999.2500  -999.2500
 7636.5000  -999.2500  1301.7734   117.1346    65.5530      .7873      .9294  -999.2500     1.1341  -999.2500   -55.5161  -999.2500  -999.2500  -999.2500  -999.2500
 7637.0000  -999.2500  1293.8770   116.1511    64.1759      .7885      .9360  -999.2500     1.1428  -999.2500   -55.5247  -999.2500  -999.2500  -999.2500  -999.2500
 7637.5000  -999.2500  1283.1934   115.3662    65.0927      .7914      .9387  -999.2500     1.1419  -999.2500   -55.6069  -999.2500  -999.2500  -999.2500  -999.2500
 7638.0000  -999.2500  1272.5215   115.3929    66.0095      .8003      .9413  -999.2500     1.1411  -999.2500   -55.7171  -999.2500  -999.2500  -999.2500  -999.2500
 7638.5000  -999.2500  1277.5430   115.8136    66.9623      .8084      .9393  -999.2500     1.1402  -999.2500   -55.7500  -999.2500  -999.2500  -999.2500  -999.2500
 7639.0000  -999.2500  1288.1152   116.4082    67.9249      .7987      .9354  -999.2500     1.1387  -999.2500   -55.6649  -999.2500  -999.2500  -999.2500  -999.2500
 7639.5000  -999.2500  1308.0645   117.0033    68.7933      .7891      .9316  -999.2500     1.1372  -999.2500   -55.4603  -999.2500  -999.2500  -999.2500  -999.2500
 7640.0000  -999.2500  1330.5918   118.2357    65.1361      .7796      .9278  -999.2500     1.1307  -999.2500   -54.9821  -999.2500  -999.2500  -999.2500  -999.2500
 7640.5000  -999.2500  1353.1445   119.4941    62.7766      .7677      .9166  -999.2500     1.1231  -999.2500   -54.6598  -999.2500  -999.2500  -999.2500  -999.2500
 7641.0000  -999.2500  1364.6367   120.9124    63.6747      .7560      .9055  -999.2500     1.1156  -999.2500   -54.4771  -999.2500  -999.2500  -999.2500  -999.2500
 7641.5000  -999.2500  1367.1719   122.3665    64.8322      .7464      .8974  -999.2500     1.0797  -999.2500   -54.4182  -999.2500  -999.2500  -999.2500  -999.2500
 7642.0000  -999.2500  1369.7109   122.4606    65.7924      .7461      .8997  -999.2500     1.0489  -999.2500   -54.7544  -999.2500  -999.2500  -999.2500  -999.2500
 7642.5000  -999.2500  1366.1484   120.9099    66.7465      .7458      .9020  -999.2500     1.0605  -999.2500   -55.0909  -999.2500  -999.2500  -999.2500  -999.2500
 7643.0000  -999.2500  1351.9102   119.3591    67.5900      .7502      .9090  -999.2500     1.0997  -999.2500   -55.3316  -999.2500  -999.2500  -999.2500  -999.2500
 7643.5000  -999.2500  1337.6484   118.3671    68.2017      .7590      .9168  -999.2500     1.1201  -999.2500   -55.5078  -999.2500  -999.2500  -999.2500  -999.2500
 7644.0000  -999.2500  1322.9688   117.3997    67.3989      .7679      .9248  -999.2500     1.1393  -999.2500   -55.6839  -999.2500  -999.2500  -999.2500  -999.2500
 7644.5000  -999.2500  1301.6250   117.7725    65.6633      .7768      .9340  -999.2500     1.1077  -999.2500   -55.8072  -999.2500  -999.2500  -999.2500  -999.2500
 7645.0000  -999.2500  1280.2578   118.9875    65.0511      .7885      .9454  -999.2500     1.0975  -999.2500   -55.8945  -999.2500  -999.2500  -999.2500  -999.2500
 7645.5000  -999.2500  1260.0488   118.5825    64.6022      .8009      .9570  -999.2500     1.1080  -999.2500   -55.9820  -999.2500  -999.2500  -999.2500  -999.2500
 7646.0000  -999.2500  1249.2285   117.3353    64.6886      .8135      .9659  -999.2500     1.1467  -999.2500   -55.9474  -999.2500  -999.2500  -999.2500  -999.2500
 7646.5000  -999.2500  1238.4102   115.8911    65.7440      .8262      .9683  -999.2500     1.1867  -999.2500   -55.8644  -999.2500  -999.2500  -999.2500  -999.2500
 7647.0000  -999.2500  1227.5781   114.4469    67.2278      .8299      .9708  -999.2500     1.1928  -999.2500   -55.7850  -999.2500  -999.2500  -999.2500  -999.2500
 7647.5000  -999.2500  1221.0020   113.6851    69.1160      .8293      .9732  -999.2500     1.1888  -999.2500   -55.8189  -999.2500  -999.2500  -999.2500  -999.2500
 7648.0000  -999.2500  1219.0625   113.6925    70.8665      .8287      .9754  -999.2500     1.1855  -999.2500   -55.8529  -999.2500  -999.2500  -999.2500  -999.2500
 7648.5000  -999.2500  1217.1191   115.0377    70.9105      .8278      .9775  -999.2500     1.1735  -999.2500   -55.9000  -999.2500  -999.2500  -999.2500  -999.2500
 7649.0000  -999.2500  1218.5469   116.0824    70.3978      .8195      .9797  -999.2500     1.1580  -999.2500   -55.9825  -999.2500  -999.2500  -999.2500  -999.2500
 7649.5000  -999.2500  1226.8867   116.6132    70.6763      .8113      .9779  -999.2500     1.1403  -999.2500   -56.0652  -999.2500  -999.2500  -999.2500  -999.2500
 7650.0000  -999.2500  1235.2148   117.1439    70.9548      .8031      .9681  -999.2500     1.1211  -999.2500   -56.1478  -999.2500  -999.2500  -999.2500  -999.2500
 7650.5000  -999.2500  1247.2930   117.2281    72.4209      .7951      .9584  -999.2500     1.1070  -999.2500   -55.9863  -999.2500  -999.2500  -999.2500  -999.2500
 7651.0000  -999.2500  1261.2578   117.1689    72.6542      .7882      .9504  -999.2500     1.1280  -999.2500   -55.7761  -999.2500  -999.2500  -999.2500  -999.2500
 7651.5000  -999.2500  1275.2227   117.1660    70.4558      .7817      .9443  -999.2500     1.1385  -999.2500   -55.4752  -999.2500  -999.2500  -999.2500  -999.2500
