~VERSION INFORMATION
VERS.                             2.0:   CWLS Log ASCII Standard-VERSION 2.0
WRAP.                              NO:   One line per depth step
~Well Information Block
STRT.F                       302.0000:   Top Depth
STOP.F                     11038.0000:   Bottom Depth
STEP.F                         .50000:   Depth Increment
NULL.                        -999.250:   Null Value
FLD .                         WILDCAT:   Field Name
WELL.       OCSG04565   001 ST00 BP00:   NAME
API .                    42706400940000:   WELL API
EDF .F                        76.8000:   ELEV DRILL FLOOR
COMP.                  TENNECO OIL CO:   OPERATOR
BN  .                             303:   BLOCK
CTRY.                             USA:   COUNTRY NAME
CNTY.                              GA:   COUNTY
CNTY.                        GLVSTN L:   COUNTY NAME
EKB .F                        79.0000:   ELEV KELLY BUSHING
TDD .F                      11050.000:   FINAL TD DRILLER
STAT.                           TEXAS:   STATE NAME
UWI .                    42706400940000:   WELL API
DICO.               IHS : Digitizing Company
~PARAMETER INFORMATION (zones)
#MNEM.UNIT                       Value     Description
#=========                       =====     ===========
#ZONATION                          CNL:   ZONATION NAME
#ZONE                            RUN_1:   ZONE NAME
TOP .                       4297.0000:   TOP DEPTH
BOT .                       7582.5000:   BOTTOM DEPTH
RUN .                               1:   RUN NUMBER
LCCD.                              20:   LOGGING CONTRACTOR
SRVC.                          Baroil:   LOGGING CONT NAME
DICO.          QC Data Collectors Ltd:   DIG COMPANY NAME
LDAT.                      03/12/1983:   DATE LOGGED
ELD .F                        77.8000:   LOG DATUM ELEVATION
TDD .F                      7587.0000:   TOTAL DEPTH DRILLER
TDL .F                      7584.0000:   TOTAL DEPTH LOGGER
BOTL.F                      7582.0000:   BOTTOM DEPTH LOGGED
TOPL.F                      4300.0000:   TOP DEPTH LOGGED
CS1 .IN                       13.3750:   CASING SIZE 1
BS1 .IN                       12.2500:   BIT SIZE 1
DDB1.F                      7587.0000:   DEPTH DRILLED BIT 1
BHF .                              70:   FLUID CODE
DPT .                       Phosphate:   DRILLING FLUID TYPE
MUDD.                         13.5000:   FLUID DENSITY
MUDV.                         49.0000:   FLUID VISCOSITY
DFPH.                         11.4000:   FLUID PH
FL  .                         12.8000:   FLUID LOSS
RM  .OHMM                       .0680:   RM
RMT .DEGF                     65.0000:   RM TEMP
RMF .OHMM                       .0530:   RMF
RMFT.DEGF                     65.0000:   RMF TEMP
FSC .                               M:   RMF CODE
RMC .OHMM                       .1020:   RMC
RMCT.DEGF                     65.0000:   RMC TEMP
CMC .                               C:   RMC CODE
TMAX.DEGF                    161.0000:   MAX REC TEMP
TIMC.                         10.0000:   TIME SINCE CIRCLN
~PARAMETER INFORMATION (zones)
#MNEM.UNIT                       Value     Description
#=========                       =====     ===========
#ZONATION                          DIL:   ZONATION NAME
#ZONE                            RUN_1:   ZONE NAME
TOP .                        302.0000:   TOP DEPTH
BOT .                      11038.5000:   BOTTOM DEPTH
RUN .                               1:   RUN NUMBER
LCCD.                             150:   LOGGING CONTRACTOR
SRVC.                   Dresser Atlas:   LOGGING CONT NAME
DICO.          QC Data Collectors Ltd:   DIG COMPANY NAME
LDAT.                      02/22/1983:   DATE LOGGED
ELD .F                        77.8000:   LOG DATUM ELEVATION
TDD .F                       841.0000:   TOTAL DEPTH DRILLER
TDL .F                       832.0000:   TOTAL DEPTH LOGGER
BOTL.F                     11038.0000:   BOTTOM DEPTH LOGGED
TOPL.F                       302.0000:   TOP DEPTH LOGGED
CS1 .IN                       30.6250:   CASING SIZE 1
BS1 .IN                       17.5000:   BIT SIZE 1
DDB1.F                       841.0000:   DEPTH DRILLED BIT 1
BHF .                              99:   FLUID CODE
DPT .                   Miscellaneous:   DRILLING FLUID TYPE
MUDD.                          8.7000:   FLUID DENSITY
MUDV.                         50.0000:   FLUID VISCOSITY
DFPH.                         12.0000:   FLUID PH
FL  .                         20.4000:   FLUID LOSS
RM  .OHMM                      1.1500:   RM
RMT .DEGF                     65.0000:   RM TEMP
RMF .OHMM                       .8000:   RMF
RMFT.DEGF                     65.0000:   RMF TEMP
FSC .                               M:   RMF CODE
RMC .OHMM                      1.4300:   RMC
RMCT.DEGF                     65.0000:   RMC TEMP
CMC .                               C:   RMC CODE
TMAX.DEGF                     85.0000:   MAX REC TEMP
TIMC.                          3.0000:   TIME SINCE CIRCLN
~PARAMETER INFORMATION (zones)
#MNEM.UNIT                       Value     Description
#=========                       =====     ===========
#ZONATION                          FDC:   ZONATION NAME
#ZONE                            RUN_4:   ZONE NAME
TOP .                      11038.0000:   TOP DEPTH
BOT .                      11040.0000:   BOTTOM DEPTH
RUN .                               4:   RUN NUMBER
LCCD.                             150:   LOGGING CONTRACTOR
SRVC.                   Dresser Atlas:   LOGGING CONT NAME
DICO.          QC Data Collectors Ltd:   DIG COMPANY NAME
LDAT.                      03/25/1983:   DATE LOGGED
ELD .F                        77.8000:   LOG DATUM ELEVATION
TDD .F                     11050.0000:   TOTAL DEPTH DRILLER
TDL .F                     11040.0000:   TOTAL DEPTH LOGGER
BOTL.F                     11038.0000:   BOTTOM DEPTH LOGGED
TOPL.F                      7555.0000:   TOP DEPTH LOGGED
CS1 .IN                        9.6250:   CASING SIZE 1
BS1 .IN                        8.5000:   BIT SIZE 1
DDB1.F                     11050.0000:   DEPTH DRILLED BIT 1
BHF .                              99:   FLUID CODE
DPT .                   Miscellaneous:   DRILLING FLUID TYPE
MUDD.                         16.6000:   FLUID DENSITY
MUDV.                         50.0000:   FLUID VISCOSITY
DFPH.                         11.4000:   FLUID PH
FL  .                         10.0000:   FLUID LOSS
RM  .OHMM                      1.7000:   RM
RMT .DEGF                     75.0000:   RM TEMP
RMF .OHMM                      1.2000:   RMF
RMFT.DEGF                     75.0000:   RMF TEMP
FSC .                               M:   RMF CODE
RMC .OHMM                      2.2000:   RMC
RMCT.DEGF                     75.0000:   RMC TEMP
CMC .                               M:   RMC CODE
TMAX.DEGF                    228.0000:   MAX REC TEMP
TIMC.                          4.0000:   TIME SINCE CIRCLN
~PARAMETER INFORMATION (zones)
#MNEM.UNIT                       Value     Description
#=========                       =====     ===========
#ZONATION                          FDC:   ZONATION NAME
#ZONE                            RUN_2:   ZONE NAME
TOP .                       4512.0000:   TOP DEPTH
BOT .                       7583.5000:   BOTTOM DEPTH
RUN .                               2:   RUN NUMBER
LCCD.                             150:   LOGGING CONTRACTOR
SRVC.                   Dresser Atlas:   LOGGING CONT NAME
DICO.          QC Data Collectors Ltd:   DIG COMPANY NAME
LDAT.                      02/28/1983:   DATE LOGGED
ELD .F                        77.8000:   LOG DATUM ELEVATION
TDD .F                      4512.0000:   TOTAL DEPTH DRILLER
TDL .F                      4505.0000:   TOTAL DEPTH LOGGER
BOTL.F                      7583.0000:   BOTTOM DEPTH LOGGED
TOPL.F                      4512.0000:   TOP DEPTH LOGGED
CS1 .IN                       20.0000:   CASING SIZE 1
BS1 .IN                       17.5000:   BIT SIZE 1
DDB1.F                      4512.0000:   DEPTH DRILLED BIT 1
BHF .                              99:   FLUID CODE
DPT .                   Miscellaneous:   DRILLING FLUID TYPE
MUDD.                          9.4000:   FLUID DENSITY
MUDV.                         40.0000:   FLUID VISCOSITY
DFPH.                         12.0000:   FLUID PH
FL  .                         38.0000:   FLUID LOSS
RM  .OHMM                       .2900:   RM
RMT .DEGF                     65.0000:   RM TEMP
RMF .OHMM                       .2100:   RMF
RMFT.DEGF                     65.0000:   RMF TEMP
FSC .                               M:   RMF CODE
RMC .OHMM                       .3400:   RMC
RMCT.DEGF                     65.0000:   RMC TEMP
CMC .                               C:   RMC CODE
TMAX.DEGF                     90.0000:   MAX REC TEMP
TIMC.                          3.0000:   TIME SINCE CIRCLN
~PARAMETER INFORMATION (zones)
#MNEM.UNIT                       Value     Description
#=========                       =====     ===========
#ZONATION                          FDC:   ZONATION NAME
#ZONE                            RUN_1:   ZONE NAME
TOP .                       4297.0000:   TOP DEPTH
BOT .                       7582.5000:   BOTTOM DEPTH
RUN .                               1:   RUN NUMBER
LCCD.                              20:   LOGGING CONTRACTOR
SRVC.                          Baroil:   LOGGING CONT NAME
DICO.          QC Data Collectors Ltd:   DIG COMPANY NAME
LDAT.                      03/12/1983:   DATE LOGGED
ELD .F                        77.8000:   LOG DATUM ELEVATION
TDD .F                      7587.0000:   TOTAL DEPTH DRILLER
TDL .F                      7584.0000:   TOTAL DEPTH LOGGER
BOTL.F                      7582.0000:   BOTTOM DEPTH LOGGED
TOPL.F                      4300.0000:   TOP DEPTH LOGGED
CS1 .IN                       13.3750:   CASING SIZE 1
BS1 .IN                       12.2500:   BIT SIZE 1
DDB1.F                      7587.0000:   DEPTH DRILLED BIT 1
BHF .                              70:   FLUID CODE
DPT .                       Phosphate:   DRILLING FLUID TYPE
MUDD.                         13.5000:   FLUID DENSITY
MUDV.                         49.0000:   FLUID VISCOSITY
DFPH.                         11.4000:   FLUID PH
FL  .                         12.8000:   FLUID LOSS
RM  .OHMM                       .0680:   RM
RMT .DEGF                     65.0000:   RM TEMP
RMF .OHMM                       .0530:   RMF
RMFT.DEGF                     65.0000:   RMF TEMP
FSC .                               M:   RMF CODE
RMC .OHMM                       .1020:   RMC
RMCT.DEGF                     65.0000:   RMC TEMP
CMC .                               C:   RMC CODE
TMAX.DEGF                    161.0000:   MAX REC TEMP
TIMC.                         10.0000:   TIME SINCE CIRCLN
~Curve Information Block
#MNEM.UNIT                    API CODE    No Description
#=========                    ========    == ===========
DEPT.F                   00 001 00 00:     1  DEPTH
NPHI.%                               :     2  Neutron Porosity
CILD.MMHO                            :     3  Deep Induction Conductivity
DT.US/F                              :     4  Sonic Transit Time
GR1.GAPI                              :     5  Gamma Ray
ILD.OHMM                             :     6  Deep Induction Resistivity
ILM.OHMM                             :     7  Medium Induction Resistivity
LN.OHMM                              :     8  Medium Resistivity
RFOC.OHMM                            :     9  Medium Resistivity
SN.OHMM                              :    10  Short-Normal Resistivity
SP.MV                                :    11  Spontaneous Potential
CALI.IN                              :    12  Caliper
DRHO.G/C3                            :    13  Bulk Density Correction
GR2.GAPI                              :    14  Gamma Ray
RHOB.G/C3                            :    15  Bulk Density
~ASCII
# ...
  841.0000  -999.2500  1136.7070   179.0813    55.5422      .8551     1.1181  -999.2500     1.1769  -999.2500   -60.2319  -999.2500  -999.2500  -999.2500  -999.2500
  841.5000  -999.2500  1129.6211   178.9785    57.4272      .8567     1.1066  -999.2500     1.1812  -999.2500   -60.7093  -999.2500  -999.2500  -999.2500  -999.2500
  842.0000  -999.2500  1059.0059   179.1135    59.2844      .9295     1.0978  -999.2500     1.1882  -999.2500   -61.2164  -999.2500  -999.2500  -999.2500  -999.2500
  842.5000  -999.2500   976.2197   178.9531    58.0195     1.0093     1.0818  -999.2500     1.1962  -999.2500   -61.4948  -999.2500  -999.2500  -999.2500  -999.2500
  843.0000  -999.2500   929.9863   178.6848    57.2308     1.0763     1.0639  -999.2500     1.2042  -999.2500   -60.9847  -999.2500  -999.2500  -999.2500  -999.2500
  843.5000  -999.2500   915.3496   179.4822    57.2485     1.0792     1.0490  -999.2500     1.2112  -999.2500   -60.5297  -999.2500  -999.2500  -999.2500  -999.2500
  844.0000  -999.2500   921.8027   180.1826    57.7295     1.0501     1.0338  -999.2500     1.2131  -999.2500   -60.2734  -999.2500  -999.2500  -999.2500  -999.2500
  844.5000  -999.2500   949.6543   180.8555    58.5110     1.0187     1.0184  -999.2500     1.2082  -999.2500   -60.3835  -999.2500  -999.2500  -999.2500  -999.2500
  845.0000  -999.2500   983.2227   181.4612    59.2689      .9881     1.0043  -999.2500     1.1932  -999.2500   -60.3505  -999.2500  -999.2500  -999.2500  -999.2500
  845.5000  -999.2500  1016.9922   181.9543    59.9009      .9582      .9916  -999.2500     1.1821  -999.2500   -60.2518  -999.2500  -999.2500  -999.2500  -999.2500
  846.0000  -999.2500  1048.1953   182.3010    59.7955      .9318      .9789  -999.2500     1.1751  -999.2500   -60.0977  -999.2500  -999.2500  -999.2500  -999.2500
  846.5000  -999.2500  1072.2227   182.3569    59.6976      .9114      .9659  -999.2500     1.1719  -999.2500   -59.8777  -999.2500  -999.2500  -999.2500  -999.2500
  847.0000  -999.2500  1088.8438   182.3206    60.3919      .8951      .9552  -999.2500     1.1702  -999.2500   -59.5052  -999.2500  -999.2500  -999.2500  -999.2500
  847.5000  -999.2500  1102.9961   182.2842    61.7539      .8810      .9456  -999.2500     1.1678  -999.2500   -59.0061  -999.2500  -999.2500  -999.2500  -999.2500
  848.0000  -999.2500  1116.9766   182.2935    62.1132      .8697      .9376  -999.2500     1.1644  -999.2500   -58.4291  -999.2500  -999.2500  -999.2500  -999.2500
  848.5000  -999.2500  1118.4473   182.3103    60.5709      .8605      .9313  -999.2500     1.1599  -999.2500   -57.8140  -999.2500  -999.2500  -999.2500  -999.2500
  849.0000  -999.2500  1108.8320   182.3274    59.3794      .8658      .9299  -999.2500     1.1525  -999.2500   -57.6264  -999.2500  -999.2500  -999.2500  -999.2500
  849.5000  -999.2500  1097.5938   182.2896    58.1880      .8712      .9326  -999.2500     1.1478  -999.2500   -57.9993  -999.2500  -999.2500  -999.2500  -999.2500
  850.0000  -999.2500  1087.0059   182.2187    57.2214      .8791      .9378  -999.2500     1.1469  -999.2500   -58.2831  -999.2500  -999.2500  -999.2500  -999.2500
  850.5000  -999.2500  1078.8535   182.0745    56.9481      .8856      .9426  -999.2500     1.1517  -999.2500   -58.4598  -999.2500  -999.2500  -999.2500  -999.2500
  851.0000  -999.2500  1089.4102   181.8530    57.4960      .8827      .9473  -999.2500     1.1546  -999.2500   -58.6690  -999.2500  -999.2500  -999.2500  -999.2500
  851.5000  -999.2500  1100.2031   182.0576    58.4583      .8774      .9493  -999.2500     1.1547  -999.2500   -59.0156  -999.2500  -999.2500  -999.2500  -999.2500
  852.0000  -999.2500  1111.4395   182.5432    59.0541      .8686      .9498  -999.2500     1.1520  -999.2500   -59.3613  -999.2500  -999.2500  -999.2500  -999.2500
  852.5000  -999.2500  1122.8164   182.8489    58.1619      .8599      .9498  -999.2500     1.1533  -999.2500   -59.5392  -999.2500  -999.2500  -999.2500  -999.2500
  853.0000  -999.2500  1134.8555   182.9856    58.1677      .8519      .9452  -999.2500     1.1554  -999.2500   -59.3581  -999.2500  -999.2500  -999.2500  -999.2500
  853.5000  -999.2500  1144.4961   182.9016    59.3959      .8502      .9530  -999.2500     1.1616  -999.2500   -59.2268  -999.2500  -999.2500  -999.2500  -999.2500
  854.0000  -999.2500  1139.0605   181.7649    60.6630      .8562      .9622  -999.2500     1.1677  -999.2500   -59.1127  -999.2500  -999.2500  -999.2500  -999.2500
  854.5000  -999.2500  1119.8535   180.4663    61.8735      .8645      .9725  -999.2500     1.1728  -999.2500   -58.9987  -999.2500  -999.2500  -999.2500  -999.2500
  855.0000  -999.2500  1103.1816   179.2502    62.7234      .8739      .9829  -999.2500     1.1791  -999.2500   -58.8825  -999.2500  -999.2500  -999.2500  -999.2500
  855.5000  -999.2500  1092.9805   178.3191    62.8345      .8835      .9871  -999.2500     1.1875  -999.2500   -58.7662  -999.2500  -999.2500  -999.2500  -999.2500
  856.0000  -999.2500  1083.6563   177.3916    62.5468      .8935      .9873  -999.2500     1.1965  -999.2500   -58.6499  -999.2500  -999.2500  -999.2500  -999.2500
  856.5000  -999.2500  1079.2227   176.5825    63.1578      .9035      .9815  -999.2500     1.2058  -999.2500   -58.5310  -999.2500  -999.2500  -999.2500  -999.2500
  857.0000  -999.2500  1074.3906   175.8418    64.0270      .9088      .9686  -999.2500     1.2117  -999.2500   -58.4096  -999.2500  -999.2500  -999.2500  -999.2500
  857.5000  -999.2500  1079.3555   175.3872    64.7195      .9114      .9509  -999.2500     1.2086  -999.2500   -58.2882  -999.2500  -999.2500  -999.2500  -999.2500
  858.0000  -999.2500  1107.1855   175.4028    62.2928      .8913      .9205  -999.2500     1.1900  -999.2500   -58.1762  -999.2500  -999.2500  -999.2500  -999.2500
  858.5000  -999.2500  1135.4961   176.5227    62.4023      .8716      .8862  -999.2500     1.1733  -999.2500   -58.0715  -999.2500  -999.2500  -999.2500  -999.2500
  859.0000  -999.2500  1161.3691   177.7756    62.9851      .8486      .8703  -999.2500     1.1599  -999.2500   -58.0074  -999.2500  -999.2500  -999.2500  -999.2500
  859.5000  -999.2500  1151.2383   178.5483    63.5304      .8427      .8676  -999.2500     1.1481  -999.2500   -58.3173  -999.2500  -999.2500  -999.2500  -999.2500
  860.0000  -999.2500  1111.6094   178.7590    62.6523      .8564      .9298  -999.2500     1.1405  -999.2500   -59.0891  -999.2500  -999.2500  -999.2500  -999.2500
  860.5000  -999.2500  1067.9902   178.8904    56.5091      .8775     1.0194  -999.2500     1.1345  -999.2500   -59.7267  -999.2500  -999.2500  -999.2500  -999.2500
  861.0000  -999.2500  1053.4453   179.2871    51.6118      .8971     1.0776  -999.2500     1.1317  -999.2500   -60.2690  -999.2500  -999.2500  -999.2500  -999.2500
  861.5000  -999.2500  1029.2285   179.7241    48.1131      .8905     1.1147  -999.2500     1.1303  -999.2500   -60.5934  -999.2500  -999.2500  -999.2500  -999.2500
  862.0000  -999.2500  1005.0098   180.2271    45.2504      .9195     1.1232  -999.2500     1.1228  -999.2500   -61.6800  -999.2500  -999.2500  -999.2500  -999.2500
  862.5000  -999.2500   939.5605   180.4272    43.1103     1.0219     1.1421  -999.2500     1.1352  -999.2500   -63.7421  -999.2500  -999.2500  -999.2500  -999.2500
  863.0000  -999.2500   860.7070   180.1848    41.5983     1.1343     1.1717  -999.2500     1.1563  -999.2500   -65.9324  -999.2500  -999.2500  -999.2500  -999.2500
  863.5000  -999.2500   804.7363   179.4683    40.5477     1.2121     1.2128  -999.2500     1.1880  -999.2500   -68.0983  -999.2500  -999.2500  -999.2500  -999.2500
  864.0000  -999.2500   765.1357   178.6592    42.2493     1.2726     1.2619  -999.2500     1.2279  -999.2500   -70.9047  -999.2500  -999.2500  -999.2500  -999.2500
  864.5000  -999.2500   729.9150   176.0906    44.3931     1.3323     1.3092  -999.2500     1.2557  -999.2500   -74.1697  -999.2500  -999.2500  -999.2500  -999.2500
  865.0000  -999.2500   680.3701   173.2295    43.5964     1.4029     1.3511  -999.2500     1.2812  -999.2500   -77.6621  -999.2500  -999.2500  -999.2500  -999.2500
