~VERSION INFORMATION
VERS.                             2.0:   CWLS Log ASCII Standard-VERSION 2.0
WRAP.                              NO:   One line per depth step
~Well Information Block
STRT.F                      4703.0000:   Top Depth
STOP.F                      9304.5000:   Bottom Depth
STEP.F                         .50000:   Depth Increment
NULL.                        -999.250:   Null Value
FLD .                      BA BLK 399:   Field Name
WELL.       OCSG07218  A003 ST00 BP00:   NAME
API .                  42704403090000:   WELL API
EDF .F                       113.0000:   ELEV DRILL FLOOR
COMP.       SEAGULL ENERGY E AND P IN:   OPERATOR
EGL .F                       -62.0000:   ELEV GROUND LEVEL
EKB .F                       114.0000:   ELEV KELLY BUSHING
TDD .F                      9314.0000:   FINAL TD DRILLER
UWI .                  42704403090000:   WELL API
DICO.               IHS : Digitizing Company
~PARAMETER INFORMATION (zones)
#MNEM.UNIT                       Value     Description
#=========                       =====     ===========
#ZONATION                          CNL:   ZONATION NAME
#ZONE                            RUN_1:   ZONE NAME
TOP .                       4703.0000:   TOP DEPTH
BOT .                       9200.5000:   BOTTOM DEPTH
RUN .                               1:   RUN NUMBER
LCCD.                             510:   LOGGING CONTRACTOR
SRVC.                   Western Atlas:   LOGGING CONT NAME
DICO.          QC Data Collectors Ltd:   DIG COMPANY NAME
LDAT.                      03/24/1997:   DATE LOGGED
TDD .F                      9314.0000:   TOTAL DEPTH DRILLER
TDL .F                      9307.0000:   TOTAL DEPTH LOGGER
BOTL.F                      9305.0000:   BOTTOM DEPTH LOGGED
TOPL.F                      4703.0000:   TOP DEPTH LOGGED
CS1 .                         10.7500:   CASING SIZE 1
BS1 .                          9.8750:   BIT SIZE 1
DDB1.F                      9314.0000:   DEPTH DRILLED BIT 1
BHF .                              99:   FLUID CODE
DPT .                   Miscellaneous:   DRILLING FLUID TYPE
MUDD.                         11.5000:   FLUID DENSITY
MUDV.                         41.0000:   FLUID VISCOSITY
DFPH.                         10.2000:   FLUID PH
FL  .                          5.0000:   FLUID LOSS
RM  .OHMM                      1.1200:   RM
RMT .DEGF                     75.0000:   RM TEMP
RMF .OHMM                       .8300:   RMF
RMFT.DEGF                     75.0000:   RMF TEMP
FSC .                               M:   RMF CODE
RMC .OHMM                      1.4600:   RMC
RMCT.DEGF                     75.0000:   RMC TEMP
CMC .                               M:   RMC CODE
TMAX.DEGF                    181.0000:   MAX REC TEMP
TIMC.                         24.0000:   TIME SINCE CIRCLN
SON .                          173943:   SERVICE ORDER NUM
LMF .                             MSL:   LOGS MEAS FROM
MUDS.                             PIT:   MUD SOURCE
ENG .                         HADSALL:   ENGINEER
WIT .                        FONTENOT:   WITNESS
~PARAMETER INFORMATION (zones)
#MNEM.UNIT                       Value     Description
#=========                       =====     ===========
#ZONATION                          DAL:   ZONATION NAME
#ZONE                            RUN_1:   ZONE NAME
TOP .                       4703.0000:   TOP DEPTH
BOT .                       9242.5000:   BOTTOM DEPTH
RUN .                               1:   RUN NUMBER
LCCD.                             510:   LOGGING CONTRACTOR
SRVC.                   Western Atlas:   LOGGING CONT NAME
DICO.          QC Data Collectors Ltd:   DIG COMPANY NAME
LDAT.                      03/24/1997:   DATE LOGGED
TDD .F                      9314.0000:   TOTAL DEPTH DRILLER
TDL .F                      9307.0000:   TOTAL DEPTH LOGGER
BOTL.F                      9305.0000:   BOTTOM DEPTH LOGGED
TOPL.F                      4703.0000:   TOP DEPTH LOGGED
CS1 .                         10.7500:   CASING SIZE 1
BS1 .                          9.8750:   BIT SIZE 1
DDB1.F                      9314.0000:   DEPTH DRILLED BIT 1
BHF .                              99:   FLUID CODE
DPT .                   Miscellaneous:   DRILLING FLUID TYPE
MUDD.                         11.5000:   FLUID DENSITY
MUDV.                         41.0000:   FLUID VISCOSITY
DFPH.                         10.2000:   FLUID PH
FL  .                          5.0000:   FLUID LOSS
RM  .OHMM                      1.1200:   RM
RMT .DEGF                     75.0000:   RM TEMP
RMF .OHMM                       .8300:   RMF
RMFT.DEGF                     75.0000:   RMF TEMP
FSC .                               M:   RMF CODE
RMC .OHMM                      1.4600:   RMC
RMCT.DEGF                     75.0000:   RMC TEMP
CMC .                               M:   RMC CODE
TMAX.DEGF                    181.0000:   MAX REC TEMP
TIMC.                         24.0000:   TIME SINCE CIRCLN
SON .                          173943:   SERVICE ORDER NUM
LMF .                             MSL:   LOGS MEAS FROM
MUDS.                             PIT:   MUD SOURCE
ENG .                         HADSALL:   ENGINEER
WIT .                        FONTENOT:   WITNESS
~PARAMETER INFORMATION (zones)
#MNEM.UNIT                       Value     Description
#=========                       =====     ===========
#ZONATION                          DIL:   ZONATION NAME
#ZONE                            RUN_1:   ZONE NAME
TOP .                       4703.0000:   TOP DEPTH
BOT .                       9305.5000:   BOTTOM DEPTH
RUN .                               1:   RUN NUMBER
LCCD.                             510:   LOGGING CONTRACTOR
SRVC.                   Western Atlas:   LOGGING CONT NAME
DICO.          QC Data Collectors Ltd:   DIG COMPANY NAME
LDAT.                      03/24/1997:   DATE LOGGED
TDD .F                      9314.0000:   TOTAL DEPTH DRILLER
TDL .F                      9307.0000:   TOTAL DEPTH LOGGER
BOTL.F                      9305.0000:   BOTTOM DEPTH LOGGED
TOPL.F                      4703.0000:   TOP DEPTH LOGGED
CS1 .                         10.7500:   CASING SIZE 1
BS1 .                          9.8750:   BIT SIZE 1
DDB1.F                      9314.0000:   DEPTH DRILLED BIT 1
BHF .                              99:   FLUID CODE
DPT .                   Miscellaneous:   DRILLING FLUID TYPE
MUDD.                         11.5000:   FLUID DENSITY
MUDV.                         41.0000:   FLUID VISCOSITY
DFPH.                         10.2000:   FLUID PH
FL  .                          5.0000:   FLUID LOSS
RM  .OHMM                      1.1200:   RM
RMT .DEGF                     75.0000:   RM TEMP
RMF .OHMM                       .8300:   RMF
RMFT.DEGF                     75.0000:   RMF TEMP
FSC .                               M:   RMF CODE
RMC .OHMM                      1.4600:   RMC
RMCT.DEGF                     75.0000:   RMC TEMP
CMC .                               M:   RMC CODE
TMAX.DEGF                    181.0000:   MAX REC TEMP
TIMC.                         24.0000:   TIME SINCE CIRCLN
SON .                          173943:   SERVICE ORDER NUM
LMF .                             MSL:   LOGS MEAS FROM
MUDS.                             PIT:   MUD SOURCE
ENG .                         HADSALL:   ENGINEER
WIT .                        FONTENOT:   WITNESS
~PARAMETER INFORMATION (zones)
#MNEM.UNIT                       Value     Description
#=========                       =====     ===========
#ZONATION                          FDC:   ZONATION NAME
#ZONE                            RUN_1:   ZONE NAME
TOP .                       4703.0000:   TOP DEPTH
BOT .                       9228.5000:   BOTTOM DEPTH
RUN .                               1:   RUN NUMBER
LCCD.                             510:   LOGGING CONTRACTOR
SRVC.                   Western Atlas:   LOGGING CONT NAME
DICO.          QC Data Collectors Ltd:   DIG COMPANY NAME
LDAT.                      03/24/1997:   DATE LOGGED
TDD .F                      9314.0000:   TOTAL DEPTH DRILLER
TDL .F                      9307.0000:   TOTAL DEPTH LOGGER
BOTL.F                      9305.0000:   BOTTOM DEPTH LOGGED
TOPL.F                      4703.0000:   TOP DEPTH LOGGED
CS1 .                         10.7500:   CASING SIZE 1
BS1 .                          9.8750:   BIT SIZE 1
DDB1.F                      9314.0000:   DEPTH DRILLED BIT 1
BHF .                              99:   FLUID CODE
DPT .                   Miscellaneous:   DRILLING FLUID TYPE
MUDD.                         11.5000:   FLUID DENSITY
MUDV.                         41.0000:   FLUID VISCOSITY
DFPH.                         10.2000:   FLUID PH
FL  .                          5.0000:   FLUID LOSS
RM  .OHMM                      1.1200:   RM
RMT .DEGF                     75.0000:   RM TEMP
RMF .OHMM                       .8300:   RMF
RMFT.DEGF                     75.0000:   RMF TEMP
FSC .                               M:   RMF CODE
RMC .OHMM                      1.4600:   RMC
RMCT.DEGF                     75.0000:   RMC TEMP
CMC .                               M:   RMC CODE
TMAX.DEGF                    181.0000:   MAX REC TEMP
TIMC.                         24.0000:   TIME SINCE CIRCLN
SON .                          173943:   SERVICE ORDER NUM
LMF .                             MSL:   LOGS MEAS FROM
MUDS.                             PIT:   MUD SOURCE
ENG .                         HADSALL:   ENGINEER
WIT .                        FONTENOT:   WITNESS
~Curve Information Block
#MNEM.UNIT                    API CODE    No Description
#=========                    ========    == ===========
DEPT.F                   00 001 00 00:     1  DEPTH
CNCF.%                               :     2  Field Normalized CNC
DT24.US/F                            :     3  Unrecognised
CILD.MMHO                            :     4  Deep Induction Conductivity
RFOC.OHMM                            :     5  Medium Resistivity
RILD.OHMM                            :     6  Deep Resistivity
RILM.OHMM                            :     7  Medium Resistivity
RWAZ.OHMM                            :     8  Unrecognised
SP.MV                                :     9  Spontaneous Potential
GR.GAPI                              :    10  Gamma Ray
PORZ.%                               :    11  Neutron Porosity
ZCOR.G/C3                            :    12  Density Correction
ZDEN.G/C3                            :    13  Bulk Density
~ASCII
# ...
 5907.0000    46.6720   124.6819  1367.8086     1.2190      .7310      .7260      .1170     4.6240    69.6759    34.1200      .0570     2.0870
 5907.5000    47.3929   123.4509  1337.3340     1.1930      .7480      .7340      .1160     4.7880    67.5909    33.7029      .0520     2.0940
 5908.0000    46.4420   123.0260  1317.3418     1.2140      .7590      .7400      .1170     4.3110    70.3889    33.6219      .0520     2.0950
 5908.5000    46.3409   122.4789  1310.7090     1.2220      .7630      .7460      .1180     4.4010    70.3340    33.5980      .0610     2.0960
 5909.0000    47.2380   121.6029  1310.0508     1.2130      .7630      .7490      .1250     4.1110    68.7319    34.4930      .0440     2.0810
 5909.5000    48.1650   121.3569  1309.0117     1.2360      .7640      .7450      .1220     3.9480    71.8600    34.1070      .0510     2.0870
 5910.0000    48.2679   121.5909  1311.1348     1.2430      .7630      .7400      .1220     4.2840    71.9369    34.0760      .0450     2.0880
 5910.5000    47.4910   122.5060  1313.4941     1.1990      .7610      .7370      .1220     4.7930    73.7780    34.2120      .0500     2.0860
 5911.0000    48.0090   123.6079  1321.2168     1.1790      .7570      .7320      .1180     5.0120    71.9650    33.7469      .0450     2.0930
 5911.5000    45.9350   124.5959  1339.1016     1.2060      .7470      .7230      .1070     5.5790    68.8939    32.4319      .0590     2.1150
 5912.0000    45.5990   125.7899  1362.0215     1.2110      .7340      .7140      .1070     5.6590    67.0580    32.6540      .0540     2.1110
 5912.5000    45.2270   126.2510  1377.6953     1.1810      .7260      .7090      .1100     5.3660    67.7789    33.2620      .0540     2.1010
 5913.0000    46.5380   126.3350  1387.6211     1.1690      .7210      .7060      .1080     5.6900    66.8729    33.1429      .0510     2.1030
 5913.5000    45.8120   126.3979  1396.5508     1.1800      .7160      .7030      .1130     4.8420    64.7400    33.8970      .0400     2.0910
 5914.0000    45.7630   125.8309  1399.3555     1.1900      .7150      .7040      .1130     5.6340    62.2060    33.9630      .0460     2.0900
 5914.5000    46.3210   125.0170  1396.9512     1.1850      .7160      .7080      .1110     5.6740    62.5470    33.6670      .0510     2.0950
 5915.0000    46.2280   124.4609  1393.0508     1.1910      .7180      .7140      .1140     5.1000    64.1709    34.0680      .0480     2.0880
 5915.5000    46.6150   123.6260  1393.0957     1.2150      .7180      .7160      .1220     5.4020    61.8560    35.1210      .0360     2.0700
 5916.0000    45.2079   122.9869  1393.1914     1.2390      .7180      .7150      .1260     3.6700    60.0860    35.6530      .0390     2.0620
 5916.5000    44.5590   123.2000  1394.6758     1.2410      .7170      .7100      .1220     3.2370    60.2710    35.0860      .0500     2.0710
 5917.0000    44.8510   123.6580  1398.2246     1.2370      .7150      .7030      .1190     2.9930    64.0559    34.7980      .0380     2.0760
 5917.5000    44.9350   124.9330  1402.7871     1.2260      .7130      .6970      .1190     2.4430    62.9740    34.7939      .0330     2.0760
 5918.0000    45.2690   126.0020  1412.3867     1.1950      .7080      .6950      .1200     3.5300    61.0140    35.0980      .0510     2.0710
 5918.5000    45.0590   125.9540  1429.8105     1.1730      .6990      .6910      .1250     4.7230    63.8080    35.9860      .0390     2.0560
 5919.0000    44.5670   125.6659  1446.4492     1.1960      .6910      .6850      .1200     5.5060    60.4090    35.4870      .0380     2.0650
 5919.5000    44.9490   125.7150  1458.3555     1.2250      .6860      .6790      .1070     5.4130    59.6230    33.8040      .0520     2.0920
 5920.0000    46.3170   126.2999  1456.4570     1.2020      .6870      .6800      .1130     4.9690    63.9780    34.5569      .0400     2.0800
 5920.5000    45.8370   127.1680  1435.7734     1.1760      .6970      .6890      .1170     5.5030    63.7300    34.9090      .0330     2.0740
 5921.0000    45.3940   127.8789  1410.9414     1.1890      .7090      .7010      .1140     6.7300    59.8970    34.2250      .0430     2.0850
 5921.5000    46.6410   126.7679  1396.9980     1.2110      .7160      .7130      .1130     5.8840    58.5569    33.8950      .0410     2.0910
 5922.0000    48.6689   124.2169  1384.9063     1.2440      .7220      .7200      .1140     5.1390    60.4290    33.9240      .0350     2.0900
 5922.5000    50.0490   122.4309  1372.3281     1.2700      .7290      .7230      .1110     4.7680    60.0560    33.3480      .0450     2.1000
 5923.0000    46.0530   121.5499  1365.6230     1.2530      .7320      .7230      .1140     4.6880    58.7930    33.7679      .0500     2.0930
 5923.5000    44.9340   122.0890  1356.8184     1.2400      .7370      .7200      .1290     4.4510    58.4540    35.5740      .0330     2.0630
 5924.0000    43.3279   124.0609  1353.7012     1.2250      .7390      .7150      .1260     3.4130    61.4529    35.1400      .0510     2.0700
 5924.5000    43.5179   125.8970  1365.8145     1.1810      .7320      .7080      .1260     3.5150    62.4150    35.3440      .0390     2.0670
 5925.0000    44.4780   126.9869  1382.0293     1.1660      .7240      .7030      .1200     3.7260    61.0519    34.7790      .0450     2.0760
 5925.5000    45.0920   127.3519  1400.4902     1.1810      .7140      .6980      .1150     4.0970    61.7820    34.2980      .0570     2.0840
 5926.0000    45.5620   126.9829  1422.4883     1.1870      .7030      .6930      .1130     4.7150    60.0420    34.2150      .0640     2.0850
 5926.5000    45.9330   126.2539  1432.5566     1.1910      .6980      .6920      .1180     5.0240    58.1250    35.0350      .0510     2.0720
 5927.0000    45.5140   125.4609  1430.5723     1.1890      .6990      .6950      .1180     5.0650    58.6870    35.0309      .0510     2.0720
 5927.5000    45.1349   125.4080  1420.3711     1.1750      .7040      .7030      .1170     5.3470    62.5460    34.7029      .0520     2.0770
 5928.0000    43.8480   125.6389  1402.1875     1.1850      .7130      .7140      .1250     5.1960    61.9700    35.5850      .0400     2.0630
 5928.5000    42.2190   125.1219  1378.2559     1.2190      .7260      .7240      .1260     4.6820    59.8250    35.4740      .0440     2.0650
 5929.0000    41.7100   124.3970  1361.6816     1.2420      .7340      .7300      .1240     4.7760    56.7370    34.9820      .0490     2.0730
 5929.5000    42.9800   123.1370  1352.7188     1.2560      .7390      .7310      .1260     4.4310    56.7150    35.1390      .0600     2.0700
 5930.0000    43.1490   121.9889  1341.7617     1.2560      .7450      .7310      .1360     3.6220    55.1100    36.3190      .0540     2.0510
 5930.5000    44.0790   121.8729  1328.9316     1.2280      .7520      .7310      .1420     4.4120    56.8069    36.8650      .0560     2.0420
 5931.0000    44.5080   122.6479  1315.5664     1.1980      .7600      .7320      .1500     3.8780    59.6980    37.6020      .0610     2.0300
 5931.5000    44.0540   124.0160  1307.5293     1.1850      .7650      .7350      .1490     3.8030    60.9890    37.3719      .0530     2.0330
 5932.0000    44.7029   125.4540  1308.4570     1.1900      .7640      .7380      .1420     3.7780    60.3750    36.5890      .0540     2.0460
 5932.5000    43.7900   126.5210  1308.0313     1.2280      .7650      .7400      .1350     3.5390    60.6429    35.7560      .0650     2.0600
 5933.0000    43.0340   126.8679  1312.1230     1.2380      .7620      .7410      .1320     3.3470    59.2270    35.4630      .0590     2.0650
 5933.5000    42.5370   126.4430  1316.7285     1.2330      .7600      .7410      .1370     3.2660    60.7549    36.1370      .0620     2.0540
 5934.0000    42.9300   125.2649  1317.2734     1.2410      .7590      .7390      .1540     2.9780    62.1110    38.0870      .0570     2.0220
 5934.5000    43.7830   123.5149  1325.9004     1.2240      .7540      .7320      .1630     2.3780    64.1150    39.3069      .0510     2.0010
