~VERSION INFORMATION
VERS.                             2.0:   CWLS Log ASCII Standard-VERSION 2.0
WRAP.                              NO:   One line per depth step
~Well Information Block
STRT.F                      4122.0000:   Top Depth
STOP.F                     10958.0000:   Bottom Depth
STEP.F                         .50000:   Depth Increment
NULL.                        -999.250:   Null Value
FLD .                      GA BLK 273:   Field Name
WELL.       OCSG09037   003 ST00 BP00:   NAME
API .                  42706402950000:   WELL API
EDF .F                        95.0000:   ELEV DRILL FLOOR
COMP.       SEAGULL ENERGY E AND P IN:   OPERATOR
BN  .                             273:   BLOCK
CTRY.                             USA:   COUNTRY NAME
CNTY.                              GA:   COUNTY
CNTY.                        GLVSTN L:   COUNTY NAME
EKB .F                        96.0000:   ELEV KELLY BUSHING
TDD .F                      10964.000:   FINAL TD DRILLER
STAT.                           TEXAS:   STATE NAME
UWI .                  42706402950000:   WELL API
DICO.               IHS : Digitizing Company
~PARAMETER INFORMATION (zones)
#MNEM.UNIT                       Value     Description
#=========                       =====     ===========
#ZONATION                          DIL:   ZONATION NAME
#ZONE                            RUN_1:   ZONE NAME
TOP .                       4122.0000:   TOP DEPTH
BOT .                       9366.5000:   BOTTOM DEPTH
RUN .                               1:   RUN NUMBER
LCCD.                             440:   LOGGING CONTRACTOR
SRVC.                    Schlumberger:   LOGGING CONT NAME
DICO.          QC Data Collectors Ltd:   DIG COMPANY NAME
LDAT.                      05/20/1991:   DATE LOGGED
ELD .F                        96.0000:   LOG DATUM ELEVATION
TDD .F                      9360.0000:   TOTAL DEPTH DRILLER
TDL .F                      9366.0000:   TOTAL DEPTH LOGGER
BOTL.F                      9366.0000:   BOTTOM DEPTH LOGGED
TOPL.F                      4402.0000:   TOP DEPTH LOGGED
CS1 .IN                       10.7500:   CASING SIZE 1
BS1 .IN                        9.8750:   BIT SIZE 1
DDB1.F                      9360.0000:   DEPTH DRILLED BIT 1
BHF .                              81:   FLUID CODE
DPT .          Lignosulfonate (Ligno):   DRILLING FLUID TYPE
MUDD.                         12.5000:   FLUID DENSITY
MUDV.                         45.0000:   FLUID VISCOSITY
DFPH.                         10.0000:   FLUID PH
FL  .                          8.0000:   FLUID LOSS
RM  .OHMM                       .5080:   RM
RMT .DEGF                     67.0000:   RM TEMP
RMF .OHMM                       .3460:   RMF
RMFT.DEGF                     67.0000:   RMF TEMP
FSC .                               M:   RMF CODE
RMC .OHMM                       .6820:   RMC
RMCT.DEGF                     67.0000:   RMC TEMP
CMC .                               M:   RMC CODE
TMAX.DEGF                    170.0000:   MAX REC TEMP
TIMC.                          6.6800:   TIME SINCE CIRCLN
~PARAMETER INFORMATION (zones)
#MNEM.UNIT                       Value     Description
#=========                       =====     ===========
#ZONATION                          DIL:   ZONATION NAME
#ZONE                            RUN_2:   ZONE NAME
TOP .                       9092.0000:   TOP DEPTH
BOT .                      10398.5000:   BOTTOM DEPTH
RUN .                               2:   RUN NUMBER
LCCD.                             440:   LOGGING CONTRACTOR
SRVC.                    Schlumberger:   LOGGING CONT NAME
DICO.          QC Data Collectors Ltd:   DIG COMPANY NAME
LDAT.                      06/04/1991:   DATE LOGGED
ELD .F                        96.0000:   LOG DATUM ELEVATION
TDD .F                     10401.0000:   TOTAL DEPTH DRILLER
TDL .F                     10404.0000:   TOTAL DEPTH LOGGER
BOTL.F                     10398.0000:   BOTTOM DEPTH LOGGED
TOPL.F                      9292.0000:   TOP DEPTH LOGGED
CS1 .IN                        7.6250:   CASING SIZE 1
BS1 .IN                        6.7500:   BIT SIZE 1
DDB1.F                     10401.0000:   DEPTH DRILLED BIT 1
BHF .                              99:   FLUID CODE
DPT .                   Miscellaneous:   DRILLING FLUID TYPE
MUDD.                         14.1000:   FLUID DENSITY
MUDV.                         40.0000:   FLUID VISCOSITY
DFPH.                          9.8000:   FLUID PH
FL  .                          3.4000:   FLUID LOSS
RM  .OHMM                       .5160:   RM
RMT .DEGF                     80.0000:   RM TEMP
RMF .OHMM                       .2580:   RMF
RMFT.DEGF                     80.0000:   RMF TEMP
FSC .                               M:   RMF CODE
RMC .OHMM                      1.8700:   RMC
RMCT.DEGF                     80.0000:   RMC TEMP
CMC .                               M:   RMC CODE
TMAX.DEGF                    192.0000:   MAX REC TEMP
TIMC.                          7.4000:   TIME SINCE CIRCLN
~PARAMETER INFORMATION (zones)
#MNEM.UNIT                       Value     Description
#=========                       =====     ===========
#ZONATION                          DIL:   ZONATION NAME
#ZONE                            RUN_3:   ZONE NAME
TOP .                       9320.0000:   TOP DEPTH
BOT .                      10958.5000:   BOTTOM DEPTH
RUN .                               3:   RUN NUMBER
LCCD.                             440:   LOGGING CONTRACTOR
SRVC.                    Schlumberger:   LOGGING CONT NAME
DICO.          QC Data Collectors Ltd:   DIG COMPANY NAME
LDAT.                      06/09/1991:   DATE LOGGED
ELD .F                        96.0000:   LOG DATUM ELEVATION
TDD .F                     10960.0000:   TOTAL DEPTH DRILLER
TDL .F                     10964.0000:   TOTAL DEPTH LOGGER
BOTL.F                     10958.0000:   BOTTOM DEPTH LOGGED
TOPL.F                      9404.0000:   TOP DEPTH LOGGED
CS1 .IN                        7.6250:   CASING SIZE 1
BS1 .IN                        6.7500:   BIT SIZE 1
DDB1.F                     10960.0000:   DEPTH DRILLED BIT 1
BHF .                              99:   FLUID CODE
DPT .                   Miscellaneous:   DRILLING FLUID TYPE
MUDD.                         14.7000:   FLUID DENSITY
MUDV.                         46.0000:   FLUID VISCOSITY
DFPH.                         10.0000:   FLUID PH
FL  .                          2.3000:   FLUID LOSS
RM  .OHMM                       .4570:   RM
RMT .DEGF                     74.0000:   RM TEMP
RMF .OHMM                       .2190:   RMF
RMFT.DEGF                     74.0000:   RMF TEMP
FSC .                               M:   RMF CODE
RMC .OHMM                       .7110:   RMC
RMCT.DEGF                     74.0000:   RMC TEMP
CMC .                               M:   RMC CODE
TMAX.DEGF                    202.0000:   MAX REC TEMP
TIMC.                          7.3800:   TIME SINCE CIRCLN
~Curve Information Block
#MNEM.UNIT                    API CODE    No Description
#=========                    ========    == ===========
DEPT.F                   00 001 00 00:     1  DEPTH
DT.US/F                              :     2  Sonic Transit Time
GR.GAPI                              :     3  Gamma Ray
ILD.OHMM                             :     4  Deep Induction Resistivity
ILM.OHMM                             :     5  Medium Induction Resistivity
SFL.OHMM                             :     6  Medium Resistivity
SP.MV                                :     7  Spontaneous Potential
~ASCII
# ...
 6098.0000    83.7062    52.6614      .4142      .4839      .5899   -60.1413
 6098.5000    77.0343    47.1951      .3927      .4512      .6311   -64.3453
 6099.0000    82.0551    45.1986      .3724      .4228      .6500   -68.2981
 6099.5000    93.1057    45.3430      .3536      .3920      .5997   -70.8453
 6100.0000   102.9607    45.3027      .3355      .3708      .4464   -71.8265
 6100.5000   114.8033    44.5388      .3171      .3521      .3402   -72.0175
 6101.0000   118.9797    43.4830      .2998      .3351      .3112   -72.0691
 6101.5000   118.2014    42.1351      .2839      .3204      .3258   -73.4409
 6102.0000   115.5125    40.3861      .2692      .3078      .3374   -75.2888
 6102.5000   113.8174    38.5140      .2556      .2960      .2658   -76.9149
 6103.0000   113.1082    37.2839      .2441      .2855      .2448   -78.7682
 6103.5000   113.1506    36.7042      .2358      .2753      .2318   -80.4530
 6104.0000   113.2140    37.0819      .2304      .2660      .2241   -81.6967
 6104.5000   113.0521    38.3830      .2275      .2578      .2216   -82.6086
 6105.0000   112.4386    39.7042      .2272      .2512      .2241   -83.0973
 6105.5000   111.5826    40.8835      .2309      .2483      .2405   -83.0887
 6106.0000   110.8761    42.3277      .2429      .2505      .3097   -82.6781
 6106.5000   111.2241    44.2693      .2589      .2597      .3903   -81.8517
 6107.0000   112.4535    45.6947      .2772      .2727      .4512   -80.6951
 6107.5000   113.7786    45.5878      .2914      .2864      .4030   -79.6079
 6108.0000   114.7347    44.5982      .3007      .2990      .3096   -78.9641
 6108.5000   113.4835    44.3007      .3111      .3080      .2683   -78.2935
 6109.0000   109.3583    44.4257      .3224      .3172      .2582   -77.3989
 6109.5000   105.2433    46.9517      .3354      .3286      .2920   -75.3878
 6110.0000    99.5135    49.8560      .3476      .3509      .4155   -72.6038
 6110.5000    90.6730    52.7671      .3477      .3971      .5124   -70.3546
 6111.0000    87.7097    51.6238      .3365      .3984      .5619   -70.0712
 6111.5000    89.0115    49.7731      .3235      .3812      .5554   -72.7402
 6112.0000    94.3428    48.0876      .3102      .3672      .3995   -74.8904
 6112.5000   102.0394    47.5487      .3002      .3296      .3323   -76.5671
 6113.0000   107.0782    48.5536      .2914      .3031      .2755   -77.2845
 6113.5000   108.6090    50.8803      .2818      .2868      .2429   -76.3479
 6114.0000   108.9193    53.8596      .2785      .2882      .2523   -73.5959
 6114.5000   109.1744    57.2453      .2955      .3090      .3280   -70.4001
 6115.0000   109.4417    60.3716      .3145      .3493      .3934   -67.4315
 6115.5000   109.9865    62.8869      .3322      .3786      .4581   -64.9150
 6116.0000   110.1924    60.5615      .3437      .3836      .5220   -63.9228
 6116.5000   110.4620    54.8437      .3545      .3856      .4973   -67.3326
 6117.0000   111.2333    51.9848      .3569      .3842      .4298   -70.8922
 6117.5000   112.4445    50.3093      .3578      .3812      .3991   -73.7271
 6118.0000   113.3657    49.2623      .3562      .3739      .4145   -74.8308
 6118.5000   113.4253    47.5962      .3493      .3635      .4406   -75.0687
 6119.0000   112.4133    44.4966      .3394      .3530      .4678   -74.9583
 6119.5000   111.9471    42.0068      .3245      .3431      .4938   -74.9813
 6120.0000   111.5334    41.0533      .3105      .3315      .5199   -77.0566
 6120.5000   111.1870    41.8530      .2979      .3199      .5262   -79.3993
 6121.0000   111.4364    43.4215      .2886      .3085      .4719   -81.2300
 6121.5000   111.7085    45.8926      .2809      .2973      .3866   -82.3224
 6122.0000   111.9899    47.9840      .2748      .2851      .3154   -83.0405
 6122.5000   112.2966    49.2443      .2645      .2687      .2696   -83.5022
 6123.0000   112.6033    48.5764      .2499      .2537      .2387   -83.8147
 6123.5000   112.5330    47.6918      .2378      .2419      .2221   -84.0945
 6124.0000   112.1818    47.1929      .2334      .2368      .2204   -84.4412
 6124.5000   111.4739    46.9996      .2321      .2334      .2282   -84.8824
 6125.0000   110.8367    47.1639      .2345      .2313      .2396   -84.9120
 6125.5000   110.2148    47.1730      .2369      .2325      .2684   -84.9158
 6126.0000   109.6487    45.6573      .2466      .2355      .3094   -84.8015
 6126.5000   109.0302    44.0821      .2567      .2434      .3490   -84.5164
 6127.0000   108.2389    43.2517      .2670      .2527      .3784   -84.3279
 6127.5000   107.7097    42.6827      .2768      .2640      .4023   -84.3335
 6128.0000   108.4220    44.3014      .2864      .2775      .4294   -84.3966
 6128.5000   109.2114    47.0613      .2990      .2929      .4431   -84.4132
 6129.0000   109.7272    50.1663      .3125      .3116      .4023   -83.5714
 6129.5000   109.5840    53.5146      .3294      .3344      .3509   -81.3248
 6130.0000   108.7876    57.0260      .3521      .3596      .3246   -78.3215
 6130.5000   109.3038    60.2486      .3767      .3820      .3719   -75.3423
 6131.0000   110.7220    62.5633      .3985      .4178      .4299   -72.5557
 6131.5000   112.3680    63.0029      .4167      .4502      .4782   -69.9883
 6132.0000   114.2922    59.2939      .4270      .4778      .5293   -67.9745
 6132.5000   114.1215    55.2850      .4335      .4869      .5547   -69.3210
 6133.0000   113.3347    53.5493      .4367      .4891      .5315   -70.3427
 6133.5000   112.7258    55.0951      .4389      .4874      .5288   -71.1082
 6134.0000   113.1193    58.2348      .4323      .4805      .5372   -71.6323
 6134.5000   113.5682    61.0456      .4078      .4596      .4932   -72.3430
 6135.0000   113.7419    62.1688      .3724      .4295      .4259   -73.8634
 6135.5000   113.5129    57.2132      .3402      .3920      .3848   -75.7782
 6136.0000   113.2150    48.9922      .3124      .3493      .3455   -78.5328
 6136.5000   112.8162    37.5245      .2888      .3143      .3134   -80.5760
 6137.0000   112.4172    35.1785      .2684      .2826      .2981   -82.0162
 6137.5000   111.8679    36.3278      .2522      .2632      .2946   -83.1086
 6138.0000   111.3037    38.1343      .2433      .2508      .2952   -83.9016
 6138.5000   110.5468    40.3005      .2377      .2450      .2984   -84.4706
 6139.0000   109.7089    42.6326      .2418      .2474      .3057   -84.7548
 6139.5000   108.7333    44.6597      .2460      .2597      .3466   -84.9816
 6140.0000   107.7201    46.5438      .2504      .2763      .4133   -85.0769
 6140.5000   107.6198    48.2086      .2550      .2932      .4707   -85.1560
 6141.0000   108.1716    46.7056      .2597      .3059      .5114   -85.2140
 6141.5000   108.7229    44.0660      .2621      .3069      .4316   -85.3590
 6142.0000   108.9348    41.6885      .2646      .3085      .3488   -85.5193
 6142.5000   109.1127    40.1107      .2667      .3065      .3150   -85.5330
 6143.0000   109.3356    38.6986      .2688      .3007      .3140   -84.5582
 6143.5000   109.7963    37.6649      .2704      .2926      .3319   -83.3721
 6144.0000   110.2310    36.9509      .2676      .2862      .3509   -82.1674
 6144.5000   110.2950    36.5447      .2648      .2822      .3242   -81.1677
 6145.0000   110.2346    36.6838      .2621      .2785      .2950   -80.5887
 6145.5000   109.8839    37.3106      .2595      .2750      .2810   -80.3618
 6146.0000   109.5352    38.2279      .2569      .2718      .2784   -80.7329
 6146.5000   109.2285    39.0850      .2548      .2700      .2814   -81.4365
 6147.0000   108.9215    39.5567      .2532      .2689      .2873   -82.1292
 6147.5000   108.8260    39.3679      .2515      .2678      .2957   -82.7657
 6148.0000   108.7665    37.8963      .2503      .2667      .3062   -83.0980
 6148.5000   108.8627    36.0015      .2493      .2657      .2884   -83.3108
 6149.0000   108.8712    34.9485      .2483      .2656      .2691   -83.4290
 6149.5000   108.7156    35.0294      .2482      .2631      .2666   -83.7345
