~VERSION INFORMATION
VERS.                             2.0:   CWLS Log ASCII Standard-VERSION 2.0
WRAP.                              NO:   One line per depth step
~Well Information Block
STRT.F                      4703.0000:   Top Depth
STOP.F                      9304.5000:   Bottom Depth
STEP.F                         .50000:   Depth Increment
NULL.                        -999.250:   Null Value
FLD .                      BA BLK 399:   Field Name
WELL.       OCSG07218  A003 ST00 BP00:   NAME
API .                  42704403090000:   WELL API
EDF .F                       113.0000:   ELEV DRILL FLOOR
COMP.       SEAGULL ENERGY E AND P IN:   OPERATOR
EGL .F                       -62.0000:   ELEV GROUND LEVEL
EKB .F                       114.0000:   ELEV KELLY BUSHING
TDD .F                      9314.0000:   FINAL TD DRILLER
UWI .                  42704403090000:   WELL API
DICO.               IHS : Digitizing Company
~PARAMETER INFORMATION (zones)
#MNEM.UNIT                       Value     Description
#=========                       =====     ===========
#ZONATION                          CNL:   ZONATION NAME
#ZONE                            RUN_1:   ZONE NAME
TOP .                       4703.0000:   TOP DEPTH
BOT .                       9200.5000:   BOTTOM DEPTH
RUN .                               1:   RUN NUMBER
LCCD.                             510:   LOGGING CONTRACTOR
SRVC.                   Western Atlas:   LOGGING CONT NAME
DICO.          QC Data Collectors Ltd:   DIG COMPANY NAME
LDAT.                      03/24/1997:   DATE LOGGED
TDD .F                      9314.0000:   TOTAL DEPTH DRILLER
TDL .F                      9307.0000:   TOTAL DEPTH LOGGER
BOTL.F                      9305.0000:   BOTTOM DEPTH LOGGED
TOPL.F                      4703.0000:   TOP DEPTH LOGGED
CS1 .                         10.7500:   CASING SIZE 1
BS1 .                          9.8750:   BIT SIZE 1
DDB1.F                      9314.0000:   DEPTH DRILLED BIT 1
BHF .                              99:   FLUID CODE
DPT .                   Miscellaneous:   DRILLING FLUID TYPE
MUDD.                         11.5000:   FLUID DENSITY
MUDV.                         41.0000:   FLUID VISCOSITY
DFPH.                         10.2000:   FLUID PH
FL  .                          5.0000:   FLUID LOSS
RM  .OHMM                      1.1200:   RM
RMT .DEGF                     75.0000:   RM TEMP
RMF .OHMM                       .8300:   RMF
RMFT.DEGF                     75.0000:   RMF TEMP
FSC .                               M:   RMF CODE
RMC .OHMM                      1.4600:   RMC
RMCT.DEGF                     75.0000:   RMC TEMP
CMC .                               M:   RMC CODE
TMAX.DEGF                    181.0000:   MAX REC TEMP
TIMC.                         24.0000:   TIME SINCE CIRCLN
SON .                          173943:   SERVICE ORDER NUM
LMF .                             MSL:   LOGS MEAS FROM
MUDS.                             PIT:   MUD SOURCE
ENG .                         HADSALL:   ENGINEER
WIT .                        FONTENOT:   WITNESS
~PARAMETER INFORMATION (zones)
#MNEM.UNIT                       Value     Description
#=========                       =====     ===========
#ZONATION                          DAL:   ZONATION NAME
#ZONE                            RUN_1:   ZONE NAME
TOP .                       4703.0000:   TOP DEPTH
BOT .                       9242.5000:   BOTTOM DEPTH
RUN .                               1:   RUN NUMBER
LCCD.                             510:   LOGGING CONTRACTOR
SRVC.                   Western Atlas:   LOGGING CONT NAME
DICO.          QC Data Collectors Ltd:   DIG COMPANY NAME
LDAT.                      03/24/1997:   DATE LOGGED
TDD .F                      9314.0000:   TOTAL DEPTH DRILLER
TDL .F                      9307.0000:   TOTAL DEPTH LOGGER
BOTL.F                      9305.0000:   BOTTOM DEPTH LOGGED
TOPL.F                      4703.0000:   TOP DEPTH LOGGED
CS1 .                         10.7500:   CASING SIZE 1
BS1 .                          9.8750:   BIT SIZE 1
DDB1.F                      9314.0000:   DEPTH DRILLED BIT 1
BHF .                              99:   FLUID CODE
DPT .                   Miscellaneous:   DRILLING FLUID TYPE
MUDD.                         11.5000:   FLUID DENSITY
MUDV.                         41.0000:   FLUID VISCOSITY
DFPH.                         10.2000:   FLUID PH
FL  .                          5.0000:   FLUID LOSS
RM  .OHMM                      1.1200:   RM
RMT .DEGF                     75.0000:   RM TEMP
RMF .OHMM                       .8300:   RMF
RMFT.DEGF                     75.0000:   RMF TEMP
FSC .                               M:   RMF CODE
RMC .OHMM                      1.4600:   RMC
RMCT.DEGF                     75.0000:   RMC TEMP
CMC .                               M:   RMC CODE
TMAX.DEGF                    181.0000:   MAX REC TEMP
TIMC.                         24.0000:   TIME SINCE CIRCLN
SON .                          173943:   SERVICE ORDER NUM
LMF .                             MSL:   LOGS MEAS FROM
MUDS.                             PIT:   MUD SOURCE
ENG .                         HADSALL:   ENGINEER
WIT .                        FONTENOT:   WITNESS
~PARAMETER INFORMATION (zones)
#MNEM.UNIT                       Value     Description
#=========                       =====     ===========
#ZONATION                          DIL:   ZONATION NAME
#ZONE                            RUN_1:   ZONE NAME
TOP .                       4703.0000:   TOP DEPTH
BOT .                       9305.5000:   BOTTOM DEPTH
RUN .                               1:   RUN NUMBER
LCCD.                             510:   LOGGING CONTRACTOR
SRVC.                   Western Atlas:   LOGGING CONT NAME
DICO.          QC Data Collectors Ltd:   DIG COMPANY NAME
LDAT.                      03/24/1997:   DATE LOGGED
TDD .F                      9314.0000:   TOTAL DEPTH DRILLER
TDL .F                      9307.0000:   TOTAL DEPTH LOGGER
BOTL.F                      9305.0000:   BOTTOM DEPTH LOGGED
TOPL.F                      4703.0000:   TOP DEPTH LOGGED
CS1 .                         10.7500:   CASING SIZE 1
BS1 .                          9.8750:   BIT SIZE 1
DDB1.F                      9314.0000:   DEPTH DRILLED BIT 1
BHF .                              99:   FLUID CODE
DPT .                   Miscellaneous:   DRILLING FLUID TYPE
MUDD.                         11.5000:   FLUID DENSITY
MUDV.                         41.0000:   FLUID VISCOSITY
DFPH.                         10.2000:   FLUID PH
FL  .                          5.0000:   FLUID LOSS
RM  .OHMM                      1.1200:   RM
RMT .DEGF                     75.0000:   RM TEMP
RMF .OHMM                       .8300:   RMF
RMFT.DEGF                     75.0000:   RMF TEMP
FSC .                               M:   RMF CODE
RMC .OHMM                      1.4600:   RMC
RMCT.DEGF                     75.0000:   RMC TEMP
CMC .                               M:   RMC CODE
TMAX.DEGF                    181.0000:   MAX REC TEMP
TIMC.                         24.0000:   TIME SINCE CIRCLN
SON .                          173943:   SERVICE ORDER NUM
LMF .                             MSL:   LOGS MEAS FROM
MUDS.                             PIT:   MUD SOURCE
ENG .                         HADSALL:   ENGINEER
WIT .                        FONTENOT:   WITNESS
~PARAMETER INFORMATION (zones)
#MNEM.UNIT                       Value     Description
#=========                       =====     ===========
#ZONATION                          FDC:   ZONATION NAME
#ZONE                            RUN_1:   ZONE NAME
TOP .                       4703.0000:   TOP DEPTH
BOT .                       9228.5000:   BOTTOM DEPTH
RUN .                               1:   RUN NUMBER
LCCD.                             510:   LOGGING CONTRACTOR
SRVC.                   Western Atlas:   LOGGING CONT NAME
DICO.          QC Data Collectors Ltd:   DIG COMPANY NAME
LDAT.                      03/24/1997:   DATE LOGGED
TDD .F                      9314.0000:   TOTAL DEPTH DRILLER
TDL .F                      9307.0000:   TOTAL DEPTH LOGGER
BOTL.F                      9305.0000:   BOTTOM DEPTH LOGGED
TOPL.F                      4703.0000:   TOP DEPTH LOGGED
CS1 .                         10.7500:   CASING SIZE 1
BS1 .                          9.8750:   BIT SIZE 1
DDB1.F                      9314.0000:   DEPTH DRILLED BIT 1
BHF .                              99:   FLUID CODE
DPT .                   Miscellaneous:   DRILLING FLUID TYPE
MUDD.                         11.5000:   FLUID DENSITY
MUDV.                         41.0000:   FLUID VISCOSITY
DFPH.                         10.2000:   FLUID PH
FL  .                          5.0000:   FLUID LOSS
RM  .OHMM                      1.1200:   RM
RMT .DEGF                     75.0000:   RM TEMP
RMF .OHMM                       .8300:   RMF
RMFT.DEGF                     75.0000:   RMF TEMP
FSC .                               M:   RMF CODE
RMC .OHMM                      1.4600:   RMC
RMCT.DEGF                     75.0000:   RMC TEMP
CMC .                               M:   RMC CODE
TMAX.DEGF                    181.0000:   MAX REC TEMP
TIMC.                         24.0000:   TIME SINCE CIRCLN
SON .                          173943:   SERVICE ORDER NUM
LMF .                             MSL:   LOGS MEAS FROM
MUDS.                             PIT:   MUD SOURCE
ENG .                         HADSALL:   ENGINEER
WIT .                        FONTENOT:   WITNESS
~Curve Information Block
#MNEM.UNIT                    API CODE    No Description
#=========                    ========    == ===========
DEPT.F                   00 001 00 00:     1  DEPTH
CNCF.%                               :     2  Field Normalized CNC
DT24.US/F                            :     3  Unrecognised
CILD.MMHO                            :     4  Deep Induction Conductivity
RFOC.OHMM                            :     5  Medium Resistivity
RILD.OHMM                            :     6  Deep Resistivity
RILM.OHMM                            :     7  Medium Resistivity
RWAZ.OHMM                            :     8  Unrecognised
SP.MV                                :     9  Spontaneous Potential
GR.GAPI                              :    10  Gamma Ray
PORZ.%                               :    11  Neutron Porosity
ZCOR.G/C3                            :    12  Density Correction
ZDEN.G/C3                            :    13  Bulk Density
~ASCII
# ...
 5011.0000    39.1949   113.9120  3252.2852      .7510      .3080      .3070      .0520   -80.4760    35.7140    34.9350      .0190     2.0740
 5011.5000    39.5200   113.9700  3182.8516      .7480      .3140      .3300      .0510   -79.7009    36.0190    34.4780      .0270     2.0810
 5012.0000    38.6020   114.9509  3225.0742     1.0180      .3100      .3530      .0510   -78.2510    31.4790    34.5959      .0140     2.0790
 5012.5000    37.9810   115.5189  3328.8867     1.6350      .3000      .3600      .0520   -77.8269    32.6050    35.3459     -.0010     2.0670
 5013.0000    37.2060   115.2190  3386.4570     1.5620      .2950      .3440      .0510   -79.0780    34.6920    35.3860      .0090     2.0660
 5013.5000    38.3140   114.8970  3299.2422     1.2360      .3030      .3260      .0540   -81.1849    33.6250    35.9900      .0150     2.0560
 5014.0000    38.6039   114.9209  3175.2930      .9880      .3150      .3200      .0560   -82.9220    32.6520    35.8340      .0230     2.0590
 5014.5000    37.8849   115.0850  3201.0000      .8490      .3120      .3220      .0560   -83.3319    31.7680    36.0840      .0150     2.0550
 5015.0000    38.0640   115.5690  3342.0742      .8410      .2990      .3230      .0570   -84.4319    34.5660    37.0760     -.0140     2.0380
 5015.5000    37.7830   116.2549  3492.4648      .9660      .2860      .3240      .0520   -82.5260    36.1850    36.2990     -.0040     2.0510
 5016.0000    36.5260   115.4249  3576.4102     1.0300      .2800      .3250      .0450   -82.7460    36.4760    34.2419      .0290     2.0850
 5016.5000    34.7859   112.8300  3537.9805     1.0350      .2830      .3190      .0410   -81.9910    35.3520    32.5140      .0240     2.1140
 5017.0000    34.4399   111.3629  3444.6484     1.1970      .2900      .3120      .0400   -83.4070    35.3589    31.9440      .0010     2.1230
 5017.5000    34.0450   110.7870  3404.5117     1.1740      .2940      .3120      .0410   -84.6699    45.0750    32.0630      .0270     2.1210
 5018.0000    33.2480   110.7429  3464.7852      .9140      .2890      .3170      .0480   -84.7770    83.5640    34.7060      .0180     2.0770
 5018.5000    32.8470   112.2930  3586.8398      .8060      .2790      .3150      .0510   -84.7179   149.3389    36.3060      .0060     2.0510
 5019.0000    32.9150   112.5000  3625.3594      .8550      .2760      .3090      .0490   -84.4500   201.7769    35.9300      .0090     2.0570
 5019.5000    33.0280   110.9789  3487.2813      .9100      .2870      .3140      .0510   -84.6260   193.5999    35.7240      .0130     2.0600
 5020.0000    32.5530   110.0179  3245.2734      .8490      .3080      .3360      .0560   -84.9600   126.9740    36.1760      .0090     2.0530
 5020.5000    35.1670   109.7699  3024.6328      .7720      .3310      .3670      .0600   -84.9149    66.7229    36.0860      .0150     2.0550
 5021.0000    35.5040   110.3400  2908.8203      .8100      .3440      .3920      .0590   -84.0229    47.6429    35.1899      .0240     2.0690
 5021.5000    35.3640   111.3660  2889.8516     1.0810      .3460      .4020      .0580   -83.2319    43.9020    34.9120      .0130     2.0740
 5022.0000    36.3400   111.9109  2925.6719     1.5130      .3420      .3940      .0580   -83.2279    42.2079    35.0370      .0060     2.0720
 5022.5000    35.2830   112.2319  2986.3906     1.5820      .3350      .3700      .0560   -83.6510    38.9200    34.8040      .0200     2.0760
 5023.0000    34.4890   112.7880  3071.4141     1.3620      .3260      .3440      .0570   -84.6160    37.7310    35.5670      .0240     2.0630
 5023.5000    34.5820   113.4719  3161.1289     1.0530      .3160      .3240      .0570   -85.7219    39.0270    36.0600      .0270     2.0550
 5024.0000    35.4120   114.5089  3292.9922      .8450      .3040      .3130      .0540   -87.2260    38.4800    35.7520      .0360     2.0600
 5024.5000    36.3620   114.9619  3480.1680      .7970      .2870      .3110      .0500   -86.3829    33.7710    35.4449      .0280     2.0650
 5025.0000    35.0620   114.7479  3719.0586      .8580      .2690      .3100      .0440   -86.2339    31.7250    34.6110      .0360     2.0790
 5025.5000    35.7280   115.0859  3953.1680     1.0120      .2530      .3050      .0450   -86.5709    39.1299    35.9900      .0120     2.0560
 5026.0000    35.1150   115.2439  4102.8984     1.1450      .2440      .2940      .0450   -86.5740    38.2770    36.3539      .0060     2.0500
 5026.5000    35.2710   115.2610  4161.1328      .9980      .2400      .2850      .0430   -86.3889    38.4540    35.7670      .0240     2.0600
 5027.0000    36.4030   115.2229  4120.2969      .7980      .2430      .2820      .0440   -86.6050    38.1360    36.3250      .0170     2.0510
 5027.5000    36.4360   114.1399  4039.4023      .7710      .2480      .2820      .0440   -87.9530    33.4510    35.7840      .0200     2.0600
 5028.0000    36.7450   112.5399  3945.9961      .8780      .2530      .2850      .0420   -86.8250    32.8669    34.7950      .0080     2.0760
 5028.5000    36.8060   111.6720  3772.3984      .8770      .2650      .2960      .0420   -85.4259    35.3270    33.8640      .0210     2.0910
 5029.0000    36.3530   110.7849  3494.1445      .7360      .2860      .3260      .0450   -81.7670    35.4890    33.9860      .0280     2.0890
 5029.5000    38.2430   110.3510  3090.2461      .6830      .3240      .3770      .0490   -72.2260    34.0330    33.1910      .0380     2.1020
 5030.0000    41.9030   114.3119  2668.0273      .7390      .3750      .4440      .0520   -48.7310    35.6670    32.0800      .0640     2.1210
 5030.5000    43.7419   118.7539  2287.7773      .9010      .4370      .5150      .0580   -25.6260    40.2180    31.2000      .0800     2.1350
 5031.0000    42.9529   121.0950  1932.4238     1.1130      .5170      .5930      .0630   -21.9120    42.2670    29.9470      .0480     2.1560
 5031.5000    41.1990   125.1289  1660.9609     1.1410      .6020      .6750      .0570   -23.8540    44.2720    26.7990      .0750     2.2080
 5032.0000    40.8170   123.6730  1522.8945     1.2110      .6570      .7200      .0720   -30.1330    42.4890    28.6560      .0480     2.1770
 5032.5000    38.7530   119.0470  1524.6387     1.6290      .6560      .6980      .0860   -46.6080    39.0829    31.1290      .0300     2.1360
 5033.0000    37.7339   117.0850  1618.0977     2.0170      .6180      .6450      .0870   -59.3589    39.0110    32.1219      .0390     2.1200
 5033.5000    37.2250   113.8359  1738.7207     1.9360      .5750      .6020      .0870   -67.9459    37.4600    33.2840      .0230     2.1010
 5034.0000    37.3210   112.7479  1856.8047     1.8470      .5390      .5750      .0760   -74.3879    37.6920    32.1840      .0400     2.1190
 5034.5000    36.4890   113.7980  1985.0605     1.8440      .5040      .5570      .0670   -75.0120    36.5130    31.3560      .0500     2.1330
 5035.0000    36.9659   114.0129  2149.4844     1.8810      .4650      .5380      .0660   -75.0669    34.6169    32.2720      .0440     2.1180
 5035.5000    38.4910   113.8660  2361.8281     1.8920      .4230      .5080      .0800   -79.8479    36.5540    36.8149     -.0290     2.0430
 5036.0000    37.9150   113.5640  2637.1914     1.8240      .3790      .4590      .0730   -80.5039    37.8920    37.1970     -.0320     2.0360
 5036.5000    36.9430   113.6239  2983.6719     1.6760      .3350      .3980      .0500   -81.7999    37.2580    33.1760      .0360     2.1030
 5037.0000    37.0010   114.7329  3360.5781     1.4380      .2980      .3450      .0460   -81.7069    35.8510    33.4839      .0270     2.0980
 5037.5000    37.8970   116.3180  3716.1563     1.1520      .2690      .3080      .0430   -83.3069    32.0800    34.2770      .0060     2.0840
 5038.0000    38.8149   117.6349  4029.4375      .9640      .2480      .2870      .0410   -83.0959    32.9760    34.6150      .0130     2.0790
 5038.5000    40.1110   118.7799  4251.3906      .9020      .2350      .2770      .0390   -83.2839    32.8060    34.8040      .0250     2.0760
