~VERSION INFORMATION
VERS.                             2.0:   CWLS Log ASCII Standard-VERSION 2.0
WRAP.                              NO:   One line per depth step
~Well Information Block
STRT.F                      4703.0000:   Top Depth
STOP.F                      9304.5000:   Bottom Depth
STEP.F                         .50000:   Depth Increment
NULL.                        -999.250:   Null Value
FLD .                      BA BLK 399:   Field Name
WELL.       OCSG07218  A003 ST00 BP00:   NAME
API .                  42704403090000:   WELL API
EDF .F                       113.0000:   ELEV DRILL FLOOR
COMP.       SEAGULL ENERGY E AND P IN:   OPERATOR
EGL .F                       -62.0000:   ELEV GROUND LEVEL
EKB .F                       114.0000:   ELEV KELLY BUSHING
TDD .F                      9314.0000:   FINAL TD DRILLER
UWI .                  42704403090000:   WELL API
DICO.               IHS : Digitizing Company
~PARAMETER INFORMATION (zones)
#MNEM.UNIT                       Value     Description
#=========                       =====     ===========
#ZONATION                          CNL:   ZONATION NAME
#ZONE                            RUN_1:   ZONE NAME
TOP .                       4703.0000:   TOP DEPTH
BOT .                       9200.5000:   BOTTOM DEPTH
RUN .                               1:   RUN NUMBER
LCCD.                             510:   LOGGING CONTRACTOR
SRVC.                   Western Atlas:   LOGGING CONT NAME
DICO.          QC Data Collectors Ltd:   DIG COMPANY NAME
LDAT.                      03/24/1997:   DATE LOGGED
TDD .F                      9314.0000:   TOTAL DEPTH DRILLER
TDL .F                      9307.0000:   TOTAL DEPTH LOGGER
BOTL.F                      9305.0000:   BOTTOM DEPTH LOGGED
TOPL.F                      4703.0000:   TOP DEPTH LOGGED
CS1 .                         10.7500:   CASING SIZE 1
BS1 .                          9.8750:   BIT SIZE 1
DDB1.F                      9314.0000:   DEPTH DRILLED BIT 1
BHF .                              99:   FLUID CODE
DPT .                   Miscellaneous:   DRILLING FLUID TYPE
MUDD.                         11.5000:   FLUID DENSITY
MUDV.                         41.0000:   FLUID VISCOSITY
DFPH.                         10.2000:   FLUID PH
FL  .                          5.0000:   FLUID LOSS
RM  .OHMM                      1.1200:   RM
RMT .DEGF                     75.0000:   RM TEMP
RMF .OHMM                       .8300:   RMF
RMFT.DEGF                     75.0000:   RMF TEMP
FSC .                               M:   RMF CODE
RMC .OHMM                      1.4600:   RMC
RMCT.DEGF                     75.0000:   RMC TEMP
CMC .                               M:   RMC CODE
TMAX.DEGF                    181.0000:   MAX REC TEMP
TIMC.                         24.0000:   TIME SINCE CIRCLN
SON .                          173943:   SERVICE ORDER NUM
LMF .                             MSL:   LOGS MEAS FROM
MUDS.                             PIT:   MUD SOURCE
ENG .                         HADSALL:   ENGINEER
WIT .                        FONTENOT:   WITNESS
~PARAMETER INFORMATION (zones)
#MNEM.UNIT                       Value     Description
#=========                       =====     ===========
#ZONATION                          DAL:   ZONATION NAME
#ZONE                            RUN_1:   ZONE NAME
TOP .                       4703.0000:   TOP DEPTH
BOT .                       9242.5000:   BOTTOM DEPTH
RUN .                               1:   RUN NUMBER
LCCD.                             510:   LOGGING CONTRACTOR
SRVC.                   Western Atlas:   LOGGING CONT NAME
DICO.          QC Data Collectors Ltd:   DIG COMPANY NAME
LDAT.                      03/24/1997:   DATE LOGGED
TDD .F                      9314.0000:   TOTAL DEPTH DRILLER
TDL .F                      9307.0000:   TOTAL DEPTH LOGGER
BOTL.F                      9305.0000:   BOTTOM DEPTH LOGGED
TOPL.F                      4703.0000:   TOP DEPTH LOGGED
CS1 .                         10.7500:   CASING SIZE 1
BS1 .                          9.8750:   BIT SIZE 1
DDB1.F                      9314.0000:   DEPTH DRILLED BIT 1
BHF .                              99:   FLUID CODE
DPT .                   Miscellaneous:   DRILLING FLUID TYPE
MUDD.                         11.5000:   FLUID DENSITY
MUDV.                         41.0000:   FLUID VISCOSITY
DFPH.                         10.2000:   FLUID PH
FL  .                          5.0000:   FLUID LOSS
RM  .OHMM                      1.1200:   RM
RMT .DEGF                     75.0000:   RM TEMP
RMF .OHMM                       .8300:   RMF
RMFT.DEGF                     75.0000:   RMF TEMP
FSC .                               M:   RMF CODE
RMC .OHMM                      1.4600:   RMC
RMCT.DEGF                     75.0000:   RMC TEMP
CMC .                               M:   RMC CODE
TMAX.DEGF                    181.0000:   MAX REC TEMP
TIMC.                         24.0000:   TIME SINCE CIRCLN
SON .                          173943:   SERVICE ORDER NUM
LMF .                             MSL:   LOGS MEAS FROM
MUDS.                             PIT:   MUD SOURCE
ENG .                         HADSALL:   ENGINEER
WIT .                        FONTENOT:   WITNESS
~PARAMETER INFORMATION (zones)
#MNEM.UNIT                       Value     Description
#=========                       =====     ===========
#ZONATION                          DIL:   ZONATION NAME
#ZONE                            RUN_1:   ZONE NAME
TOP .                       4703.0000:   TOP DEPTH
BOT .                       9305.5000:   BOTTOM DEPTH
RUN .                               1:   RUN NUMBER
LCCD.                             510:   LOGGING CONTRACTOR
SRVC.                   Western Atlas:   LOGGING CONT NAME
DICO.          QC Data Collectors Ltd:   DIG COMPANY NAME
LDAT.                      03/24/1997:   DATE LOGGED
TDD .F                      9314.0000:   TOTAL DEPTH DRILLER
TDL .F                      9307.0000:   TOTAL DEPTH LOGGER
BOTL.F                      9305.0000:   BOTTOM DEPTH LOGGED
TOPL.F                      4703.0000:   TOP DEPTH LOGGED
CS1 .                         10.7500:   CASING SIZE 1
BS1 .                          9.8750:   BIT SIZE 1
DDB1.F                      9314.0000:   DEPTH DRILLED BIT 1
BHF .                              99:   FLUID CODE
DPT .                   Miscellaneous:   DRILLING FLUID TYPE
MUDD.                         11.5000:   FLUID DENSITY
MUDV.                         41.0000:   FLUID VISCOSITY
DFPH.                         10.2000:   FLUID PH
FL  .                          5.0000:   FLUID LOSS
RM  .OHMM                      1.1200:   RM
RMT .DEGF                     75.0000:   RM TEMP
RMF .OHMM                       .8300:   RMF
RMFT.DEGF                     75.0000:   RMF TEMP
FSC .                               M:   RMF CODE
RMC .OHMM                      1.4600:   RMC
RMCT.DEGF                     75.0000:   RMC TEMP
CMC .                               M:   RMC CODE
TMAX.DEGF                    181.0000:   MAX REC TEMP
TIMC.                         24.0000:   TIME SINCE CIRCLN
SON .                          173943:   SERVICE ORDER NUM
LMF .                             MSL:   LOGS MEAS FROM
MUDS.                             PIT:   MUD SOURCE
ENG .                         HADSALL:   ENGINEER
WIT .                        FONTENOT:   WITNESS
~PARAMETER INFORMATION (zones)
#MNEM.UNIT                       Value     Description
#=========                       =====     ===========
#ZONATION                          FDC:   ZONATION NAME
#ZONE                            RUN_1:   ZONE NAME
TOP .                       4703.0000:   TOP DEPTH
BOT .                       9228.5000:   BOTTOM DEPTH
RUN .                               1:   RUN NUMBER
LCCD.                             510:   LOGGING CONTRACTOR
SRVC.                   Western Atlas:   LOGGING CONT NAME
DICO.          QC Data Collectors Ltd:   DIG COMPANY NAME
LDAT.                      03/24/1997:   DATE LOGGED
TDD .F                      9314.0000:   TOTAL DEPTH DRILLER
TDL .F                      9307.0000:   TOTAL DEPTH LOGGER
BOTL.F                      9305.0000:   BOTTOM DEPTH LOGGED
TOPL.F                      4703.0000:   TOP DEPTH LOGGED
CS1 .                         10.7500:   CASING SIZE 1
BS1 .                          9.8750:   BIT SIZE 1
DDB1.F                      9314.0000:   DEPTH DRILLED BIT 1
BHF .                              99:   FLUID CODE
DPT .                   Miscellaneous:   DRILLING FLUID TYPE
MUDD.                         11.5000:   FLUID DENSITY
MUDV.                         41.0000:   FLUID VISCOSITY
DFPH.                         10.2000:   FLUID PH
FL  .                          5.0000:   FLUID LOSS
RM  .OHMM                      1.1200:   RM
RMT .DEGF                     75.0000:   RM TEMP
RMF .OHMM                       .8300:   RMF
RMFT.DEGF                     75.0000:   RMF TEMP
FSC .                               M:   RMF CODE
RMC .OHMM                      1.4600:   RMC
RMCT.DEGF                     75.0000:   RMC TEMP
CMC .                               M:   RMC CODE
TMAX.DEGF                    181.0000:   MAX REC TEMP
TIMC.                         24.0000:   TIME SINCE CIRCLN
SON .                          173943:   SERVICE ORDER NUM
LMF .                             MSL:   LOGS MEAS FROM
MUDS.                             PIT:   MUD SOURCE
ENG .                         HADSALL:   ENGINEER
WIT .                        FONTENOT:   WITNESS
~Curve Information Block
#MNEM.UNIT                    API CODE    No Description
#=========                    ========    == ===========
DEPT.F                   00 001 00 00:     1  DEPTH
CNCF.%                               :     2  Field Normalized CNC
DT24.US/F                            :     3  Unrecognised
CILD.MMHO                            :     4  Deep Induction Conductivity
RFOC.OHMM                            :     5  Medium Resistivity
RILD.OHMM                            :     6  Deep Resistivity
RILM.OHMM                            :     7  Medium Resistivity
RWAZ.OHMM                            :     8  Unrecognised
SP.MV                                :     9  Spontaneous Potential
GR.GAPI                              :    10  Gamma Ray
PORZ.%                               :    11  Neutron Porosity
ZCOR.G/C3                            :    12  Density Correction
ZDEN.G/C3                            :    13  Bulk Density
~ASCII
# ...
 7699.0000    39.3539   112.7520   980.8252     1.3400     1.0200      .9890      .0810    -8.6030    66.8450    24.6850      .0730     2.2430
 7699.5000    39.9919   115.5769   999.9502     1.3310     1.0000      .9830      .0800    -9.0220    68.4659    24.7360      .0710     2.2420
 7700.0000    40.1190   113.2310  1009.4531     1.3040      .9910      .9810      .0750   -10.7580    69.4740    24.1220      .0810     2.2520
 7700.5000    38.8000   108.6589  1011.1924     1.2800      .9890      .9810      .0690   -21.6350    66.8450    23.1840      .0760     2.2670
 7701.0000    38.3140   105.2339  1010.5645     1.2720      .9890      .9820      .0700   -25.6230    65.5530    23.3950      .0720     2.2640
 7701.5000    39.4260   102.9280  1009.6719     1.2860      .9900      .9870      .0740   -21.6230    67.6919    23.9010      .0760     2.2560
 7702.0000    40.0480   103.4340  1007.2939     1.3360      .9930      .9920      .0730    -8.8440    70.1730    23.7130      .0730     2.2590
 7702.5000    39.6089   105.5900  1001.8906     1.3790      .9980      .9960      .0730    -6.3130    72.4359    23.8020      .0630     2.2570
 7703.0000    39.2750   105.4709   989.9785     1.3590     1.0100     1.0050      .0720    -7.2870    69.1859    23.4300      .0710     2.2630
 7703.5000    38.9980   102.8820   974.2197     1.3060     1.0260     1.0200      .0720    -7.2660    66.5299    23.2950      .0710     2.2660
 7704.0000    38.3100   101.6060   964.0879     1.3060     1.0370     1.0340      .0770    -7.1360    66.0309    23.8630      .0610     2.2560
 7704.5000    38.3880   101.8390   958.7813     1.3430     1.0430     1.0460      .0780    -7.2200    66.2620    24.0260      .0650     2.2540
 7705.0000    38.0410   102.7260   950.4502     1.3810     1.0520     1.0560      .0740    -6.7690    64.7050    23.2420      .0750     2.2660
 7705.5000    37.6340   105.3760   939.3340     1.4210     1.0650     1.0650      .0720    -6.5120    65.0759    22.8630      .0640     2.2730
 7706.0000    37.5390   106.4099   928.0156     1.4150     1.0780     1.0740      .0740    -6.3960    66.7489    23.0070      .0680     2.2700
 7706.5000    37.5099   106.4979   917.6826     1.3650     1.0900     1.0820      .0790    -7.1870    64.6959    23.6530      .0720     2.2600
 7707.0000    37.6110   107.0879   913.4336     1.3590     1.0950     1.0860      .0840    -7.6390    68.3040    24.3220      .0560     2.2490
 7707.5000    37.6840   105.5619   916.8086     1.3810     1.0910     1.0880      .0860    -7.5560    68.1670    24.5810      .0650     2.2440
 7708.0000    37.8400   103.6620   916.8906     1.3790     1.0910     1.0890      .0820    -6.8500    66.6609    24.0380      .0670     2.2530
 7708.5000    37.9919   103.2469   914.8184     1.3690     1.0930     1.0900      .0770    -6.9630    66.0349    23.3240      .0540     2.2650
 7709.0000    38.2910   104.0790   913.4756     1.3600     1.0950     1.0910      .0770    -6.4630    64.8949    23.2350      .0660     2.2670
 7709.5000    38.9230   105.4500   910.1152     1.3730     1.0990     1.0940      .0830    -6.1630    63.1080    24.0890      .0640     2.2530
 7710.0000    37.9269   106.1079   907.5811     1.4090     1.1020     1.1020      .0830    -6.7660    64.3459    24.0030      .0560     2.2540
 7710.5000    36.5030   105.1620   902.9453     1.3790     1.1070     1.1130      .0750    -7.3640    63.8830    22.9020      .0740     2.2720
 7711.0000    36.3910   103.5349   899.9268     1.3310     1.1110     1.1220      .0700    -7.3600    62.4990    22.1350      .0750     2.2850
 7711.5000    36.7890   103.8490   899.6797     1.3390     1.1120     1.1240      .0660    -7.5320    61.7450    21.4700      .0830     2.2960
 7712.0000    37.2440   105.4490   898.5225     1.4060     1.1130     1.1190      .0660    -7.6150    63.4750    21.5000      .0870     2.2950
 7712.5000    37.8470   104.9309   893.5479     1.4670     1.1190     1.1170      .0750    -6.9950    63.9650    22.8290      .0760     2.2730
 7713.0000    37.6720   103.6570   886.2461     1.4700     1.1280     1.1190      .0810    -7.2090    62.9250    23.5350      .0760     2.2620
 7713.5000    37.7370   102.4989   882.7764     1.4370     1.1330     1.1210      .0810    -6.9750    62.0550    23.4940      .0670     2.2620
 7714.0000    38.1460   101.3839   885.8242     1.4130     1.1290     1.1200      .0810    -6.9690    65.4919    23.5430      .0580     2.2610
 7714.5000    38.7220   104.0709   891.9434     1.4260     1.1210     1.1190      .0810    -6.8030    65.8099    23.5290      .0630     2.2620
 7715.0000    38.6349   107.0270   894.7813     1.4270     1.1180     1.1180      .0780    -6.6930    65.4340    23.2320      .0670     2.2670
 7715.5000    39.2980   106.6100   890.4434     1.4160     1.1230     1.1210      .0810    -6.1940    65.0490    23.5130      .0720     2.2620
 7716.0000    38.9280   104.7419   886.4502     1.3970     1.1280     1.1300      .0810    -5.7110    65.1050    23.5350      .0690     2.2620
 7716.5000    38.2800   101.8889   878.9600     1.3500     1.1380     1.1420      .0790    -5.3850    61.2500    23.2200      .0760     2.2670
 7717.0000    37.5990   101.0559   873.4268     1.3450     1.1450     1.1530      .0800    -5.2820    62.1720    23.2350      .0730     2.2670
 7717.5000    37.7850   102.7250   870.9189     1.4090     1.1480     1.1570      .0770    -5.4850    63.4280    22.8410      .0610     2.2730
 7718.0000    38.7770   104.3290   861.7354     1.4640     1.1600     1.1630      .0720    -5.1770    64.4850    22.0390      .0690     2.2860
 7718.5000    38.9490   103.2040   849.2773     1.4530     1.1780     1.1770      .0680    -5.4930    61.7209    21.3030      .0720     2.2990
 7719.0000    37.3310    99.6830   843.3369     1.4190     1.1860     1.1910      .0590    -5.4590    58.8550    19.8960      .0760     2.3220
 7719.5000    36.4140    98.6969   844.0117     1.4420     1.1850     1.1930      .0550    -6.1030    61.6310    19.2190      .0760     2.3330
 7720.0000    36.9960    99.9760   842.7461     1.5180     1.1870     1.1910      .0600    -8.6250    60.9680    20.0400      .0710     2.3190
 7720.5000    37.1670   102.0339   837.9082     1.5490     1.1930     1.1950      .0660   -10.6740    60.6120    20.8350      .0630     2.3060
 7721.0000    36.9810   105.0229   834.0039     1.5050     1.1990     1.2010      .0640   -10.9600    60.9930    20.5470      .0710     2.3110
 7721.5000    37.0439   105.2699   834.5703     1.4440     1.1980     1.1970      .0690   -10.5140    60.6740    21.1790      .0800     2.3010
 7722.0000    37.6810   104.0199   842.4971     1.4620     1.1870     1.1870      .0710    -8.9630    59.8910    21.6660      .0680     2.2930
 7722.5000    36.6899   104.8169   847.9492     1.4880     1.1790     1.1790      .0670    -6.9440    64.5919    21.0770      .0850     2.3020
 7723.0000    36.0420   104.8610   849.8252     1.4560     1.1770     1.1760      .0660    -7.1090    65.6370    20.9820      .0760     2.3040
 7723.5000    35.0600   104.3829   855.8174     1.4160     1.1680     1.1710      .0640    -6.2420    65.2050    20.6690      .0730     2.3090
 7724.0000    35.9659   105.5549   863.5176     1.4180     1.1580     1.1640      .0630    -6.6690    62.7159    20.6560      .0760     2.3090
 7724.5000    35.8260   106.2419   867.2471     1.4260     1.1530     1.1580      .0650    -7.0380    62.1520    21.0050      .0750     2.3030
 7725.0000    35.2010   106.0480   869.5840     1.4400     1.1500     1.1550      .0640    -7.3690    61.4690    20.8630      .0600     2.3060
 7725.5000    35.2360   105.0669   871.3545     1.4540     1.1480     1.1520      .0590    -7.7020    58.5779    20.0880      .0770     2.3190
 7726.0000    35.1429   102.9969   872.5518     1.4690     1.1460     1.1480      .0560    -7.7270    58.9449    19.6440      .0850     2.3260
 7726.5000    34.6689   101.4609   873.9541     1.4790     1.1440     1.1440      .0580    -7.7970    63.4240    19.9160      .0840     2.3210
