~VERSION INFORMATION
VERS.                             2.0:   CWLS Log ASCII Standard-VERSION 2.0
WRAP.                              NO:   One line per depth step
~Well Information Block
STRT.F                      3511.0000:   Top Depth
STOP.F                      7755.0000:   Bottom Depth
STEP.F                         .50000:   Depth Increment
NULL.                        -999.250:   Null Value
FLD .                      BA BLK 431:   Field Name
WELL.       OCSG09017   002 ST01 BP00:   NAME
API .                  42704402350100:   WELL API
EDF .F                        89.0000:   ELEV DRILL FLOOR
COMP.       SEAGULL ENERGY E AND P IN:   OPERATOR
BN  .                             481:   BLOCK
CTRY.                             USA:   COUNTRY NAME
CNTY.                        BRAZOS L:   COUNTY NAME
EKB .F                        90.0000:   ELEV KELLY BUSHING
TDD .F                          0.000:   FINAL TD DRILLER
STAT.                           TEXAS:   STATE NAME
UWI .                  42704402350100:   WELL API
DICO.               IHS : Digitizing Company
~PARAMETER INFORMATION (zones)
#MNEM.UNIT                       Value     Description
#=========                       =====     ===========
#ZONATION                          CNL:   ZONATION NAME
#ZONE                            RUN_0:   ZONE NAME
TOP .                       3511.0000:   TOP DEPTH
BOT .                       7755.5000:   BOTTOM DEPTH
RUN .                               0:   RUN NUMBER
LCCD.                             280:   LOGGING CONTRACTOR
SRVC.                     Halliburton:   LOGGING CONT NAME
DICO.          QC Data Collectors Ltd:   DIG COMPANY NAME
LDAT.                        --/--/--:   DATE LOGGED
BHF .                              99:   FLUID CODE
DPT .                   Miscellaneous:   DRILLING FLUID TYPE
~PARAMETER INFORMATION (zones)
#MNEM.UNIT                       Value     Description
#=========                       =====     ===========
#ZONATION                          DIL:   ZONATION NAME
#ZONE                            RUN_0:   ZONE NAME
TOP .                       3511.0000:   TOP DEPTH
BOT .                       7755.5000:   BOTTOM DEPTH
RUN .                               0:   RUN NUMBER
LCCD.                             280:   LOGGING CONTRACTOR
SRVC.                     Halliburton:   LOGGING CONT NAME
DICO.          QC Data Collectors Ltd:   DIG COMPANY NAME
LDAT.                        --/--/--:   DATE LOGGED
BHF .                              99:   FLUID CODE
DPT .                   Miscellaneous:   DRILLING FLUID TYPE
~PARAMETER INFORMATION (zones)
#MNEM.UNIT                       Value     Description
#=========                       =====     ===========
#ZONATION                          FDC:   ZONATION NAME
#ZONE                            RUN_0:   ZONE NAME
TOP .                       3511.0000:   TOP DEPTH
BOT .                       7755.5000:   BOTTOM DEPTH
RUN .                               0:   RUN NUMBER
LCCD.                             280:   LOGGING CONTRACTOR
SRVC.                     Halliburton:   LOGGING CONT NAME
DICO.          QC Data Collectors Ltd:   DIG COMPANY NAME
LDAT.                        --/--/--:   DATE LOGGED
BHF .                              99:   FLUID CODE
DPT .                   Miscellaneous:   DRILLING FLUID TYPE
~PARAMETER INFORMATION (zones)
#MNEM.UNIT                       Value     Description
#=========                       =====     ===========
#ZONATION                        SONIC:   ZONATION NAME
#ZONE                            RUN_0:   ZONE NAME
TOP .                       3511.0000:   TOP DEPTH
BOT .                       7731.5000:   BOTTOM DEPTH
RUN .                               0:   RUN NUMBER
LCCD.                             280:   LOGGING CONTRACTOR
SRVC.                     Halliburton:   LOGGING CONT NAME
DICO.          QC Data Collectors Ltd:   DIG COMPANY NAME
LDAT.                        --/--/--:   DATE LOGGED
BHF .                              99:   FLUID CODE
DPT .                   Miscellaneous:   DRILLING FLUID TYPE
~Curve Information Block
#MNEM.UNIT                    API CODE    No Description
#=========                    ========    == ===========
DEPT.F                   00 001 00 00:     1  DEPTH
NPHI.%                               :     2  Neutron Porosity
GR.GAPI                              :     3  Gamma Ray
GRD.OHMM                             :     4  Unrecognised
ILD.OHMM                             :     5  Deep Induction Resistivity
ILM.OHMM                             :     6  Medium Induction Resistivity
SP.MV                                :     7  Spontaneous Potential
DPHI.%                               :     8  Porosity
CALI.IN                              :     9  Caliper
DT.US/F                              :    10  Sonic Transit Time
GR.GAPI                              :    11  Gamma Ray
~ASCII
 3511.0000    22.1983    25.1366     1.1580      .4291      .4393   -68.4446    25.8685    10.4511    67.6442    23.7264
 3511.5000     8.5598    26.9454     1.2221      .5087      .5343   -72.0096    12.7031    10.7817    67.5920    24.0191
 3512.0000    19.6023    28.4513     1.0422      .6098      .6395   -75.3118    21.4246    11.3257    67.5557    25.9914
 3512.5000    30.6448    29.4376      .9127      .7088      .7678   -78.4564    30.1461    11.8508    67.5336    27.7572
 3513.0000    41.6874    30.8999      .9380      .8964      .9552   -79.9962    38.8740    11.7645    67.5714    28.8936
 3513.5000    52.7299    34.2059     1.1658     1.1495     1.1728   -80.4176    47.5955    11.6694    67.6017    30.0358
 3514.0000    58.9385    36.7684     1.5675     1.4604     1.4513   -80.9958    53.8824    12.9359    67.6716    32.3747
 3514.5000    57.9539    37.9474     1.9792     1.7148     1.7928   -81.5117    50.7701    14.5018    67.2830    33.9089
 3515.0000    52.7299    37.7125     2.2574     1.8614     2.1040   -81.9476    46.1057    13.4587    60.8465    35.6118
 3515.5000    49.7295    36.0640     2.4260     1.9903     2.3608   -82.3563    41.4412    11.9547    51.8929    35.7831
 3516.0000    47.4420    34.4455     2.4663     2.0538     2.4758   -82.7834    36.7767    12.3096    47.9056    34.6572
 3516.5000    45.7684    32.7501     2.5076     2.0308     2.5621   -83.1473    32.1091    12.6838    45.2929    33.3897
 3517.0000    43.9589    36.3544     2.5712     1.9326     2.5824   -83.4910    27.4446    12.9969    44.5583    32.9167
 3517.5000    42.1630    40.9807     2.5369     1.7476     2.4975   -83.6864    22.7802    13.1601    46.0979    32.7984
 3518.0000    41.1175    39.8934     2.3251     1.4412     1.8862   -83.9271    18.5241    13.2548    58.1761    32.3040
 3518.5000    40.1496    35.9403     2.1055     1.0673     1.4001   -84.1366    19.9796    13.3895    70.4929    31.6524
 3519.0000    39.3503    33.3140     1.9806      .7893     1.1026   -84.4032    19.1835    13.5897    80.0331    31.2666
 3519.5000    37.3170    32.4232     1.5969      .6657      .9784   -84.5154    17.4915    13.8601    83.4520    31.0893
 3520.0000    35.4172    33.0015     1.1309      .5925      .8751   -84.6249    15.2176    14.5693    82.0651    30.8980
 3520.5000    33.9434    34.0510      .9345      .5498      .7751   -84.5410    13.2099    15.4400    84.3759    31.4155
 3521.0000    32.7129    35.4351      .8052      .5116      .6923   -84.4050    19.5448    16.1596    93.2418    32.4331
 3521.5000    37.1827    37.7515      .7483      .4615      .6217   -84.2213    27.4350    16.3525    98.0889    32.8001
 3522.0000    44.2770    39.6200      .7355      .4341      .5673   -83.9626    35.3189    16.3797   105.9833    32.7888
 3522.5000    49.6064    40.2815      .7349      .4216      .5494   -83.4597    38.5927    16.2270   111.8258    34.4658
 3523.0000    54.4403    38.7359      .7354      .4259      .5533   -82.9277    39.9854    16.0921   116.9648    36.3815
 3523.5000    59.0205    37.2886      .7319      .4395      .5613   -82.4033    40.7139    16.7635   122.1040    37.5309
 3524.0000    60.1851    36.3264      .7324      .4552      .5710   -82.0508    41.3181    17.6137   126.4003    38.1104
 3524.5000    63.2927    36.1708      .7312      .4737      .5871   -81.7351    43.6520    18.0031   129.9744    38.8057
 3525.0000    65.6855    36.9683      .7442      .4961      .6051   -81.4169    45.9346    18.0750   133.5261    37.8235
 3525.5000    67.4216    37.8238      .7703      .5249      .6333   -81.0482    48.6857    18.5379   136.5828    36.3900
 3526.0000    67.4888    38.6575      .8018      .5575      .6625   -80.6136    51.8387    17.9176   139.7402    35.2543
 3526.5000    65.4539    39.4045      .8231      .5939      .6881   -80.1992    53.1464    17.6372   136.4329    35.5215
 3527.0000    63.6603    40.0992      .8419      .6422      .7223   -79.7070    50.9172    16.7657   131.7769    35.4761
 3527.5000    62.6136    40.4057      .8667      .6917      .7558   -78.9252    48.2541    16.7437   128.9087    36.0447
 3528.0000    62.5089    40.2537      .8999      .7246      .7735   -78.0892    45.6645    17.5243   137.5317    37.8223
 3528.5000    62.2352    39.8951      .9458      .7462      .7891   -77.2565    43.0861    17.6812   140.8672    39.4402
 3529.0000    61.0931    39.4742      .9842      .7517      .7787   -76.3547    40.5077    17.3179   139.1987    40.8095
 3529.5000    60.0835    39.1080      .8841      .7266      .7475   -75.3508    38.1978    16.9973   136.4143    41.1100
 3530.0000    59.6655    39.2177      .7854      .7005      .7214   -74.5739    36.3539    16.6611   136.2205    41.1898
 3530.5000    59.0201    39.8983      .7157      .6754      .6967   -73.6614    40.9713    16.6786   140.8154    42.0075
 3531.0000    71.3315    40.5552      .6876      .6572      .6742   -72.7551    47.2790    17.9541   158.1389    42.1860
 3531.5000    75.0864    41.1467      .6806      .6407      .6605   -72.0608    54.3828    20.3905   155.9355    40.4305
 3532.0000    76.8016    41.7385      .6803      .6307      .6470   -71.7091    71.2788    23.0427   160.5837    39.8547
 3532.5000    77.1661    42.4189      .6735      .6233      .6351   -71.4908    71.2292    22.2045   158.4070    39.3207
 3533.0000    74.7987    43.1276      .6610      .6176      .6244   -71.3700    69.1416    19.3657   153.5015    37.9858
 3533.5000    72.7838    43.8583      .6484      .6151      .6177   -71.2490    67.6517    19.9250   146.8145    37.7437
 3534.0000    71.1637    44.6312      .6348      .6116      .6154   -71.1907    66.3973    21.5029   139.9819    37.0974
 3534.5000    69.8153    45.5557      .6416      .6073      .6174   -71.2305    65.6177    22.3487   135.2808    36.8151
 3535.0000    69.3845    47.0335      .6547      .6169      .6226   -71.2484    65.3687    22.7036   138.7051    37.4176
 3535.5000    72.4218    48.1003      .6668      .6232      .6333   -71.4028    65.5898    22.4886   145.7048    37.7916
 3536.0000    75.2894    48.4032      .6841      .6374      .6512   -71.8912    64.4324    21.8881   143.1912    37.9826
 3536.5000    75.1936    47.9554      .6942      .6649      .6807   -72.2906    62.3655    20.9514   138.1702    38.3220
 3537.0000    71.0438    47.1130      .7206      .6995      .7157   -72.8114    57.9987    20.3308   143.3186    40.9244
 3537.5000    66.0948    46.2106      .7605      .7380      .7589   -73.7708    53.3661    19.6045   148.4045    42.8869
 3538.0000    62.4374    44.7822      .8228      .7766      .8115   -74.7321    48.2828    19.5891   148.9167    44.6547
 3538.5000    59.8429    43.2594      .9235      .8054      .8559   -75.2141    43.3594    18.8757   129.2100    44.1524
 3539.0000    59.6509    41.3570      .9690      .8135      .8723   -75.4448    39.7643    17.1389   108.1440    41.6123
 3539.5000    59.4087    39.4924      .9648      .8135      .8752   -75.4067    37.5280    16.0266    97.2766    39.8458
 3540.0000    58.9951    41.9534      .9481      .8076      .8536   -75.2441    34.2479    15.9063    94.6062    37.6328
 3540.5000    58.6372    43.1552      .9211      .8017      .8315   -75.0254    31.7198    15.8952    97.0702    36.0019
 3541.0000    58.2670    41.6272      .8852      .7904      .8068   -74.4736    30.5929    15.9265   101.3539    36.4600
 3541.5000    57.8633    40.1480      .8516      .7735      .7828   -73.9309    30.7232    16.1023   107.0238    37.5477
 3542.0000    57.5741    38.9859      .8393      .7557      .7610   -73.4818    31.7354    16.6619   112.7203    37.6044
 3542.5000    57.3544    39.4403      .8342      .7359      .7422   -73.1305    32.6070    17.0250   113.9259    38.6802
 3543.0000    56.6727    43.6253      .8237      .7138      .7302   -72.9121    31.3690    16.7693   114.0416    39.6666
 3543.5000    55.5329    47.7920      .8114      .6924      .7266   -73.0651    29.1239    16.2071   114.9823    38.9690
 3544.0000    54.7465    50.6176      .8010      .6684      .7331   -74.1991    27.9969    15.6660   116.0199    39.6537
