~VERSION INFORMATION
VERS.                             2.0:   CWLS Log ASCII Standard-VERSION 2.0
WRAP.                              NO:   One line per depth step
~Well Information Block
STRT.F                      4703.0000:   Top Depth
STOP.F                      9304.5000:   Bottom Depth
STEP.F                         .50000:   Depth Increment
NULL.                        -999.250:   Null Value
FLD .                      BA BLK 399:   Field Name
WELL.       OCSG07218  A003 ST00 BP00:   NAME
API .                  42704403090000:   WELL API
EDF .F                       113.0000:   ELEV DRILL FLOOR
COMP.       SEAGULL ENERGY E AND P IN:   OPERATOR
EGL .F                       -62.0000:   ELEV GROUND LEVEL
EKB .F                       114.0000:   ELEV KELLY BUSHING
TDD .F                      9314.0000:   FINAL TD DRILLER
UWI .                  42704403090000:   WELL API
DICO.               IHS : Digitizing Company
~PARAMETER INFORMATION (zones)
#MNEM.UNIT                       Value     Description
#=========                       =====     ===========
#ZONATION                          CNL:   ZONATION NAME
#ZONE                            RUN_1:   ZONE NAME
TOP .                       4703.0000:   TOP DEPTH
BOT .                       9200.5000:   BOTTOM DEPTH
RUN .                               1:   RUN NUMBER
LCCD.                             510:   LOGGING CONTRACTOR
SRVC.                   Western Atlas:   LOGGING CONT NAME
DICO.          QC Data Collectors Ltd:   DIG COMPANY NAME
LDAT.                      03/24/1997:   DATE LOGGED
TDD .F                      9314.0000:   TOTAL DEPTH DRILLER
TDL .F                      9307.0000:   TOTAL DEPTH LOGGER
BOTL.F                      9305.0000:   BOTTOM DEPTH LOGGED
TOPL.F                      4703.0000:   TOP DEPTH LOGGED
CS1 .                         10.7500:   CASING SIZE 1
BS1 .                          9.8750:   BIT SIZE 1
DDB1.F                      9314.0000:   DEPTH DRILLED BIT 1
BHF .                              99:   FLUID CODE
DPT .                   Miscellaneous:   DRILLING FLUID TYPE
MUDD.                         11.5000:   FLUID DENSITY
MUDV.                         41.0000:   FLUID VISCOSITY
DFPH.                         10.2000:   FLUID PH
FL  .                          5.0000:   FLUID LOSS
RM  .OHMM                      1.1200:   RM
RMT .DEGF                     75.0000:   RM TEMP
RMF .OHMM                       .8300:   RMF
RMFT.DEGF                     75.0000:   RMF TEMP
FSC .                               M:   RMF CODE
RMC .OHMM                      1.4600:   RMC
RMCT.DEGF                     75.0000:   RMC TEMP
CMC .                               M:   RMC CODE
TMAX.DEGF                    181.0000:   MAX REC TEMP
TIMC.                         24.0000:   TIME SINCE CIRCLN
SON .                          173943:   SERVICE ORDER NUM
LMF .                             MSL:   LOGS MEAS FROM
MUDS.                             PIT:   MUD SOURCE
ENG .                         HADSALL:   ENGINEER
WIT .                        FONTENOT:   WITNESS
~PARAMETER INFORMATION (zones)
#MNEM.UNIT                       Value     Description
#=========                       =====     ===========
#ZONATION                          DAL:   ZONATION NAME
#ZONE                            RUN_1:   ZONE NAME
TOP .                       4703.0000:   TOP DEPTH
BOT .                       9242.5000:   BOTTOM DEPTH
RUN .                               1:   RUN NUMBER
LCCD.                             510:   LOGGING CONTRACTOR
SRVC.                   Western Atlas:   LOGGING CONT NAME
DICO.          QC Data Collectors Ltd:   DIG COMPANY NAME
LDAT.                      03/24/1997:   DATE LOGGED
TDD .F                      9314.0000:   TOTAL DEPTH DRILLER
TDL .F                      9307.0000:   TOTAL DEPTH LOGGER
BOTL.F                      9305.0000:   BOTTOM DEPTH LOGGED
TOPL.F                      4703.0000:   TOP DEPTH LOGGED
CS1 .                         10.7500:   CASING SIZE 1
BS1 .                          9.8750:   BIT SIZE 1
DDB1.F                      9314.0000:   DEPTH DRILLED BIT 1
BHF .                              99:   FLUID CODE
DPT .                   Miscellaneous:   DRILLING FLUID TYPE
MUDD.                         11.5000:   FLUID DENSITY
MUDV.                         41.0000:   FLUID VISCOSITY
DFPH.                         10.2000:   FLUID PH
FL  .                          5.0000:   FLUID LOSS
RM  .OHMM                      1.1200:   RM
RMT .DEGF                     75.0000:   RM TEMP
RMF .OHMM                       .8300:   RMF
RMFT.DEGF                     75.0000:   RMF TEMP
FSC .                               M:   RMF CODE
RMC .OHMM                      1.4600:   RMC
RMCT.DEGF                     75.0000:   RMC TEMP
CMC .                               M:   RMC CODE
TMAX.DEGF                    181.0000:   MAX REC TEMP
TIMC.                         24.0000:   TIME SINCE CIRCLN
SON .                          173943:   SERVICE ORDER NUM
LMF .                             MSL:   LOGS MEAS FROM
MUDS.                             PIT:   MUD SOURCE
ENG .                         HADSALL:   ENGINEER
WIT .                        FONTENOT:   WITNESS
~PARAMETER INFORMATION (zones)
#MNEM.UNIT                       Value     Description
#=========                       =====     ===========
#ZONATION                          DIL:   ZONATION NAME
#ZONE                            RUN_1:   ZONE NAME
TOP .                       4703.0000:   TOP DEPTH
BOT .                       9305.5000:   BOTTOM DEPTH
RUN .                               1:   RUN NUMBER
LCCD.                             510:   LOGGING CONTRACTOR
SRVC.                   Western Atlas:   LOGGING CONT NAME
DICO.          QC Data Collectors Ltd:   DIG COMPANY NAME
LDAT.                      03/24/1997:   DATE LOGGED
TDD .F                      9314.0000:   TOTAL DEPTH DRILLER
TDL .F                      9307.0000:   TOTAL DEPTH LOGGER
BOTL.F                      9305.0000:   BOTTOM DEPTH LOGGED
TOPL.F                      4703.0000:   TOP DEPTH LOGGED
CS1 .                         10.7500:   CASING SIZE 1
BS1 .                          9.8750:   BIT SIZE 1
DDB1.F                      9314.0000:   DEPTH DRILLED BIT 1
BHF .                              99:   FLUID CODE
DPT .                   Miscellaneous:   DRILLING FLUID TYPE
MUDD.                         11.5000:   FLUID DENSITY
MUDV.                         41.0000:   FLUID VISCOSITY
DFPH.                         10.2000:   FLUID PH
FL  .                          5.0000:   FLUID LOSS
RM  .OHMM                      1.1200:   RM
RMT .DEGF                     75.0000:   RM TEMP
RMF .OHMM                       .8300:   RMF
RMFT.DEGF                     75.0000:   RMF TEMP
FSC .                               M:   RMF CODE
RMC .OHMM                      1.4600:   RMC
RMCT.DEGF                     75.0000:   RMC TEMP
CMC .                               M:   RMC CODE
TMAX.DEGF                    181.0000:   MAX REC TEMP
TIMC.                         24.0000:   TIME SINCE CIRCLN
SON .                          173943:   SERVICE ORDER NUM
LMF .                             MSL:   LOGS MEAS FROM
MUDS.                             PIT:   MUD SOURCE
ENG .                         HADSALL:   ENGINEER
WIT .                        FONTENOT:   WITNESS
~PARAMETER INFORMATION (zones)
#MNEM.UNIT                       Value     Description
#=========                       =====     ===========
#ZONATION                          FDC:   ZONATION NAME
#ZONE                            RUN_1:   ZONE NAME
TOP .                       4703.0000:   TOP DEPTH
BOT .                       9228.5000:   BOTTOM DEPTH
RUN .                               1:   RUN NUMBER
LCCD.                             510:   LOGGING CONTRACTOR
SRVC.                   Western Atlas:   LOGGING CONT NAME
DICO.          QC Data Collectors Ltd:   DIG COMPANY NAME
LDAT.                      03/24/1997:   DATE LOGGED
TDD .F                      9314.0000:   TOTAL DEPTH DRILLER
TDL .F                      9307.0000:   TOTAL DEPTH LOGGER
BOTL.F                      9305.0000:   BOTTOM DEPTH LOGGED
TOPL.F                      4703.0000:   TOP DEPTH LOGGED
CS1 .                         10.7500:   CASING SIZE 1
BS1 .                          9.8750:   BIT SIZE 1
DDB1.F                      9314.0000:   DEPTH DRILLED BIT 1
BHF .                              99:   FLUID CODE
DPT .                   Miscellaneous:   DRILLING FLUID TYPE
MUDD.                         11.5000:   FLUID DENSITY
MUDV.                         41.0000:   FLUID VISCOSITY
DFPH.                         10.2000:   FLUID PH
FL  .                          5.0000:   FLUID LOSS
RM  .OHMM                      1.1200:   RM
RMT .DEGF                     75.0000:   RM TEMP
RMF .OHMM                       .8300:   RMF
RMFT.DEGF                     75.0000:   RMF TEMP
FSC .                               M:   RMF CODE
RMC .OHMM                      1.4600:   RMC
RMCT.DEGF                     75.0000:   RMC TEMP
CMC .                               M:   RMC CODE
TMAX.DEGF                    181.0000:   MAX REC TEMP
TIMC.                         24.0000:   TIME SINCE CIRCLN
SON .                          173943:   SERVICE ORDER NUM
LMF .                             MSL:   LOGS MEAS FROM
MUDS.                             PIT:   MUD SOURCE
ENG .                         HADSALL:   ENGINEER
WIT .                        FONTENOT:   WITNESS
~Curve Information Block
#MNEM.UNIT                    API CODE    No Description
#=========                    ========    == ===========
DEPT.F                   00 001 00 00:     1  DEPTH
CNCF.%                               :     2  Field Normalized CNC
DT24.US/F                            :     3  Unrecognised
CILD.MMHO                            :     4  Deep Induction Conductivity
RFOC.OHMM                            :     5  Medium Resistivity
RILD.OHMM                            :     6  Deep Resistivity
RILM.OHMM                            :     7  Medium Resistivity
RWAZ.OHMM                            :     8  Unrecognised
SP.MV                                :     9  Spontaneous Potential
GR.GAPI                              :    10  Gamma Ray
PORZ.%                               :    11  Neutron Porosity
ZCOR.G/C3                            :    12  Density Correction
ZDEN.G/C3                            :    13  Bulk Density
~ASCII
# ...
 8903.0000    22.4860   102.3169   650.0166     2.2480     1.5380     1.7530      .0810   -20.0970    47.3220    20.3330      .0020     2.3150
 8903.5000    18.8320    89.8429   652.8955     2.3990     1.5320     1.7230      .0360   -17.8550    45.8900    14.0020      .0200     2.4190
 8904.0000    17.1380    77.1930   660.4990     2.5650     1.5140     1.6660      .0120   -14.7330    45.8600     8.5270      .0480     2.5090
 8904.5000    17.8140    68.3209   670.7764     2.6250     1.4910     1.5960      .0090   -11.7280    45.9700     7.6180      .0640     2.5240
 8905.0000    20.1580    70.9760   681.2471     2.4230     1.4680     1.5300      .0300    -8.9850    48.4430    13.0540      .0340     2.4350
 8905.5000    23.2970    81.5359   696.2119     2.0590     1.4360     1.4850      .0570    -7.3300    50.2720    17.8840      .0060     2.3550
 8906.0000    25.1630    92.1559   720.1035     1.8380     1.3890     1.4410      .0680    -7.2820    48.3740    19.6100      .0070     2.3260
 8906.5000    26.3780    99.3989   749.4883     1.8300     1.3340     1.3930      .0590    -7.7120    51.6540    18.7720      .0160     2.3400
 8907.0000    28.2920   102.2549   773.1084     1.7910     1.2930     1.3560      .0510    -5.5840    51.4340    17.7470      .0300     2.3570
 8907.5000    30.2950   104.0829   785.0205     1.5950     1.2740     1.3350      .0530     -.9540    53.2510    18.1960      .0530     2.3500
 8908.0000    30.0510   104.2059   785.1494     1.4620     1.2740     1.3320      .0510     2.1700    55.7090    17.9310      .0560     2.3540
 8908.5000    28.8580   104.2019   782.8076     1.4680     1.2780     1.3430      .0630     3.6470    51.3480    19.7740      .0310     2.3240
 8909.0000    27.6730   102.3660   785.2686     1.5620     1.2730     1.3520      .0570     3.3930    50.9220    18.9100      .0400     2.3380
 8909.5000    27.0910    97.5020   793.6953     1.7620     1.2600     1.3310      .0560     1.8520    47.9550    18.8350      .0130     2.3390
 8910.0000    27.7820    97.5919   808.7246     2.0400     1.2370     1.2810      .0570      .3010    49.2370    19.0960      .0160     2.3350
 8910.5000    29.6770    98.5640   820.0273     1.9580     1.2190     1.2310      .0580     -.5260    48.8080    19.3540      .0260     2.3310
 8911.0000    31.5850   100.7909   823.0684     1.6350     1.2150     1.2020      .0620      .2180    52.1840    20.0800      .0640     2.3190
 8911.5000    33.3090   104.9729   829.6484     1.4160     1.2050     1.1880      .0660     1.8280    52.8120    20.6880      .0630     2.3090
 8912.0000    32.9930   105.3250   841.9707     1.3490     1.1880     1.1840      .0680     2.9640    54.8290    21.1670      .0390     2.3010
 8912.5000    33.4090   104.9669   854.5723     1.3400     1.1700     1.1860      .0630     3.7890    55.7910    20.4980      .0390     2.3120
 8913.0000    32.5470   102.8650   858.2822     1.3780     1.1650     1.2000      .0540     4.6300    50.2859    19.1720      .0590     2.3340
 8913.5000    31.9760    96.8450   857.6523     1.4420     1.1660     1.2180      .0460     5.1300    47.0740    17.8540      .0710     2.3550
 8914.0000    32.1479    92.4440   848.1094     1.5120     1.1790     1.2450      .0450     5.4100    49.6680    17.5480      .0680     2.3610
 8914.5000    31.2650    92.6079   827.6299     1.5260     1.2080     1.2800      .0510     5.8640    48.2280    18.4410      .0610     2.3460
 8915.0000    29.6160    94.7520   806.3779     1.5030     1.2400     1.3080      .0510     5.8500    49.1200    18.1410      .0500     2.3510
 8915.5000    27.6760    97.7100   794.5244     1.5930     1.2590     1.3150      .0430     5.6970    51.9640    16.6910      .0410     2.3750
 8916.0000    27.0090    98.0719   791.4404     1.8060     1.2630     1.3000      .0410     4.5760    52.3520    16.3460      .0320     2.3800
 8916.5000    28.4040    94.1969   794.1768     1.9250     1.2590     1.2720      .0440     3.4890    53.5460    16.9000      .0460     2.3710
 8917.0000    29.6820    92.0929   800.2998     1.8330     1.2500     1.2380      .0580     3.0500    49.9770    19.1750      .0770     2.3340
 8917.5000    32.6510    92.7159   815.6973     1.6690     1.2260     1.2030      .0730     2.9920    52.5010    21.6060      .0730     2.2930
 8918.0000    34.9059    95.8820   838.4688     1.5460     1.1930     1.1680      .0860     2.5980    56.4590    23.5000      .0610     2.2620
 8918.5000    36.5630   102.2560   863.7207     1.4690     1.1580     1.1370      .0980     1.9860    56.3560    25.3620      .0340     2.2310
 8919.0000    37.8910   106.8569   885.6475     1.4320     1.1290     1.1150      .0940     1.3400    59.2110    25.2240      .0410     2.2340
 8919.5000    38.1260   107.4509   900.9531     1.4360     1.1100     1.1020      .0850      .8030    62.3050    24.1990      .0350     2.2510
 8920.0000    38.1790   104.5630   911.3691     1.4720     1.0970     1.0960      .0750     2.3700    59.8710    23.0310      .0540     2.2700
 8920.5000    37.9500    99.8710   916.2949     1.5190     1.0910     1.0970      .0620     3.4140    56.0190    21.0930      .0760     2.3020
 8921.0000    38.1819    97.0719   911.6973     1.5450     1.0970     1.1080      .0600     4.0370    57.4040    20.6960      .0580     2.3090
 8921.5000    38.9460    97.7050   892.2129     1.5470     1.1210     1.1320      .0670     4.8080    58.7820    21.5390      .0360     2.2950
 8922.0000    38.3640   100.4869   864.3242     1.5540     1.1570     1.1660      .0650     5.1080    57.2820    20.9560      .0420     2.3040
 8922.5000    36.5110   102.6299   846.1924     1.5960     1.1820     1.1970      .0620     5.3630    55.6800    20.3070      .0630     2.3150
 8923.0000    36.0909   100.6219   840.7939     1.6560     1.1890     1.2070      .0600     5.4310    55.8360    20.0070      .0540     2.3200
 8923.5000    35.5580    97.9989   841.9072     1.6840     1.1880     1.1950      .0630     4.6810    55.9390    20.4800      .0530     2.3120
 8924.0000    36.1780    99.2479   845.7178     1.6630     1.1820     1.1720      .0710     3.9430    57.4360    21.6630      .0450     2.2930
 8924.5000    35.9460   101.5239   844.0068     1.6510     1.1850     1.1550      .0770     3.9750    58.5190    22.4260      .0520     2.2800
 8925.0000    35.9350   105.2479   837.7773     1.6480     1.1940     1.1500      .0830     3.6250    55.8329    23.1850      .0400     2.2670
 8925.5000    35.7450   105.6770   844.7715     1.6010     1.1840     1.1490      .0780     3.2340    55.8530    22.5420      .0400     2.2780
 8926.0000    35.4650   101.7739   863.8750     1.5660     1.1580     1.1480      .0730     3.1160    55.8140    22.2090      .0590     2.2840
 8926.5000    34.9160    99.7150   881.6104     1.5740     1.1340     1.1410      .0750     3.3390    56.5250    22.6010      .0530     2.2770
 8927.0000    35.8069    97.9070   892.7539     1.5930     1.1200     1.1280      .0720     3.2780    55.6600    22.3020      .0490     2.2820
 8927.5000    36.6990    97.2990   896.2734     1.6070     1.1160     1.1130      .0680    -5.0080    57.0030    21.8720      .0630     2.2890
 8928.0000    37.7159    98.8459   900.1279     1.5900     1.1110     1.1010      .0680    -9.1750    59.2700    21.8930      .0560     2.2890
 8928.5000    39.3780    99.3799   908.3594     1.5210     1.1010     1.0910      .0740    -7.2070    59.3290    22.7670      .0490     2.2740
 8929.0000    39.6750    99.5170   921.4531     1.4640     1.0850     1.0790      .0790    -6.7050    57.2710    23.5980      .0500     2.2610
 8929.5000    39.7070   100.8250   939.2354     1.4630     1.0650     1.0610      .0790      .2860    56.0270    23.8510      .0450     2.2570
 8930.0000    39.3409   103.0380   954.5244     1.4490     1.0480     1.0450      .0810     2.5300    58.4250    24.3790      .0360     2.2480
 8930.5000    39.3600   103.8910   961.4375     1.4110     1.0400     1.0380      .0780     2.9360    56.0880    23.9330      .0430     2.2550
