~VERSION INFORMATION
VERS.                             2.0:   CWLS Log ASCII Standard-VERSION 2.0
WRAP.                              NO:   One line per depth step
~Well Information Block
STRT.F                      4122.0000:   Top Depth
STOP.F                     10958.0000:   Bottom Depth
STEP.F                         .50000:   Depth Increment
NULL.                        -999.250:   Null Value
FLD .                      GA BLK 273:   Field Name
WELL.       OCSG09037   003 ST00 BP00:   NAME
API .                  42706402950000:   WELL API
EDF .F                        95.0000:   ELEV DRILL FLOOR
COMP.       SEAGULL ENERGY E AND P IN:   OPERATOR
BN  .                             273:   BLOCK
CTRY.                             USA:   COUNTRY NAME
CNTY.                              GA:   COUNTY
CNTY.                        GLVSTN L:   COUNTY NAME
EKB .F                        96.0000:   ELEV KELLY BUSHING
TDD .F                      10964.000:   FINAL TD DRILLER
STAT.                           TEXAS:   STATE NAME
UWI .                  42706402950000:   WELL API
DICO.               IHS : Digitizing Company
~PARAMETER INFORMATION (zones)
#MNEM.UNIT                       Value     Description
#=========                       =====     ===========
#ZONATION                          DIL:   ZONATION NAME
#ZONE                            RUN_1:   ZONE NAME
TOP .                       4122.0000:   TOP DEPTH
BOT .                       9366.5000:   BOTTOM DEPTH
RUN .                               1:   RUN NUMBER
LCCD.                             440:   LOGGING CONTRACTOR
SRVC.                    Schlumberger:   LOGGING CONT NAME
DICO.          QC Data Collectors Ltd:   DIG COMPANY NAME
LDAT.                      05/20/1991:   DATE LOGGED
ELD .F                        96.0000:   LOG DATUM ELEVATION
TDD .F                      9360.0000:   TOTAL DEPTH DRILLER
TDL .F                      9366.0000:   TOTAL DEPTH LOGGER
BOTL.F                      9366.0000:   BOTTOM DEPTH LOGGED
TOPL.F                      4402.0000:   TOP DEPTH LOGGED
CS1 .IN                       10.7500:   CASING SIZE 1
BS1 .IN                        9.8750:   BIT SIZE 1
DDB1.F                      9360.0000:   DEPTH DRILLED BIT 1
BHF .                              81:   FLUID CODE
DPT .          Lignosulfonate (Ligno):   DRILLING FLUID TYPE
MUDD.                         12.5000:   FLUID DENSITY
MUDV.                         45.0000:   FLUID VISCOSITY
DFPH.                         10.0000:   FLUID PH
FL  .                          8.0000:   FLUID LOSS
RM  .OHMM                       .5080:   RM
RMT .DEGF                     67.0000:   RM TEMP
RMF .OHMM                       .3460:   RMF
RMFT.DEGF                     67.0000:   RMF TEMP
FSC .                               M:   RMF CODE
RMC .OHMM                       .6820:   RMC
RMCT.DEGF                     67.0000:   RMC TEMP
CMC .                               M:   RMC CODE
TMAX.DEGF                    170.0000:   MAX REC TEMP
TIMC.                          6.6800:   TIME SINCE CIRCLN
~PARAMETER INFORMATION (zones)
#MNEM.UNIT                       Value     Description
#=========                       =====     ===========
#ZONATION                          DIL:   ZONATION NAME
#ZONE                            RUN_2:   ZONE NAME
TOP .                       9092.0000:   TOP DEPTH
BOT .                      10398.5000:   BOTTOM DEPTH
RUN .                               2:   RUN NUMBER
LCCD.                             440:   LOGGING CONTRACTOR
SRVC.                    Schlumberger:   LOGGING CONT NAME
DICO.          QC Data Collectors Ltd:   DIG COMPANY NAME
LDAT.                      06/04/1991:   DATE LOGGED
ELD .F                        96.0000:   LOG DATUM ELEVATION
TDD .F                     10401.0000:   TOTAL DEPTH DRILLER
TDL .F                     10404.0000:   TOTAL DEPTH LOGGER
BOTL.F                     10398.0000:   BOTTOM DEPTH LOGGED
TOPL.F                      9292.0000:   TOP DEPTH LOGGED
CS1 .IN                        7.6250:   CASING SIZE 1
BS1 .IN                        6.7500:   BIT SIZE 1
DDB1.F                     10401.0000:   DEPTH DRILLED BIT 1
BHF .                              99:   FLUID CODE
DPT .                   Miscellaneous:   DRILLING FLUID TYPE
MUDD.                         14.1000:   FLUID DENSITY
MUDV.                         40.0000:   FLUID VISCOSITY
DFPH.                          9.8000:   FLUID PH
FL  .                          3.4000:   FLUID LOSS
RM  .OHMM                       .5160:   RM
RMT .DEGF                     80.0000:   RM TEMP
RMF .OHMM                       .2580:   RMF
RMFT.DEGF                     80.0000:   RMF TEMP
FSC .                               M:   RMF CODE
RMC .OHMM                      1.8700:   RMC
RMCT.DEGF                     80.0000:   RMC TEMP
CMC .                               M:   RMC CODE
TMAX.DEGF                    192.0000:   MAX REC TEMP
TIMC.                          7.4000:   TIME SINCE CIRCLN
~PARAMETER INFORMATION (zones)
#MNEM.UNIT                       Value     Description
#=========                       =====     ===========
#ZONATION                          DIL:   ZONATION NAME
#ZONE                            RUN_3:   ZONE NAME
TOP .                       9320.0000:   TOP DEPTH
BOT .                      10958.5000:   BOTTOM DEPTH
RUN .                               3:   RUN NUMBER
LCCD.                             440:   LOGGING CONTRACTOR
SRVC.                    Schlumberger:   LOGGING CONT NAME
DICO.          QC Data Collectors Ltd:   DIG COMPANY NAME
LDAT.                      06/09/1991:   DATE LOGGED
ELD .F                        96.0000:   LOG DATUM ELEVATION
TDD .F                     10960.0000:   TOTAL DEPTH DRILLER
TDL .F                     10964.0000:   TOTAL DEPTH LOGGER
BOTL.F                     10958.0000:   BOTTOM DEPTH LOGGED
TOPL.F                      9404.0000:   TOP DEPTH LOGGED
CS1 .IN                        7.6250:   CASING SIZE 1
BS1 .IN                        6.7500:   BIT SIZE 1
DDB1.F                     10960.0000:   DEPTH DRILLED BIT 1
BHF .                              99:   FLUID CODE
DPT .                   Miscellaneous:   DRILLING FLUID TYPE
MUDD.                         14.7000:   FLUID DENSITY
MUDV.                         46.0000:   FLUID VISCOSITY
DFPH.                         10.0000:   FLUID PH
FL  .                          2.3000:   FLUID LOSS
RM  .OHMM                       .4570:   RM
RMT .DEGF                     74.0000:   RM TEMP
RMF .OHMM                       .2190:   RMF
RMFT.DEGF                     74.0000:   RMF TEMP
FSC .                               M:   RMF CODE
RMC .OHMM                       .7110:   RMC
RMCT.DEGF                     74.0000:   RMC TEMP
CMC .                               M:   RMC CODE
TMAX.DEGF                    202.0000:   MAX REC TEMP
TIMC.                          7.3800:   TIME SINCE CIRCLN
~Curve Information Block
#MNEM.UNIT                    API CODE    No Description
#=========                    ========    == ===========
DEPT.F                   00 001 00 00:     1  DEPTH
DT.US/F                              :     2  Sonic Transit Time
GR.GAPI                              :     3  Gamma Ray
ILD.OHMM                             :     4  Deep Induction Resistivity
ILM.OHMM                             :     5  Medium Induction Resistivity
SFL.OHMM                             :     6  Medium Resistivity
SP.MV                                :     7  Spontaneous Potential
~ASCII
# ...
 6982.0000   115.6106    75.8752      .7011      .6578      .6557   -46.0707
 6982.5000   117.6239    73.7994      .6918      .6500      .6510   -46.0068
 6983.0000   119.5957    72.8771      .6827      .6423      .6415   -45.8074
 6983.5000   120.9967    71.5916      .6842      .6341      .6317   -45.6165
 6984.0000   122.2524    70.2939      .6856      .6251      .6209   -45.4311
 6984.5000   123.0281    71.4287      .6875      .6184      .6099   -45.2629
 6985.0000   123.2189    72.4926      .6895      .6131      .6052   -45.2315
 6985.5000   122.6727    73.1053      .6880      .6114      .6077   -45.1361
 6986.0000   122.0902    73.4851      .6855      .6104      .6093   -45.0120
 6986.5000   121.4994    73.4430      .6826      .6093      .6100   -44.8876
 6987.0000   121.0881    72.6421      .6795      .6101      .6086   -44.7339
 6987.5000   120.7963    71.9359      .6778      .6111      .6010   -44.5744
 6988.0000   120.5754    72.3431      .6791      .6121      .5980   -44.2935
 6988.5000   120.3627    72.4592      .6804      .6134      .5993   -44.2724
 6989.0000   120.2489    71.4647      .6834      .6148      .5999   -45.0854
 6989.5000   120.2004    70.2098      .6864      .6166      .5952   -45.6801
 6990.0000   120.2369    68.9137      .6903      .6201      .5861   -46.1591
 6990.5000   120.2640    68.0100      .6945      .6237      .5771   -46.2725
 6991.0000   120.1564    70.8213      .6987      .6262      .5728   -46.0024
 6991.5000   119.8688    73.9103      .7040      .6273      .5755   -45.5859
 6992.0000   119.4536    77.4985      .7096      .6284      .5853   -45.0333
 6992.5000   119.2124    80.0215      .7152      .6294      .5998   -44.9519
 6993.0000   119.4423    79.2473      .7205      .6305      .6154   -45.3607
 6993.5000   119.2529    76.8204      .7255      .6319      .6294   -45.6614
 6994.0000   119.0184    74.6205      .7300      .6344      .6428   -45.8488
 6994.5000   118.0494    72.3243      .7326      .6370      .6349   -45.9496
 6995.0000   117.0531    72.3457      .7352      .6405      .6228   -45.9648
 6995.5000   116.0797    75.5336      .7361      .6445      .6127   -45.9656
 6996.0000   116.3151    78.3689      .7369      .6484      .6061   -45.9498
 6996.5000   116.7450    80.8278      .7362      .6510      .6014   -45.9149
 6997.0000   117.4021    79.9495      .7347      .6529      .6025   -45.8801
 6997.5000   118.0757    77.2368      .7338      .6482      .6038   -45.8452
 6998.0000   118.3237    75.0743      .7212      .6411      .6032   -45.8572
 6998.5000   118.5231    74.3481      .7112      .6341      .6080   -45.8756
 6999.0000   118.6704    75.3867      .7063      .6321      .6128   -45.9394
 6999.5000   118.8527    76.4467      .7014      .6330      .6174   -46.0592
 7000.0000   119.0680    76.1249      .6996      .6339      .6185   -46.2202
 7000.5000   119.3890    73.1094      .6997      .6356      .6117   -46.4031
 7001.0000   119.0557    70.2019      .7021      .6381      .6064   -46.5948
 7001.5000   117.5591    69.7841      .7078      .6406      .6087   -46.7299
 7002.0000   116.1632    71.5555      .7138      .6468      .6120   -46.6541
 7002.5000   115.0087    73.6460      .7210      .6531      .6229   -46.5267
 7003.0000   114.8781    75.6884      .7285      .6602      .6346   -46.3696
 7003.5000   114.6965    77.0139      .7384      .6718      .6491   -46.4478
 7004.0000   114.5275    77.5746      .7482      .6835      .6627   -46.8174
 7004.5000   114.4512    77.3484      .7577      .6961      .6748   -47.1861
 7005.0000   114.4186    76.7777      .7643      .7096      .6866   -47.2684
 7005.5000   114.4401    76.5972      .7666      .7205      .6929   -47.2316
 7006.0000   114.2440    76.6019      .7658      .7299      .6993   -46.9630
 7006.5000   113.9316    76.9646      .7668      .7297      .6976   -46.2861
 7007.0000   113.6910    77.8202      .7684      .7253      .6956   -45.6561
 7007.5000   113.5181    78.9563      .7695      .7209      .6877   -45.7054
 7008.0000   113.3492    79.9895      .7704      .7184      .6842   -46.0994
 7008.5000   113.1888    78.5050      .7679      .7176      .6850   -46.2893
 7009.0000   113.0283    76.2837      .7651      .7167      .6825   -46.4792
 7009.5000   112.9855    75.0016      .7622      .7114      .6777   -46.4262
 7010.0000   112.9451    74.4069      .7593      .7033      .6732   -46.0538
 7010.5000   113.4792    74.3031      .7560      .6947      .6664   -45.6747
 7011.0000   115.1981    74.1578      .7517      .6858      .6591   -46.0411
 7011.5000   116.7354    73.8743      .7386      .6769      .6505   -46.7640
 7012.0000   118.0209    72.7389      .7142      .6673      .6421   -46.9426
 7012.5000   118.3263    72.9545      .7041      .6579      .6324   -47.0457
 7013.0000   117.7919    76.7242      .6948      .6518      .6197   -46.5051
 7013.5000   117.2568    80.9640      .6901      .6461      .6072   -46.0151
 7014.0000   116.6841    83.7939      .6881      .6419      .6027   -45.5800
 7014.5000   116.7814    79.7212      .6892      .6379      .5988   -45.4401
 7015.0000   117.4254    79.9587      .6904      .6370      .6009   -45.3784
 7015.5000   118.0702    80.5554      .6905      .6360      .6029   -45.8203
 7016.0000   118.6565    78.6946      .6906      .6351      .6067   -46.1780
 7016.5000   119.1819    73.8142      .6912      .6344      .6112   -46.2868
 7017.0000   119.7073    72.8083      .6928      .6338      .6143   -45.8135
 7017.5000   120.2969    72.1915      .6944      .6331      .6144   -45.4188
 7018.0000   120.9318    70.7866      .6946      .6320      .6145   -45.0717
 7018.5000   121.2917    68.3090      .6940      .6319      .6118   -44.8544
 7019.0000   121.6053    67.2877      .6925      .6335      .6087   -45.1605
 7019.5000   121.3209    69.1820      .6904      .6351      .6051   -45.5366
 7020.0000   119.7786    71.4220      .6893      .6358      .6010   -45.9070
 7020.5000   117.8678    73.4016      .6917      .6364      .5976   -46.2418
 7021.0000   115.8104    74.7620      .6942      .6370      .5991   -46.5598
 7021.5000   113.9709    76.0862      .6969      .6377      .6007   -46.8469
 7022.0000   113.0234    77.1821      .6999      .6416      .6090   -46.9071
 7022.5000   113.4092    78.0005      .7030      .6478      .6197   -46.9673
 7023.0000   114.3406    78.2815      .7055      .6541      .6310   -46.9189
 7023.5000   115.4536    77.9070      .7077      .6606      .6422   -46.8635
 7024.0000   116.5524    78.3208      .7102      .6658      .6490   -46.9271
 7024.5000   117.5875    79.1418      .7139      .6715      .6450   -47.0474
 7025.0000   118.5502    78.1060      .7176      .6777      .6383   -47.2020
 7025.5000   119.1948    75.6937      .7210      .6795      .6314   -47.2753
 7026.0000   119.6477    72.2870      .7220      .6747      .6216   -47.1034
 7026.5000   119.8345    70.4662      .7207      .6654      .6118   -46.9246
 7027.0000   119.3408    75.0743      .7139      .6592      .6076   -46.5775
 7027.5000   118.7045    79.2499      .7163      .6571      .6048   -46.2461
 7028.0000   117.9301    80.9479      .7182      .6604      .6082   -46.1009
 7028.5000   117.0803    77.8456      .7199      .6662      .6136   -46.0249
 7029.0000   116.1062    74.5564      .7217      .6722      .6224   -46.0902
 7029.5000   115.1241    71.8705      .7236      .6781      .6309   -46.0164
 7030.0000   114.1252    74.2040      .7255      .6841      .6390   -45.9351
 7030.5000   114.2303    76.7537      .7266      .6902      .6466   -45.8364
 7031.0000   115.0087    75.0609      .7274      .6940      .6533   -45.8947
 7031.5000   115.6041    71.9800      .7272      .6888      .6551   -46.0063
 7032.0000   116.1587    70.4395      .7266      .6672      .6507   -46.0127
 7032.5000   116.6853    72.7889      .7273      .6503      .6412   -46.2297
 7033.0000   117.1063    75.0903      .7289      .6535      .6264   -46.4600
 7033.5000   117.0447    77.1088      .7299      .6566      .6151   -46.8077
