~VERSION INFORMATION
VERS.                             2.0:   CWLS Log ASCII Standard-VERSION 2.0
WRAP.                              NO:   One line per depth step
~Well Information Block
STRT.F                      4122.0000:   Top Depth
STOP.F                     10958.0000:   Bottom Depth
STEP.F                         .50000:   Depth Increment
NULL.                        -999.250:   Null Value
FLD .                      GA BLK 273:   Field Name
WELL.       OCSG09037   003 ST00 BP00:   NAME
API .                  42706402950000:   WELL API
EDF .F                        95.0000:   ELEV DRILL FLOOR
COMP.       SEAGULL ENERGY E AND P IN:   OPERATOR
BN  .                             273:   BLOCK
CTRY.                             USA:   COUNTRY NAME
CNTY.                              GA:   COUNTY
CNTY.                        GLVSTN L:   COUNTY NAME
EKB .F                        96.0000:   ELEV KELLY BUSHING
TDD .F                      10964.000:   FINAL TD DRILLER
STAT.                           TEXAS:   STATE NAME
UWI .                  42706402950000:   WELL API
DICO.               IHS : Digitizing Company
~PARAMETER INFORMATION (zones)
#MNEM.UNIT                       Value     Description
#=========                       =====     ===========
#ZONATION                          DIL:   ZONATION NAME
#ZONE                            RUN_1:   ZONE NAME
TOP .                       4122.0000:   TOP DEPTH
BOT .                       9366.5000:   BOTTOM DEPTH
RUN .                               1:   RUN NUMBER
LCCD.                             440:   LOGGING CONTRACTOR
SRVC.                    Schlumberger:   LOGGING CONT NAME
DICO.          QC Data Collectors Ltd:   DIG COMPANY NAME
LDAT.                      05/20/1991:   DATE LOGGED
ELD .F                        96.0000:   LOG DATUM ELEVATION
TDD .F                      9360.0000:   TOTAL DEPTH DRILLER
TDL .F                      9366.0000:   TOTAL DEPTH LOGGER
BOTL.F                      9366.0000:   BOTTOM DEPTH LOGGED
TOPL.F                      4402.0000:   TOP DEPTH LOGGED
CS1 .IN                       10.7500:   CASING SIZE 1
BS1 .IN                        9.8750:   BIT SIZE 1
DDB1.F                      9360.0000:   DEPTH DRILLED BIT 1
BHF .                              81:   FLUID CODE
DPT .          Lignosulfonate (Ligno):   DRILLING FLUID TYPE
MUDD.                         12.5000:   FLUID DENSITY
MUDV.                         45.0000:   FLUID VISCOSITY
DFPH.                         10.0000:   FLUID PH
FL  .                          8.0000:   FLUID LOSS
RM  .OHMM                       .5080:   RM
RMT .DEGF                     67.0000:   RM TEMP
RMF .OHMM                       .3460:   RMF
RMFT.DEGF                     67.0000:   RMF TEMP
FSC .                               M:   RMF CODE
RMC .OHMM                       .6820:   RMC
RMCT.DEGF                     67.0000:   RMC TEMP
CMC .                               M:   RMC CODE
TMAX.DEGF                    170.0000:   MAX REC TEMP
TIMC.                          6.6800:   TIME SINCE CIRCLN
~PARAMETER INFORMATION (zones)
#MNEM.UNIT                       Value     Description
#=========                       =====     ===========
#ZONATION                          DIL:   ZONATION NAME
#ZONE                            RUN_2:   ZONE NAME
TOP .                       9092.0000:   TOP DEPTH
BOT .                      10398.5000:   BOTTOM DEPTH
RUN .                               2:   RUN NUMBER
LCCD.                             440:   LOGGING CONTRACTOR
SRVC.                    Schlumberger:   LOGGING CONT NAME
DICO.          QC Data Collectors Ltd:   DIG COMPANY NAME
LDAT.                      06/04/1991:   DATE LOGGED
ELD .F                        96.0000:   LOG DATUM ELEVATION
TDD .F                     10401.0000:   TOTAL DEPTH DRILLER
TDL .F                     10404.0000:   TOTAL DEPTH LOGGER
BOTL.F                     10398.0000:   BOTTOM DEPTH LOGGED
TOPL.F                      9292.0000:   TOP DEPTH LOGGED
CS1 .IN                        7.6250:   CASING SIZE 1
BS1 .IN                        6.7500:   BIT SIZE 1
DDB1.F                     10401.0000:   DEPTH DRILLED BIT 1
BHF .                              99:   FLUID CODE
DPT .                   Miscellaneous:   DRILLING FLUID TYPE
MUDD.                         14.1000:   FLUID DENSITY
MUDV.                         40.0000:   FLUID VISCOSITY
DFPH.                          9.8000:   FLUID PH
FL  .                          3.4000:   FLUID LOSS
RM  .OHMM                       .5160:   RM
RMT .DEGF                     80.0000:   RM TEMP
RMF .OHMM                       .2580:   RMF
RMFT.DEGF                     80.0000:   RMF TEMP
FSC .                               M:   RMF CODE
RMC .OHMM                      1.8700:   RMC
RMCT.DEGF                     80.0000:   RMC TEMP
CMC .                               M:   RMC CODE
TMAX.DEGF                    192.0000:   MAX REC TEMP
TIMC.                          7.4000:   TIME SINCE CIRCLN
~PARAMETER INFORMATION (zones)
#MNEM.UNIT                       Value     Description
#=========                       =====     ===========
#ZONATION                          DIL:   ZONATION NAME
#ZONE                            RUN_3:   ZONE NAME
TOP .                       9320.0000:   TOP DEPTH
BOT .                      10958.5000:   BOTTOM DEPTH
RUN .                               3:   RUN NUMBER
LCCD.                             440:   LOGGING CONTRACTOR
SRVC.                    Schlumberger:   LOGGING CONT NAME
DICO.          QC Data Collectors Ltd:   DIG COMPANY NAME
LDAT.                      06/09/1991:   DATE LOGGED
ELD .F                        96.0000:   LOG DATUM ELEVATION
TDD .F                     10960.0000:   TOTAL DEPTH DRILLER
TDL .F                     10964.0000:   TOTAL DEPTH LOGGER
BOTL.F                     10958.0000:   BOTTOM DEPTH LOGGED
TOPL.F                      9404.0000:   TOP DEPTH LOGGED
CS1 .IN                        7.6250:   CASING SIZE 1
BS1 .IN                        6.7500:   BIT SIZE 1
DDB1.F                     10960.0000:   DEPTH DRILLED BIT 1
BHF .                              99:   FLUID CODE
DPT .                   Miscellaneous:   DRILLING FLUID TYPE
MUDD.                         14.7000:   FLUID DENSITY
MUDV.                         46.0000:   FLUID VISCOSITY
DFPH.                         10.0000:   FLUID PH
FL  .                          2.3000:   FLUID LOSS
RM  .OHMM                       .4570:   RM
RMT .DEGF                     74.0000:   RM TEMP
RMF .OHMM                       .2190:   RMF
RMFT.DEGF                     74.0000:   RMF TEMP
FSC .                               M:   RMF CODE
RMC .OHMM                       .7110:   RMC
RMCT.DEGF                     74.0000:   RMC TEMP
CMC .                               M:   RMC CODE
TMAX.DEGF                    202.0000:   MAX REC TEMP
TIMC.                          7.3800:   TIME SINCE CIRCLN
~Curve Information Block
#MNEM.UNIT                    API CODE    No Description
#=========                    ========    == ===========
DEPT.F                   00 001 00 00:     1  DEPTH
DT.US/F                              :     2  Sonic Transit Time
GR.GAPI                              :     3  Gamma Ray
ILD.OHMM                             :     4  Deep Induction Resistivity
ILM.OHMM                             :     5  Medium Induction Resistivity
SFL.OHMM                             :     6  Medium Resistivity
SP.MV                                :     7  Spontaneous Potential
~ASCII
# ...
10466.0000   111.8490    56.3865      .5744      .5693      .5575   -42.4671
10466.5000   112.3473    56.8055      .5696      .5656      .5540   -42.3694
10467.0000   112.5482    57.5118      .5650      .5600      .5479   -42.1824
10467.5000   112.5377    58.2227      .5605      .5543      .5406   -42.3685
10468.0000   111.8264    57.6973      .5585      .5510      .5300   -42.5120
10468.5000   111.0023    56.4885      .5574      .5496      .5284   -42.4279
10469.0000   110.2419    55.7164      .5606      .5560      .5332   -42.2169
10469.5000   109.8973    56.2281      .5637      .5628      .5462   -41.9693
10470.0000   109.7307    57.1882      .5704      .5709      .5673   -41.7866
10470.5000   109.6080    58.5219      .5778      .5795      .5836   -41.6675
10471.0000   109.5170    59.7451      .5856      .5886      .5856   -41.6078
10471.5000   109.4415    59.1691      .5920      .5976      .5868   -41.7355
10472.0000   109.6926    57.1724      .5940      .6005      .5914   -41.9150
10472.5000   110.0994    56.4096      .5941      .6001      .5965   -42.2031
10473.0000   110.4318    58.2484      .5939      .5990      .5972   -42.6351
10473.5000   110.7197    61.1735      .5929      .5979      .5933   -42.9396
10474.0000   110.8651    64.2250      .5918      .5939      .5835   -42.9890
10474.5000   110.6367    65.0115      .5914      .5923      .5810   -42.8190
10475.0000   110.2950    63.1833      .5927      .5961      .5876   -42.6147
10475.5000   109.9022    60.9946      .5946      .6041      .5951   -42.4033
10476.0000   109.4153    58.3062      .5978      .6135      .6018   -42.2087
10476.5000   108.8818    56.5635      .6009      .6126      .6064   -42.1035
10477.0000   108.5308    58.7271      .6027      .6109      .6068   -42.0360
10477.5000   109.3064    61.4629      .6045      .6059      .6023   -42.0048
10478.0000   111.1722    63.2411      .6029      .6007      .5993   -42.1036
10478.5000   112.0201    62.2218      .6012      .5939      .5957   -42.3530
10479.0000   111.7189    61.6049      .5972      .5874      .5892   -42.6877
10479.5000   111.3102    61.4847      .5928      .5859      .5868   -43.1133
10480.0000   112.3187    61.6838      .5879      .5850      .5883   -43.4309
10480.5000   114.6688    61.9818      .5807      .5816      .5848   -43.4508
10481.0000   115.3309    62.3922      .5728      .5781      .5792   -43.3549
10481.5000   115.4492    63.5594      .5685      .5734      .5672   -43.2106
10482.0000   115.3582    63.3388      .5642      .5673      .5555   -43.1800
10482.5000   115.2013    63.2384      .5607      .5620      .5461   -43.3323
10483.0000   114.8260    64.0145      .5572      .5597      .5462   -43.4511
10483.5000   114.3291    65.9519      .5570      .5580      .5474   -43.2277
10484.0000   113.3219    65.6855      .5587      .5577      .5488   -42.9002
10484.5000   111.9578    65.3628      .5617      .5573      .5497   -42.6993
10485.0000   110.9745    65.6902      .5655      .5569      .5551   -42.5908
10485.5000   110.5087    66.3978      .5697      .5565      .5688   -42.7394
10486.0000   112.2948    66.4978      .5754      .5573      .5772   -42.8932
10486.5000   109.7231    64.0592      .5806      .5587      .5831   -43.0636
10487.0000    75.8750    62.1758      .5837      .5580      .5890   -43.0825
10487.5000     4.4789    60.9434      .5874      .5591      .5919   -42.9865
10488.0000  -999.2500    60.2127      .5845      .5598      .5897   -42.8041
10488.5000      .0000    59.8122      .5687      .5593      .5722   -42.6396
10489.0000    58.4482    59.1165      .5614      .5570      .5448   -42.5793
10489.5000   114.4625    58.3943      .5637      .5537      .5541   -42.2011
10490.0000   114.4778    57.5026      .5726      .5504      .5702   -41.7861
10490.5000   114.8386    57.0120      .5804      .5471      .5862   -41.5219
10491.0000   115.1173    58.8481      .5782      .5437      .5837   -41.4606
10491.5000   115.5188    60.9868      .5743      .5414      .5739   -41.4547
10492.0000   115.8273    61.3866      .5660      .5398      .5678   -41.4669
10492.5000   115.7371    60.6329      .5578      .5404      .5634   -41.3001
10493.0000   114.9819    59.9371      .5527      .5415      .5567   -40.9884
10493.5000   113.9774    60.5185      .5500      .5408      .5506   -40.6786
10494.0000   113.8196    62.3941      .5484      .5394      .5452   -40.5585
10494.5000   114.6310    63.7021      .5494      .5363      .5508   -40.4811
10495.0000   114.3304    63.8420      .5506      .5356      .5722   -40.5098
10495.5000   114.0408    63.7255      .5503      .5374      .5934   -40.4840
10496.0000   113.8209    63.8813      .5478      .5392      .6040   -40.2505
10496.5000   114.0544    64.7142      .5448      .5410      .5987   -39.8152
10497.0000   114.3735    64.5853      .5421      .5399      .5888   -39.2722
10497.5000   114.5225    64.0277      .5404      .5381      .5780   -39.6995
10498.0000   114.3855    64.8800      .5389      .5388      .5638   -40.3124
10498.5000   113.7041    66.2584      .5376      .5412      .5482   -40.8049
10499.0000   111.9869    67.3567      .5377      .5453      .5408   -41.1600
10499.5000   109.8080    67.7689      .5454      .5509      .5452   -41.4830
10500.0000   108.1989    67.7712      .5675      .5610      .5742   -42.4502
10500.5000   106.3295    66.2512      .5725      .5784      .5958   -43.5751
10501.0000   104.3508    64.0250      .5764      .5973      .6124   -45.6384
10501.5000   102.3376    61.3441      .5785      .6190      .6312   -48.8345
10502.0000    99.9995    58.9891      .5803      .6340      .6657   -52.5878
10502.5000   103.1578    56.9678      .5808      .6357      .7372   -56.0099
10503.0000   103.8395    55.5525      .5782      .6291      .7954   -58.8643
10503.5000   102.6705    55.9664      .5701      .6201      .8123   -60.4479
10504.0000   100.8677    58.8892      .5593      .6007      .7449   -59.6712
10504.5000    99.2751    61.0812      .5575      .5631      .6596   -57.7315
10505.0000   100.0421    59.7828      .5625      .5554      .6412   -56.2070
10505.5000   101.0701    56.1346      .5695      .5588      .6919   -56.2846
10506.0000   101.7438    51.7190      .5785      .5670      .7394   -57.3688
10506.5000   101.4296    49.5532      .5872      .5788      .7689   -56.9404
10507.0000   100.5720    49.4744      .5965      .5931      .7774   -53.7285
10507.5000   100.8544    53.5589      .6076      .6086      .7793   -49.5704
10508.0000   101.9115    58.7525      .6221      .6253      .7600   -46.0090
10508.5000   103.2111    62.5637      .6371      .6402      .7311   -45.1837
10509.0000   104.0979    65.3838      .6499      .6518      .7058   -44.5950
10509.5000   104.4441    66.2578      .6589      .6608      .6882   -44.1218
10510.0000   104.0706    67.1001      .6655      .6691      .6854   -43.8189
10510.5000   103.7190    66.1697      .6716      .6765      .6986   -43.6885
10511.0000   103.4520    63.3311      .6778      .6861      .7106   -43.6652
10511.5000   103.1166    60.0404      .6815      .6886      .7211   -43.7470
10512.0000   102.9591    57.6381      .6842      .6902      .7369   -44.0121
10512.5000   104.0673    56.7589      .6830      .6909      .7583   -44.5897
10513.0000   104.6897    57.2938      .6846      .6905      .7812   -45.5859
10513.5000   104.3389    59.0074      .6833      .6897      .7913   -46.6293
10514.0000   103.4268    61.7015      .6790      .6864      .7782   -47.7017
10514.5000   102.3922    63.6124      .6738      .6824      .7526   -48.5427
10515.0000   101.5081    64.8306      .6681      .6779      .7161   -49.2130
10515.5000   103.8022    65.6572      .6619      .6735      .6818   -49.9318
10516.0000   106.5878    65.1394      .6549      .6723      .6723   -50.1901
10516.5000   108.3373    63.4547      .6471      .6762      .8056   -50.0101
10517.0000   109.1403    61.0655      .6419      .6709      .9405   -50.5929
10517.5000   109.5823    58.7420      .6389      .6474     1.0232   -51.8177
