~VERSION INFORMATION
VERS.                             2.0:   CWLS Log ASCII Standard-VERSION 2.0
WRAP.                              NO:   One line per depth step
~Well Information Block
STRT.F                      3120.0000:   Top Depth
STOP.F                     12040.0000:   Bottom Depth
STEP.F                         .50000:   Depth Increment
NULL.                        -999.250:   Null Value
FLD .                      GA BLK 254:   Field Name
WELL.       OCSG01776   001 ST00 BP00:   NAME
API .                    42706300290000:   WELL API
R1  .                      SUN OIL CO:   COMMENT  1
EDF .F                        57.0000:   ELEV DRILL FLOOR
COMP.                      SUN OIL CO:   OPERATOR
BN  .                             254:   BLOCK
CTRY.                             USA:   COUNTRY NAME
CNTY.                              GA:   COUNTY
CNTY.                        GLVSTN L:   COUNTY NAME
EKB .F                        58.0000:   ELEV KELLY BUSHING
TDD .F                      12003.000:   FINAL TD DRILLER
STAT.                           TEXAS:   STATE NAME
UWI .                    42706300290000:   WELL API
DICO.               IHS : Digitizing Company
~PARAMETER INFORMATION (zones)
#MNEM.UNIT                       Value     Description
#=========                       =====     ===========
#ZONATION                           IE:   ZONATION NAME
#ZONE                            RUN_2:   ZONE NAME
TOP .                       7847.0000:   TOP DEPTH
BOT .                      10079.0000:   BOTTOM DEPTH
RUN .                               2:   RUN NUMBER
LCCD.                             440:   LOGGING CONTRACTOR
SRVC.                    Schlumberger:   LOGGING CONT NAME
DICO.          QC Data Collectors Ltd:   DIG COMPANY NAME
LDAT.                      11/28/1970:   DATE LOGGED
ELD .F                        58.0000:   LOG DATUM ELEVATION
TDD .F                     10076.0000:   TOTAL DEPTH DRILLER
TDL .F                     10080.0000:   TOTAL DEPTH LOGGER
BOTL.F                     10079.0000:   BOTTOM DEPTH LOGGED
TOPL.F                      7847.0000:   TOP DEPTH LOGGED
CS1 .IN                        9.6250:   CASING SIZE 1
BS1 .IN                        8.5000:   BIT SIZE 1
DDB1.F                     10076.0000:   DEPTH DRILLED BIT 1
BHF .                              99:   FLUID CODE
DPT .                   Miscellaneous:   DRILLING FLUID TYPE
MUDD.                         15.4000:   FLUID DENSITY
MUDV.                         48.0000:   FLUID VISCOSITY
DFPH.                         11.5000:   FLUID PH
FL  .                          3.2000:   FLUID LOSS
RM  .OHMM                       .8400:   RM
RMT .DEGF                     75.0000:   RM TEMP
RMF .OHMM                       .4600:   RMF
RMFT.DEGF                     75.0000:   RMF TEMP
FSC .                               M:   RMF CODE
RMC .OHMM                      1.3100:   RMC
RMCT.DEGF                     75.0000:   RMC TEMP
CMC .                               C:   RMC CODE
TMAX.DEGF                    202.0000:   MAX REC TEMP
TIMC.                          3.5000:   TIME SINCE CIRCLN
~PARAMETER INFORMATION (zones)
#MNEM.UNIT                       Value     Description
#=========                       =====     ===========
#ZONATION                           IE:   ZONATION NAME
#ZONE                            RUN_3:   ZONE NAME
TOP .                      10074.0000:   TOP DEPTH
BOT .                      12002.0000:   BOTTOM DEPTH
RUN .                               3:   RUN NUMBER
LCCD.                             440:   LOGGING CONTRACTOR
SRVC.                    Schlumberger:   LOGGING CONT NAME
DICO.          QC Data Collectors Ltd:   DIG COMPANY NAME
LDAT.                      12/17/1970:   DATE LOGGED
ELD .F                        58.0000:   LOG DATUM ELEVATION
TDD .F                     12000.0000:   TOTAL DEPTH DRILLER
TDL .F                     12003.0000:   TOTAL DEPTH LOGGER
BOTL.F                     12002.0000:   BOTTOM DEPTH LOGGED
TOPL.F                     10074.0000:   TOP DEPTH LOGGED
CS1 .IN                        7.6250:   CASING SIZE 1
BS1 .IN                        6.5000:   BIT SIZE 1
DDB1.F                     12000.0000:   DEPTH DRILLED BIT 1
BHF .                              99:   FLUID CODE
DPT .                   Miscellaneous:   DRILLING FLUID TYPE
MUDD.                         15.9000:   FLUID DENSITY
MUDV.                         48.0000:   FLUID VISCOSITY
DFPH.                         12.0000:   FLUID PH
FL  .                          3.0000:   FLUID LOSS
RM  .OHMM                      1.0500:   RM
RMT .DEGF                     70.0000:   RM TEMP
RMF .OHMM                       .5100:   RMF
RMFT.DEGF                     70.0000:   RMF TEMP
FSC .                               M:   RMF CODE
RMC .OHMM                      1.3000:   RMC
RMCT.DEGF                     70.0000:   RMC TEMP
CMC .                               C:   RMC CODE
TMAX.DEGF                    240.0000:   MAX REC TEMP
TIMC.                          5.0000:   TIME SINCE CIRCLN
~PARAMETER INFORMATION (zones)
#MNEM.UNIT                       Value     Description
#=========                       =====     ===========
#ZONATION                           IE:   ZONATION NAME
#ZONE                            RUN_1:   ZONE NAME
TOP .                       3120.0000:   TOP DEPTH
BOT .                      12002.5000:   BOTTOM DEPTH
RUN .                               1:   RUN NUMBER
LCCD.                             440:   LOGGING CONTRACTOR
SRVC.                    Schlumberger:   LOGGING CONT NAME
DICO.          QC Data Collectors Ltd:   DIG COMPANY NAME
LDAT.                      11/19/1970:   DATE LOGGED
ELD .F                        58.0000:   LOG DATUM ELEVATION
TDD .F                      7850.0000:   TOTAL DEPTH DRILLER
TDL .F                      7847.0000:   TOTAL DEPTH LOGGER
BOTL.F                      7847.0000:   BOTTOM DEPTH LOGGED
TOPL.F                      3120.0000:   TOP DEPTH LOGGED
CS1 .IN                       13.3750:   CASING SIZE 1
BS1 .IN                       12.2500:   BIT SIZE 1
DDB1.F                      7850.0000:   DEPTH DRILLED BIT 1
BHF .                              99:   FLUID CODE
DPT .                   Miscellaneous:   DRILLING FLUID TYPE
MUDD.                         12.5000:   FLUID DENSITY
MUDV.                         46.0000:   FLUID VISCOSITY
DFPH.                         10.5000:   FLUID PH
FL  .                          4.0000:   FLUID LOSS
RM  .OHMM                       .7900:   RM
RMT .DEGF                     80.0000:   RM TEMP
RMF .OHMM                       .5200:   RMF
RMFT.DEGF                     75.0000:   RMF TEMP
FSC .                               M:   RMF CODE
RMC .OHMM                      1.2300:   RMC
RMCT.DEGF                     75.0000:   RMC TEMP
CMC .                               M:   RMC CODE
TMAX.DEGF                    152.0000:   MAX REC TEMP
TIMC.                          4.0000:   TIME SINCE CIRCLN
~Curve Information Block
#MNEM.UNIT         API  CODE                       CURVE DESCRIPTION
#---------        ------------                    --------------------
 DEPT.F           00 001 00 00                    :1   DEPTH
 C1-3.IN          00 000 00 00                    :2
 C2-4.IN          00 000 00 00                    :3
 CALI.IN          00 000 00 00                    :4   Density Caliper
 CILD.MMHO        00 000 00 00                    :5   Deep Induction Conductivity
 CORR.G/CC        00 000 00 00                    :6   Density Correction
 DT  .US/FT       00 000 00 00                    :7   Delta-T Compressional
 GR  .API         00 000 00 00                    :8   Gamma Ray
 ILD .OHMM        00 000 00 00                    :9   Induction Deep Resistivity
 IND .OHMM        00 000 00 00                    :10
 RHOB.G/CC        00 000 00 00                    :11  Bulk Density
 SN16.OHMM        00 000 00 00                    :12  Short Normal 16 Inch
 SP  .MV          00 000 00 00                    :13  Spontaneous Potential
~A    DEPT        C1-3        C2-4        CALI        CILD        CORR          DT          GR         ILD         IND        RHOB        SN16          SP
# ...
   6868.5000     12.1200     12.0000   -999.2500   1194.6836   -999.2500     91.6836   -999.2500      0.8294      0.9371   -999.2500      1.0039    -26.6098
   6869.0000     12.2400     12.0400   -999.2500   1171.9160   -999.2500     91.1593   -999.2500      0.8363      1.0320   -999.2500      1.0118    -23.4515
   6869.5000     12.3600     12.1200   -999.2500   1177.8398   -999.2500     93.7337   -999.2500      0.8432      0.9467   -999.2500      1.0431    -22.4963
   6870.0000     12.3600     12.2000   -999.2500   1193.1602   -999.2500     96.5095   -999.2500      0.8501      0.9419   -999.2500      1.0745    -24.3004
   6870.5000     12.3600     12.2000   -999.2500   1213.2480   -999.2500     97.5000   -999.2500      0.8570      0.9200   -999.2500      1.1137    -28.2610
   6871.0000     12.2800     12.1600   -999.2500   1232.0156   -999.2500     97.7000   -999.2500      0.8634      0.9000   -999.2500      1.1412    -33.0556
   6871.5000     12.0800     12.1200   -999.2500   1233.4258   -999.2500     97.6000   -999.2500      0.8698      0.9000   -999.2500      1.1490    -38.4205
   6872.0000     11.8800     12.0400   -999.2500   1220.7910   -999.2500     97.6000   -999.2500      0.8762      0.8800   -999.2500      1.1373    -41.4000
   6872.5000     11.7200     11.9600   -999.2500   1208.1680   -999.2500     97.2000   -999.2500      0.8826      0.8800   -999.2500      1.1294    -43.4000
   6873.0000     11.7200     11.8800   -999.2500   1188.7402   -999.2500     97.4000   -999.2500      0.8890      0.8800   -999.2500      1.1098    -43.2000
   6873.5000     11.7200     11.8400   -999.2500   1164.1055   -999.2500     97.6000   -999.2500      0.8954      0.9000   -999.2500      1.0941    -42.2000
   6874.0000     11.7200     11.8400   -999.2500   1139.4707   -999.2500     98.4000   -999.2500      0.9018      0.9200   -999.2500      1.0902    -41.8000
   6874.5000     11.7200     11.8800   -999.2500   1115.4727   -999.2500     99.9857   -999.2500      0.9069      0.9372   -999.2500      1.0820    -40.8000
   6875.0000     11.7200     11.8800   -999.2500   1093.9102   -999.2500    101.9357   -999.2500      0.9098      0.9722   -999.2500      1.0814    -38.2353
   6875.5000     11.8400     11.9600   -999.2500   1072.3496   -999.2500    103.0136   -999.2500      0.9128      0.9674   -999.2500      1.0967    -33.3333
   6876.0000     12.0000     12.0800   -999.2500   1082.3301   -999.2500    103.5029   -999.2500      0.9157      0.9823   -999.2500      1.1202    -28.2000
   6876.5000     12.1200     12.3200   -999.2500   1098.7617   -999.2500    103.4000   -999.2500      0.9187      0.9804   -999.2500      1.1400    -25.6000
   6877.0000     12.2400     12.4000   -999.2500   1115.1680   -999.2500    104.1000   -999.2500      0.9216      0.9804   -999.2500      1.1520    -25.4000
   6877.5000     12.2400     12.4000   -999.2500   1131.5996   -999.2500    105.7843   -999.2500      0.9219      0.9804   -999.2500      1.1400    -25.6000
   6878.0000     12.2400     12.2800   -999.2500   1148.0293   -999.2500    108.2353   -999.2500      0.9203      0.9608   -999.2500      1.1040    -25.0000
   6878.5000     12.2400     12.1600   -999.2500   1157.0703   -999.2500    110.3988   -999.2500      0.9187      0.9607   -999.2500      1.0638    -23.0000
   6879.0000     12.2400     12.1600   -999.2500   1165.5410   -999.2500    111.8845   -999.2500      0.9170      0.9407   -999.2500      1.0317    -21.2000
   6879.5000     12.2400     12.1600   -999.2500   1174.0234   -999.2500    110.4936   -999.2500      0.9154      0.9007   -999.2500      1.0118    -20.4000
   6880.0000     12.2400     12.1600   -999.2500   1182.4922   -999.2500    107.4052   -999.2500      0.9138      0.9002   -999.2500      1.0039    -19.6078
   6880.5000     12.2400     12.1600   -999.2500   1190.2324   -999.2500    105.1000   -999.2500      0.9122      0.9200   -999.2500      0.9920    -18.0392
   6881.0000     12.2400     12.1600   -999.2500   1197.4824   -999.2500    103.1222   -999.2500      0.9060      0.9400   -999.2500      0.9760    -16.2745
   6881.5000     12.2400     12.1200   -999.2500   1204.7344   -999.2500    103.6101   -999.2500      0.8971      0.9400   -999.2500      0.9560    -14.9020
   6882.0000     12.2400     12.1200   -999.2500   1211.9844   -999.2500    106.7000   -999.2500      0.8883      0.9400   -999.2500      0.9480    -13.5294
   6882.5000     12.2400     12.0800   -999.2500   1219.2344   -999.2500    110.0980   -999.2500      0.8794      0.9200   -999.2500      0.9520    -12.9412
   6883.0000     12.2400     12.0800   -999.2500   1228.0039   -999.2500    110.9804   -999.2500      0.8705      0.9200   -999.2500      0.9640    -13.1373
   6883.5000     12.2400     12.0400   -999.2500   1250.7070   -999.2500    109.1000   -999.2500      0.8477      0.9000   -999.2500      0.9840    -14.3137
   6884.0000     12.2800     12.0400   -999.2500   1273.4121   -999.2500    107.1000   -999.2500      0.8183      0.8800   -999.2500      1.0000    -15.6863
   6884.5000     12.2800     12.0000   -999.2500   1296.1152   -999.2500    103.4000   -999.2500      0.7889      0.8800   -999.2500      1.0000    -17.2549
   6885.0000     12.2400     11.9600   -999.2500   1340.1016   -999.2500    100.5000   -999.2500      0.7594      0.8600   -999.2500      0.9840    -17.8431
   6885.5000     12.2000     11.9200   -999.2500   1391.3008   -999.2500     98.4000   -999.2500      0.7300      0.8000   -999.2500      0.9520    -17.2549
   6886.0000     12.1600     11.9200   -999.2500   1495.3242   -999.2500     97.1000   -999.2500      0.7006      0.7800   -999.2500      0.9200    -17.0588
   6886.5000     12.1600     11.9200   -999.2500   1639.7773   -999.2500     97.8000   -999.2500      0.6737      0.7400   -999.2500      0.9040    -19.0196
   6887.0000     12.1200     11.8800   -999.2500   1757.4141   -999.2500     99.7000   -999.2500      0.6476      0.6800   -999.2500      0.8920    -22.8000
   6887.5000     12.0400     11.8800   -999.2500   1855.2402   -999.2500    103.5000   -999.2500      0.6216      0.6600   -999.2500      0.8880    -29.8000
   6888.0000     11.9600     11.8800   -999.2500   1893.7402   -999.2500    105.2000   -999.2500      0.5955      0.6200   -999.2500      0.9040    -34.5098
   6888.5000     11.8400     11.8400   -999.2500   1837.7676   -999.2500    105.6000   -999.2500      0.5907      0.6211   -999.2500      0.9520    -41.0286
   6889.0000     11.8000     11.8400   -999.2500   1759.7500   -999.2500    104.1000   -999.2500      0.6122      0.6229   -999.2500      0.9880    -48.4762
   6889.5000     11.8000     11.7200   -999.2500   1674.0117   -999.2500    101.0000   -999.2500      0.6337      0.6447   -999.2500      0.9720    -55.3683
   6890.0000     11.6000     11.7200   -999.2500   1584.8203   -999.2500     99.7000   -999.2500      0.6556      0.6857   -999.2500      0.9280    -55.3910
   6890.5000     11.6000     11.7200   -999.2500   1505.2793   -999.2500     99.8000   -999.2500      0.6876      0.7051   -999.2500      0.8800    -43.8000
   6891.0000     11.6000     11.8000   -999.2500   1407.5547   -999.2500    101.6859   -999.2500      0.7195      0.7234   -999.2500      0.8680    -35.6344
   6891.5000     11.6000     11.8800   -999.2500   1328.2676   -999.2500    103.9495   -999.2500      0.7514      0.7417   -999.2500      0.9120    -29.3325
   6892.0000     11.7200     12.0000   -999.2500   1270.1602   -999.2500    106.1100   -999.2500      0.7799      0.7804   -999.2500      0.9560    -26.5838
   6892.5000     11.7600     12.0000   -999.2500   1249.1074   -999.2500    107.8000   -999.2500      0.7949      0.8000   -999.2500      1.0040    -26.2000
   6893.0000     11.7600     12.0000   -999.2500   1228.1563   -999.2500    108.7000   -999.2500      0.8099      0.8200   -999.2500      1.0400    -26.2000
   6893.5000     11.7600     11.8800   -999.2500   1207.2031   -999.2500    109.5000   -999.2500      0.8235      0.8600   -999.2500      1.0520    -26.4000
