~VERSION INFORMATION
VERS.                             2.0:   CWLS Log ASCII Standard-VERSION 2.0
WRAP.                              NO:   One line per depth step
~Well Information Block
STRT.F                      3120.0000:   Top Depth
STOP.F                     12040.0000:   Bottom Depth
STEP.F                         .50000:   Depth Increment
NULL.                        -999.250:   Null Value
FLD .                      GA BLK 254:   Field Name
WELL.       OCSG01776   001 ST00 BP00:   NAME
API .                    42706300290000:   WELL API
R1  .                      SUN OIL CO:   COMMENT  1
EDF .F                        57.0000:   ELEV DRILL FLOOR
COMP.                      SUN OIL CO:   OPERATOR
BN  .                             254:   BLOCK
CTRY.                             USA:   COUNTRY NAME
CNTY.                              GA:   COUNTY
CNTY.                        GLVSTN L:   COUNTY NAME
EKB .F                        58.0000:   ELEV KELLY BUSHING
TDD .F                      12003.000:   FINAL TD DRILLER
STAT.                           TEXAS:   STATE NAME
UWI .                    42706300290000:   WELL API
DICO.               IHS : Digitizing Company
~PARAMETER INFORMATION (zones)
#MNEM.UNIT                       Value     Description
#=========                       =====     ===========
#ZONATION                           IE:   ZONATION NAME
#ZONE                            RUN_2:   ZONE NAME
TOP .                       7847.0000:   TOP DEPTH
BOT .                      10079.0000:   BOTTOM DEPTH
RUN .                               2:   RUN NUMBER
LCCD.                             440:   LOGGING CONTRACTOR
SRVC.                    Schlumberger:   LOGGING CONT NAME
DICO.          QC Data Collectors Ltd:   DIG COMPANY NAME
LDAT.                      11/28/1970:   DATE LOGGED
ELD .F                        58.0000:   LOG DATUM ELEVATION
TDD .F                     10076.0000:   TOTAL DEPTH DRILLER
TDL .F                     10080.0000:   TOTAL DEPTH LOGGER
BOTL.F                     10079.0000:   BOTTOM DEPTH LOGGED
TOPL.F                      7847.0000:   TOP DEPTH LOGGED
CS1 .IN                        9.6250:   CASING SIZE 1
BS1 .IN                        8.5000:   BIT SIZE 1
DDB1.F                     10076.0000:   DEPTH DRILLED BIT 1
BHF .                              99:   FLUID CODE
DPT .                   Miscellaneous:   DRILLING FLUID TYPE
MUDD.                         15.4000:   FLUID DENSITY
MUDV.                         48.0000:   FLUID VISCOSITY
DFPH.                         11.5000:   FLUID PH
FL  .                          3.2000:   FLUID LOSS
RM  .OHMM                       .8400:   RM
RMT .DEGF                     75.0000:   RM TEMP
RMF .OHMM                       .4600:   RMF
RMFT.DEGF                     75.0000:   RMF TEMP
FSC .                               M:   RMF CODE
RMC .OHMM                      1.3100:   RMC
RMCT.DEGF                     75.0000:   RMC TEMP
CMC .                               C:   RMC CODE
TMAX.DEGF                    202.0000:   MAX REC TEMP
TIMC.                          3.5000:   TIME SINCE CIRCLN
~PARAMETER INFORMATION (zones)
#MNEM.UNIT                       Value     Description
#=========                       =====     ===========
#ZONATION                           IE:   ZONATION NAME
#ZONE                            RUN_3:   ZONE NAME
TOP .                      10074.0000:   TOP DEPTH
BOT .                      12002.0000:   BOTTOM DEPTH
RUN .                               3:   RUN NUMBER
LCCD.                             440:   LOGGING CONTRACTOR
SRVC.                    Schlumberger:   LOGGING CONT NAME
DICO.          QC Data Collectors Ltd:   DIG COMPANY NAME
LDAT.                      12/17/1970:   DATE LOGGED
ELD .F                        58.0000:   LOG DATUM ELEVATION
TDD .F                     12000.0000:   TOTAL DEPTH DRILLER
TDL .F                     12003.0000:   TOTAL DEPTH LOGGER
BOTL.F                     12002.0000:   BOTTOM DEPTH LOGGED
TOPL.F                     10074.0000:   TOP DEPTH LOGGED
CS1 .IN                        7.6250:   CASING SIZE 1
BS1 .IN                        6.5000:   BIT SIZE 1
DDB1.F                     12000.0000:   DEPTH DRILLED BIT 1
BHF .                              99:   FLUID CODE
DPT .                   Miscellaneous:   DRILLING FLUID TYPE
MUDD.                         15.9000:   FLUID DENSITY
MUDV.                         48.0000:   FLUID VISCOSITY
DFPH.                         12.0000:   FLUID PH
FL  .                          3.0000:   FLUID LOSS
RM  .OHMM                      1.0500:   RM
RMT .DEGF                     70.0000:   RM TEMP
RMF .OHMM                       .5100:   RMF
RMFT.DEGF                     70.0000:   RMF TEMP
FSC .                               M:   RMF CODE
RMC .OHMM                      1.3000:   RMC
RMCT.DEGF                     70.0000:   RMC TEMP
CMC .                               C:   RMC CODE
TMAX.DEGF                    240.0000:   MAX REC TEMP
TIMC.                          5.0000:   TIME SINCE CIRCLN
~PARAMETER INFORMATION (zones)
#MNEM.UNIT                       Value     Description
#=========                       =====     ===========
#ZONATION                           IE:   ZONATION NAME
#ZONE                            RUN_1:   ZONE NAME
TOP .                       3120.0000:   TOP DEPTH
BOT .                      12002.5000:   BOTTOM DEPTH
RUN .                               1:   RUN NUMBER
LCCD.                             440:   LOGGING CONTRACTOR
SRVC.                    Schlumberger:   LOGGING CONT NAME
DICO.          QC Data Collectors Ltd:   DIG COMPANY NAME
LDAT.                      11/19/1970:   DATE LOGGED
ELD .F                        58.0000:   LOG DATUM ELEVATION
TDD .F                      7850.0000:   TOTAL DEPTH DRILLER
TDL .F                      7847.0000:   TOTAL DEPTH LOGGER
BOTL.F                      7847.0000:   BOTTOM DEPTH LOGGED
TOPL.F                      3120.0000:   TOP DEPTH LOGGED
CS1 .IN                       13.3750:   CASING SIZE 1
BS1 .IN                       12.2500:   BIT SIZE 1
DDB1.F                      7850.0000:   DEPTH DRILLED BIT 1
BHF .                              99:   FLUID CODE
DPT .                   Miscellaneous:   DRILLING FLUID TYPE
MUDD.                         12.5000:   FLUID DENSITY
MUDV.                         46.0000:   FLUID VISCOSITY
DFPH.                         10.5000:   FLUID PH
FL  .                          4.0000:   FLUID LOSS
RM  .OHMM                       .7900:   RM
RMT .DEGF                     80.0000:   RM TEMP
RMF .OHMM                       .5200:   RMF
RMFT.DEGF                     75.0000:   RMF TEMP
FSC .                               M:   RMF CODE
RMC .OHMM                      1.2300:   RMC
RMCT.DEGF                     75.0000:   RMC TEMP
CMC .                               M:   RMC CODE
TMAX.DEGF                    152.0000:   MAX REC TEMP
TIMC.                          4.0000:   TIME SINCE CIRCLN
~Curve Information Block
#MNEM.UNIT         API  CODE                       CURVE DESCRIPTION
#---------        ------------                    --------------------
 DEPT.F           00 001 00 00                    :1   DEPTH
 C1-3.IN          00 000 00 00                    :2
 C2-4.IN          00 000 00 00                    :3
 CALI.IN          00 000 00 00                    :4   Density Caliper
 CILD.MMHO        00 000 00 00                    :5   Deep Induction Conductivity
 CORR.G/CC        00 000 00 00                    :6   Density Correction
 DT  .US/FT       00 000 00 00                    :7   Delta-T Compressional
 GR  .API         00 000 00 00                    :8   Gamma Ray
 ILD .OHMM        00 000 00 00                    :9   Induction Deep Resistivity
 IND .OHMM        00 000 00 00                    :10
 RHOB.G/CC        00 000 00 00                    :11  Bulk Density
 SN16.OHMM        00 000 00 00                    :12  Short Normal 16 Inch
 SP  .MV          00 000 00 00                    :13  Spontaneous Potential
~A    DEPT        C1-3        C2-4        CALI        CILD        CORR          DT          GR         ILD         IND        RHOB        SN16          SP
# ...
  11994.0000      6.4615      6.8462      6.4118    787.7559      0.0020     81.2000     64.1200      1.3241      1.2941      2.4810      1.9400    -26.0000
  11994.5000      6.4646      6.8506      6.4118    792.8389     -0.0020     81.3000     62.4510      1.3128      1.2941      2.4740      1.6863    -24.2000
  11995.0000      6.4690      6.8586      6.3922    797.9219     -0.0030     81.1000     59.5686      1.3015      1.2941      2.4730      1.4880    -22.0000
  11995.5000      6.4735      6.8683      6.3529    801.0840     -0.0030     80.9000     60.3922      1.2902      1.2941      2.4730      1.4200    -20.2000
  11996.0000      6.4781      6.8766      6.3137    800.9102     -0.0040     81.3000     62.7255      1.2792      1.2941      2.4670      1.4320    -19.8039
  11996.5000      6.4800      6.8800      6.2549    800.7363     -0.0080     81.1000     63.0000      1.2798      1.2941      2.4540      1.4680    -20.2000
  11997.0000      6.4800      6.8800      6.2549    800.5625     -0.0050     81.0000     64.1200      1.2803      1.2941      2.4620      1.4720    -20.4000
  11997.5000      6.4800      6.8800      6.2353    800.3896     -0.0030     81.1000     65.3800      1.2809      1.2941      2.4570      1.4200    -21.2000
  11998.0000      6.4800      6.8800      6.2353    800.2148     -0.0020     81.2000     67.7600      1.2815      1.2941      2.4620      1.3647    -21.4000
  11998.5000      6.4800      6.8800      6.2353    800.0420      0.0120     81.2000     67.7600      1.2821      1.2941      2.4740      1.3255    -20.0000
  11999.0000      6.4800      6.8800      6.2353    799.8682      0.0030     81.1000     67.9000      1.2794      1.2941      2.4790      1.2745    -18.2353
  11999.5000      6.4400      6.8800      6.2353    799.6943     -0.0080     81.0000     65.2400      1.2726      1.2941      2.4560      1.2431    -17.4510
  12000.0000      6.4400      6.8800      6.2353    799.4893     -0.0140     81.0000     62.1617      1.2658      1.2941      2.4410      1.2392    -17.4510
  12000.5000   -999.2500   -999.2500      6.2353    799.2539     -0.0090     81.0000     59.2200      1.2589      1.2941      2.4429      1.2549    -17.4719
  12001.0000   -999.2500   -999.2500      6.2353    799.0195     -0.0060     81.0000     60.7600      1.2521      1.2941      2.4506      1.2745    -17.7046
  12001.5000   -999.2500   -999.2500      6.2353    798.7852     -0.0010     81.0000     62.3000      1.2452      1.2941      2.4635      1.2863    -17.7483
  12002.0000   -999.2500   -999.2500      6.2353    798.8379     -0.0020     81.0000     60.3400      1.2384      1.2941      2.4643      1.2941    -17.7852
  12002.5000   -999.2500   -999.2500      6.2353   -999.2500     -0.0041     81.0000     57.2600   -999.2500      1.2941      2.4612      1.3020    -17.8000
  12003.0000   -999.2500   -999.2500      6.2353   -999.2500     -0.0061     81.2000     60.6200   -999.2500      1.2941      2.4602      1.3020    -18.0000
  12003.5000   -999.2500   -999.2500      6.2353   -999.2500     -0.0102     81.4000     62.3000   -999.2500      1.2941      2.4592      1.3020    -18.0000
  12004.0000   -999.2500   -999.2500      6.2353   -999.2500     -0.0133     81.1000     63.1400   -999.2500      1.2941      2.4520      1.3059    -18.0000
  12004.5000   -999.2500   -999.2500      6.2353   -999.2500     -0.0134     80.8000     64.9600   -999.2500      1.2941      2.4490      1.3020    -17.8066
  12005.0000   -999.2500   -999.2500      6.2353   -999.2500     -0.0136     81.0000     64.9600   -999.2500      1.2941      2.4500      1.3059    -17.8175
  12005.5000   -999.2500   -999.2500      6.2353   -999.2500     -0.0117     81.3000     62.7200   -999.2500      1.2941      2.4592      1.3059    -17.4334
  12006.0000   -999.2500   -999.2500      6.2353   -999.2500     -0.0009     81.1000     63.4200   -999.2500      1.2941      2.4673      1.3059    -17.4460
  12006.5000   -999.2500   -999.2500      6.2353   -999.2500      0.0040     80.8000     66.0800   -999.2500      1.2941      2.4867      1.3059    -17.4510
  12007.0000   -999.2500   -999.2500      6.2353   -999.2500     -0.0060     81.0000     62.7200   -999.2500      1.2941      2.4612      1.3059    -17.4510
  12007.5000   -999.2500   -999.2500      6.2353   -999.2500     -0.0110     81.1000     62.1600   -999.2500      1.2941      2.4592      1.3059    -17.6471
  12008.0000   -999.2500   -999.2500      6.2353   -999.2500     -0.0040     81.1000     60.3400   -999.2500      1.2941      2.4633      1.3059    -17.6471
  12008.5000   -999.2500   -999.2500      6.2353   -999.2500     -0.0091     81.0000     59.7800   -999.2500      1.2941      2.4612      1.3059    -17.6696
  12009.0000   -999.2500   -999.2500      6.2353   -999.2500     -0.0153     81.0000     59.6400   -999.2500      1.2941      2.4510      1.3059    -17.7075
  12009.5000   -999.2500   -999.2500      6.2353   -999.2500     -0.0135     81.1000     58.8000   -999.2500      1.2941      2.4601      1.3059    -17.7458
  12010.0000   -999.2500   -999.2500      6.2353   -999.2500     -0.0078     81.2000     60.2000   -999.2500      1.2941      2.4740      1.3059    -17.5848
  12010.5000   -999.2500   -999.2500      6.2353   -999.2500     -0.0029     81.2000     65.6390   -999.2500      1.2920      2.4950      1.3059    -17.6000
  12011.0000   -999.2500   -999.2500      6.2353   -999.2500     -0.0010     81.0000     64.4840   -999.2500      1.2885      2.4802      1.3059    -17.6000
  12011.5000   -999.2500   -999.2500      6.2353   -999.2500     -0.0020     80.9000     65.4290   -999.2500      1.2850      2.4733      1.3059    -17.6000
  12012.0000   -999.2500   -999.2500      6.2353   -999.2500      0.0000     80.9000     63.7140   -999.2500      1.2814      2.4744      1.3059    -17.6000
  12012.5000   -999.2500   -999.2500      6.2353   -999.2500      0.0000     81.0000     68.6000   -999.2500      1.2800      2.4696      1.3059    -17.4000
  12013.0000   -999.2500   -999.2500      6.2353   -999.2500     -0.2040     81.1000     69.7200   -999.2500      1.2800   -999.2500      1.3059    -17.4000
  12013.5000   -999.2500   -999.2500      6.2353   -999.2500     -0.4930     81.0000     68.7400   -999.2500      1.2800   -999.2500      1.3059    -17.4000
  12014.0000   -999.2500   -999.2500      6.2353   -999.2500   -999.2500     81.0000     67.0600   -999.2500      1.2800   -999.2500      1.3059    -17.4000
  12014.5000   -999.2500   -999.2500      6.2353   -999.2500   -999.2500     81.1000     69.8395   -999.2500      1.2800   -999.2500      1.3059    -17.4000
  12015.0000   -999.2500   -999.2500      6.2353   -999.2500   -999.2500     81.1000     69.2500   -999.2500      1.2800   -999.2500      1.3059    -17.2000
  12015.5000   -999.2500   -999.2500      6.2353   -999.2500   -999.2500     81.0000     66.8697   -999.2500      1.2800   -999.2500      1.3059    -17.2000
  12016.0000   -999.2500   -999.2500      6.2353   -999.2500   -999.2500     81.0000     63.8252   -999.2500      1.2800   -999.2500      1.3059    -17.0000
  12016.5000   -999.2500   -999.2500      6.2353   -999.2500   -999.2500     81.0000     62.0200   -999.2500      1.2800   -999.2500      1.3059    -17.0000
  12017.0000   -999.2500   -999.2500      6.2353   -999.2500   -999.2500     80.9000     70.0000   -999.2500      1.2800   -999.2500      1.3059    -17.0000
  12017.5000   -999.2500   -999.2500      6.2353   -999.2500   -999.2500     81.1000     67.9412   -999.2500      1.2800   -999.2500      1.3059    -17.2000
  12018.0000   -999.2500   -999.2500      6.2353   -999.2500   -999.2500     81.1000     64.5098   -999.2500      1.2800   -999.2500      1.3059    -17.8000
  12018.5000   -999.2500   -999.2500      6.2330   -999.2500   -999.2500     81.0000     61.7400   -999.2500      1.2792   -999.2500      1.3056    -20.0000
  12019.0000   -999.2500   -999.2500      6.2292   -999.2500   -999.2500     81.0000     61.0400   -999.2500      1.2779   -999.2500      1.3052    -22.3529
