~VERSION INFORMATION
VERS.                             2.0:   CWLS Log ASCII Standard-VERSION 2.0
WRAP.                              NO:   One line per depth step
~Well Information Block
STRT.F                      3511.0000:   Top Depth
STOP.F                      7755.0000:   Bottom Depth
STEP.F                         .50000:   Depth Increment
NULL.                        -999.250:   Null Value
FLD .                      BA BLK 431:   Field Name
WELL.       OCSG09017   002 ST01 BP00:   NAME
API .                  42704402350100:   WELL API
EDF .F                        89.0000:   ELEV DRILL FLOOR
COMP.       SEAGULL ENERGY E AND P IN:   OPERATOR
BN  .                             481:   BLOCK
CTRY.                             USA:   COUNTRY NAME
CNTY.                        BRAZOS L:   COUNTY NAME
EKB .F                        90.0000:   ELEV KELLY BUSHING
TDD .F                          0.000:   FINAL TD DRILLER
STAT.                           TEXAS:   STATE NAME
UWI .                  42704402350100:   WELL API
DICO.               IHS : Digitizing Company
~PARAMETER INFORMATION (zones)
#MNEM.UNIT                       Value     Description
#=========                       =====     ===========
#ZONATION                          CNL:   ZONATION NAME
#ZONE                            RUN_0:   ZONE NAME
TOP .                       3511.0000:   TOP DEPTH
BOT .                       7755.5000:   BOTTOM DEPTH
RUN .                               0:   RUN NUMBER
LCCD.                             280:   LOGGING CONTRACTOR
SRVC.                     Halliburton:   LOGGING CONT NAME
DICO.          QC Data Collectors Ltd:   DIG COMPANY NAME
LDAT.                        --/--/--:   DATE LOGGED
BHF .                              99:   FLUID CODE
DPT .                   Miscellaneous:   DRILLING FLUID TYPE
~PARAMETER INFORMATION (zones)
#MNEM.UNIT                       Value     Description
#=========                       =====     ===========
#ZONATION                          DIL:   ZONATION NAME
#ZONE                            RUN_0:   ZONE NAME
TOP .                       3511.0000:   TOP DEPTH
BOT .                       7755.5000:   BOTTOM DEPTH
RUN .                               0:   RUN NUMBER
LCCD.                             280:   LOGGING CONTRACTOR
SRVC.                     Halliburton:   LOGGING CONT NAME
DICO.          QC Data Collectors Ltd:   DIG COMPANY NAME
LDAT.                        --/--/--:   DATE LOGGED
BHF .                              99:   FLUID CODE
DPT .                   Miscellaneous:   DRILLING FLUID TYPE
~PARAMETER INFORMATION (zones)
#MNEM.UNIT                       Value     Description
#=========                       =====     ===========
#ZONATION                          FDC:   ZONATION NAME
#ZONE                            RUN_0:   ZONE NAME
TOP .                       3511.0000:   TOP DEPTH
BOT .                       7755.5000:   BOTTOM DEPTH
RUN .                               0:   RUN NUMBER
LCCD.                             280:   LOGGING CONTRACTOR
SRVC.                     Halliburton:   LOGGING CONT NAME
DICO.          QC Data Collectors Ltd:   DIG COMPANY NAME
LDAT.                        --/--/--:   DATE LOGGED
BHF .                              99:   FLUID CODE
DPT .                   Miscellaneous:   DRILLING FLUID TYPE
~PARAMETER INFORMATION (zones)
#MNEM.UNIT                       Value     Description
#=========                       =====     ===========
#ZONATION                        SONIC:   ZONATION NAME
#ZONE                            RUN_0:   ZONE NAME
TOP .                       3511.0000:   TOP DEPTH
BOT .                       7731.5000:   BOTTOM DEPTH
RUN .                               0:   RUN NUMBER
LCCD.                             280:   LOGGING CONTRACTOR
SRVC.                     Halliburton:   LOGGING CONT NAME
DICO.          QC Data Collectors Ltd:   DIG COMPANY NAME
LDAT.                        --/--/--:   DATE LOGGED
BHF .                              99:   FLUID CODE
DPT .                   Miscellaneous:   DRILLING FLUID TYPE
~Curve Information Block
#MNEM.UNIT                    API CODE    No Description
#=========                    ========    == ===========
DEPT.F                   00 001 00 00:     1  DEPTH
NPHI.%                               :     2  Neutron Porosity
GR.GAPI                              :     3  Gamma Ray
GRD.OHMM                             :     4  Unrecognised
ILD.OHMM                             :     5  Deep Induction Resistivity
ILM.OHMM                             :     6  Medium Induction Resistivity
SP.MV                                :     7  Spontaneous Potential
DPHI.%                               :     8  Porosity
CALI.IN                              :     9  Caliper
DT.US/F                              :    10  Sonic Transit Time
GR.GAPI                              :    11  Gamma Ray
~ASCII
# ...
 6593.0000    40.1709    82.8289      .8751     1.0637      .9721   -51.1084    21.3318     9.8971   112.3068    72.4230
 6593.5000    41.4563    83.3662      .8696     1.0647      .9503   -51.0563    21.4736     9.9128   123.5258    72.1809
 6594.0000    44.4345    81.1415      .8708      .9992      .9260   -50.9594    21.6312     9.8892   128.0410    72.3986
 6594.5000    46.7753    79.7299      .8707      .9320      .9024   -50.8454    21.8531     9.8469   123.2383    73.0084
 6595.0000    47.8422    78.8999      .8677      .8731      .8852   -50.7495    21.9237     9.8010   119.3406    74.2334
 6595.5000    47.9274    78.1895      .8752      .8178      .8727   -50.7025    21.9296     9.7684   113.0948    74.7721
 6596.0000    47.7094    78.3131      .9015      .7903      .8603   -50.6554    22.3310     9.7423   109.1426    75.8077
 6596.5000    47.4915    79.8809      .9138      .7995      .8441   -50.6221    22.4239     9.7189   109.1226    79.3029
 6597.0000    47.1866    80.7200      .9090      .8068      .8359   -50.5910    22.4928     9.7031   111.1726    81.1168
 6597.5000    46.8627    80.0122      .9051      .8095      .8399   -50.6065    22.9202     9.6976   113.1134    81.7319
 6598.0000    46.5392    78.2064      .8966      .8128      .8438   -50.6623    23.1756     9.6946   115.2034    82.1298
 6598.5000    46.2072    79.6792      .8976      .8127      .8458   -50.7186    23.2474     9.6927   114.3567    82.6416
 6599.0000    45.8557    81.9169      .9138      .8088      .8478   -50.7815    23.1602     9.6659   110.7972    79.8397
 6599.5000    45.6632    83.9282      .9219      .8033      .8439   -50.8444    23.1315     9.6312   109.4254    78.4076
 6600.0000    46.1945    85.1030      .9151      .7969      .8381   -50.9308    23.4227     9.6423   113.3451    79.3589
 6600.5000    46.8312    84.0883      .9018      .7905      .8327   -50.9957    23.7235     9.6425   115.3125    81.1006
 6601.0000    47.3500    82.4373      .8857      .7842      .8302   -51.0273    24.0243     9.5880   116.3495    81.9470
 6601.5000    47.7339    80.7850      .8681      .7801      .8277   -51.0375    24.2288     9.5261   115.5188    83.1107
 6602.0000    48.0662    79.0287      .8590      .7772      .8262   -51.0428    24.4089     9.5044   116.0474    84.2628
 6602.5000    47.5566    78.0009      .8542      .7742      .8246   -51.0051    24.2939     9.5252   116.5598    84.0413
 6603.0000    47.1843    79.5334      .8624      .7715      .8272   -50.9620    23.8121     9.5395   115.1621    82.2928
 6603.5000    46.8585    80.9242      .8787      .7699      .8323   -50.8845    23.3188     9.5506   113.8242    83.0762
 6604.0000    47.1299    82.3163      .8847      .7750      .8375   -50.7314    22.8870     9.5511   115.2140    83.8562
 6604.5000    47.5541    83.3401      .8869      .7860      .8422   -50.6030    22.9585     9.5577   116.4480    85.4070
 6605.0000    47.6804    84.2833      .8816      .7973      .8466   -50.5663    23.2108     9.5708   116.9602    87.5468
 6605.5000    47.7916    84.8162      .8787      .8087      .8511   -50.5349    23.4159     9.5900   116.1978    89.6315
 6606.0000    47.7403    85.1687      .8764      .8114      .8559   -50.5204    23.1451     9.6179   115.3025    89.7577
 6606.5000    47.4036    85.8485      .8746      .8142      .8616   -50.4936    22.6961     9.6827   116.0813    86.3257
 6607.0000    47.1227    86.8099      .8792      .8153      .8673   -50.3862    21.9811     9.7476   116.3402    84.7632
 6607.5000    46.9381    85.8016      .8984      .8128      .8722   -50.2927    20.5655     9.6983   112.9563    82.7068
 6608.0000    47.0020    84.0037      .9207      .8104      .8768   -50.2334    19.8741     9.5510   110.2968    80.1368
 6608.5000    47.1052    82.2031      .9367      .8115      .8805   -50.1888    19.8658     9.4297   108.7485    77.5533
 6609.0000    47.5310    81.0959      .9415      .8161      .8811   -50.1706    20.1429     9.4224   109.7616    77.0284
 6609.5000    47.2570    80.4845      .9432      .8208      .8809   -50.1929    20.4417     9.4726   110.2089    76.7939
 6610.0000    47.7004    79.7832      .9369      .8244      .8778   -50.2424    20.7249     9.5910   109.2045    76.8606
 6610.5000    48.0762    77.9930      .9232      .8233      .8748   -50.2606    21.0700     9.6769   112.2056    77.8407
 6611.0000    47.9249    78.8882      .9139      .8223      .8725   -50.2642    21.4334     9.6604   114.6044    78.2173
 6611.5000    48.0087    82.1770      .9072      .8212      .8728   -50.2471    21.4541     9.5863   115.4363    79.2168
 6612.0000    48.5759    83.5034      .9107      .8182      .8731   -50.2289    21.7197     9.5043   114.2875    80.9735
 6612.5000    49.0461    83.8103      .9084      .8134      .8734   -50.2074    21.7428     9.4861   113.0735    81.2341
 6613.0000    49.2502    83.7786      .9036      .8086      .8762   -50.2044    21.7090     9.4936   111.6652    80.9709
 6613.5000    48.2436    83.5792      .9010      .8120      .8802   -50.0834    21.9216     9.5109   112.5730    79.3602
 6614.0000    47.3217    83.3567      .9042      .8180      .8842   -49.9769    22.0258     9.5088   115.1528    77.1735
 6614.5000    46.5684    83.0452      .9083      .8255      .8881   -49.8575    21.6555     9.4953   117.5675    76.4395
 6615.0000    46.0607    82.9089      .9208      .8351      .8920   -49.6376    21.2390     9.4637   115.1075    76.3798
 6615.5000    45.8694    83.6979      .9342      .8439      .8960   -49.5843    20.7800     9.4247   112.8099    76.8235
 6616.0000    45.9712    84.7256      .9247      .8504      .8985   -49.5562    20.3346     9.4776   110.8345    77.6061
 6616.5000    46.0877    84.1858      .9153      .8568      .9008   -49.5400    20.1814     9.5439   110.5975    77.8585
 6617.0000    46.2867    83.4574      .9083      .8594      .9030   -49.4805    20.0887     9.5847   114.1118    77.6561
 6617.5000    46.5354    83.3557      .9225      .8582      .9087   -49.4064    20.0105     9.5827   115.6506    77.7297
 6618.0000    46.7176    83.8567      .9375      .8570      .9144   -49.3427    20.1179     9.5725   110.3951    77.8431
 6618.5000    46.3334    84.5051      .9513      .8559      .9159   -49.3480    20.1801     9.5515   108.6633    78.4492
 6619.0000    46.0406    84.8502      .9593      .8557      .9149   -49.3535    20.1804     9.5405   107.3069    80.2007
 6619.5000    45.7631    85.1573      .9628      .8555      .9099   -49.3589    20.0935     9.5342   108.3086    80.4595
 6620.0000    45.7682    85.4318      .9599      .8554      .9021   -49.4042    20.3753     9.5462   108.6976    79.8436
 6620.5000    46.0091    84.6802      .9460      .8558      .8937   -49.4530    20.7464     9.5625   107.8793    78.8129
 6621.0000    46.2931    82.5543      .9319      .8563      .8909   -49.4584    21.0070     9.5888   107.2404    77.2672
 6621.5000    46.7173    80.4546      .9200      .8533      .8907   -49.4604    21.2166     9.6154   110.5656    74.8876
 6622.0000    47.0052    78.9271      .9111      .8460      .8924   -49.4285    21.8605     9.6428   113.1853    76.7239
 6622.5000    46.9562    77.9371      .9048      .8387      .8977   -49.3966    21.5653     9.6688   114.0133    78.3007
 6623.0000    46.7461    77.1688      .9056      .8346      .9019   -49.4578    21.1511     9.6931   112.2721    79.8951
 6623.5000    46.5500    77.3868      .9160      .8350      .8969   -49.5381    20.6585     9.7360   111.5127    80.1479
 6624.0000    46.4130    77.9709      .9321      .8355      .8919   -49.6544    20.1812     9.7847   112.0579    76.4697
 6624.5000    46.2759    78.5193      .9486      .8388      .8878   -49.7393    19.4271     9.8134   112.5942    74.0953
 6625.0000    46.0047    78.5005      .9650      .8429      .8844   -49.8029    19.2306     9.7514   108.6514    72.7152
 6625.5000    45.7449    77.3920      .9644      .8470      .8810   -49.8699    19.2339     9.6867   105.3048    72.0800
 6626.0000    45.5809    76.2861      .9486      .8515      .8891   -49.9410    19.2210     9.6213   108.2280    72.3999
