~VERSION INFORMATION
VERS.                             2.0:   CWLS Log ASCII Standard-VERSION 2.0
WRAP.                              NO:   One line per depth step
~Well Information Block
STRT.F                      3511.0000:   Top Depth
STOP.F                      7755.0000:   Bottom Depth
STEP.F                         .50000:   Depth Increment
NULL.                        -999.250:   Null Value
FLD .                      BA BLK 431:   Field Name
WELL.       OCSG09017   002 ST01 BP00:   NAME
API .                  42704402350100:   WELL API
EDF .F                        89.0000:   ELEV DRILL FLOOR
COMP.       SEAGULL ENERGY E AND P IN:   OPERATOR
BN  .                             481:   BLOCK
CTRY.                             USA:   COUNTRY NAME
CNTY.                        BRAZOS L:   COUNTY NAME
EKB .F                        90.0000:   ELEV KELLY BUSHING
TDD .F                          0.000:   FINAL TD DRILLER
STAT.                           TEXAS:   STATE NAME
UWI .                  42704402350100:   WELL API
DICO.               IHS : Digitizing Company
~PARAMETER INFORMATION (zones)
#MNEM.UNIT                       Value     Description
#=========                       =====     ===========
#ZONATION                          CNL:   ZONATION NAME
#ZONE                            RUN_0:   ZONE NAME
TOP .                       3511.0000:   TOP DEPTH
BOT .                       7755.5000:   BOTTOM DEPTH
RUN .                               0:   RUN NUMBER
LCCD.                             280:   LOGGING CONTRACTOR
SRVC.                     Halliburton:   LOGGING CONT NAME
DICO.          QC Data Collectors Ltd:   DIG COMPANY NAME
LDAT.                        --/--/--:   DATE LOGGED
BHF .                              99:   FLUID CODE
DPT .                   Miscellaneous:   DRILLING FLUID TYPE
~PARAMETER INFORMATION (zones)
#MNEM.UNIT                       Value     Description
#=========                       =====     ===========
#ZONATION                          DIL:   ZONATION NAME
#ZONE                            RUN_0:   ZONE NAME
TOP .                       3511.0000:   TOP DEPTH
BOT .                       7755.5000:   BOTTOM DEPTH
RUN .                               0:   RUN NUMBER
LCCD.                             280:   LOGGING CONTRACTOR
SRVC.                     Halliburton:   LOGGING CONT NAME
DICO.          QC Data Collectors Ltd:   DIG COMPANY NAME
LDAT.                        --/--/--:   DATE LOGGED
BHF .                              99:   FLUID CODE
DPT .                   Miscellaneous:   DRILLING FLUID TYPE
~PARAMETER INFORMATION (zones)
#MNEM.UNIT                       Value     Description
#=========                       =====     ===========
#ZONATION                          FDC:   ZONATION NAME
#ZONE                            RUN_0:   ZONE NAME
TOP .                       3511.0000:   TOP DEPTH
BOT .                       7755.5000:   BOTTOM DEPTH
RUN .                               0:   RUN NUMBER
LCCD.                             280:   LOGGING CONTRACTOR
SRVC.                     Halliburton:   LOGGING CONT NAME
DICO.          QC Data Collectors Ltd:   DIG COMPANY NAME
LDAT.                        --/--/--:   DATE LOGGED
BHF .                              99:   FLUID CODE
DPT .                   Miscellaneous:   DRILLING FLUID TYPE
~PARAMETER INFORMATION (zones)
#MNEM.UNIT                       Value     Description
#=========                       =====     ===========
#ZONATION                        SONIC:   ZONATION NAME
#ZONE                            RUN_0:   ZONE NAME
TOP .                       3511.0000:   TOP DEPTH
BOT .                       7731.5000:   BOTTOM DEPTH
RUN .                               0:   RUN NUMBER
LCCD.                             280:   LOGGING CONTRACTOR
SRVC.                     Halliburton:   LOGGING CONT NAME
DICO.          QC Data Collectors Ltd:   DIG COMPANY NAME
LDAT.                        --/--/--:   DATE LOGGED
BHF .                              99:   FLUID CODE
DPT .                   Miscellaneous:   DRILLING FLUID TYPE
~Curve Information Block
#MNEM.UNIT                    API CODE    No Description
#=========                    ========    == ===========
DEPT.F                   00 001 00 00:     1  DEPTH
NPHI.%                               :     2  Neutron Porosity
GR.GAPI                              :     3  Gamma Ray
GRD.OHMM                             :     4  Unrecognised
ILD.OHMM                             :     5  Deep Induction Resistivity
ILM.OHMM                             :     6  Medium Induction Resistivity
SP.MV                                :     7  Spontaneous Potential
DPHI.%                               :     8  Porosity
CALI.IN                              :     9  Caliper
DT.US/F                              :    10  Sonic Transit Time
GR.GAPI                              :    11  Gamma Ray
~ASCII
# ...
 4080.5000    47.4472    62.3937      .8357      .5719      .7317   -65.0348    25.9037    10.0412   123.3145    57.1553
 4081.0000    47.9320    64.8118      .8028      .5586      .7057   -65.2101    26.5942     9.9724   121.8624    61.2258
 4081.5000    48.3696    66.9667      .7949      .5456      .6799   -65.3604    27.1729     9.9641   120.4807    63.8892
 4082.0000    48.7528    64.7557      .7871      .5329      .6559   -65.4464    27.8486     9.9855   119.3857    65.7004
 4082.5000    49.0893    61.7817      .7502      .5205      .6366   -65.2675    28.0880    10.0120   123.8931    64.8561
 4083.0000    49.4322    60.1984      .7165      .5105      .6272   -65.3182    28.8583    10.0107   128.4216    63.6854
 4083.5000    49.7974    58.5877      .6952      .5014      .6228   -66.2251    28.3046     9.9531   127.7925    63.6215
 4084.0000    49.9619    56.4640      .7372      .4965      .6178   -67.0343    27.4902     9.8892   123.3728    63.3723
 4084.5000    49.3762    54.1267      .7793      .4949      .6127   -67.7081    27.5745     9.8398   120.4250    61.3633
 4085.0000    48.7748    51.2478      .8056      .4944      .6078   -68.3462    27.9957     9.8064   118.8616    57.0359
 4085.5000    48.2413    50.7953      .8277      .4939      .6042   -68.9852    28.5916     9.7814   119.5955    53.1784
 4086.0000    47.7672    51.6287      .8184      .4934      .6032   -69.2410    28.9257     9.7699   118.3359    50.4047
 4086.5000    48.0001    52.4437      .8072      .4926      .6088   -69.0774    28.2207     9.7774   120.6599    50.1020
 4087.0000    48.3851    53.2589      .7893      .4906      .6140   -68.8163    28.1831     9.8010   121.2765    50.5410
 4087.5000    48.5284    54.2895      .7731      .4870      .6184   -68.6392    28.6120     9.8318   121.1411    52.0881
 4088.0000    48.3096    55.3220      .7710      .4813      .6174   -68.5356    27.7372     9.8400   120.5618    54.0169
 4088.5000    47.6291    56.4555      .8105      .4718      .6155   -68.3796    26.2537     9.8100   117.0392    56.7167
 4089.0000    47.0920    57.6788      .8306      .4583      .6087   -68.1924    25.6985     9.7589   114.1219    59.1312
 4089.5000    46.6718    58.2479      .8457      .4455      .5990   -67.6151    25.9628     9.7130   110.0128    58.4897
 4090.0000    47.7873    58.2804      .7693      .4359      .5834   -65.7921    27.2840     9.7408   112.8929    57.3332
 4090.5000    49.4626    60.0591      .7005      .4265      .5673   -64.7205    28.5908     9.8129   116.5402    55.9391
 4091.0000    50.9620    61.7036      .6731      .4175      .5547   -64.9653    29.5449     9.8691   120.9440    56.6232
 4091.5000    52.3003    63.2271      .6515      .4090      .5431   -67.1268    29.5802     9.8914   127.4661    58.4196
 4092.0000    51.8315    64.1938      .6580      .4047      .5291   -68.9700    29.6583     9.8893   132.0105    60.1393
 4092.5000    51.0227    64.8772      .6975      .4037      .5187   -69.9094    30.6872     9.8727   128.1455    61.1946
 4093.0000    50.4253    64.2581      .7255      .4046      .5175   -70.4432    32.0468     9.8567   124.5500    61.6108
 4093.5000    50.5352    63.6168      .7515      .4059      .5219   -69.8821    32.8192     9.8520   120.9998    60.4885
 4094.0000    50.9402    63.1238      .7578      .4108      .5300   -68.9836    32.6862     9.8595   118.4368    59.1263
 4094.5000    51.3452    62.2792      .7404      .4170      .5417   -68.3030    31.5528     9.8721   120.2472    59.4463
 4095.0000    50.8173    60.7635      .7224      .4330      .5554   -67.8861    30.6289     9.8832   122.0708    61.1479
 4095.5000    49.8262    59.2766      .7122      .4496      .5743   -67.9766    30.0262     9.8859   124.9788    62.2712
 4096.0000    49.0605    57.9269      .7541      .4732      .5986   -67.9369    29.5714     9.8789   123.8732    63.2058
 4096.5000    48.3967    56.8715      .8041      .4981      .6236   -67.6929    29.1722     9.8471   121.5486    62.7171
 4097.0000    47.8125    56.5236      .8545      .5220      .6475   -67.2476    28.7438     9.8099   120.1663    61.0466
 4097.5000    47.3785    56.5199      .8837      .5454      .6722   -66.7563    28.2511     9.7974   118.1302    59.3385
 4098.0000    46.8058    56.4044      .8875      .5676      .6945   -66.2681    27.4710     9.8123   117.3218    57.7070
 4098.5000    46.1252    56.1241      .8859      .5889      .7173   -65.7841    26.3464     9.8521   115.6403    55.0500
 4099.0000    45.4987    55.5203      .8870      .6051      .7384   -65.3530    25.0165     9.8809   108.3723    54.6886
 4099.5000    45.0189    54.8722      .8927      .6142      .7544   -65.3120    23.2765     9.8958   104.3800    55.6763
 4100.0000    45.3304    56.8520      .9487      .6181      .7551   -65.4210    21.9849     9.9052   101.5397    56.7628
 4100.5000    46.3591    59.0630      .9612      .6040      .7357   -65.4569    22.0992     9.9116    99.7983    58.0081
 4101.0000    47.2990    61.1346      .9282      .5897      .7150   -65.4342    24.4122     9.9064   105.5745    58.6948
 4101.5000    48.0886    63.1190      .8780      .5758      .6947   -65.3456    26.4887     9.8913   111.7860    56.3273
 4102.0000    48.5025    64.4208      .8343      .5631      .6750   -65.2103    28.0629     9.8762   116.4619    54.6522
 4102.5000    48.2595    64.9622      .8054      .5523      .6605   -65.0724    27.7987     9.8643   118.0001    54.8924
 4103.0000    47.9346    63.6373      .8120      .5437      .6511   -65.0143    26.9799     9.8523   121.6803    55.2526
 4103.5000    47.6622    61.6190      .8112      .5386      .6439   -64.9158    26.6970     9.8443   120.6879    56.1429
 4104.0000    47.4715    60.2642      .8191      .5371      .6384   -64.6802    26.5403     9.8432   118.8284    57.9004
 4104.5000    47.2840    61.1606      .8296      .5452      .6422   -64.1730    25.8645     9.8425   117.8979    59.9797
 4105.0000    47.2556    62.1815      .8295      .5565      .6470   -63.6486    25.7558     9.8434   119.7694    61.4594
 4105.5000    47.3807    63.2642      .8184      .5679      .6552   -63.1356    26.0691     9.8443   121.3057    62.3978
 4106.0000    47.5511    64.4641      .8003      .5799      .6641   -62.6971    26.3700     9.8474   121.6202    63.4388
 4106.5000    47.9254    65.8690      .7905      .5925      .6741   -62.1547    26.4480     9.8505   120.7260    65.4279
 4107.0000    48.1846    67.2987      .7885      .6054      .7042   -61.7589    26.4026     9.8448   120.1310    66.0148
 4107.5000    47.5176    68.3522      .8063      .6195      .7366   -61.4440    25.8069     9.8397   119.8643    65.7699
 4108.0000    46.6260    66.1829      .8657      .6357      .7649   -61.0703    24.0797     9.8368   119.7910    64.9781
 4108.5000    45.6765    64.0409      .9906      .6520      .7876   -61.1522    22.5739     9.8340   116.0863    62.6613
 4109.0000    44.9036    62.3260     1.0308      .6658      .8016   -62.0076    21.6112     9.8385   111.7196    61.8092
 4109.5000    44.5056    62.6301     1.0181      .6755      .8038   -63.0376    21.3543     9.8435   105.7869    62.2440
 4110.0000    44.9783    63.9387      .9547      .6785      .7804   -63.7095    22.9256     9.8576   109.9597    63.2207
 4110.5000    45.4954    64.9829      .9005      .6716      .7560   -63.9805    23.8926     9.8735   116.1075    63.0961
 4111.0000    45.6942    65.8540      .8602      .6487      .7322   -64.1360    23.6827     9.8900   115.6271    62.5023
 4111.5000    45.6290    66.7252      .8766      .6249      .7048   -64.3015    23.4651     9.9017   112.3461    61.0765
 4112.0000    45.4833    67.7460      .9042      .5910      .6759   -64.7361    23.9954     9.9077   108.1892    59.9467
 4112.5000    45.6389    68.8307      .8896      .5588      .6488   -65.0839    24.8071     9.9089   109.3253    58.6960
 4113.0000    47.0304    69.9348      .8276      .5298      .6281   -65.9510    26.0227     9.9068   114.6528    59.5864
 4113.5000    47.9068    70.5123      .7899      .5055      .6093   -67.2362    26.8748     9.8995   119.1283    61.1063
