~VERSION INFORMATION
VERS.                             2.0:   CWLS Log ASCII Standard-VERSION 2.0
WRAP.                              NO:   One line per depth step
~Well Information Block
STRT.F                       302.0000:   Top Depth
STOP.F                     11038.0000:   Bottom Depth
STEP.F                         .50000:   Depth Increment
NULL.                        -999.250:   Null Value
FLD .                         WILDCAT:   Field Name
WELL.       OCSG04565   001 ST00 BP00:   NAME
API .                    42706400940000:   WELL API
EDF .F                        76.8000:   ELEV DRILL FLOOR
COMP.                  TENNECO OIL CO:   OPERATOR
BN  .                             303:   BLOCK
CTRY.                             USA:   COUNTRY NAME
CNTY.                              GA:   COUNTY
CNTY.                        GLVSTN L:   COUNTY NAME
EKB .F                        79.0000:   ELEV KELLY BUSHING
TDD .F                      11050.000:   FINAL TD DRILLER
STAT.                           TEXAS:   STATE NAME
UWI .                    42706400940000:   WELL API
DICO.               IHS : Digitizing Company
~PARAMETER INFORMATION (zones)
#MNEM.UNIT                       Value     Description
#=========                       =====     ===========
#ZONATION                          CNL:   ZONATION NAME
#ZONE                            RUN_1:   ZONE NAME
TOP .                       4297.0000:   TOP DEPTH
BOT .                       7582.5000:   BOTTOM DEPTH
RUN .                               1:   RUN NUMBER
LCCD.                              20:   LOGGING CONTRACTOR
SRVC.                          Baroil:   LOGGING CONT NAME
DICO.          QC Data Collectors Ltd:   DIG COMPANY NAME
LDAT.                      03/12/1983:   DATE LOGGED
ELD .F                        77.8000:   LOG DATUM ELEVATION
TDD .F                      7587.0000:   TOTAL DEPTH DRILLER
TDL .F                      7584.0000:   TOTAL DEPTH LOGGER
BOTL.F                      7582.0000:   BOTTOM DEPTH LOGGED
TOPL.F                      4300.0000:   TOP DEPTH LOGGED
CS1 .IN                       13.3750:   CASING SIZE 1
BS1 .IN                       12.2500:   BIT SIZE 1
DDB1.F                      7587.0000:   DEPTH DRILLED BIT 1
BHF .                              70:   FLUID CODE
DPT .                       Phosphate:   DRILLING FLUID TYPE
MUDD.                         13.5000:   FLUID DENSITY
MUDV.                         49.0000:   FLUID VISCOSITY
DFPH.                         11.4000:   FLUID PH
FL  .                         12.8000:   FLUID LOSS
RM  .OHMM                       .0680:   RM
RMT .DEGF                     65.0000:   RM TEMP
RMF .OHMM                       .0530:   RMF
RMFT.DEGF                     65.0000:   RMF TEMP
FSC .                               M:   RMF CODE
RMC .OHMM                       .1020:   RMC
RMCT.DEGF                     65.0000:   RMC TEMP
CMC .                               C:   RMC CODE
TMAX.DEGF                    161.0000:   MAX REC TEMP
TIMC.                         10.0000:   TIME SINCE CIRCLN
~PARAMETER INFORMATION (zones)
#MNEM.UNIT                       Value     Description
#=========                       =====     ===========
#ZONATION                          DIL:   ZONATION NAME
#ZONE                            RUN_1:   ZONE NAME
TOP .                        302.0000:   TOP DEPTH
BOT .                      11038.5000:   BOTTOM DEPTH
RUN .                               1:   RUN NUMBER
LCCD.                             150:   LOGGING CONTRACTOR
SRVC.                   Dresser Atlas:   LOGGING CONT NAME
DICO.          QC Data Collectors Ltd:   DIG COMPANY NAME
LDAT.                      02/22/1983:   DATE LOGGED
ELD .F                        77.8000:   LOG DATUM ELEVATION
TDD .F                       841.0000:   TOTAL DEPTH DRILLER
TDL .F                       832.0000:   TOTAL DEPTH LOGGER
BOTL.F                     11038.0000:   BOTTOM DEPTH LOGGED
TOPL.F                       302.0000:   TOP DEPTH LOGGED
CS1 .IN                       30.6250:   CASING SIZE 1
BS1 .IN                       17.5000:   BIT SIZE 1
DDB1.F                       841.0000:   DEPTH DRILLED BIT 1
BHF .                              99:   FLUID CODE
DPT .                   Miscellaneous:   DRILLING FLUID TYPE
MUDD.                          8.7000:   FLUID DENSITY
MUDV.                         50.0000:   FLUID VISCOSITY
DFPH.                         12.0000:   FLUID PH
FL  .                         20.4000:   FLUID LOSS
RM  .OHMM                      1.1500:   RM
RMT .DEGF                     65.0000:   RM TEMP
RMF .OHMM                       .8000:   RMF
RMFT.DEGF                     65.0000:   RMF TEMP
FSC .                               M:   RMF CODE
RMC .OHMM                      1.4300:   RMC
RMCT.DEGF                     65.0000:   RMC TEMP
CMC .                               C:   RMC CODE
TMAX.DEGF                     85.0000:   MAX REC TEMP
TIMC.                          3.0000:   TIME SINCE CIRCLN
~PARAMETER INFORMATION (zones)
#MNEM.UNIT                       Value     Description
#=========                       =====     ===========
#ZONATION                          FDC:   ZONATION NAME
#ZONE                            RUN_4:   ZONE NAME
TOP .                      11038.0000:   TOP DEPTH
BOT .                      11040.0000:   BOTTOM DEPTH
RUN .                               4:   RUN NUMBER
LCCD.                             150:   LOGGING CONTRACTOR
SRVC.                   Dresser Atlas:   LOGGING CONT NAME
DICO.          QC Data Collectors Ltd:   DIG COMPANY NAME
LDAT.                      03/25/1983:   DATE LOGGED
ELD .F                        77.8000:   LOG DATUM ELEVATION
TDD .F                     11050.0000:   TOTAL DEPTH DRILLER
TDL .F                     11040.0000:   TOTAL DEPTH LOGGER
BOTL.F                     11038.0000:   BOTTOM DEPTH LOGGED
TOPL.F                      7555.0000:   TOP DEPTH LOGGED
CS1 .IN                        9.6250:   CASING SIZE 1
BS1 .IN                        8.5000:   BIT SIZE 1
DDB1.F                     11050.0000:   DEPTH DRILLED BIT 1
BHF .                              99:   FLUID CODE
DPT .                   Miscellaneous:   DRILLING FLUID TYPE
MUDD.                         16.6000:   FLUID DENSITY
MUDV.                         50.0000:   FLUID VISCOSITY
DFPH.                         11.4000:   FLUID PH
FL  .                         10.0000:   FLUID LOSS
RM  .OHMM                      1.7000:   RM
RMT .DEGF                     75.0000:   RM TEMP
RMF .OHMM                      1.2000:   RMF
RMFT.DEGF                     75.0000:   RMF TEMP
FSC .                               M:   RMF CODE
RMC .OHMM                      2.2000:   RMC
RMCT.DEGF                     75.0000:   RMC TEMP
CMC .                               M:   RMC CODE
TMAX.DEGF                    228.0000:   MAX REC TEMP
TIMC.                          4.0000:   TIME SINCE CIRCLN
~PARAMETER INFORMATION (zones)
#MNEM.UNIT                       Value     Description
#=========                       =====     ===========
#ZONATION                          FDC:   ZONATION NAME
#ZONE                            RUN_2:   ZONE NAME
TOP .                       4512.0000:   TOP DEPTH
BOT .                       7583.5000:   BOTTOM DEPTH
RUN .                               2:   RUN NUMBER
LCCD.                             150:   LOGGING CONTRACTOR
SRVC.                   Dresser Atlas:   LOGGING CONT NAME
DICO.          QC Data Collectors Ltd:   DIG COMPANY NAME
LDAT.                      02/28/1983:   DATE LOGGED
ELD .F                        77.8000:   LOG DATUM ELEVATION
TDD .F                      4512.0000:   TOTAL DEPTH DRILLER
TDL .F                      4505.0000:   TOTAL DEPTH LOGGER
BOTL.F                      7583.0000:   BOTTOM DEPTH LOGGED
TOPL.F                      4512.0000:   TOP DEPTH LOGGED
CS1 .IN                       20.0000:   CASING SIZE 1
BS1 .IN                       17.5000:   BIT SIZE 1
DDB1.F                      4512.0000:   DEPTH DRILLED BIT 1
BHF .                              99:   FLUID CODE
DPT .                   Miscellaneous:   DRILLING FLUID TYPE
MUDD.                          9.4000:   FLUID DENSITY
MUDV.                         40.0000:   FLUID VISCOSITY
DFPH.                         12.0000:   FLUID PH
FL  .                         38.0000:   FLUID LOSS
RM  .OHMM                       .2900:   RM
RMT .DEGF                     65.0000:   RM TEMP
RMF .OHMM                       .2100:   RMF
RMFT.DEGF                     65.0000:   RMF TEMP
FSC .                               M:   RMF CODE
RMC .OHMM                       .3400:   RMC
RMCT.DEGF                     65.0000:   RMC TEMP
CMC .                               C:   RMC CODE
TMAX.DEGF                     90.0000:   MAX REC TEMP
TIMC.                          3.0000:   TIME SINCE CIRCLN
~PARAMETER INFORMATION (zones)
#MNEM.UNIT                       Value     Description
#=========                       =====     ===========
#ZONATION                          FDC:   ZONATION NAME
#ZONE                            RUN_1:   ZONE NAME
TOP .                       4297.0000:   TOP DEPTH
BOT .                       7582.5000:   BOTTOM DEPTH
RUN .                               1:   RUN NUMBER
LCCD.                              20:   LOGGING CONTRACTOR
SRVC.                          Baroil:   LOGGING CONT NAME
DICO.          QC Data Collectors Ltd:   DIG COMPANY NAME
LDAT.                      03/12/1983:   DATE LOGGED
ELD .F                        77.8000:   LOG DATUM ELEVATION
TDD .F                      7587.0000:   TOTAL DEPTH DRILLER
TDL .F                      7584.0000:   TOTAL DEPTH LOGGER
BOTL.F                      7582.0000:   BOTTOM DEPTH LOGGED
TOPL.F                      4300.0000:   TOP DEPTH LOGGED
CS1 .IN                       13.3750:   CASING SIZE 1
BS1 .IN                       12.2500:   BIT SIZE 1
DDB1.F                      7587.0000:   DEPTH DRILLED BIT 1
BHF .                              70:   FLUID CODE
DPT .                       Phosphate:   DRILLING FLUID TYPE
MUDD.                         13.5000:   FLUID DENSITY
MUDV.                         49.0000:   FLUID VISCOSITY
DFPH.                         11.4000:   FLUID PH
FL  .                         12.8000:   FLUID LOSS
RM  .OHMM                       .0680:   RM
RMT .DEGF                     65.0000:   RM TEMP
RMF .OHMM                       .0530:   RMF
RMFT.DEGF                     65.0000:   RMF TEMP
FSC .                               M:   RMF CODE
RMC .OHMM                       .1020:   RMC
RMCT.DEGF                     65.0000:   RMC TEMP
CMC .                               C:   RMC CODE
TMAX.DEGF                    161.0000:   MAX REC TEMP
TIMC.                         10.0000:   TIME SINCE CIRCLN
~Curve Information Block
#MNEM.UNIT                    API CODE    No Description
#=========                    ========    == ===========
DEPT.F                   00 001 00 00:     1  DEPTH
NPHI.%                               :     2  Neutron Porosity
CILD.MMHO                            :     3  Deep Induction Conductivity
DT.US/F                              :     4  Sonic Transit Time
GR1.GAPI                              :     5  Gamma Ray
ILD.OHMM                             :     6  Deep Induction Resistivity
ILM.OHMM                             :     7  Medium Induction Resistivity
LN.OHMM                              :     8  Medium Resistivity
RFOC.OHMM                            :     9  Medium Resistivity
SN.OHMM                              :    10  Short-Normal Resistivity
SP.MV                                :    11  Spontaneous Potential
CALI.IN                              :    12  Caliper
DRHO.G/C3                            :    13  Bulk Density Correction
GR2.GAPI                              :    14  Gamma Ray
RHOB.G/C3                            :    15  Bulk Density
~ASCII
# ...
 8289.0000  -999.2500  1701.1016   122.8483    63.5457      .5840      .6873  -999.2500      .9090  -999.2500   -51.9432  -999.2500  -999.2500  -999.2500  -999.2500
 8289.5000  -999.2500  1729.5254   123.8566    64.4352      .5772      .6806  -999.2500      .9076  -999.2500   -51.5785  -999.2500  -999.2500  -999.2500  -999.2500
 8290.0000  -999.2500  1757.9004   124.6523    64.2131      .5689      .6779  -999.2500      .9062  -999.2500   -51.1381  -999.2500  -999.2500  -999.2500  -999.2500
 8290.5000  -999.2500  1767.7461   124.9004    62.6053      .5608      .6776  -999.2500      .9048  -999.2500   -50.6983  -999.2500  -999.2500  -999.2500  -999.2500
 8291.0000  -999.2500  1776.2461   125.1483    61.4243      .5539      .6774  -999.2500      .9037  -999.2500   -50.7963  -999.2500  -999.2500  -999.2500  -999.2500
 8291.5000  -999.2500  1776.2520   124.9939    60.9144      .5565      .6771  -999.2500      .9027  -999.2500   -50.9719  -999.2500  -999.2500  -999.2500  -999.2500
 8292.0000  -999.2500  1771.2383   124.7483    61.6116      .5592      .6797  -999.2500      .9036  -999.2500   -51.1471  -999.2500  -999.2500  -999.2500  -999.2500
 8292.5000  -999.2500  1763.4766   124.5031    62.1705      .5619      .6824  -999.2500      .9061  -999.2500   -51.3229  -999.2500  -999.2500  -999.2500  -999.2500
 8293.0000  -999.2500  1747.1191   124.2654    62.4360      .5664      .6851  -999.2500      .9093  -999.2500   -51.3904  -999.2500  -999.2500  -999.2500  -999.2500
 8293.5000  -999.2500  1730.7598   124.2000    62.2704      .5722      .6877  -999.2500      .9152  -999.2500   -51.4197  -999.2500  -999.2500  -999.2500  -999.2500
 8294.0000  -999.2500  1716.9180   124.1344    61.3622      .5780      .6894  -999.2500      .9211  -999.2500   -51.4534  -999.2500  -999.2500  -999.2500  -999.2500
 8294.5000  -999.2500  1723.1719   124.0690    62.1773      .5821      .6908  -999.2500      .9326  -999.2500   -51.4940  -999.2500  -999.2500  -999.2500  -999.2500
 8295.0000  -999.2500  1729.4141   124.0701    62.9429      .5764      .6921  -999.2500      .9454  -999.2500   -51.5344  -999.2500  -999.2500  -999.2500  -999.2500
 8295.5000  -999.2500  1740.1719   124.0931    63.0755      .5707      .6935  -999.2500      .9417  -999.2500   -51.6242  -999.2500  -999.2500  -999.2500  -999.2500
 8296.0000  -999.2500  1752.5957   124.1766    62.9235      .5660      .6887  -999.2500      .9308  -999.2500   -51.7495  -999.2500  -999.2500  -999.2500  -999.2500
 8296.5000  -999.2500  1765.0313   124.3860    62.6810      .5625      .6836  -999.2500      .9166  -999.2500   -51.8567  -999.2500  -999.2500  -999.2500  -999.2500
 8297.0000  -999.2500  1768.9121   124.5953    63.5581      .5589      .6786  -999.2500      .9100  -999.2500   -51.8334  -999.2500  -999.2500  -999.2500  -999.2500
 8297.5000  -999.2500  1772.7793   125.0028    64.4352      .5554      .6738  -999.2500      .9073  -999.2500   -51.8101  -999.2500  -999.2500  -999.2500  -999.2500
 8298.0000  -999.2500  1776.6465   125.3929    63.9278      .5536      .6736  -999.2500      .9137  -999.2500   -51.9972  -999.2500  -999.2500  -999.2500  -999.2500
 8298.5000  -999.2500  1773.5625   124.8146    62.4218      .5537      .6733  -999.2500      .9267  -999.2500   -52.1882  -999.2500  -999.2500  -999.2500  -999.2500
 8299.0000  -999.2500  1769.8066   124.2368    61.7425      .5537      .6733  -999.2500      .9391  -999.2500   -52.2005  -999.2500  -999.2500  -999.2500  -999.2500
 8299.5000  -999.2500  1759.9980   123.7037    62.0843      .5538      .6756  -999.2500      .9494  -999.2500   -52.1169  -999.2500  -999.2500  -999.2500  -999.2500
 8300.0000  -999.2500  1745.5137   123.5421    62.4714      .5564      .6779  -999.2500      .9365  -999.2500   -51.8778  -999.2500  -999.2500  -999.2500  -999.2500
 8300.5000  -999.2500  1731.0547   123.3804    63.1102      .5593      .6803  -999.2500      .9238  -999.2500   -51.6384  -999.2500  -999.2500  -999.2500  -999.2500
 8301.0000  -999.2500  1732.4863   123.2230    63.5630      .5623      .6826  -999.2500      .9190  -999.2500   -51.3471  -999.2500  -999.2500  -999.2500  -999.2500
 8301.5000  -999.2500  1736.1621   123.4685    63.7023      .5652      .6818  -999.2500      .9188  -999.2500   -50.9600  -999.2500  -999.2500  -999.2500  -999.2500
 8302.0000  -999.2500  1740.3262   123.7144    63.8416      .5644      .6798  -999.2500      .9186  -999.2500   -50.6849  -999.2500  -999.2500  -999.2500  -999.2500
 8302.5000  -999.2500  1746.1367   123.9652    63.8062      .5633      .6778  -999.2500      .9228  -999.2500   -50.4744  -999.2500  -999.2500  -999.2500  -999.2500
 8303.0000  -999.2500  1751.9492   124.2705    62.4565      .5622      .6758  -999.2500      .9272  -999.2500   -50.3835  -999.2500  -999.2500  -999.2500  -999.2500
 8303.5000  -999.2500  1756.5898   124.5758    60.6105      .5619      .6729  -999.2500      .9295  -999.2500   -50.2925  -999.2500  -999.2500  -999.2500  -999.2500
 8304.0000  -999.2500  1756.2813   124.8550    60.5272      .5618      .6697  -999.2500      .9287  -999.2500   -50.6586  -999.2500  -999.2500  -999.2500  -999.2500
 8304.5000  -999.2500  1755.9727   124.8566    62.2877      .5616      .6665  -999.2500      .9278  -999.2500   -51.0302  -999.2500  -999.2500  -999.2500  -999.2500
 8305.0000  -999.2500  1755.6641   124.8582    64.0593      .5615      .6638  -999.2500      .9260  -999.2500   -51.1968  -999.2500  -999.2500  -999.2500  -999.2500
 8305.5000  -999.2500  1754.1250   124.8301    65.8284      .5631      .6643  -999.2500      .9238  -999.2500   -51.0472  -999.2500  -999.2500  -999.2500  -999.2500
 8306.0000  -999.2500  1749.4316   124.4523    67.2476      .5649      .6648  -999.2500      .9227  -999.2500   -50.7414  -999.2500  -999.2500  -999.2500  -999.2500
 8306.5000  -999.2500  1744.7305   124.1057    67.4337      .5666      .6654  -999.2500      .9267  -999.2500   -50.4061  -999.2500  -999.2500  -999.2500  -999.2500
 8307.0000  -999.2500  1740.5742   124.0637    64.9302      .5682      .6661  -999.2500      .9243  -999.2500   -50.3820  -999.2500  -999.2500  -999.2500  -999.2500
 8307.5000  -999.2500  1737.5977   124.0576    64.2755      .5684      .6672  -999.2500      .9202  -999.2500   -50.8719  -999.2500  -999.2500  -999.2500  -999.2500
 8308.0000  -999.2500  1734.6172   124.1464    64.2206      .5686      .6683  -999.2500      .9211  -999.2500   -51.2007  -999.2500  -999.2500  -999.2500  -999.2500
 8308.5000  -999.2500  1744.3047   123.9562    62.3448      .5688      .6664  -999.2500      .9389  -999.2500   -51.5295  -999.2500  -999.2500  -999.2500  -999.2500
 8309.0000  -999.2500  1758.3457   123.4329    60.4715      .5664      .6612  -999.2500      .9556  -999.2500   -51.7593  -999.2500  -999.2500  -999.2500  -999.2500
 8309.5000  -999.2500  1772.4102   123.0095    59.6527      .5626      .6561  -999.2500      .9462  -999.2500   -51.8589  -999.2500  -999.2500  -999.2500  -999.2500
 8310.0000  -999.2500  1786.0664   123.0111    61.8362      .5589      .6496  -999.2500      .9347  -999.2500   -51.9584  -999.2500  -999.2500  -999.2500  -999.2500
 8310.5000  -999.2500  1798.5020   123.6063    61.8660      .5548      .6423  -999.2500      .9203  -999.2500   -52.0240  -999.2500  -999.2500  -999.2500  -999.2500
 8311.0000  -999.2500  1810.9512   124.2802    61.6447      .5506      .6350  -999.2500      .9119  -999.2500   -52.0430  -999.2500  -999.2500  -999.2500  -999.2500
 8311.5000  -999.2500  1823.3867   124.7078    61.7566      .5464      .6279  -999.2500      .9124  -999.2500   -52.0619  -999.2500  -999.2500  -999.2500  -999.2500
 8312.0000  -999.2500  1835.7969   124.9991    63.1140      .5422      .6237  -999.2500      .9128  -999.2500   -52.0667  -999.2500  -999.2500  -999.2500  -999.2500
 8312.5000  -999.2500  1846.0117   125.2905    64.6375      .5381      .6196  -999.2500      .9136  -999.2500   -51.8241  -999.2500  -999.2500  -999.2500  -999.2500
 8313.0000  -999.2500  1856.2148   125.5819    63.5556      .5339      .6154  -999.2500      .9144  -999.2500   -51.5128  -999.2500  -999.2500  -999.2500  -999.2500
