~VERSION INFORMATION
VERS.                             2.0:   CWLS Log ASCII Standard-VERSION 2.0
WRAP.                              NO:   One line per depth step
~Well Information Block
STRT.F                      3120.0000:   Top Depth
STOP.F                     12040.0000:   Bottom Depth
STEP.F                         .50000:   Depth Increment
NULL.                        -999.250:   Null Value
FLD .                      GA BLK 254:   Field Name
WELL.       OCSG01776   001 ST00 BP00:   NAME
API .                    42706300290000:   WELL API
R1  .                      SUN OIL CO:   COMMENT  1
EDF .F                        57.0000:   ELEV DRILL FLOOR
COMP.                      SUN OIL CO:   OPERATOR
BN  .                             254:   BLOCK
CTRY.                             USA:   COUNTRY NAME
CNTY.                              GA:   COUNTY
CNTY.                        GLVSTN L:   COUNTY NAME
EKB .F                        58.0000:   ELEV KELLY BUSHING
TDD .F                      12003.000:   FINAL TD DRILLER
STAT.                           TEXAS:   STATE NAME
UWI .                    42706300290000:   WELL API
DICO.               IHS : Digitizing Company
~PARAMETER INFORMATION (zones)
#MNEM.UNIT                       Value     Description
#=========                       =====     ===========
#ZONATION                           IE:   ZONATION NAME
#ZONE                            RUN_2:   ZONE NAME
TOP .                       7847.0000:   TOP DEPTH
BOT .                      10079.0000:   BOTTOM DEPTH
RUN .                               2:   RUN NUMBER
LCCD.                             440:   LOGGING CONTRACTOR
SRVC.                    Schlumberger:   LOGGING CONT NAME
DICO.          QC Data Collectors Ltd:   DIG COMPANY NAME
LDAT.                      11/28/1970:   DATE LOGGED
ELD .F                        58.0000:   LOG DATUM ELEVATION
TDD .F                     10076.0000:   TOTAL DEPTH DRILLER
TDL .F                     10080.0000:   TOTAL DEPTH LOGGER
BOTL.F                     10079.0000:   BOTTOM DEPTH LOGGED
TOPL.F                      7847.0000:   TOP DEPTH LOGGED
CS1 .IN                        9.6250:   CASING SIZE 1
BS1 .IN                        8.5000:   BIT SIZE 1
DDB1.F                     10076.0000:   DEPTH DRILLED BIT 1
BHF .                              99:   FLUID CODE
DPT .                   Miscellaneous:   DRILLING FLUID TYPE
MUDD.                         15.4000:   FLUID DENSITY
MUDV.                         48.0000:   FLUID VISCOSITY
DFPH.                         11.5000:   FLUID PH
FL  .                          3.2000:   FLUID LOSS
RM  .OHMM                       .8400:   RM
RMT .DEGF                     75.0000:   RM TEMP
RMF .OHMM                       .4600:   RMF
RMFT.DEGF                     75.0000:   RMF TEMP
FSC .                               M:   RMF CODE
RMC .OHMM                      1.3100:   RMC
RMCT.DEGF                     75.0000:   RMC TEMP
CMC .                               C:   RMC CODE
TMAX.DEGF                    202.0000:   MAX REC TEMP
TIMC.                          3.5000:   TIME SINCE CIRCLN
~PARAMETER INFORMATION (zones)
#MNEM.UNIT                       Value     Description
#=========                       =====     ===========
#ZONATION                           IE:   ZONATION NAME
#ZONE                            RUN_3:   ZONE NAME
TOP .                      10074.0000:   TOP DEPTH
BOT .                      12002.0000:   BOTTOM DEPTH
RUN .                               3:   RUN NUMBER
LCCD.                             440:   LOGGING CONTRACTOR
SRVC.                    Schlumberger:   LOGGING CONT NAME
DICO.          QC Data Collectors Ltd:   DIG COMPANY NAME
LDAT.                      12/17/1970:   DATE LOGGED
ELD .F                        58.0000:   LOG DATUM ELEVATION
TDD .F                     12000.0000:   TOTAL DEPTH DRILLER
TDL .F                     12003.0000:   TOTAL DEPTH LOGGER
BOTL.F                     12002.0000:   BOTTOM DEPTH LOGGED
TOPL.F                     10074.0000:   TOP DEPTH LOGGED
CS1 .IN                        7.6250:   CASING SIZE 1
BS1 .IN                        6.5000:   BIT SIZE 1
DDB1.F                     12000.0000:   DEPTH DRILLED BIT 1
BHF .                              99:   FLUID CODE
DPT .                   Miscellaneous:   DRILLING FLUID TYPE
MUDD.                         15.9000:   FLUID DENSITY
MUDV.                         48.0000:   FLUID VISCOSITY
DFPH.                         12.0000:   FLUID PH
FL  .                          3.0000:   FLUID LOSS
RM  .OHMM                      1.0500:   RM
RMT .DEGF                     70.0000:   RM TEMP
RMF .OHMM                       .5100:   RMF
RMFT.DEGF                     70.0000:   RMF TEMP
FSC .                               M:   RMF CODE
RMC .OHMM                      1.3000:   RMC
RMCT.DEGF                     70.0000:   RMC TEMP
CMC .                               C:   RMC CODE
TMAX.DEGF                    240.0000:   MAX REC TEMP
TIMC.                          5.0000:   TIME SINCE CIRCLN
~PARAMETER INFORMATION (zones)
#MNEM.UNIT                       Value     Description
#=========                       =====     ===========
#ZONATION                           IE:   ZONATION NAME
#ZONE                            RUN_1:   ZONE NAME
TOP .                       3120.0000:   TOP DEPTH
BOT .                      12002.5000:   BOTTOM DEPTH
RUN .                               1:   RUN NUMBER
LCCD.                             440:   LOGGING CONTRACTOR
SRVC.                    Schlumberger:   LOGGING CONT NAME
DICO.          QC Data Collectors Ltd:   DIG COMPANY NAME
LDAT.                      11/19/1970:   DATE LOGGED
ELD .F                        58.0000:   LOG DATUM ELEVATION
TDD .F                      7850.0000:   TOTAL DEPTH DRILLER
TDL .F                      7847.0000:   TOTAL DEPTH LOGGER
BOTL.F                      7847.0000:   BOTTOM DEPTH LOGGED
TOPL.F                      3120.0000:   TOP DEPTH LOGGED
CS1 .IN                       13.3750:   CASING SIZE 1
BS1 .IN                       12.2500:   BIT SIZE 1
DDB1.F                      7850.0000:   DEPTH DRILLED BIT 1
BHF .                              99:   FLUID CODE
DPT .                   Miscellaneous:   DRILLING FLUID TYPE
MUDD.                         12.5000:   FLUID DENSITY
MUDV.                         46.0000:   FLUID VISCOSITY
DFPH.                         10.5000:   FLUID PH
FL  .                          4.0000:   FLUID LOSS
RM  .OHMM                       .7900:   RM
RMT .DEGF                     80.0000:   RM TEMP
RMF .OHMM                       .5200:   RMF
RMFT.DEGF                     75.0000:   RMF TEMP
FSC .                               M:   RMF CODE
RMC .OHMM                      1.2300:   RMC
RMCT.DEGF                     75.0000:   RMC TEMP
CMC .                               M:   RMC CODE
TMAX.DEGF                    152.0000:   MAX REC TEMP
TIMC.                          4.0000:   TIME SINCE CIRCLN
~Curve Information Block
#MNEM.UNIT         API  CODE                       CURVE DESCRIPTION
#---------        ------------                    --------------------
 DEPT.F           00 001 00 00                    :1   DEPTH
 C1-3.IN          00 000 00 00                    :2
 C2-4.IN          00 000 00 00                    :3
 CALI.IN          00 000 00 00                    :4   Density Caliper
 CILD.MMHO        00 000 00 00                    :5   Deep Induction Conductivity
 CORR.G/CC        00 000 00 00                    :6   Density Correction
 DT  .US/FT       00 000 00 00                    :7   Delta-T Compressional
 GR  .API         00 000 00 00                    :8   Gamma Ray
 ILD .OHMM        00 000 00 00                    :9   Induction Deep Resistivity
 IND .OHMM        00 000 00 00                    :10
 RHOB.G/CC        00 000 00 00                    :11  Bulk Density
 SN16.OHMM        00 000 00 00                    :12  Short Normal 16 Inch
 SP  .MV          00 000 00 00                    :13  Spontaneous Potential
~A    DEPT        C1-3        C2-4        CALI        CILD        CORR          DT          GR         ILD         IND        RHOB        SN16          SP
# ...
  10132.5000     13.2400     12.2000     14.4000   2444.9102      0.0390    114.6000     68.6000      0.4405      0.5200      2.4160      0.5440    -21.9608
  10133.0000     13.2400     12.2000     14.3000   2464.4531      0.0370    114.6000     72.3800      0.4485      0.5200      2.4160      0.5400    -21.7647
  10133.5000     13.2400     12.2000     14.2600   2484.0195      0.0350    115.5882     74.0600      0.4565      0.5200      2.4120      0.5400    -21.9608
  10134.0000     13.2400     12.2000     14.1800   2503.5898      0.0300    116.8627     74.4800      0.4644      0.5200      2.3980      0.5440    -22.1569
  10134.5000     13.3600     12.1200     14.1000   2518.2656      0.0320    117.4510     72.2400      0.4724      0.5200      2.3980      0.5440    -21.9608
  10135.0000     13.4400     12.0800     14.0600   2532.1289      0.0370    116.9608     70.0000      0.4804      0.5200      2.4040      0.5440    -21.7647
  10135.5000     13.4400     12.0000     14.0600   2545.9883      0.0410    117.4510     69.5800      0.4883      0.5200      2.4090      0.5400    -21.1765
  10136.0000     13.4800     11.9583     14.0600   2557.9375      0.0370    117.3529     70.2800      0.4963      0.5200      2.4200      0.5360    -20.5882
  10136.5000     13.5200     11.9583     14.0400   2568.1797      0.0210    118.5294     69.7200      0.5063      0.5200      2.4200      0.5360    -20.5882
  10137.0000     13.5600     11.9583     14.0400   2571.7500      0.0170    117.6471     69.5800      0.5165      0.5200      2.4170      0.5440    -20.5882
  10137.5000     13.6000     11.9583     14.1000   2540.5117      0.0140    118.1373     66.9200      0.5267      0.5400      2.4020      0.5520    -20.5882
  10138.0000     13.6000     11.9583     14.1800   2455.3047      0.0320    116.9608     64.6800      0.5368      0.5600      2.4060      0.5600    -20.9804
  10138.5000     13.6000     11.9583     14.4200   2192.0000      0.0211    118.3333     64.6800      0.5470      0.5600      2.4021      0.5760    -20.9804
  10139.0000     13.6000     11.9583     14.6200   1970.6465      0.0214    117.5490     63.2800      0.5572      0.6200      2.3984      0.5960    -20.9804
  10139.5000     13.6000     11.9583     14.6800   1897.1113      0.0277    117.9412     60.7600      0.5674      0.6400      2.4115      0.6157    -21.1765
  10140.0000     13.6000     11.9583     14.7000   1857.8730      0.0169    114.6000     60.4800      0.5776      0.6600      2.4058      0.6314    -21.5686
  10140.5000     13.6000     11.9524     14.7600   1800.0332      0.0170    111.7950     60.4800      0.5877      0.6600      2.4000      0.6431    -21.9608
  10141.0000     13.6000     11.9427     14.8400   1754.1191      0.0160    109.7035     60.3400      0.5979      0.6200      2.3891      0.6549    -22.3529
  10141.5000     13.6000     11.9331     14.8800   1718.8789      0.0130    108.5108     62.7200      0.6026      0.6400      2.3783      0.6588    -22.7451
  10142.0000     13.5200     11.9238     14.6600   1718.5742      0.0240    109.3013     66.2200      0.6029      0.6400      2.3902      0.6706    -23.3333
  10142.5000     13.4400     11.9200     14.5800   1738.7285      0.0230    109.9000     68.8800      0.6033      0.6400      2.4000      0.6824    -23.5294
  10143.0000     13.3600     11.9600     14.5800   1758.8574      0.0250    108.4000     67.7600      0.6037      0.6400      2.4070      0.6863    -23.7255
  10143.5000     13.3200     11.9600     14.5400   1781.4316      0.0330    106.6000     68.3200      0.6041      0.6400      2.4150      0.6824    -23.7255
  10144.0000     13.2400     11.9600     14.5000   1808.6445      0.0280    106.9000     69.4400      0.6044      0.6400      2.4220      0.6745    -23.5294
  10144.5000     13.1600     11.9600     14.4200   1835.8574      0.0360    108.4000     70.1400      0.6048      0.6200      2.4360      0.6627    -23.1373
  10145.0000     13.1600     11.9200     14.4000   1862.9180      0.0450    109.0000     65.9400      0.6052      0.6200      2.4608      0.6471    -22.9412
  10145.5000     13.0800     11.9200     14.4000   1887.3262      0.0380    109.8000     66.3600      0.6056      0.6200      2.4490      0.6392    -22.9412
  10146.0000     13.0400     11.8400     14.3800   1911.6855      0.0320    110.6863     69.3000      0.6060      0.6000      2.4380      0.6392    -23.1373
  10146.5000     13.0000     11.7600     14.3600   1933.4199      0.0290    110.1961     73.0800      0.6063      0.6000      2.4240      0.6353    -22.9412
  10147.0000     13.0000     11.7600     14.3800   1950.5176      0.0330    111.0784     77.7000      0.6023      0.6000      2.4170      0.6314    -22.5490
  10147.5000     12.9583     11.7600     14.3800   1967.5879      0.0440    110.9804     76.7200      0.5964      0.5800      2.4270      0.6392    -22.5490
  10148.0000     12.9583     11.7600     14.3600   1990.3164      0.0390    112.3529     72.5200      0.5906      0.5800      2.4190      0.6471    -22.3529
  10148.5000     12.9527     11.7183     14.3600   2030.2500      0.0302    108.8889     67.3400      0.5847      0.5800      2.4111      0.6431    -22.3529
  10149.0000     12.9434     11.5936     14.3400   2097.2617      0.0274    108.5728     67.7600      0.5788      0.5600      2.4123      0.6353    -22.3529
  10149.5000     12.8920     11.5485     14.3600   2163.7148      0.0237    109.3421     66.7800      0.5729      0.5600      2.4135      0.6196    -21.7647
  10150.0000     12.8432     11.5025     14.3400   2212.6367      0.0279    110.7081     70.0000      0.5671      0.5400      2.4176      0.6078    -21.3725
  10150.5000     12.8000     11.4583     14.3425   2257.9883      0.0230    112.9000     67.0828      0.5612      0.5400      2.4079      0.5960    -20.5882
  10151.0000     12.8000     11.5417     14.3882   2276.3359      0.0140    114.5000     65.9972      0.5553      0.5400      2.3990      0.5920    -20.5882
  10151.5000     12.7600     11.5833     14.4129   2282.4258      0.0140    115.4902     68.4082      0.5495      0.5200      2.3970      0.5840    -20.7843
  10152.0000     12.7200     11.6667     14.3777   2268.4883      0.0070    116.2745     69.4272      0.5436      0.5200      2.3951      0.5720    -20.7843
  10152.5000     12.6800     11.7500     14.3800   2254.5742      0.0060    115.7843     69.8600      0.5377      0.5200      2.4000      0.5720    -20.5882
  10153.0000     12.6800     11.7917     14.3600   2241.2500      0.0120    117.0588     71.4000      0.5319      0.5200      2.4150      0.5720    -20.5882
  10153.5000     12.6800     11.7500     14.2400   2230.9531      0.0100    117.3529     69.7200      0.5260      0.5200      2.4160      0.5800    -20.5882
  10154.0000     12.7600     11.7500     14.1400   2220.6602      0.0070    116.7647     67.4800      0.5201      0.5200      2.4120      0.5920    -20.5882
  10154.5000     12.8800     11.7500     14.0800   2210.3672      0.0130    116.0784     66.7800      0.5180      0.5200      2.4150      0.6000    -20.5882
  10155.0000     12.9200     11.8333     14.0600   2203.5898      0.0110    115.0000     66.5000      0.5160      0.5200      2.4120      0.6000    -20.5882
  10155.5000     12.9200     11.8750     14.0600   2214.5977      0.0060    113.7000     67.4800      0.5140      0.5200      2.4160      0.5960    -20.5882
  10156.0000     12.9200     11.9167     14.0800   2225.5781      0.0160    114.1000     68.8800      0.5119      0.5200      2.4230      0.5920    -20.5882
  10156.5000     12.8800     12.0000     14.0600   2236.5625      0.0240    114.8000     70.0000      0.5099      0.5200      2.4290      0.5800    -20.3922
  10157.0000     12.8000     12.0400     14.3200   2250.4453      0.0160    115.4902     70.8400      0.5079      0.5200      2.4200      0.5760    -20.1961
  10157.5000     12.8000     12.0800     14.7200   2267.3906      0.0130    116.2745     70.4200      0.5059      0.5200      2.4060      0.5720    -20.0000
