~VERSION INFORMATION
VERS.                             2.0:   CWLS Log ASCII Standard-VERSION 2.0
WRAP.                              NO:   One line per depth step
~Well Information Block
STRT.F                      4122.0000:   Top Depth
STOP.F                     10958.0000:   Bottom Depth
STEP.F                         .50000:   Depth Increment
NULL.                        -999.250:   Null Value
FLD .                      GA BLK 273:   Field Name
WELL.       OCSG09037   003 ST00 BP00:   NAME
API .                  42706402950000:   WELL API
EDF .F                        95.0000:   ELEV DRILL FLOOR
COMP.       SEAGULL ENERGY E AND P IN:   OPERATOR
BN  .                             273:   BLOCK
CTRY.                             USA:   COUNTRY NAME
CNTY.                              GA:   COUNTY
CNTY.                        GLVSTN L:   COUNTY NAME
EKB .F                        96.0000:   ELEV KELLY BUSHING
TDD .F                      10964.000:   FINAL TD DRILLER
STAT.                           TEXAS:   STATE NAME
UWI .                  42706402950000:   WELL API
DICO.               IHS : Digitizing Company
~PARAMETER INFORMATION (zones)
#MNEM.UNIT                       Value     Description
#=========                       =====     ===========
#ZONATION                          DIL:   ZONATION NAME
#ZONE                            RUN_1:   ZONE NAME
TOP .                       4122.0000:   TOP DEPTH
BOT .                       9366.5000:   BOTTOM DEPTH
RUN .                               1:   RUN NUMBER
LCCD.                             440:   LOGGING CONTRACTOR
SRVC.                    Schlumberger:   LOGGING CONT NAME
DICO.          QC Data Collectors Ltd:   DIG COMPANY NAME
LDAT.                      05/20/1991:   DATE LOGGED
ELD .F                        96.0000:   LOG DATUM ELEVATION
TDD .F                      9360.0000:   TOTAL DEPTH DRILLER
TDL .F                      9366.0000:   TOTAL DEPTH LOGGER
BOTL.F                      9366.0000:   BOTTOM DEPTH LOGGED
TOPL.F                      4402.0000:   TOP DEPTH LOGGED
CS1 .IN                       10.7500:   CASING SIZE 1
BS1 .IN                        9.8750:   BIT SIZE 1
DDB1.F                      9360.0000:   DEPTH DRILLED BIT 1
BHF .                              81:   FLUID CODE
DPT .          Lignosulfonate (Ligno):   DRILLING FLUID TYPE
MUDD.                         12.5000:   FLUID DENSITY
MUDV.                         45.0000:   FLUID VISCOSITY
DFPH.                         10.0000:   FLUID PH
FL  .                          8.0000:   FLUID LOSS
RM  .OHMM                       .5080:   RM
RMT .DEGF                     67.0000:   RM TEMP
RMF .OHMM                       .3460:   RMF
RMFT.DEGF                     67.0000:   RMF TEMP
FSC .                               M:   RMF CODE
RMC .OHMM                       .6820:   RMC
RMCT.DEGF                     67.0000:   RMC TEMP
CMC .                               M:   RMC CODE
TMAX.DEGF                    170.0000:   MAX REC TEMP
TIMC.                          6.6800:   TIME SINCE CIRCLN
~PARAMETER INFORMATION (zones)
#MNEM.UNIT                       Value     Description
#=========                       =====     ===========
#ZONATION                          DIL:   ZONATION NAME
#ZONE                            RUN_2:   ZONE NAME
TOP .                       9092.0000:   TOP DEPTH
BOT .                      10398.5000:   BOTTOM DEPTH
RUN .                               2:   RUN NUMBER
LCCD.                             440:   LOGGING CONTRACTOR
SRVC.                    Schlumberger:   LOGGING CONT NAME
DICO.          QC Data Collectors Ltd:   DIG COMPANY NAME
LDAT.                      06/04/1991:   DATE LOGGED
ELD .F                        96.0000:   LOG DATUM ELEVATION
TDD .F                     10401.0000:   TOTAL DEPTH DRILLER
TDL .F                     10404.0000:   TOTAL DEPTH LOGGER
BOTL.F                     10398.0000:   BOTTOM DEPTH LOGGED
TOPL.F                      9292.0000:   TOP DEPTH LOGGED
CS1 .IN                        7.6250:   CASING SIZE 1
BS1 .IN                        6.7500:   BIT SIZE 1
DDB1.F                     10401.0000:   DEPTH DRILLED BIT 1
BHF .                              99:   FLUID CODE
DPT .                   Miscellaneous:   DRILLING FLUID TYPE
MUDD.                         14.1000:   FLUID DENSITY
MUDV.                         40.0000:   FLUID VISCOSITY
DFPH.                          9.8000:   FLUID PH
FL  .                          3.4000:   FLUID LOSS
RM  .OHMM                       .5160:   RM
RMT .DEGF                     80.0000:   RM TEMP
RMF .OHMM                       .2580:   RMF
RMFT.DEGF                     80.0000:   RMF TEMP
FSC .                               M:   RMF CODE
RMC .OHMM                      1.8700:   RMC
RMCT.DEGF                     80.0000:   RMC TEMP
CMC .                               M:   RMC CODE
TMAX.DEGF                    192.0000:   MAX REC TEMP
TIMC.                          7.4000:   TIME SINCE CIRCLN
~PARAMETER INFORMATION (zones)
#MNEM.UNIT                       Value     Description
#=========                       =====     ===========
#ZONATION                          DIL:   ZONATION NAME
#ZONE                            RUN_3:   ZONE NAME
TOP .                       9320.0000:   TOP DEPTH
BOT .                      10958.5000:   BOTTOM DEPTH
RUN .                               3:   RUN NUMBER
LCCD.                             440:   LOGGING CONTRACTOR
SRVC.                    Schlumberger:   LOGGING CONT NAME
DICO.          QC Data Collectors Ltd:   DIG COMPANY NAME
LDAT.                      06/09/1991:   DATE LOGGED
ELD .F                        96.0000:   LOG DATUM ELEVATION
TDD .F                     10960.0000:   TOTAL DEPTH DRILLER
TDL .F                     10964.0000:   TOTAL DEPTH LOGGER
BOTL.F                     10958.0000:   BOTTOM DEPTH LOGGED
TOPL.F                      9404.0000:   TOP DEPTH LOGGED
CS1 .IN                        7.6250:   CASING SIZE 1
BS1 .IN                        6.7500:   BIT SIZE 1
DDB1.F                     10960.0000:   DEPTH DRILLED BIT 1
BHF .                              99:   FLUID CODE
DPT .                   Miscellaneous:   DRILLING FLUID TYPE
MUDD.                         14.7000:   FLUID DENSITY
MUDV.                         46.0000:   FLUID VISCOSITY
DFPH.                         10.0000:   FLUID PH
FL  .                          2.3000:   FLUID LOSS
RM  .OHMM                       .4570:   RM
RMT .DEGF                     74.0000:   RM TEMP
RMF .OHMM                       .2190:   RMF
RMFT.DEGF                     74.0000:   RMF TEMP
FSC .                               M:   RMF CODE
RMC .OHMM                       .7110:   RMC
RMCT.DEGF                     74.0000:   RMC TEMP
CMC .                               M:   RMC CODE
TMAX.DEGF                    202.0000:   MAX REC TEMP
TIMC.                          7.3800:   TIME SINCE CIRCLN
~Curve Information Block
#MNEM.UNIT                    API CODE    No Description
#=========                    ========    == ===========
DEPT.F                   00 001 00 00:     1  DEPTH
DT.US/F                              :     2  Sonic Transit Time
GR.GAPI                              :     3  Gamma Ray
ILD.OHMM                             :     4  Deep Induction Resistivity
ILM.OHMM                             :     5  Medium Induction Resistivity
SFL.OHMM                             :     6  Medium Resistivity
SP.MV                                :     7  Spontaneous Potential
~ASCII
# ...
10882.0000   103.9460    73.3632      .6272      .6342      .6603   -40.2373
10882.5000   102.9248    73.5293      .6436      .6509      .6926   -40.0670
10883.0000   102.1392    73.1401      .6608      .6708      .7205   -40.3475
10883.5000   101.7185    71.3160      .6759      .6918      .7548   -40.8173
10884.0000   102.0966    69.5708      .6766      .6989      .7485   -40.8429
10884.5000   102.7677    68.4564      .6717      .6913      .7193   -40.7607
10885.0000   103.3815    68.1699      .6642      .6829      .6947   -40.6452
10885.5000   103.8242    69.6234      .6595      .6746      .6771   -40.4924
10886.0000   104.0223    71.0138      .6570      .6730      .6696   -40.3832
10886.5000   103.9767    71.3959      .6558      .6722      .6748   -40.2866
10887.0000   103.3948    71.2582      .6575      .6725      .6909   -40.2430
10887.5000   103.5253    71.3667      .6588      .6729      .7059   -40.3252
10888.0000   105.2402    72.6670      .6586      .6702      .7153   -40.4038
10888.5000   107.4612    73.4099      .6536      .6658      .7197   -40.4351
10889.0000   108.8126    73.2452      .6478      .6561      .7127   -40.5174
10889.5000   108.4359    71.3475      .6419      .6413      .6901   -40.6921
10890.0000   107.9432    69.7566      .6346      .6295      .6605   -40.8778
10890.5000   107.4692    70.0952      .6273      .6188      .6330   -41.0782
10891.0000   107.0358    71.2477      .6209      .6106      .6146   -41.3246
10891.5000   106.8447    72.7511      .6145      .6064      .6085   -41.5750
10892.0000   107.2341    72.0598      .6101      .6046      .6193   -41.8339
10892.5000   107.6763    71.3428      .6065      .6034      .6373   -41.8925
10893.0000   107.7239    72.0231      .6032      .6021      .6527   -41.8723
10893.5000   107.6252    72.8523      .6005      .6009      .6670   -41.7153
10894.0000   107.5957    73.4385      .5979      .5995      .6569   -41.4758
10894.5000   107.8573    74.7671      .5941      .5980      .6366   -41.0940
10895.0000   108.3666    77.1195      .5894      .5964      .6169   -40.6879
10895.5000   109.0844    80.4733      .5858      .5948      .6040   -40.6747
10896.0000   109.7354    81.1484      .5843      .5932      .5915   -40.4385
10896.5000   109.6193    81.2968      .5817      .5917      .5868   -40.2361
10897.0000   109.3533    81.4404      .5791      .5902      .6084   -40.2545
10897.5000   110.1588    81.9753      .5757      .5888      .6253   -40.4037
10898.0000   111.6980    82.2316      .5721      .5870      .6282   -40.5509
10898.5000   112.8564    81.5746      .5684      .5787      .6274   -40.6437
10899.0000   113.5808    80.3812      .5648      .5701      .6192   -40.6276
10899.5000   113.8361    79.4048      .5562      .5605      .6078   -40.6190
10900.0000   114.0747    78.3312      .5472      .5544      .5935   -40.6244
10900.5000   114.9336    77.2417      .5372      .5459      .5808   -40.4504
10901.0000   115.3690    76.3020      .5278      .5358      .5687   -40.2900
10901.5000   115.9282    75.7629      .5210      .5264      .5591   -40.2443
10902.0000   117.4514    75.9058      .5142      .5179      .5514   -40.4106
10902.5000   116.9109    76.2804      .5078      .5096      .5453   -40.5624
10903.0000   116.2251    76.6306      .5016      .5054      .5414   -40.5052
10903.5000   115.7312    76.4170      .4954      .5012      .5412   -40.3035
10904.0000   115.5956    76.1788      .4893      .4970      .5410   -40.0256
10904.5000   115.6119    75.9022      .4837      .4929      .5408   -39.7647
10905.0000   116.0061    75.9644      .4818      .4906      .5402   -39.6403
10905.5000   116.4122    76.3546      .4799      .4886      .5362   -39.7607
10906.0000   116.9142    76.9407      .4791      .4876      .5259   -39.7958
10906.5000   116.6173    78.4520      .4786      .4869      .5007   -39.5922
10907.0000   115.8444    79.1472      .4790      .4867      .4829   -39.2910
10907.5000   114.8031    79.0750      .4795      .4880      .4998   -38.9423
10908.0000   113.7032    77.5978      .4801      .4895      .5122   -38.8228
10908.5000   113.8511    76.1365      .4824      .4924      .5171   -38.9473
10909.0000   114.6074    76.3770      .4866      .4960      .5166   -39.0040
10909.5000   114.6594    76.8960      .4918      .5021      .5248   -38.7948
10910.0000   114.6289    77.1976      .4981      .5057      .5454   -38.5412
10910.5000   114.5238    76.9164      .5065      .5085      .5682   -38.3618
10911.0000   114.3434    76.4479      .5119      .5151      .5835   -38.2421
10911.5000   114.2855    76.0829      .5154      .5223      .5862   -38.2173
10912.0000   114.3201    75.6239      .5190      .5285      .5841   -38.2925
10912.5000   114.4436    74.4990      .5225      .5344      .5801   -38.4301
10913.0000   114.5217    73.0179      .5259      .5386      .5790   -38.5668
10913.5000   114.5443    72.6765      .5291      .5422      .5769   -38.7390
10914.0000   114.5671    72.5356      .5326      .5442      .5746   -38.9916
10914.5000   114.6212    72.1111      .5361      .5458      .5705   -39.2416
10915.0000   114.6753    70.1228      .5396      .5468      .5615   -39.5065
10915.5000   114.7155    67.0319      .5434      .5498      .5498   -39.7647
10916.0000   114.7346    64.8871      .5478      .5539      .5393   -40.0689
10916.5000   114.7538    63.6768      .5520      .5556      .5455   -40.3781
10917.0000   114.7611    63.2043      .5518      .5559      .5833   -40.5804
10917.5000   114.7474    62.9817      .5514      .5532      .6017   -40.7061
10918.0000   114.7330    63.1484      .5460      .5493      .5951   -40.7737
10918.5000   114.7119    63.6071      .5401      .5435      .5673   -40.6481
10919.0000   114.6254    63.9611      .5320      .5349      .5413   -40.6502
10919.5000   114.8077    62.0590      .5221      .5257      .5230   -40.8614
10920.0000   114.9635    59.3833      .5115      .5164      .5100   -40.9891
10920.5000   115.0167    57.3542      .4997      .5086      .5016   -40.9252
10921.0000   115.0128    59.1047      .4874      .5015      .4978   -40.8788
10921.5000   114.9847    60.9708      .4826      .4970      .4962   -40.7986
10922.0000   114.8971    63.2313      .4831      .4926      .4974   -40.7099
10922.5000   114.7671    64.9108      .4862      .4902      .5034   -40.5923
10923.0000   114.6150    64.5901      .4889      .4886      .5070   -40.3732
10923.5000   114.4706    63.2680      .4878      .4884      .5009   -40.1584
10924.0000   114.3539    61.7515      .4816      .4846      .4924   -40.0938
10924.5000   114.2568    62.5189      .4771      .4802      .4822   -40.1578
10925.0000   114.1472    64.1669      .4738      .4768      .4747   -40.3334
10925.5000   114.0436    65.9515      .4736      .4736      .4781   -40.7917
10926.0000   114.0271    67.5023      .4738      .4746      .4892   -41.6328
10926.5000   114.0089    68.1647      .4741      .4755      .4989   -42.8839
10927.0000   113.9772    68.0897      .4733      .4761      .5038   -43.3907
10927.5000   113.9454    67.3866      .4724      .4765      .5010   -43.3209
10928.0000   114.0240    65.9568      .4718      .4772      .4930   -43.2141
10928.5000   114.1307    64.2694      .4716      .4785      .4841   -43.4109
10929.0000   114.4249    62.9001      .4713      .4800      .4806   -43.5995
10929.5000   115.0015    61.7199      .4707      .4848      .4792   -43.4943
10930.0000   115.1982    60.7001      .4705      .4921      .4801   -43.3228
10930.5000   115.3069    59.9221      .4751      .5025      .4856   -43.2515
10931.0000   115.3239    59.4050      .4915      .5158      .5040   -43.3879
10931.5000   115.3115    59.0042      .5162      .5368      .5499   -43.5837
10932.0000   115.2987    59.3176      .5441      .5696      .6159   -43.6666
10932.5000   115.2850    60.5240      .5684      .6216      .6936   -43.6191
10933.0000   115.2709    61.6279      .5867      .6564      .7557   -43.6009
10933.5000   115.2467    62.3836      .6019      .6645      .7440   -43.6741
