~VERSION INFORMATION
VERS.                             2.0:   CWLS Log ASCII Standard-VERSION 2.0
WRAP.                              NO:   One line per depth step
~Well Information Block
STRT.F                      3120.0000:   Top Depth
STOP.F                     12040.0000:   Bottom Depth
STEP.F                         .50000:   Depth Increment
NULL.                        -999.250:   Null Value
FLD .                      GA BLK 254:   Field Name
WELL.       OCSG01776   001 ST00 BP00:   NAME
API .                    42706300290000:   WELL API
R1  .                      SUN OIL CO:   COMMENT  1
EDF .F                        57.0000:   ELEV DRILL FLOOR
COMP.                      SUN OIL CO:   OPERATOR
BN  .                             254:   BLOCK
CTRY.                             USA:   COUNTRY NAME
CNTY.                              GA:   COUNTY
CNTY.                        GLVSTN L:   COUNTY NAME
EKB .F                        58.0000:   ELEV KELLY BUSHING
TDD .F                      12003.000:   FINAL TD DRILLER
STAT.                           TEXAS:   STATE NAME
UWI .                    42706300290000:   WELL API
DICO.               IHS : Digitizing Company
~PARAMETER INFORMATION (zones)
#MNEM.UNIT                       Value     Description
#=========                       =====     ===========
#ZONATION                           IE:   ZONATION NAME
#ZONE                            RUN_2:   ZONE NAME
TOP .                       7847.0000:   TOP DEPTH
BOT .                      10079.0000:   BOTTOM DEPTH
RUN .                               2:   RUN NUMBER
LCCD.                             440:   LOGGING CONTRACTOR
SRVC.                    Schlumberger:   LOGGING CONT NAME
DICO.          QC Data Collectors Ltd:   DIG COMPANY NAME
LDAT.                      11/28/1970:   DATE LOGGED
ELD .F                        58.0000:   LOG DATUM ELEVATION
TDD .F                     10076.0000:   TOTAL DEPTH DRILLER
TDL .F                     10080.0000:   TOTAL DEPTH LOGGER
BOTL.F                     10079.0000:   BOTTOM DEPTH LOGGED
TOPL.F                      7847.0000:   TOP DEPTH LOGGED
CS1 .IN                        9.6250:   CASING SIZE 1
BS1 .IN                        8.5000:   BIT SIZE 1
DDB1.F                     10076.0000:   DEPTH DRILLED BIT 1
BHF .                              99:   FLUID CODE
DPT .                   Miscellaneous:   DRILLING FLUID TYPE
MUDD.                         15.4000:   FLUID DENSITY
MUDV.                         48.0000:   FLUID VISCOSITY
DFPH.                         11.5000:   FLUID PH
FL  .                          3.2000:   FLUID LOSS
RM  .OHMM                       .8400:   RM
RMT .DEGF                     75.0000:   RM TEMP
RMF .OHMM                       .4600:   RMF
RMFT.DEGF                     75.0000:   RMF TEMP
FSC .                               M:   RMF CODE
RMC .OHMM                      1.3100:   RMC
RMCT.DEGF                     75.0000:   RMC TEMP
CMC .                               C:   RMC CODE
TMAX.DEGF                    202.0000:   MAX REC TEMP
TIMC.                          3.5000:   TIME SINCE CIRCLN
~PARAMETER INFORMATION (zones)
#MNEM.UNIT                       Value     Description
#=========                       =====     ===========
#ZONATION                           IE:   ZONATION NAME
#ZONE                            RUN_3:   ZONE NAME
TOP .                      10074.0000:   TOP DEPTH
BOT .                      12002.0000:   BOTTOM DEPTH
RUN .                               3:   RUN NUMBER
LCCD.                             440:   LOGGING CONTRACTOR
SRVC.                    Schlumberger:   LOGGING CONT NAME
DICO.          QC Data Collectors Ltd:   DIG COMPANY NAME
LDAT.                      12/17/1970:   DATE LOGGED
ELD .F                        58.0000:   LOG DATUM ELEVATION
TDD .F                     12000.0000:   TOTAL DEPTH DRILLER
TDL .F                     12003.0000:   TOTAL DEPTH LOGGER
BOTL.F                     12002.0000:   BOTTOM DEPTH LOGGED
TOPL.F                     10074.0000:   TOP DEPTH LOGGED
CS1 .IN                        7.6250:   CASING SIZE 1
BS1 .IN                        6.5000:   BIT SIZE 1
DDB1.F                     12000.0000:   DEPTH DRILLED BIT 1
BHF .                              99:   FLUID CODE
DPT .                   Miscellaneous:   DRILLING FLUID TYPE
MUDD.                         15.9000:   FLUID DENSITY
MUDV.                         48.0000:   FLUID VISCOSITY
DFPH.                         12.0000:   FLUID PH
FL  .                          3.0000:   FLUID LOSS
RM  .OHMM                      1.0500:   RM
RMT .DEGF                     70.0000:   RM TEMP
RMF .OHMM                       .5100:   RMF
RMFT.DEGF                     70.0000:   RMF TEMP
FSC .                               M:   RMF CODE
RMC .OHMM                      1.3000:   RMC
RMCT.DEGF                     70.0000:   RMC TEMP
CMC .                               C:   RMC CODE
TMAX.DEGF                    240.0000:   MAX REC TEMP
TIMC.                          5.0000:   TIME SINCE CIRCLN
~PARAMETER INFORMATION (zones)
#MNEM.UNIT                       Value     Description
#=========                       =====     ===========
#ZONATION                           IE:   ZONATION NAME
#ZONE                            RUN_1:   ZONE NAME
TOP .                       3120.0000:   TOP DEPTH
BOT .                      12002.5000:   BOTTOM DEPTH
RUN .                               1:   RUN NUMBER
LCCD.                             440:   LOGGING CONTRACTOR
SRVC.                    Schlumberger:   LOGGING CONT NAME
DICO.          QC Data Collectors Ltd:   DIG COMPANY NAME
LDAT.                      11/19/1970:   DATE LOGGED
ELD .F                        58.0000:   LOG DATUM ELEVATION
TDD .F                      7850.0000:   TOTAL DEPTH DRILLER
TDL .F                      7847.0000:   TOTAL DEPTH LOGGER
BOTL.F                      7847.0000:   BOTTOM DEPTH LOGGED
TOPL.F                      3120.0000:   TOP DEPTH LOGGED
CS1 .IN                       13.3750:   CASING SIZE 1
BS1 .IN                       12.2500:   BIT SIZE 1
DDB1.F                      7850.0000:   DEPTH DRILLED BIT 1
BHF .                              99:   FLUID CODE
DPT .                   Miscellaneous:   DRILLING FLUID TYPE
MUDD.                         12.5000:   FLUID DENSITY
MUDV.                         46.0000:   FLUID VISCOSITY
DFPH.                         10.5000:   FLUID PH
FL  .                          4.0000:   FLUID LOSS
RM  .OHMM                       .7900:   RM
RMT .DEGF                     80.0000:   RM TEMP
RMF .OHMM                       .5200:   RMF
RMFT.DEGF                     75.0000:   RMF TEMP
FSC .                               M:   RMF CODE
RMC .OHMM                      1.2300:   RMC
RMCT.DEGF                     75.0000:   RMC TEMP
CMC .                               M:   RMC CODE
TMAX.DEGF                    152.0000:   MAX REC TEMP
TIMC.                          4.0000:   TIME SINCE CIRCLN
~Curve Information Block
#MNEM.UNIT         API  CODE                       CURVE DESCRIPTION
#---------        ------------                    --------------------
 DEPT.F           00 001 00 00                    :1   DEPTH
 C1-3.IN          00 000 00 00                    :2
 C2-4.IN          00 000 00 00                    :3
 CALI.IN          00 000 00 00                    :4   Density Caliper
 CILD.MMHO        00 000 00 00                    :5   Deep Induction Conductivity
 CORR.G/CC        00 000 00 00                    :6   Density Correction
 DT  .US/FT       00 000 00 00                    :7   Delta-T Compressional
 GR  .API         00 000 00 00                    :8   Gamma Ray
 ILD .OHMM        00 000 00 00                    :9   Induction Deep Resistivity
 IND .OHMM        00 000 00 00                    :10
 RHOB.G/CC        00 000 00 00                    :11  Bulk Density
 SN16.OHMM        00 000 00 00                    :12  Short Normal 16 Inch
 SP  .MV          00 000 00 00                    :13  Spontaneous Potential
~A    DEPT        C1-3        C2-4        CALI        CILD        CORR          DT          GR         ILD         IND        RHOB        SN16          SP
# ...
  10591.5000      8.9600     10.6000     10.8800   2067.6016     -0.1135    117.3000     12.2157      0.5418      0.5800      2.4003      0.6510    -25.6863
  10592.0000      8.9600     10.6800     10.9200   2038.9648     -0.1176    115.4000      8.9215      0.5388      0.6000      2.4001      0.6588    -25.4902
  10592.5000      9.0000     10.7600     10.9400   2017.0781     -0.1284    113.1373      7.6863      0.5361      0.6000      2.3873      0.6588    -25.2941
  10593.0000      9.0000     10.8400     10.9400   2015.8555     -0.1294    108.5000      8.7843      0.5334      0.6000      2.3951      0.6588    -25.2941
  10593.5000      8.9600     10.9200     10.9400   2041.7168     -0.1392    110.4902      7.0000      0.5308      0.5800      2.3912      0.6471    -25.2941
  10594.0000      8.9200     10.9600     10.9600   2086.0508     -0.1431    110.1961      7.5490      0.5281      0.5800      2.3931      0.6431    -25.2941
  10594.5000      8.8800     10.9600     11.0200   2130.3867     -0.1480    111.1765      9.1961      0.5307      0.5600      2.3971      0.6353    -25.2941
  10595.0000      8.8400     10.9600     11.0600   2178.1875     -0.1520    112.0588      6.7200      0.5353      0.5600      2.3912      0.6235    -25.2941
  10595.5000      8.8400     10.9600     11.1400   2227.3125     -0.1510    111.0784      2.3800      0.5399      0.5600      2.3873      0.6157    -25.2941
  10596.0000      8.8000     10.9600     11.1800   2254.6250     -0.1560    112.1569      1.2600      0.5445      0.5600      2.3775      0.6039    -25.2941
  10596.5000      8.7200     10.9600     11.2400   2278.8828     -0.1490    114.0196      0.1400      0.5492      0.5600      2.3951      0.5920    -25.4902
  10597.0000      8.7200     10.9600     11.2600   2303.1914     -0.1382    116.2000      0.1400      0.5538      0.5600      2.4000      0.5920    -25.2941
  10597.5000      8.7600     11.0000     11.2800   2318.8594     -0.1324    118.7000      1.1200      0.5584      0.5600      2.4070      0.5920    -25.2941
  10598.0000      8.7600     11.0000     11.2800   2334.2500     -0.1363    118.0000      2.1000      0.5617      0.5800      2.4030      0.5960    -25.2941
  10598.5000      8.8000     11.0400     11.2800   2332.2617     -0.1442    118.3903      0.7000      0.5650      0.5800      2.4060      0.6000    -25.2941
  10599.0000      8.8400     11.0800     11.2600   2312.5664     -0.1474    115.0992      7.1372      0.5683      0.5800      2.4169      0.6118    -25.4902
  10599.5000      9.0400     11.0800     11.1600   2292.8711     -0.1547    115.5921      7.9608      0.5715      0.5800      2.4188      0.6196    -25.6863
  10600.0000      9.0800     11.0400     11.1000   2257.9883     -0.1559    114.9002      4.2000      0.5748      0.6000      2.4265      0.6235    -26.0784
  10600.5000      9.0800     10.9600     11.0800   2168.5039     -0.1580    115.7843      1.9600      0.5780      0.6000      2.4304      0.6275    -26.0784
  10601.0000      9.0800     10.9200     11.0800   2127.5313     -0.1600    115.0980      1.6800      0.5813      0.6000      2.4216      0.6314    -26.2745
  10601.5000      9.0800     10.9200     11.1600   2091.3516     -0.1590    113.9000      1.8200      0.5846      0.6000      2.3890      0.6431    -26.2745
  10602.0000      9.0000     10.8400     11.2600   2072.8008     -0.1500    112.6000      1.9600      0.5878      0.6000      2.3670      0.6471    -26.2745
  10602.5000      9.0000     10.7600     11.3600   2056.8516     -0.1360    112.4000      2.5200      0.5911      0.6000      2.3480      0.6510    -26.2745
  10603.0000      9.0000     10.7200     11.4000   2041.8691     -0.1340    113.2000      3.7800      0.5943      0.6000      2.3196      0.6510    -26.2745
  10603.5000      9.0400     10.7200     11.4000   2027.0664     -0.1390    113.0000      5.6000      0.5976      0.6000      2.2940      0.6510    -26.2745
  10604.0000      9.0400     10.7600     11.4000   2012.8730     -0.1380    112.0000      8.7843      0.6009      0.6000      2.2920      0.6471    -26.4706
  10604.5000      9.1200     10.8400     11.3600   2004.6250     -0.1280    112.5000     12.0785      0.6002      0.6000      2.3059      0.6471    -26.6667
  10605.0000      9.1600     10.9600     11.3400   2006.8594     -0.1270    111.4000     15.6800      0.5979      0.6000      2.3147      0.6471    -27.4510
  10605.5000      9.2000     11.0800     11.3200   2009.0938     -0.1280    112.4000     23.0588      0.5957      0.6000      2.3255      0.6471    -27.8431
  10606.0000      9.2800     11.1600     11.3400   2011.3281     -0.1360    112.5000     28.5600      0.5934      0.6000      2.3216      0.6471    -28.2353
  10606.5000      9.3600     11.0800     11.3000   2022.4277     -0.1370    113.1000     29.9600      0.5911      0.5800      2.3118      0.6510    -28.6275
  10607.0000      9.4000     10.9600     11.2800   2034.7871     -0.1320    112.5000     28.0000      0.5889      0.5800      2.3461      0.6431    -28.6275
  10607.5000      9.3600     10.9200     11.2200   2047.1191     -0.1310    112.6000     25.5294      0.5866      0.5800      2.3620      0.6392    -28.4314
  10608.0000      9.2800     10.9600     11.1400   2067.1445     -0.1240    113.6000     22.9215      0.5844      0.5800      2.3730      0.6431    -28.4314
  10608.5000      9.2000     10.9600     11.0800   2101.8477     -0.1230    114.4017     24.2941      0.5821      0.5800      2.3800      0.6353    -28.2353
  10609.0000      9.1600     10.9200     11.0800   2175.6367     -0.1300    114.1076     25.6667      0.5798      0.5600      2.3630      0.6314    -28.2353
  10609.5000      9.1600     10.9200     11.0200   2253.8086     -0.1390    113.8157     25.3922      0.5766      0.5600      2.3580      0.6275    -28.0392
  10610.0000      9.1600     10.8800     10.9600   2277.3281     -0.1510    114.0178     26.9020      0.5723      0.5600      2.3570      0.6157    -27.8431
  10610.5000      9.1600     10.8400     10.9400   2289.5352     -0.1480    113.1373     29.9600      0.5680      0.5600      2.3590      0.6118    -27.8431
  10611.0000      9.2000     10.8000     10.9200   2291.3906     -0.1520    115.1000     28.2800      0.5637      0.5600      2.3600      0.6078    -27.6471
  10611.5000      9.2000     10.7600     10.9400   2290.6016     -0.1490    113.8235     25.8039      0.5594      0.5400      2.3530      0.6039    -27.6471
  10612.0000      9.2400     10.7200     10.9400   2289.8125     -0.1380    114.6078     28.4200      0.5551      0.5400      2.3550      0.6000    -27.6471
  10612.5000      9.2400     10.6800     10.9400   2289.0234     -0.1350    115.7000     32.7600      0.5508      0.5400      2.3660      0.6000    -27.4510
  10613.0000      9.2800     10.6400     10.8600   2288.2305     -0.1230    113.6275     36.2600      0.5465      0.5400      2.3890      0.5960    -27.4510
  10613.5000      9.2800     10.6400     10.8000   2287.4414     -0.1150    118.4000     34.1600      0.5422      0.5400      2.3920      0.6000    -27.4510
  10614.0000      9.2800     10.6800     10.7600   2286.6523     -0.1350    116.9000     30.9400      0.5379      0.5600      2.3820      0.6000    -27.6471
  10614.5000      9.2800     10.7200     10.7000   2285.8633     -0.1340    116.7000     29.9600      0.5336      0.5600      2.4010      0.6078    -27.8431
  10615.0000      9.2400     10.6800     10.6800   2285.0742     -0.1340    116.9000     31.0800      0.5293      0.5600      2.3970      0.6118    -27.8431
  10615.5000      9.1600     10.6800     10.6400   2285.6992     -0.1330    113.6275     32.7600      0.5250      0.5600      2.3960      0.6039    -27.8431
  10616.0000      9.1200     10.6400     10.6400   2292.2734     -0.1320    114.0196     38.2200      0.5225      0.5800      2.3930      0.6000    -27.4510
  10616.5000      9.0800     10.6000     10.6600   2298.8477     -0.1270    115.1000     39.9000      0.5203      0.5400      2.3950      0.6000    -27.0588
