~VERSION INFORMATION
VERS.                             2.0:   CWLS Log ASCII Standard-VERSION 2.0
WRAP.                              NO:   One line per depth step
~Well Information Block
STRT.F                      4703.0000:   Top Depth
STOP.F                      9304.5000:   Bottom Depth
STEP.F                         .50000:   Depth Increment
NULL.                        -999.250:   Null Value
FLD .                      BA BLK 399:   Field Name
WELL.       OCSG07218  A003 ST00 BP00:   NAME
API .                  42704403090000:   WELL API
EDF .F                       113.0000:   ELEV DRILL FLOOR
COMP.       SEAGULL ENERGY E AND P IN:   OPERATOR
EGL .F                       -62.0000:   ELEV GROUND LEVEL
EKB .F                       114.0000:   ELEV KELLY BUSHING
TDD .F                      9314.0000:   FINAL TD DRILLER
UWI .                  42704403090000:   WELL API
DICO.               IHS : Digitizing Company
~PARAMETER INFORMATION (zones)
#MNEM.UNIT                       Value     Description
#=========                       =====     ===========
#ZONATION                          CNL:   ZONATION NAME
#ZONE                            RUN_1:   ZONE NAME
TOP .                       4703.0000:   TOP DEPTH
BOT .                       9200.5000:   BOTTOM DEPTH
RUN .                               1:   RUN NUMBER
LCCD.                             510:   LOGGING CONTRACTOR
SRVC.                   Western Atlas:   LOGGING CONT NAME
DICO.          QC Data Collectors Ltd:   DIG COMPANY NAME
LDAT.                      03/24/1997:   DATE LOGGED
TDD .F                      9314.0000:   TOTAL DEPTH DRILLER
TDL .F                      9307.0000:   TOTAL DEPTH LOGGER
BOTL.F                      9305.0000:   BOTTOM DEPTH LOGGED
TOPL.F                      4703.0000:   TOP DEPTH LOGGED
CS1 .                         10.7500:   CASING SIZE 1
BS1 .                          9.8750:   BIT SIZE 1
DDB1.F                      9314.0000:   DEPTH DRILLED BIT 1
BHF .                              99:   FLUID CODE
DPT .                   Miscellaneous:   DRILLING FLUID TYPE
MUDD.                         11.5000:   FLUID DENSITY
MUDV.                         41.0000:   FLUID VISCOSITY
DFPH.                         10.2000:   FLUID PH
FL  .                          5.0000:   FLUID LOSS
RM  .OHMM                      1.1200:   RM
RMT .DEGF                     75.0000:   RM TEMP
RMF .OHMM                       .8300:   RMF
RMFT.DEGF                     75.0000:   RMF TEMP
FSC .                               M:   RMF CODE
RMC .OHMM                      1.4600:   RMC
RMCT.DEGF                     75.0000:   RMC TEMP
CMC .                               M:   RMC CODE
TMAX.DEGF                    181.0000:   MAX REC TEMP
TIMC.                         24.0000:   TIME SINCE CIRCLN
SON .                          173943:   SERVICE ORDER NUM
LMF .                             MSL:   LOGS MEAS FROM
MUDS.                             PIT:   MUD SOURCE
ENG .                         HADSALL:   ENGINEER
WIT .                        FONTENOT:   WITNESS
~PARAMETER INFORMATION (zones)
#MNEM.UNIT                       Value     Description
#=========                       =====     ===========
#ZONATION                          DAL:   ZONATION NAME
#ZONE                            RUN_1:   ZONE NAME
TOP .                       4703.0000:   TOP DEPTH
BOT .                       9242.5000:   BOTTOM DEPTH
RUN .                               1:   RUN NUMBER
LCCD.                             510:   LOGGING CONTRACTOR
SRVC.                   Western Atlas:   LOGGING CONT NAME
DICO.          QC Data Collectors Ltd:   DIG COMPANY NAME
LDAT.                      03/24/1997:   DATE LOGGED
TDD .F                      9314.0000:   TOTAL DEPTH DRILLER
TDL .F                      9307.0000:   TOTAL DEPTH LOGGER
BOTL.F                      9305.0000:   BOTTOM DEPTH LOGGED
TOPL.F                      4703.0000:   TOP DEPTH LOGGED
CS1 .                         10.7500:   CASING SIZE 1
BS1 .                          9.8750:   BIT SIZE 1
DDB1.F                      9314.0000:   DEPTH DRILLED BIT 1
BHF .                              99:   FLUID CODE
DPT .                   Miscellaneous:   DRILLING FLUID TYPE
MUDD.                         11.5000:   FLUID DENSITY
MUDV.                         41.0000:   FLUID VISCOSITY
DFPH.                         10.2000:   FLUID PH
FL  .                          5.0000:   FLUID LOSS
RM  .OHMM                      1.1200:   RM
RMT .DEGF                     75.0000:   RM TEMP
RMF .OHMM                       .8300:   RMF
RMFT.DEGF                     75.0000:   RMF TEMP
FSC .                               M:   RMF CODE
RMC .OHMM                      1.4600:   RMC
RMCT.DEGF                     75.0000:   RMC TEMP
CMC .                               M:   RMC CODE
TMAX.DEGF                    181.0000:   MAX REC TEMP
TIMC.                         24.0000:   TIME SINCE CIRCLN
SON .                          173943:   SERVICE ORDER NUM
LMF .                             MSL:   LOGS MEAS FROM
MUDS.                             PIT:   MUD SOURCE
ENG .                         HADSALL:   ENGINEER
WIT .                        FONTENOT:   WITNESS
~PARAMETER INFORMATION (zones)
#MNEM.UNIT                       Value     Description
#=========                       =====     ===========
#ZONATION                          DIL:   ZONATION NAME
#ZONE                            RUN_1:   ZONE NAME
TOP .                       4703.0000:   TOP DEPTH
BOT .                       9305.5000:   BOTTOM DEPTH
RUN .                               1:   RUN NUMBER
LCCD.                             510:   LOGGING CONTRACTOR
SRVC.                   Western Atlas:   LOGGING CONT NAME
DICO.          QC Data Collectors Ltd:   DIG COMPANY NAME
LDAT.                      03/24/1997:   DATE LOGGED
TDD .F                      9314.0000:   TOTAL DEPTH DRILLER
TDL .F                      9307.0000:   TOTAL DEPTH LOGGER
BOTL.F                      9305.0000:   BOTTOM DEPTH LOGGED
TOPL.F                      4703.0000:   TOP DEPTH LOGGED
CS1 .                         10.7500:   CASING SIZE 1
BS1 .                          9.8750:   BIT SIZE 1
DDB1.F                      9314.0000:   DEPTH DRILLED BIT 1
BHF .                              99:   FLUID CODE
DPT .                   Miscellaneous:   DRILLING FLUID TYPE
MUDD.                         11.5000:   FLUID DENSITY
MUDV.                         41.0000:   FLUID VISCOSITY
DFPH.                         10.2000:   FLUID PH
FL  .                          5.0000:   FLUID LOSS
RM  .OHMM                      1.1200:   RM
RMT .DEGF                     75.0000:   RM TEMP
RMF .OHMM                       .8300:   RMF
RMFT.DEGF                     75.0000:   RMF TEMP
FSC .                               M:   RMF CODE
RMC .OHMM                      1.4600:   RMC
RMCT.DEGF                     75.0000:   RMC TEMP
CMC .                               M:   RMC CODE
TMAX.DEGF                    181.0000:   MAX REC TEMP
TIMC.                         24.0000:   TIME SINCE CIRCLN
SON .                          173943:   SERVICE ORDER NUM
LMF .                             MSL:   LOGS MEAS FROM
MUDS.                             PIT:   MUD SOURCE
ENG .                         HADSALL:   ENGINEER
WIT .                        FONTENOT:   WITNESS
~PARAMETER INFORMATION (zones)
#MNEM.UNIT                       Value     Description
#=========                       =====     ===========
#ZONATION                          FDC:   ZONATION NAME
#ZONE                            RUN_1:   ZONE NAME
TOP .                       4703.0000:   TOP DEPTH
BOT .                       9228.5000:   BOTTOM DEPTH
RUN .                               1:   RUN NUMBER
LCCD.                             510:   LOGGING CONTRACTOR
SRVC.                   Western Atlas:   LOGGING CONT NAME
DICO.          QC Data Collectors Ltd:   DIG COMPANY NAME
LDAT.                      03/24/1997:   DATE LOGGED
TDD .F                      9314.0000:   TOTAL DEPTH DRILLER
TDL .F                      9307.0000:   TOTAL DEPTH LOGGER
BOTL.F                      9305.0000:   BOTTOM DEPTH LOGGED
TOPL.F                      4703.0000:   TOP DEPTH LOGGED
CS1 .                         10.7500:   CASING SIZE 1
BS1 .                          9.8750:   BIT SIZE 1
DDB1.F                      9314.0000:   DEPTH DRILLED BIT 1
BHF .                              99:   FLUID CODE
DPT .                   Miscellaneous:   DRILLING FLUID TYPE
MUDD.                         11.5000:   FLUID DENSITY
MUDV.                         41.0000:   FLUID VISCOSITY
DFPH.                         10.2000:   FLUID PH
FL  .                          5.0000:   FLUID LOSS
RM  .OHMM                      1.1200:   RM
RMT .DEGF                     75.0000:   RM TEMP
RMF .OHMM                       .8300:   RMF
RMFT.DEGF                     75.0000:   RMF TEMP
FSC .                               M:   RMF CODE
RMC .OHMM                      1.4600:   RMC
RMCT.DEGF                     75.0000:   RMC TEMP
CMC .                               M:   RMC CODE
TMAX.DEGF                    181.0000:   MAX REC TEMP
TIMC.                         24.0000:   TIME SINCE CIRCLN
SON .                          173943:   SERVICE ORDER NUM
LMF .                             MSL:   LOGS MEAS FROM
MUDS.                             PIT:   MUD SOURCE
ENG .                         HADSALL:   ENGINEER
WIT .                        FONTENOT:   WITNESS
~Curve Information Block
#MNEM.UNIT                    API CODE    No Description
#=========                    ========    == ===========
DEPT.F                   00 001 00 00:     1  DEPTH
CNCF.%                               :     2  Field Normalized CNC
DT24.US/F                            :     3  Unrecognised
CILD.MMHO                            :     4  Deep Induction Conductivity
RFOC.OHMM                            :     5  Medium Resistivity
RILD.OHMM                            :     6  Deep Resistivity
RILM.OHMM                            :     7  Medium Resistivity
RWAZ.OHMM                            :     8  Unrecognised
SP.MV                                :     9  Spontaneous Potential
GR.GAPI                              :    10  Gamma Ray
PORZ.%                               :    11  Neutron Porosity
ZCOR.G/C3                            :    12  Density Correction
ZDEN.G/C3                            :    13  Bulk Density
~ASCII
# ...
 5599.0000    37.9890   112.1709  1338.2129     1.2320      .7470      .8030      .1910     2.5180    56.2679    42.4420     -.0770     1.9500
 5599.5000    39.5040   115.7510  1387.8125     1.1920      .7210      .7910      .1520     1.7040    60.0229    38.8690      .0050     2.0090
 5600.0000    40.1160   117.2710  1439.4082     1.2830      .6950      .7710      .1130     -.7750    61.3820    34.3539      .0800     2.0830
 5600.5000    39.6810   116.6489  1482.2305     1.3260      .6750      .7510      .1050    -2.7860    58.0950    33.6620      .0760     2.0950
 5601.0000    38.6600   115.5079  1511.9941     1.3290      .6610      .7370      .1040    -8.4440    55.9080    33.8530      .0790     2.0910
 5601.5000    37.7679   114.4099  1519.8848     1.4430      .6580      .7240      .1070   -10.9660    52.7460    34.3380      .0640     2.0830
 5602.0000    36.8400   114.6699  1510.5117     1.5070      .6620      .7190      .1040   -10.1180    50.1440    33.9040      .0610     2.0910
 5602.5000    37.0120   115.8979  1496.2598     1.3330      .6680      .7260      .1060    -4.8490    51.5229    34.0580      .0730     2.0880
 5603.0000    38.4380   116.5869  1464.7148     1.2130      .6830      .7440      .1110    -2.3180    52.9950    34.3560      .0730     2.0830
 5603.5000    39.4250   115.6129  1428.4668     1.2720      .7000      .7550      .1130      .3550    53.2980    34.2520      .0800     2.0850
 5604.0000    39.3920   113.6940  1391.6621     1.3520      .7190      .7590      .1110      .8580    53.5320    33.5930      .0870     2.0960
 5604.5000    38.9750   114.9700  1347.7637     1.3210      .7420      .7670      .1160     3.1230    52.9000    33.7540      .0790     2.0930
 5605.0000    38.8130   118.2760  1297.3945     1.2480      .7710      .7830      .1200     2.1900    53.4449    33.7320      .0760     2.0930
 5605.5000    40.1910   121.0530  1254.0234     1.2170      .7970      .8030      .1340     2.1110    57.8080    34.8979      .0730     2.0740
 5606.0000    41.4340   123.8280  1222.1406     1.2400      .8180      .8210      .1400     3.3370    53.6700    35.2050      .0790     2.0690
 5606.5000    42.0080   123.0199  1199.0801     1.2840      .8340      .8350      .1440     4.0990    49.3580    35.3130      .0860     2.0670
 5607.0000    43.1600   119.6840  1179.6895     1.3210      .8480      .8480      .1540     3.9340    50.3810    36.2430      .0770     2.0520
 5607.5000    43.3210   118.4850  1169.0684     1.3210      .8550      .8550      .1550     3.9090    51.8940    36.1490      .0830     2.0530
 5608.0000    42.2170   117.6449  1163.7324     1.3310      .8590      .8500      .1610     4.1990    55.3210    36.7870      .0700     2.0430
 5608.5000    42.3880   115.9469  1155.9648     1.3670      .8650      .8370      .1600     3.1850    58.0820    36.4960      .0780     2.0480
 5609.0000    41.6260   114.7529  1148.8105     1.3440      .8710      .8300      .1570     3.9440    56.2450    36.1100      .0680     2.0540
 5609.5000    40.3820   114.6089  1145.9941     1.2580      .8730      .8360      .1570     4.4910    54.0090    36.0680      .0790     2.0550
 5610.0000    39.4789   116.1749  1150.2324     1.2300      .8690      .8410      .1580     4.9850    52.5850    36.2490      .0820     2.0520
 5610.5000    40.0720   117.9459  1165.6523     1.3060      .8580      .8360      .1550     4.5740    53.2980    36.0909      .0700     2.0550
 5611.0000    39.3570   118.1580  1193.2754     1.3850      .8380      .8250      .1470     4.3780    55.2630    35.6650      .0820     2.0620
 5611.5000    38.9500   117.0189  1220.1289     1.3840      .8200      .8130      .1420     4.7960    53.4070    35.4059      .0790     2.0660
 5612.0000    39.8770   114.7599  1226.7637     1.3680      .8150      .8050      .1420     4.8930    52.3660    35.5720      .0890     2.0630
 5612.5000    39.5770   115.4550  1211.6582     1.3330      .8250      .8050      .1430     4.6230    50.8400    35.4310      .0910     2.0650
 5613.0000    40.8290   118.6360  1191.7598     1.2590      .8390      .8140      .1470     4.1250    52.5600    35.6030      .0910     2.0630
 5613.5000    41.7130   120.8639  1175.4453     1.2500      .8510      .8320      .1580     3.7610    51.6980    36.6219      .0690     2.0460
 5614.0000    41.6750   122.6060  1177.5957     1.2960      .8490      .8470      .1690     4.8160    50.2090    37.8310      .0660     2.0260
 5614.5000    42.2200   118.5420  1210.2930     1.4080      .8260      .8420      .1660     4.6740    50.0150    37.9789      .0640     2.0230
 5615.0000    40.3030   111.1279  1250.3438     1.4940      .8000      .8200      .1500     4.8230    51.0359    36.7270      .0700     2.0440
 5615.5000    39.0140   107.9189  1283.6426     1.4040      .7790      .7940      .1390     6.2970    49.6740    35.8830      .0710     2.0580
 5616.0000    39.5660   107.5010  1315.2559     1.2720      .7600      .7780      .1460     6.5490    48.3870    37.1200      .0660     2.0370
 5616.5000    39.8700   111.7469  1354.3008     1.2410      .7380      .7660      .1520     6.1140    52.5950    38.3719      .0660     2.0170
 5617.0000    40.3050   117.8650  1401.8418     1.2700      .7130      .7500      .1490     4.2020    52.6810    38.6870      .0560     2.0120
 5617.5000    39.8510   121.4789  1459.3945     1.2800      .6850      .7340      .1420      .7100    54.4030    38.5420      .0600     2.0140
 5618.0000    40.0560   122.3729  1525.9961     1.2780      .6550      .7190      .1360     -.8460    58.1730    38.5540      .0640     2.0140
 5618.5000    40.7350   121.1119  1594.9688     1.3130      .6270      .7000      .1290    -1.5650    57.1089    38.3310      .0740     2.0170
 5619.0000    40.7670   121.4070  1672.5781     1.2710      .5980      .6810      .1180    -3.5890    54.5720    37.5890      .0830     2.0300
 5619.5000    40.3320   121.3030  1762.1016     1.1780      .5670      .6570      .1140    -6.1520    52.2510    37.9890      .0680     2.0230
 5620.0000    40.6580   120.6880  1838.8047     1.1850      .5440      .6240      .1050   -12.4650    55.3780    37.2710      .0660     2.0350
 5620.5000    39.7419   120.9459  1882.8047     1.3690      .5310      .5940      .1050   -25.5910    51.7580    37.5930      .0520     2.0300
 5621.0000    38.9460   118.9399  1895.7656     1.5340      .5270      .5840      .1070   -38.2010    49.7560    38.1120      .0370     2.0210
 5621.5000    36.1150   115.5389  1872.3340     1.4690      .5340      .5930      .1090   -33.8860    47.2679    38.1890      .0330     2.0200
 5622.0000    36.5610   114.1859  1817.1230     1.3120      .5500      .6120      .1040   -14.4980    47.2840    36.8560      .0580     2.0420
 5622.5000    39.3010   115.3230  1742.9531     1.2120      .5740      .6440      .1050    -2.8980    51.8149    36.3409      .0660     2.0500
 5623.0000    42.1980   118.5010  1628.3887     1.1550      .6140      .6990      .1140      .6140    56.3260    36.5740      .0650     2.0460
 5623.5000    42.7430   122.5599  1477.2363     1.1740      .6770      .7680      .1260     1.7060    53.3550    36.6600      .0690     2.0450
 5624.0000    42.1050   123.7410  1356.9180     1.3130      .7370      .8100      .1310     1.6740    52.4160    35.8650      .0760     2.0580
 5624.5000    40.9910   119.0929  1272.4766     1.4610      .7860      .8220      .1340      .4230    55.2350    35.1689      .0800     2.0700
 5625.0000    38.8920   113.4910  1198.3398     1.4230      .8350      .8330      .1450     -.3010    54.4410    35.4529      .0800     2.0650
 5625.5000    38.2450   111.8510  1142.9941     1.2810      .8750      .8540      .1620     -.4750    56.9490    36.4900      .0840     2.0480
 5626.0000    38.8120   113.3219  1110.4082     1.2610      .9010      .8640      .1710     -.4620    58.4560    36.9590      .0680     2.0400
 5626.5000    39.1230   117.5029  1097.2676     1.3470      .9110      .8600      .1660     -.4220    56.7360    36.2690      .0770     2.0520
