~VERSION INFORMATION
VERS.                             2.0:   CWLS Log ASCII Standard-VERSION 2.0
WRAP.                              NO:   One line per depth step
~Well Information Block
STRT.F                      4122.0000:   Top Depth
STOP.F                     10958.0000:   Bottom Depth
STEP.F                         .50000:   Depth Increment
NULL.                        -999.250:   Null Value
FLD .                      GA BLK 273:   Field Name
WELL.       OCSG09037   003 ST00 BP00:   NAME
API .                  42706402950000:   WELL API
EDF .F                        95.0000:   ELEV DRILL FLOOR
COMP.       SEAGULL ENERGY E AND P IN:   OPERATOR
BN  .                             273:   BLOCK
CTRY.                             USA:   COUNTRY NAME
CNTY.                              GA:   COUNTY
CNTY.                        GLVSTN L:   COUNTY NAME
EKB .F                        96.0000:   ELEV KELLY BUSHING
TDD .F                      10964.000:   FINAL TD DRILLER
STAT.                           TEXAS:   STATE NAME
UWI .                  42706402950000:   WELL API
DICO.               IHS : Digitizing Company
~PARAMETER INFORMATION (zones)
#MNEM.UNIT                       Value     Description
#=========                       =====     ===========
#ZONATION                          DIL:   ZONATION NAME
#ZONE                            RUN_1:   ZONE NAME
TOP .                       4122.0000:   TOP DEPTH
BOT .                       9366.5000:   BOTTOM DEPTH
RUN .                               1:   RUN NUMBER
LCCD.                             440:   LOGGING CONTRACTOR
SRVC.                    Schlumberger:   LOGGING CONT NAME
DICO.          QC Data Collectors Ltd:   DIG COMPANY NAME
LDAT.                      05/20/1991:   DATE LOGGED
ELD .F                        96.0000:   LOG DATUM ELEVATION
TDD .F                      9360.0000:   TOTAL DEPTH DRILLER
TDL .F                      9366.0000:   TOTAL DEPTH LOGGER
BOTL.F                      9366.0000:   BOTTOM DEPTH LOGGED
TOPL.F                      4402.0000:   TOP DEPTH LOGGED
CS1 .IN                       10.7500:   CASING SIZE 1
BS1 .IN                        9.8750:   BIT SIZE 1
DDB1.F                      9360.0000:   DEPTH DRILLED BIT 1
BHF .                              81:   FLUID CODE
DPT .          Lignosulfonate (Ligno):   DRILLING FLUID TYPE
MUDD.                         12.5000:   FLUID DENSITY
MUDV.                         45.0000:   FLUID VISCOSITY
DFPH.                         10.0000:   FLUID PH
FL  .                          8.0000:   FLUID LOSS
RM  .OHMM                       .5080:   RM
RMT .DEGF                     67.0000:   RM TEMP
RMF .OHMM                       .3460:   RMF
RMFT.DEGF                     67.0000:   RMF TEMP
FSC .                               M:   RMF CODE
RMC .OHMM                       .6820:   RMC
RMCT.DEGF                     67.0000:   RMC TEMP
CMC .                               M:   RMC CODE
TMAX.DEGF                    170.0000:   MAX REC TEMP
TIMC.                          6.6800:   TIME SINCE CIRCLN
~PARAMETER INFORMATION (zones)
#MNEM.UNIT                       Value     Description
#=========                       =====     ===========
#ZONATION                          DIL:   ZONATION NAME
#ZONE                            RUN_2:   ZONE NAME
TOP .                       9092.0000:   TOP DEPTH
BOT .                      10398.5000:   BOTTOM DEPTH
RUN .                               2:   RUN NUMBER
LCCD.                             440:   LOGGING CONTRACTOR
SRVC.                    Schlumberger:   LOGGING CONT NAME
DICO.          QC Data Collectors Ltd:   DIG COMPANY NAME
LDAT.                      06/04/1991:   DATE LOGGED
ELD .F                        96.0000:   LOG DATUM ELEVATION
TDD .F                     10401.0000:   TOTAL DEPTH DRILLER
TDL .F                     10404.0000:   TOTAL DEPTH LOGGER
BOTL.F                     10398.0000:   BOTTOM DEPTH LOGGED
TOPL.F                      9292.0000:   TOP DEPTH LOGGED
CS1 .IN                        7.6250:   CASING SIZE 1
BS1 .IN                        6.7500:   BIT SIZE 1
DDB1.F                     10401.0000:   DEPTH DRILLED BIT 1
BHF .                              99:   FLUID CODE
DPT .                   Miscellaneous:   DRILLING FLUID TYPE
MUDD.                         14.1000:   FLUID DENSITY
MUDV.                         40.0000:   FLUID VISCOSITY
DFPH.                          9.8000:   FLUID PH
FL  .                          3.4000:   FLUID LOSS
RM  .OHMM                       .5160:   RM
RMT .DEGF                     80.0000:   RM TEMP
RMF .OHMM                       .2580:   RMF
RMFT.DEGF                     80.0000:   RMF TEMP
FSC .                               M:   RMF CODE
RMC .OHMM                      1.8700:   RMC
RMCT.DEGF                     80.0000:   RMC TEMP
CMC .                               M:   RMC CODE
TMAX.DEGF                    192.0000:   MAX REC TEMP
TIMC.                          7.4000:   TIME SINCE CIRCLN
~PARAMETER INFORMATION (zones)
#MNEM.UNIT                       Value     Description
#=========                       =====     ===========
#ZONATION                          DIL:   ZONATION NAME
#ZONE                            RUN_3:   ZONE NAME
TOP .                       9320.0000:   TOP DEPTH
BOT .                      10958.5000:   BOTTOM DEPTH
RUN .                               3:   RUN NUMBER
LCCD.                             440:   LOGGING CONTRACTOR
SRVC.                    Schlumberger:   LOGGING CONT NAME
DICO.          QC Data Collectors Ltd:   DIG COMPANY NAME
LDAT.                      06/09/1991:   DATE LOGGED
ELD .F                        96.0000:   LOG DATUM ELEVATION
TDD .F                     10960.0000:   TOTAL DEPTH DRILLER
TDL .F                     10964.0000:   TOTAL DEPTH LOGGER
BOTL.F                     10958.0000:   BOTTOM DEPTH LOGGED
TOPL.F                      9404.0000:   TOP DEPTH LOGGED
CS1 .IN                        7.6250:   CASING SIZE 1
BS1 .IN                        6.7500:   BIT SIZE 1
DDB1.F                     10960.0000:   DEPTH DRILLED BIT 1
BHF .                              99:   FLUID CODE
DPT .                   Miscellaneous:   DRILLING FLUID TYPE
MUDD.                         14.7000:   FLUID DENSITY
MUDV.                         46.0000:   FLUID VISCOSITY
DFPH.                         10.0000:   FLUID PH
FL  .                          2.3000:   FLUID LOSS
RM  .OHMM                       .4570:   RM
RMT .DEGF                     74.0000:   RM TEMP
RMF .OHMM                       .2190:   RMF
RMFT.DEGF                     74.0000:   RMF TEMP
FSC .                               M:   RMF CODE
RMC .OHMM                       .7110:   RMC
RMCT.DEGF                     74.0000:   RMC TEMP
CMC .                               M:   RMC CODE
TMAX.DEGF                    202.0000:   MAX REC TEMP
TIMC.                          7.3800:   TIME SINCE CIRCLN
~Curve Information Block
#MNEM.UNIT                    API CODE    No Description
#=========                    ========    == ===========
DEPT.F                   00 001 00 00:     1  DEPTH
DT.US/F                              :     2  Sonic Transit Time
GR.GAPI                              :     3  Gamma Ray
ILD.OHMM                             :     4  Deep Induction Resistivity
ILM.OHMM                             :     5  Medium Induction Resistivity
SFL.OHMM                             :     6  Medium Resistivity
SP.MV                                :     7  Spontaneous Potential
~ASCII
# ...
 9166.0000    93.9956    42.5526      .8759      .8378      .7514   -46.4834
 9166.5000    94.5132    44.3285      .8669      .8766      .8288   -46.9513
 9167.0000    99.0267    47.1332      .8543      .9278      .9143   -47.3665
 9167.5000   103.1571    49.1474      .8335      .9362      .9467   -47.7442
 9168.0000   105.7969    47.7398      .8104      .8783      .9046   -47.8869
 9168.5000   106.4908    47.2273      .7858      .8113      .8191   -47.7957
 9169.0000   106.7305    47.8080      .7628      .7680      .7544   -47.4312
 9169.5000   107.0741    49.1263      .7469      .7372      .7032   -46.7998
 9170.0000   107.9657    49.8663      .7359      .7255      .6683   -45.9802
 9170.5000   108.8689    49.9096      .7347      .7170      .6438   -45.2166
 9171.0000   109.4738    48.4725      .7364      .7093      .6275   -44.6559
 9171.5000   109.6199    45.7045      .7391      .7053      .6182   -44.2568
 9172.0000   107.4274    44.4335      .7428      .7091      .6102   -43.8570
 9172.5000   105.1680    43.8456      .7470      .7192      .6057   -43.6674
 9173.0000   103.9130    43.6841      .7529      .7365      .6186   -43.5131
 9173.5000   103.9475    43.5029      .7548      .7541      .6511   -43.3749
 9174.0000   104.5159    43.3000      .7564      .7659      .6835   -43.3625
 9174.5000   105.6727    43.5275      .7579      .7546      .7166   -43.9498
 9175.0000   107.8518    44.6265      .7594      .7509      .7235   -44.4550
 9175.5000   109.8419    45.7545      .7649      .7599      .6899   -44.9236
 9176.0000   110.8616    46.7393      .7725      .7762      .6595   -45.1179
 9176.5000   108.1779    47.6400      .7849      .7970      .6495   -44.9583
 9177.0000   103.5453    48.1357      .8066      .8224      .6411   -44.6105
 9177.5000   100.0205    48.4580      .8289      .8573      .6704   -44.1820
 9178.0000    97.2461    48.8362      .8535      .8941      .7683   -43.7522
 9178.5000    96.1605    48.3727      .8794      .9271      .8602   -43.4609
 9179.0000    98.7627    47.4536      .9071      .9142      .9341   -43.8577
 9179.5000   101.6561    46.5790      .8947      .8955      .8513   -44.3996
 9180.0000   104.6737    45.0270      .8338      .8403      .7064   -44.8481
 9180.5000   107.3704    43.2413      .7807      .7760      .6510   -45.0130
 9181.0000   109.4537    41.6105      .7239      .7297      .6282   -44.9131
 9181.5000   110.1693    40.0610      .7047      .7061      .6177   -44.8940
 9182.0000   109.5482    39.0723      .7048      .7000      .6217   -44.8820
 9182.5000   108.9323    39.8405      .7135      .7108      .6333   -44.8430
 9183.0000   108.3655    41.8940      .7306      .7221      .6471   -44.7889
 9183.5000   107.9592    44.1709      .7413      .7355      .6640   -44.6976
 9184.0000   107.7919    45.0112      .7480      .7437      .6817   -44.5743
 9184.5000   108.1351    43.9083      .7475      .7401      .6769   -44.5638
 9185.0000   108.4470    44.3626      .7502      .7353      .6600   -44.7540
 9185.5000   104.9791    45.1058      .7582      .7393      .6457   -44.9336
 9186.0000   102.3729    44.6594      .7663      .7502      .6361   -45.1019
 9186.5000   102.8569    43.7441      .7738      .7661      .6389   -45.2458
 9187.0000   104.0453    42.8723      .7813      .7808      .6585   -45.1455
 9187.5000   103.9733    41.7575      .7827      .7894      .6978   -44.9677
 9188.0000   104.8497    40.3630      .7789      .7881      .7463   -45.0801
 9188.5000   108.0743    39.0237      .7696      .7808      .7937   -45.2233
 9189.0000   110.4100    37.8708      .7551      .7663      .7347   -45.4659
 9189.5000   110.0664    38.8688      .7401      .7544      .6685   -45.6613
 9190.0000   109.8025    39.5406      .7322      .7466      .6405   -45.0925
 9190.5000   109.6129    39.9954      .7421      .7449      .6681   -44.1140
 9191.0000   110.0095    41.3583      .7523      .7458      .6976   -43.3500
 9191.5000   110.6274    43.2123      .7568      .7467      .7299   -43.0717
 9192.0000   111.1099    45.3842      .7589      .7497      .7195   -42.9817
 9192.5000   111.2506    43.6141      .7588      .7558      .6653   -43.0921
 9193.0000   110.4993    42.0267      .7587      .7620      .6314   -43.6774
 9193.5000   109.3553    42.9327      .7606      .7673      .6332   -44.2928
 9194.0000   108.1469    43.8492      .7676      .7724      .6650   -44.9196
 9194.5000   107.2578    44.7644      .7747      .7806      .7126   -44.9388
 9195.0000   107.3895    45.4334      .7818      .7824      .7585   -44.8467
 9195.5000   108.0239    45.5430      .7900      .7688      .8028   -44.8685
 9196.0000   109.1975    44.2392      .8002      .7471      .7813   -44.9948
 9196.5000   110.7892    42.4141      .8105      .7316      .7134   -45.0724
 9197.0000   112.4377    40.8226      .8226      .7271      .6522   -45.1307
 9197.5000   111.9304    39.7275      .8353      .7421      .6362   -45.1574
 9198.0000   108.4729    38.9213      .8486      .7645      .6514   -45.1743
 9198.5000   104.7462    37.9864      .8623      .7907      .7087   -45.1585
 9199.0000   101.7079    37.0450      .8765      .8244      .7717   -45.1089
 9199.5000    99.2079    36.6169      .8912      .8605      .8268   -44.9928
 9200.0000    97.8621    38.3567      .9063      .8994      .8785   -44.9557
 9200.5000    96.4723    40.6388      .9220      .9324      .9137   -44.9231
 9201.0000    98.7523    42.4718      .9381      .9388      .8783   -44.9084
 9201.5000   101.3507    43.3804      .9542      .9452      .8488   -45.1712
 9202.0000   103.5039    42.9103      .9698      .9518      .8246   -45.3249
 9202.5000   101.6924    41.6656      .9849      .9604      .8477   -45.3775
 9203.0000    98.8766    39.7459      .9882      .9691      .8928   -45.4318
 9203.5000    96.2886    38.8832      .9915      .9791      .9401   -45.5214
 9204.0000    93.8352    40.2370     1.0053      .9968      .9897   -45.6110
 9204.5000    91.2886    41.6275     1.0203     1.0146     1.0361   -45.6580
 9205.0000    88.8739    42.7095     1.0360     1.0307     1.0808   -45.6782
 9205.5000    90.9469    43.4684     1.0568     1.0510     1.1071   -45.6844
 9206.0000    92.0779    43.9766     1.0779     1.0554     1.0194   -45.6599
 9206.5000    92.0190    44.2843     1.0805     1.0493      .9500   -45.5892
 9207.0000    93.1855    43.7481     1.0647     1.0401      .9630   -45.4977
 9207.5000    95.0282    42.6385     1.0357     1.0232      .9891   -45.3290
 9208.0000    97.0573    41.4647     1.0121      .9938     1.0211   -45.1472
 9208.5000    97.9423    40.4264      .9942      .9752      .8969   -44.9029
 9209.0000    96.4491    40.6585      .9767      .9669      .8826   -44.6469
 9209.5000    94.6608    41.7706      .9649      .9591      .9006   -44.4063
 9210.0000    92.7740    43.3542      .9535      .9452      .9213   -44.3996
 9210.5000    95.0566    44.8642      .9467      .9315      .9155   -44.8802
 9211.0000    96.7415    42.8027      .9449      .9236      .8827   -45.8961
 9211.5000    95.2896    40.5994      .9437      .9181      .8570   -47.9198
 9212.0000    93.6721    39.4334      .9424      .9127      .8499   -49.8180
 9212.5000    93.1483    40.1149      .9375      .9073      .8657   -51.6922
 9213.0000    93.2444    41.3505      .9327      .9082      .8850   -53.2754
 9213.5000    93.3418    43.1572      .9353      .9092      .9090   -54.0310
 9214.0000    93.3551    44.4086      .9398      .9102      .9244   -52.7041
 9214.5000    93.9891    45.1688      .9444      .9128      .9192   -51.1022
 9215.0000    95.1447    45.4761      .9489      .9154      .9090   -49.6204
 9215.5000    95.7526    45.1636      .9487      .9203      .8984   -48.7294
 9216.0000    95.7189    43.7429      .9456      .9269      .8964   -48.3870
 9216.5000    95.6442    42.1619      .9422      .9343      .8977   -48.0479
 9217.0000    96.1689    40.9250      .9361      .9444      .8935   -47.6241
 9217.5000    96.9692    39.8523      .9428      .9546      .8779   -47.2230
