~VERSION INFORMATION
VERS.                             2.0:   CWLS Log ASCII Standard-VERSION 2.0
WRAP.                              NO:   One line per depth step
~Well Information Block
STRT.F                      3511.0000:   Top Depth
STOP.F                      7755.0000:   Bottom Depth
STEP.F                         .50000:   Depth Increment
NULL.                        -999.250:   Null Value
FLD .                      BA BLK 431:   Field Name
WELL.       OCSG09017   002 ST01 BP00:   NAME
API .                  42704402350100:   WELL API
EDF .F                        89.0000:   ELEV DRILL FLOOR
COMP.       SEAGULL ENERGY E AND P IN:   OPERATOR
BN  .                             481:   BLOCK
CTRY.                             USA:   COUNTRY NAME
CNTY.                        BRAZOS L:   COUNTY NAME
EKB .F                        90.0000:   ELEV KELLY BUSHING
TDD .F                          0.000:   FINAL TD DRILLER
STAT.                           TEXAS:   STATE NAME
UWI .                  42704402350100:   WELL API
DICO.               IHS : Digitizing Company
~PARAMETER INFORMATION (zones)
#MNEM.UNIT                       Value     Description
#=========                       =====     ===========
#ZONATION                          CNL:   ZONATION NAME
#ZONE                            RUN_0:   ZONE NAME
TOP .                       3511.0000:   TOP DEPTH
BOT .                       7755.5000:   BOTTOM DEPTH
RUN .                               0:   RUN NUMBER
LCCD.                             280:   LOGGING CONTRACTOR
SRVC.                     Halliburton:   LOGGING CONT NAME
DICO.          QC Data Collectors Ltd:   DIG COMPANY NAME
LDAT.                        --/--/--:   DATE LOGGED
BHF .                              99:   FLUID CODE
DPT .                   Miscellaneous:   DRILLING FLUID TYPE
~PARAMETER INFORMATION (zones)
#MNEM.UNIT                       Value     Description
#=========                       =====     ===========
#ZONATION                          DIL:   ZONATION NAME
#ZONE                            RUN_0:   ZONE NAME
TOP .                       3511.0000:   TOP DEPTH
BOT .                       7755.5000:   BOTTOM DEPTH
RUN .                               0:   RUN NUMBER
LCCD.                             280:   LOGGING CONTRACTOR
SRVC.                     Halliburton:   LOGGING CONT NAME
DICO.          QC Data Collectors Ltd:   DIG COMPANY NAME
LDAT.                        --/--/--:   DATE LOGGED
BHF .                              99:   FLUID CODE
DPT .                   Miscellaneous:   DRILLING FLUID TYPE
~PARAMETER INFORMATION (zones)
#MNEM.UNIT                       Value     Description
#=========                       =====     ===========
#ZONATION                          FDC:   ZONATION NAME
#ZONE                            RUN_0:   ZONE NAME
TOP .                       3511.0000:   TOP DEPTH
BOT .                       7755.5000:   BOTTOM DEPTH
RUN .                               0:   RUN NUMBER
LCCD.                             280:   LOGGING CONTRACTOR
SRVC.                     Halliburton:   LOGGING CONT NAME
DICO.          QC Data Collectors Ltd:   DIG COMPANY NAME
LDAT.                        --/--/--:   DATE LOGGED
BHF .                              99:   FLUID CODE
DPT .                   Miscellaneous:   DRILLING FLUID TYPE
~PARAMETER INFORMATION (zones)
#MNEM.UNIT                       Value     Description
#=========                       =====     ===========
#ZONATION                        SONIC:   ZONATION NAME
#ZONE                            RUN_0:   ZONE NAME
TOP .                       3511.0000:   TOP DEPTH
BOT .                       7731.5000:   BOTTOM DEPTH
RUN .                               0:   RUN NUMBER
LCCD.                             280:   LOGGING CONTRACTOR
SRVC.                     Halliburton:   LOGGING CONT NAME
DICO.          QC Data Collectors Ltd:   DIG COMPANY NAME
LDAT.                        --/--/--:   DATE LOGGED
BHF .                              99:   FLUID CODE
DPT .                   Miscellaneous:   DRILLING FLUID TYPE
~Curve Information Block
#MNEM.UNIT                    API CODE    No Description
#=========                    ========    == ===========
DEPT.F                   00 001 00 00:     1  DEPTH
NPHI.%                               :     2  Neutron Porosity
GR.GAPI                              :     3  Gamma Ray
GRD.OHMM                             :     4  Unrecognised
ILD.OHMM                             :     5  Deep Induction Resistivity
ILM.OHMM                             :     6  Medium Induction Resistivity
SP.MV                                :     7  Spontaneous Potential
DPHI.%                               :     8  Porosity
CALI.IN                              :     9  Caliper
DT.US/F                              :    10  Sonic Transit Time
GR.GAPI                              :    11  Gamma Ray
~ASCII
# ...
 4650.0000    45.0373    69.3430      .6709      .4726      .5322   -57.3967    25.4779    10.4187   117.7377    62.9771
 4650.5000    45.1487    67.9141      .7159      .4927      .5496   -57.0117    26.3252    10.4193   120.1957    66.7317
 4651.0000    45.5446    71.2366      .6927      .5096      .5696   -58.3729    25.6013    10.7151   124.9895    70.2067
 4651.5000    45.3442    71.5359      .6762      .5213      .5924   -59.4951    25.9804    11.1328   123.6395    71.1938
 4652.0000    44.8879    71.1145      .6896      .5327      .6161   -60.3268    26.6076    11.1539   115.8856    71.5103
 4652.5000    44.3272    73.1349      .7351      .5442      .6354   -60.8185    26.4100    10.5177   109.5559    70.0427
 4653.0000    44.1272    71.6447      .7927      .5565      .6545   -60.3203    25.4541    10.2410   113.3292    68.2864
 4653.5000    45.1167    68.0521      .8308      .5732      .6628   -59.3505    24.8527    10.1302   113.1565    67.4226
 4654.0000    46.2005    67.1912      .8476      .5904      .6715   -58.3671    25.0858    10.1239   110.9735    66.1892
 4654.5000    47.1920    66.5841      .8214      .6083      .6812   -57.4579    25.8141    10.1341   114.3071    63.8045
 4655.0000    48.1234    66.2200      .7892      .6247      .6912   -56.8059    26.6740    10.1320   118.9282    62.3383
 4655.5000    49.7568    67.2550      .7627      .6379      .7017   -56.3240    28.1057     9.9807   124.2189    61.9410
 4656.0000    51.5037    68.7986      .7383      .6418      .7092   -56.2608    28.9432     9.7969   127.1339    62.1145
 4656.5000    53.1666    69.7650      .7333      .6380      .7158   -56.6959    28.1101     9.7587   120.8654    63.2256
 4657.0000    53.9225    67.7070      .7779      .6243      .7223   -57.9991    28.6716     9.7882   115.1229    66.2361
 4657.5000    53.1746    65.5304      .7828      .5703      .7227   -59.9751    28.2089     9.8168   119.3029    68.1050
 4658.0000    52.2884    63.3538      .7772      .5000      .6635   -62.9450    28.6032     9.8307   129.4644    67.3093
 4658.5000    51.4029    61.0026      .7796      .4322      .5964   -65.8185    29.3331     9.8379   121.3702    64.0901
 4659.0000    50.0535    59.2259      .7274      .3798      .5428   -69.7236    30.1006     9.8419   117.4055    63.2958
 4659.5000    48.8041    57.6185      .7387      .3629      .4937   -73.7655    31.5484     9.8637   113.7397    58.4418
 4660.0000    48.1358    56.2052      .7248      .3491      .4515   -75.2980    32.8937     9.9011   112.4298    56.4877
 4660.5000    47.3699    56.5374      .6576      .3394      .4151   -75.2987    35.0054     9.9514   119.3453    56.3895
 4661.0000    48.2330    59.6519      .5527      .3295      .3996   -71.9185    35.6414    10.0016   127.0143    57.0523
 4661.5000    49.3904    60.8326      .5000      .3161      .4049   -70.1978    34.5903    10.0519   131.4187    59.5112
 4662.0000    49.9295    60.7249      .4615      .2994      .4063   -70.0806    33.5673    10.0950   132.7168    61.4757
 4662.5000    48.5490    60.1586      .5246      .2879      .4016   -71.8208    33.3045    10.1078   123.1294    60.3101
 4663.0000    47.6709    57.1938      .6021      .2800      .3859   -73.7798    33.1129    10.0937   118.0353    57.5675
 4663.5000    47.3551    54.7216      .6917      .2728      .3597   -74.8629    35.0399    10.0547   114.6686    54.6117
 4664.0000    46.9012    52.6440      .6421      .2684      .3446   -75.5813    36.3212    10.0096   116.1221    52.2764
 4664.5000    46.3565    52.6616      .5435      .2661      .3402   -74.6161    36.7057     9.9751   117.1764    52.6589
 4665.0000    45.8478    54.0664      .4672      .2656      .3409   -71.6644    35.6245     9.9559   116.5718    55.4209
 4665.5000    46.2237    55.7897      .4025      .2672      .3462   -69.2742    34.3632    10.0081   118.6293    56.9587
 4666.0000    46.6440    57.9064      .4668      .2839      .3638   -67.1875    32.9769    10.3114   119.7678    58.2479
 4666.5000    46.2501    59.1729      .5455      .3112      .3868   -65.0421    32.0817    10.7557   118.0366    59.6361
 4667.0000    45.8594    59.6701      .6228      .3458      .4230   -64.1896    31.6404    10.9378   116.3201    59.4163
 4667.5000    45.6877    62.1098      .6724      .3841      .4626   -62.2989    30.4166    10.7692   114.7802    59.2217
 4668.0000    45.6583    65.7440      .6851      .4236      .5007   -59.8826    29.1591    10.5500   113.6907    59.8189
 4668.5000    45.8746    70.4463      .7072      .4636      .5372   -58.2557    28.0065    10.5517   117.4028    60.3995
 4669.0000    46.2989    73.2859      .7248      .4875      .5755   -57.2781    27.2939    10.6225   120.8335    61.2591
 4669.5000    46.6860    74.7852      .7361      .4957      .5955   -56.7971    26.9215    10.7101   121.4951    62.1086
 4670.0000    47.0524    75.0752      .7190      .4978      .5981   -56.9567    26.8422    10.7374   120.3518    62.3892
 4670.5000    47.3099    72.7233      .7092      .4994      .5989   -57.3377    26.9823    10.5744   119.4277    62.9198
 4671.0000    47.0072    70.1207      .7103      .5010      .5991   -57.7064    26.9574    10.4634   118.9786    64.0575
 4671.5000    46.7466    69.4492      .7164      .5040      .5993   -57.8812    27.2614    10.5401   121.6387    64.3501
 4672.0000    46.7358    70.2555      .7300      .5191      .6014   -56.8151    27.4673    11.0093   119.7520    65.3865
 4672.5000    47.3491    71.0663      .7277      .5346      .6165   -56.0208    27.5230    11.6530   120.5518    66.1736
 4673.0000    48.1018    72.2830      .7214      .5513      .6321   -55.7803    27.6414    11.7651   122.2219    66.5396
 4673.5000    48.9561    73.4995      .7159      .5689      .6489   -56.0154    27.7794    11.6329   123.0962    67.4011
 4674.0000    49.7703    74.8556      .7174      .5871      .6664   -56.2686    27.8834    11.2819   121.6838    67.7822
 4674.5000    49.9967    74.8126      .7487      .6042      .6821   -56.4630    28.1992    10.4896   117.1212    67.0193
 4675.0000    49.4105    76.0331      .7748      .6160      .6959   -56.4797    27.3242    10.1390   112.7526    66.6953
 4675.5000    49.4863    77.3271      .7961      .6280      .7100   -56.4218    26.2968    10.0213   110.0529    68.1212
 4676.0000    49.3896    77.6819      .8082      .6402      .7216   -56.2639    25.7473     9.9675   114.3444    69.8827
 4676.5000    50.0591    77.7559      .8082      .6519      .7316   -55.8824    25.4626     9.9281   114.7748    74.6990
 4677.0000    50.9630    78.2150      .8067      .6634      .7369   -55.4021    25.5564     9.8876   109.2610    77.2412
 4677.5000    51.7733    75.7413      .8027      .6752      .7423   -54.7505    25.5901     9.8560   106.6434    76.8274
 4678.0000    51.4085    73.5243      .7939      .6856      .7553   -54.4257    25.5125     9.8323   104.1526    75.2078
 4678.5000    50.6938    73.6379      .7766      .6959      .7711   -54.5333    24.9830     9.8162   107.9403    73.6816
 4679.0000    50.0459    73.9163      .7658      .7042      .7870   -54.8544    25.2742     9.7877   115.0139    70.3693
 4679.5000    49.4916    74.1947      .7759      .7108      .8029   -55.3314    25.7425     9.8518   120.9026    66.4136
 4680.0000    48.9393    71.9938      .7979      .7135      .8101   -55.9781    25.5641     9.9603   125.1277    65.6971
 4680.5000    48.4341    68.2489      .8006      .7113      .8123   -56.6053    25.6226    10.0389   119.5580    64.0634
 4681.0000    48.1164    66.5802      .7993      .7035      .8110   -57.1882    25.6847    10.0769   113.9244    63.2086
 4681.5000    47.6947    65.8925      .7943      .6815      .7913   -58.2375    24.5785    10.0798   108.8331    65.6987
 4682.0000    46.1973    69.8784      .8062      .6307      .7720   -59.8383    24.5015    10.0500   106.4323    68.1498
 4682.5000    44.5928    72.9135      .8550      .5820      .7514   -61.6685    23.8640    10.0212   108.0571    69.6765
 4683.0000    43.3242    75.5732      .9029      .5458      .7160   -63.3201    23.6126    10.0459   113.0476    69.3754
