~VERSION INFORMATION
VERS.                             2.0:   CWLS Log ASCII Standard-VERSION 2.0
WRAP.                              NO:   One line per depth step
~Well Information Block
STRT.F                       302.0000:   Top Depth
STOP.F                     11038.0000:   Bottom Depth
STEP.F                         .50000:   Depth Increment
NULL.                        -999.250:   Null Value
FLD .                         WILDCAT:   Field Name
WELL.       OCSG04565   001 ST00 BP00:   NAME
API .                    42706400940000:   WELL API
EDF .F                        76.8000:   ELEV DRILL FLOOR
COMP.                  TENNECO OIL CO:   OPERATOR
BN  .                             303:   BLOCK
CTRY.                             USA:   COUNTRY NAME
CNTY.                              GA:   COUNTY
CNTY.                        GLVSTN L:   COUNTY NAME
EKB .F                        79.0000:   ELEV KELLY BUSHING
TDD .F                      11050.000:   FINAL TD DRILLER
STAT.                           TEXAS:   STATE NAME
UWI .                    42706400940000:   WELL API
DICO.               IHS : Digitizing Company
~PARAMETER INFORMATION (zones)
#MNEM.UNIT                       Value     Description
#=========                       =====     ===========
#ZONATION                          CNL:   ZONATION NAME
#ZONE                            RUN_1:   ZONE NAME
TOP .                       4297.0000:   TOP DEPTH
BOT .                       7582.5000:   BOTTOM DEPTH
RUN .                               1:   RUN NUMBER
LCCD.                              20:   LOGGING CONTRACTOR
SRVC.                          Baroil:   LOGGING CONT NAME
DICO.          QC Data Collectors Ltd:   DIG COMPANY NAME
LDAT.                      03/12/1983:   DATE LOGGED
ELD .F                        77.8000:   LOG DATUM ELEVATION
TDD .F                      7587.0000:   TOTAL DEPTH DRILLER
TDL .F                      7584.0000:   TOTAL DEPTH LOGGER
BOTL.F                      7582.0000:   BOTTOM DEPTH LOGGED
TOPL.F                      4300.0000:   TOP DEPTH LOGGED
CS1 .IN                       13.3750:   CASING SIZE 1
BS1 .IN                       12.2500:   BIT SIZE 1
DDB1.F                      7587.0000:   DEPTH DRILLED BIT 1
BHF .                              70:   FLUID CODE
DPT .                       Phosphate:   DRILLING FLUID TYPE
MUDD.                         13.5000:   FLUID DENSITY
MUDV.                         49.0000:   FLUID VISCOSITY
DFPH.                         11.4000:   FLUID PH
FL  .                         12.8000:   FLUID LOSS
RM  .OHMM                       .0680:   RM
RMT .DEGF                     65.0000:   RM TEMP
RMF .OHMM                       .0530:   RMF
RMFT.DEGF                     65.0000:   RMF TEMP
FSC .                               M:   RMF CODE
RMC .OHMM                       .1020:   RMC
RMCT.DEGF                     65.0000:   RMC TEMP
CMC .                               C:   RMC CODE
TMAX.DEGF                    161.0000:   MAX REC TEMP
TIMC.                         10.0000:   TIME SINCE CIRCLN
~PARAMETER INFORMATION (zones)
#MNEM.UNIT                       Value     Description
#=========                       =====     ===========
#ZONATION                          DIL:   ZONATION NAME
#ZONE                            RUN_1:   ZONE NAME
TOP .                        302.0000:   TOP DEPTH
BOT .                      11038.5000:   BOTTOM DEPTH
RUN .                               1:   RUN NUMBER
LCCD.                             150:   LOGGING CONTRACTOR
SRVC.                   Dresser Atlas:   LOGGING CONT NAME
DICO.          QC Data Collectors Ltd:   DIG COMPANY NAME
LDAT.                      02/22/1983:   DATE LOGGED
ELD .F                        77.8000:   LOG DATUM ELEVATION
TDD .F                       841.0000:   TOTAL DEPTH DRILLER
TDL .F                       832.0000:   TOTAL DEPTH LOGGER
BOTL.F                     11038.0000:   BOTTOM DEPTH LOGGED
TOPL.F                       302.0000:   TOP DEPTH LOGGED
CS1 .IN                       30.6250:   CASING SIZE 1
BS1 .IN                       17.5000:   BIT SIZE 1
DDB1.F                       841.0000:   DEPTH DRILLED BIT 1
BHF .                              99:   FLUID CODE
DPT .                   Miscellaneous:   DRILLING FLUID TYPE
MUDD.                          8.7000:   FLUID DENSITY
MUDV.                         50.0000:   FLUID VISCOSITY
DFPH.                         12.0000:   FLUID PH
FL  .                         20.4000:   FLUID LOSS
RM  .OHMM                      1.1500:   RM
RMT .DEGF                     65.0000:   RM TEMP
RMF .OHMM                       .8000:   RMF
RMFT.DEGF                     65.0000:   RMF TEMP
FSC .                               M:   RMF CODE
RMC .OHMM                      1.4300:   RMC
RMCT.DEGF                     65.0000:   RMC TEMP
CMC .                               C:   RMC CODE
TMAX.DEGF                     85.0000:   MAX REC TEMP
TIMC.                          3.0000:   TIME SINCE CIRCLN
~PARAMETER INFORMATION (zones)
#MNEM.UNIT                       Value     Description
#=========                       =====     ===========
#ZONATION                          FDC:   ZONATION NAME
#ZONE                            RUN_4:   ZONE NAME
TOP .                      11038.0000:   TOP DEPTH
BOT .                      11040.0000:   BOTTOM DEPTH
RUN .                               4:   RUN NUMBER
LCCD.                             150:   LOGGING CONTRACTOR
SRVC.                   Dresser Atlas:   LOGGING CONT NAME
DICO.          QC Data Collectors Ltd:   DIG COMPANY NAME
LDAT.                      03/25/1983:   DATE LOGGED
ELD .F                        77.8000:   LOG DATUM ELEVATION
TDD .F                     11050.0000:   TOTAL DEPTH DRILLER
TDL .F                     11040.0000:   TOTAL DEPTH LOGGER
BOTL.F                     11038.0000:   BOTTOM DEPTH LOGGED
TOPL.F                      7555.0000:   TOP DEPTH LOGGED
CS1 .IN                        9.6250:   CASING SIZE 1
BS1 .IN                        8.5000:   BIT SIZE 1
DDB1.F                     11050.0000:   DEPTH DRILLED BIT 1
BHF .                              99:   FLUID CODE
DPT .                   Miscellaneous:   DRILLING FLUID TYPE
MUDD.                         16.6000:   FLUID DENSITY
MUDV.                         50.0000:   FLUID VISCOSITY
DFPH.                         11.4000:   FLUID PH
FL  .                         10.0000:   FLUID LOSS
RM  .OHMM                      1.7000:   RM
RMT .DEGF                     75.0000:   RM TEMP
RMF .OHMM                      1.2000:   RMF
RMFT.DEGF                     75.0000:   RMF TEMP
FSC .                               M:   RMF CODE
RMC .OHMM                      2.2000:   RMC
RMCT.DEGF                     75.0000:   RMC TEMP
CMC .                               M:   RMC CODE
TMAX.DEGF                    228.0000:   MAX REC TEMP
TIMC.                          4.0000:   TIME SINCE CIRCLN
~PARAMETER INFORMATION (zones)
#MNEM.UNIT                       Value     Description
#=========                       =====     ===========
#ZONATION                          FDC:   ZONATION NAME
#ZONE                            RUN_2:   ZONE NAME
TOP .                       4512.0000:   TOP DEPTH
BOT .                       7583.5000:   BOTTOM DEPTH
RUN .                               2:   RUN NUMBER
LCCD.                             150:   LOGGING CONTRACTOR
SRVC.                   Dresser Atlas:   LOGGING CONT NAME
DICO.          QC Data Collectors Ltd:   DIG COMPANY NAME
LDAT.                      02/28/1983:   DATE LOGGED
ELD .F                        77.8000:   LOG DATUM ELEVATION
TDD .F                      4512.0000:   TOTAL DEPTH DRILLER
TDL .F                      4505.0000:   TOTAL DEPTH LOGGER
BOTL.F                      7583.0000:   BOTTOM DEPTH LOGGED
TOPL.F                      4512.0000:   TOP DEPTH LOGGED
CS1 .IN                       20.0000:   CASING SIZE 1
BS1 .IN                       17.5000:   BIT SIZE 1
DDB1.F                      4512.0000:   DEPTH DRILLED BIT 1
BHF .                              99:   FLUID CODE
DPT .                   Miscellaneous:   DRILLING FLUID TYPE
MUDD.                          9.4000:   FLUID DENSITY
MUDV.                         40.0000:   FLUID VISCOSITY
DFPH.                         12.0000:   FLUID PH
FL  .                         38.0000:   FLUID LOSS
RM  .OHMM                       .2900:   RM
RMT .DEGF                     65.0000:   RM TEMP
RMF .OHMM                       .2100:   RMF
RMFT.DEGF                     65.0000:   RMF TEMP
FSC .                               M:   RMF CODE
RMC .OHMM                       .3400:   RMC
RMCT.DEGF                     65.0000:   RMC TEMP
CMC .                               C:   RMC CODE
TMAX.DEGF                     90.0000:   MAX REC TEMP
TIMC.                          3.0000:   TIME SINCE CIRCLN
~PARAMETER INFORMATION (zones)
#MNEM.UNIT                       Value     Description
#=========                       =====     ===========
#ZONATION                          FDC:   ZONATION NAME
#ZONE                            RUN_1:   ZONE NAME
TOP .                       4297.0000:   TOP DEPTH
BOT .                       7582.5000:   BOTTOM DEPTH
RUN .                               1:   RUN NUMBER
LCCD.                              20:   LOGGING CONTRACTOR
SRVC.                          Baroil:   LOGGING CONT NAME
DICO.          QC Data Collectors Ltd:   DIG COMPANY NAME
LDAT.                      03/12/1983:   DATE LOGGED
ELD .F                        77.8000:   LOG DATUM ELEVATION
TDD .F                      7587.0000:   TOTAL DEPTH DRILLER
TDL .F                      7584.0000:   TOTAL DEPTH LOGGER
BOTL.F                      7582.0000:   BOTTOM DEPTH LOGGED
TOPL.F                      4300.0000:   TOP DEPTH LOGGED
CS1 .IN                       13.3750:   CASING SIZE 1
BS1 .IN                       12.2500:   BIT SIZE 1
DDB1.F                      7587.0000:   DEPTH DRILLED BIT 1
BHF .                              70:   FLUID CODE
DPT .                       Phosphate:   DRILLING FLUID TYPE
MUDD.                         13.5000:   FLUID DENSITY
MUDV.                         49.0000:   FLUID VISCOSITY
DFPH.                         11.4000:   FLUID PH
FL  .                         12.8000:   FLUID LOSS
RM  .OHMM                       .0680:   RM
RMT .DEGF                     65.0000:   RM TEMP
RMF .OHMM                       .0530:   RMF
RMFT.DEGF                     65.0000:   RMF TEMP
FSC .                               M:   RMF CODE
RMC .OHMM                       .1020:   RMC
RMCT.DEGF                     65.0000:   RMC TEMP
CMC .                               C:   RMC CODE
TMAX.DEGF                    161.0000:   MAX REC TEMP
TIMC.                         10.0000:   TIME SINCE CIRCLN
~Curve Information Block
#MNEM.UNIT                    API CODE    No Description
#=========                    ========    == ===========
DEPT.F                   00 001 00 00:     1  DEPTH
NPHI.%                               :     2  Neutron Porosity
CILD.MMHO                            :     3  Deep Induction Conductivity
DT.US/F                              :     4  Sonic Transit Time
GR1.GAPI                              :     5  Gamma Ray
ILD.OHMM                             :     6  Deep Induction Resistivity
ILM.OHMM                             :     7  Medium Induction Resistivity
LN.OHMM                              :     8  Medium Resistivity
RFOC.OHMM                            :     9  Medium Resistivity
SN.OHMM                              :    10  Short-Normal Resistivity
SP.MV                                :    11  Spontaneous Potential
CALI.IN                              :    12  Caliper
DRHO.G/C3                            :    13  Bulk Density Correction
GR2.GAPI                              :    14  Gamma Ray
RHOB.G/C3                            :    15  Bulk Density
~ASCII
# ...
 8975.0000  -999.2500  1803.8516   119.6326    60.7961      .5458      .6423  -999.2500      .9198  -999.2500   -49.7888  -999.2500  -999.2500  -999.2500  -999.2500
 8975.5000  -999.2500  1804.5801   119.1824    59.9750      .5464      .6435  -999.2500      .8997  -999.2500   -50.0627  -999.2500  -999.2500  -999.2500  -999.2500
 8976.0000  -999.2500  1803.9277   118.7316    60.2501      .5470      .6446  -999.2500      .8894  -999.2500   -50.3363  -999.2500  -999.2500  -999.2500  -999.2500
 8976.5000  -999.2500  1803.2754   118.9071    61.6594      .5477      .6456  -999.2500      .8879  -999.2500   -50.6102  -999.2500  -999.2500  -999.2500  -999.2500
 8977.0000  -999.2500  1803.1875   119.2566    63.0588      .5480      .6459  -999.2500      .8876  -999.2500   -50.9557  -999.2500  -999.2500  -999.2500  -999.2500
 8977.5000  -999.2500  1804.0410   119.5990    62.5645      .5460      .6461  -999.2500      .8923  -999.2500   -50.3643  -999.2500  -999.2500  -999.2500  -999.2500
 8978.0000  -999.2500  1804.8965   119.7290    61.6447      .5440      .6464  -999.2500      .8970  -999.2500   -49.3829  -999.2500  -999.2500  -999.2500  -999.2500
 8978.5000  -999.2500  1806.5254   119.8591    60.5121      .5420      .6452  -999.2500      .9017  -999.2500   -48.7407  -999.2500  -999.2500  -999.2500  -999.2500
 8979.0000  -999.2500  1817.0977   119.7576    59.6752      .5400      .6436  -999.2500      .9028  -999.2500   -48.4861  -999.2500  -999.2500  -999.2500  -999.2500
 8979.5000  -999.2500  1834.2402   119.4446    59.3885      .5299      .6419  -999.2500      .8998  -999.2500   -49.3005  -999.2500  -999.2500  -999.2500  -999.2500
 8980.0000  -999.2500  1873.2402   119.4922    59.2462      .5201      .6152  -999.2500      .8968  -999.2500   -50.0879  -999.2500  -999.2500  -999.2500  -999.2500
 8980.5000  -999.2500  1913.1250   119.8657    59.4099      .5104      .5879  -999.2500      .8929  -999.2500   -50.3600  -999.2500  -999.2500  -999.2500  -999.2500
 8981.0000  -999.2500  1954.3340   120.7705    59.5913      .5020      .5675  -999.2500      .8814  -999.2500   -50.5904  -999.2500  -999.2500  -999.2500  -999.2500
 8981.5000  -999.2500  1993.8730   122.0321    60.0663      .4947      .5771  -999.2500      .8701  -999.2500   -50.4899  -999.2500  -999.2500  -999.2500  -999.2500
 8982.0000  -999.2500  2016.4199   123.0736    60.5612      .4875      .5868  -999.2500      .8589  -999.2500   -50.3893  -999.2500  -999.2500  -999.2500  -999.2500
 8982.5000  -999.2500  2035.9688   123.9579    60.1395      .4948      .6105  -999.2500      .8523  -999.2500   -50.2888  -999.2500  -999.2500  -999.2500  -999.2500
 8983.0000  -999.2500  1975.8477   124.0656    58.7252      .5069      .6369  -999.2500      .8481  -999.2500   -50.1902  -999.2500  -999.2500  -999.2500  -999.2500
 8983.5000  -999.2500  1915.6289   122.6456    57.1340      .5192      .6644  -999.2500      .8753  -999.2500   -50.0925  -999.2500  -999.2500  -999.2500  -999.2500
 8984.0000  -999.2500  1870.5879   120.1348    55.5427      .5302      .6743  -999.2500      .9034  -999.2500   -50.5869  -999.2500  -999.2500  -999.2500  -999.2500
 8984.5000  -999.2500  1831.9316   117.3147    54.4150      .5378      .6792  -999.2500      .9351  -999.2500   -51.3751  -999.2500  -999.2500  -999.2500  -999.2500
 8985.0000  -999.2500  1793.3262   115.1576    54.2293      .5455      .6694  -999.2500      .9698  -999.2500   -52.3786  -999.2500  -999.2500  -999.2500  -999.2500
 8985.5000  -999.2500  1789.9043   113.1984    55.4099      .5517      .6597  -999.2500      .9885  -999.2500   -53.5370  -999.2500  -999.2500  -999.2500  -999.2500
 8986.0000  -999.2500  1789.5645   113.9751    57.7881      .5478      .6557  -999.2500      .9203  -999.2500   -54.4298  -999.2500  -999.2500  -999.2500  -999.2500
 8986.5000  -999.2500  1778.7871   117.0574    60.3952      .5440      .6551  -999.2500      .8583  -999.2500   -53.8272  -999.2500  -999.2500  -999.2500  -999.2500
 8987.0000  -999.2500  1764.0273   120.3278    61.5862      .5456      .6592  -999.2500      .8019  -999.2500   -53.2247  -999.2500  -999.2500  -999.2500  -999.2500
 8987.5000  -999.2500  1746.0742   121.9851    61.7596      .5527      .6746  -999.2500      .8187  -999.2500   -53.1385  -999.2500  -999.2500  -999.2500  -999.2500
 8988.0000  -999.2500  1717.1426   121.3221    62.2983      .5597      .6904  -999.2500      .8410  -999.2500   -53.0647  -999.2500  -999.2500  -999.2500  -999.2500
 8988.5000  -999.2500  1686.9844   120.5145    63.1671      .5731      .7186  -999.2500      .8581  -999.2500   -53.1411  -999.2500  -999.2500  -999.2500  -999.2500
 8989.0000  -999.2500  1649.3105   119.6165    64.4337      .5896      .7513  -999.2500      .8675  -999.2500   -54.5798  -999.2500  -999.2500  -999.2500  -999.2500
 8989.5000  -999.2500  1611.6875   117.5769    62.7563      .6065      .7819  -999.2500      .8909  -999.2500   -56.0900  -999.2500  -999.2500  -999.2500  -999.2500
 8990.0000  -999.2500  1621.0684   114.3066    57.7587      .6180      .7462  -999.2500     1.0385  -999.2500   -58.0526  -999.2500  -999.2500  -999.2500  -999.2500
 8990.5000  -999.2500  1646.5117   108.3993    53.6119      .6117      .7064  -999.2500     1.3086  -999.2500   -59.6765  -999.2500  -999.2500  -999.2500  -999.2500
 8991.0000  -999.2500  1665.1270   102.3140    50.4810      .6054      .6897  -999.2500     1.4115  -999.2500   -59.0487  -999.2500  -999.2500  -999.2500  -999.2500
 8991.5000  -999.2500  1623.3281   106.9448    51.6837      .5966      .6975  -999.2500     1.1525  -999.2500   -57.5755  -999.2500  -999.2500  -999.2500  -999.2500
 8992.0000  -999.2500  1581.4805   113.9504    54.5466      .6099      .7113  -999.2500      .8879  -999.2500   -56.1022  -999.2500  -999.2500  -999.2500  -999.2500
 8992.5000  -999.2500  1553.5313   120.3623    57.4487      .6272      .7374  -999.2500      .7725  -999.2500   -55.3724  -999.2500  -999.2500  -999.2500  -999.2500
 8993.0000  -999.2500  1538.6973   122.5986    60.3559      .6367      .7645  -999.2500      .8205  -999.2500   -56.8770  -999.2500  -999.2500  -999.2500  -999.2500
 8993.5000  -999.2500  1593.0215   120.0555    60.8387      .6237      .7887  -999.2500      .9270  -999.2500   -60.4088  -999.2500  -999.2500  -999.2500  -999.2500
 8994.0000  -999.2500  1624.1621   113.8514    57.2569      .6109      .8019  -999.2500     1.0713  -999.2500   -63.5471  -999.2500  -999.2500  -999.2500  -999.2500
 8994.5000  -999.2500  1651.8164   102.7692    51.2951      .5994      .7655  -999.2500     1.5639  -999.2500   -65.4360  -999.2500  -999.2500  -999.2500  -999.2500
 8995.0000  -999.2500  1669.6992    95.2985    46.0712      .5883      .7268  -999.2500     1.7402  -999.2500   -64.5728  -999.2500  -999.2500  -999.2500  -999.2500
 8995.5000  -999.2500  1667.8438    97.9156    43.6559      .5858      .6901  -999.2500     1.1514  -999.2500   -61.9534  -999.2500  -999.2500  -999.2500  -999.2500
 8996.0000  -999.2500  1678.8809   104.9856    44.9299      .5835      .6581  -999.2500      .8384  -999.2500   -58.8643  -999.2500  -999.2500  -999.2500  -999.2500
 8996.5000  -999.2500  1754.9160   115.6820    49.8096      .5648      .6324  -999.2500      .7781  -999.2500   -56.1834  -999.2500  -999.2500  -999.2500  -999.2500
 8997.0000  -999.2500  1850.2031   120.8076    54.0793      .5407      .6076  -999.2500      .7995  -999.2500   -53.7460  -999.2500  -999.2500  -999.2500  -999.2500
 8997.5000  -999.2500  1940.7773   123.9740    57.3848      .5172      .5863  -999.2500      .8316  -999.2500   -52.7672  -999.2500  -999.2500  -999.2500  -999.2500
 8998.0000  -999.2500  2010.1328   125.2493    60.4247      .4943      .5817  -999.2500      .8650  -999.2500   -52.0155  -999.2500  -999.2500  -999.2500  -999.2500
 8998.5000  -999.2500  2065.1914   124.3129    62.8252      .4781      .5779  -999.2500      .8983  -999.2500   -51.8317  -999.2500  -999.2500  -999.2500  -999.2500
 8999.0000  -999.2500  2084.8633   124.0157    63.5262      .4701      .5763  -999.2500      .8869  -999.2500   -51.6475  -999.2500  -999.2500  -999.2500  -999.2500
