~VERSION INFORMATION
VERS.                             2.0:   CWLS Log ASCII Standard-VERSION 2.0
WRAP.                              NO:   One line per depth step
~Well Information Block
STRT.F                      3511.0000:   Top Depth
STOP.F                      7755.0000:   Bottom Depth
STEP.F                         .50000:   Depth Increment
NULL.                        -999.250:   Null Value
FLD .                      BA BLK 431:   Field Name
WELL.       OCSG09017   002 ST01 BP00:   NAME
API .                  42704402350100:   WELL API
EDF .F                        89.0000:   ELEV DRILL FLOOR
COMP.       SEAGULL ENERGY E AND P IN:   OPERATOR
BN  .                             481:   BLOCK
CTRY.                             USA:   COUNTRY NAME
CNTY.                        BRAZOS L:   COUNTY NAME
EKB .F                        90.0000:   ELEV KELLY BUSHING
TDD .F                          0.000:   FINAL TD DRILLER
STAT.                           TEXAS:   STATE NAME
UWI .                  42704402350100:   WELL API
DICO.               IHS : Digitizing Company
~PARAMETER INFORMATION (zones)
#MNEM.UNIT                       Value     Description
#=========                       =====     ===========
#ZONATION                          CNL:   ZONATION NAME
#ZONE                            RUN_0:   ZONE NAME
TOP .                       3511.0000:   TOP DEPTH
BOT .                       7755.5000:   BOTTOM DEPTH
RUN .                               0:   RUN NUMBER
LCCD.                             280:   LOGGING CONTRACTOR
SRVC.                     Halliburton:   LOGGING CONT NAME
DICO.          QC Data Collectors Ltd:   DIG COMPANY NAME
LDAT.                        --/--/--:   DATE LOGGED
BHF .                              99:   FLUID CODE
DPT .                   Miscellaneous:   DRILLING FLUID TYPE
~PARAMETER INFORMATION (zones)
#MNEM.UNIT                       Value     Description
#=========                       =====     ===========
#ZONATION                          DIL:   ZONATION NAME
#ZONE                            RUN_0:   ZONE NAME
TOP .                       3511.0000:   TOP DEPTH
BOT .                       7755.5000:   BOTTOM DEPTH
RUN .                               0:   RUN NUMBER
LCCD.                             280:   LOGGING CONTRACTOR
SRVC.                     Halliburton:   LOGGING CONT NAME
DICO.          QC Data Collectors Ltd:   DIG COMPANY NAME
LDAT.                        --/--/--:   DATE LOGGED
BHF .                              99:   FLUID CODE
DPT .                   Miscellaneous:   DRILLING FLUID TYPE
~PARAMETER INFORMATION (zones)
#MNEM.UNIT                       Value     Description
#=========                       =====     ===========
#ZONATION                          FDC:   ZONATION NAME
#ZONE                            RUN_0:   ZONE NAME
TOP .                       3511.0000:   TOP DEPTH
BOT .                       7755.5000:   BOTTOM DEPTH
RUN .                               0:   RUN NUMBER
LCCD.                             280:   LOGGING CONTRACTOR
SRVC.                     Halliburton:   LOGGING CONT NAME
DICO.          QC Data Collectors Ltd:   DIG COMPANY NAME
LDAT.                        --/--/--:   DATE LOGGED
BHF .                              99:   FLUID CODE
DPT .                   Miscellaneous:   DRILLING FLUID TYPE
~PARAMETER INFORMATION (zones)
#MNEM.UNIT                       Value     Description
#=========                       =====     ===========
#ZONATION                        SONIC:   ZONATION NAME
#ZONE                            RUN_0:   ZONE NAME
TOP .                       3511.0000:   TOP DEPTH
BOT .                       7731.5000:   BOTTOM DEPTH
RUN .                               0:   RUN NUMBER
LCCD.                             280:   LOGGING CONTRACTOR
SRVC.                     Halliburton:   LOGGING CONT NAME
DICO.          QC Data Collectors Ltd:   DIG COMPANY NAME
LDAT.                        --/--/--:   DATE LOGGED
BHF .                              99:   FLUID CODE
DPT .                   Miscellaneous:   DRILLING FLUID TYPE
~Curve Information Block
#MNEM.UNIT                    API CODE    No Description
#=========                    ========    == ===========
DEPT.F                   00 001 00 00:     1  DEPTH
NPHI.%                               :     2  Neutron Porosity
GR.GAPI                              :     3  Gamma Ray
GRD.OHMM                             :     4  Unrecognised
ILD.OHMM                             :     5  Deep Induction Resistivity
ILM.OHMM                             :     6  Medium Induction Resistivity
SP.MV                                :     7  Spontaneous Potential
DPHI.%                               :     8  Porosity
CALI.IN                              :     9  Caliper
DT.US/F                              :    10  Sonic Transit Time
GR.GAPI                              :    11  Gamma Ray
~ASCII
# ...
 4918.0000    44.5063    69.9878      .8403      .6948      .7630   -55.7355    21.9615    13.0776   113.9537    69.4534
 4918.5000    43.5201    70.9948      .8662      .6985      .7757   -55.6265    22.4214    13.1806   116.7678    67.3386
 4919.0000    42.6171    73.1700      .9050      .7022      .7887   -55.4526    21.9635    13.2778   110.2787    68.4698
 4919.5000    42.5188    75.5211      .9308      .7059      .7952   -55.3029    21.7072    13.3702   107.6200    71.1616
 4920.0000    42.6835    77.9127      .9292      .7097      .7999   -55.1660    21.7615    13.4110   106.5133    72.4431
 4920.5000    43.4313    79.0160      .9060      .7189      .8037   -55.1097    21.7732    13.3830   107.8605    73.2725
 4921.0000    44.1784    77.2822      .8802      .7312      .8059   -55.1287    21.7671    13.3055   113.1326    73.1857
 4921.5000    44.9231    75.5486      .8557      .7437      .8081   -55.3158    22.4674    13.2490   118.3568    72.5240
 4922.0000    45.5626    73.8148      .8336      .7573      .8217   -55.5618    23.1129    13.2109   119.7626    72.5784
 4922.5000    46.0161    72.7596      .8231      .7730      .8368   -55.7316    23.3031    13.1874   118.2518    70.7440
 4923.0000    44.8023    71.8942      .8324      .7890      .8483   -55.5382    23.5906    13.1560   113.8607    69.2661
 4923.5000    43.3785    71.2227      .8808      .8050      .8561   -55.3026    22.6202    13.1233   102.4556    67.9260
 4924.0000    42.0300    70.6417      .9515      .8210      .8577   -55.0346    20.9084    13.0890    93.7822    67.0387
 4924.5000    41.9883    70.4424     1.0184      .8372      .8592   -54.7555    20.0482    13.0481    90.6121    66.8488
 4925.0000    42.8770    70.3169     1.0157      .8371      .8687   -54.4922    20.3573    13.0062    99.3944    68.5934
 4925.5000    43.7657    71.3496      .9571      .8328      .8732   -54.2482    21.4756    12.9671   111.9581    70.5592
 4926.0000    44.6503    73.2025      .8985      .8273      .8701   -54.0041    22.5146    12.9250   122.9752    72.0684
 4926.5000    45.4630    75.4795      .8451      .8211      .8669   -53.7538    23.4864    12.8750   124.1232    75.0555
 4927.0000    46.0905    77.6718      .8111      .8150      .8562   -53.5112    24.1867    12.8234   119.5208    77.5417
 4927.5000    46.6556    79.7871      .8056      .8071      .8447   -53.4365    24.0831    12.7848   115.9866    78.3171
 4928.0000    47.2515    82.3024      .8267      .7962      .8333   -53.5988    23.3617    12.7395   112.4630    77.1605
 4928.5000    47.5743    84.5337      .8439      .7853      .8358   -53.6475    22.6866    12.6860   108.2273    75.8503
 4929.0000    47.5787    83.3654      .8581      .7747      .8389   -53.6963    22.1470    12.6498   106.9292    74.6339
 4929.5000    47.4271    82.0341      .8656      .7611      .8274   -53.6193    21.9459    12.6181   112.9679    73.4514
 4930.0000    47.4402    80.7041      .8418      .7482      .8158   -53.5230    22.1734    12.6071   119.2391    72.5914
 4930.5000    47.6839    79.7787      .8211      .7485      .8008   -53.4242    22.5578    12.5991   121.4772    72.9973
 4931.0000    47.9691    79.7506      .8019      .7487      .7861   -53.2820    23.1537    12.5827   121.4619    74.3699
 4931.5000    48.3186    80.0026      .7980      .7398      .7757   -53.1397    23.4772    12.5578   120.0894    73.8540
 4932.0000    48.8713    80.2532      .8025      .7255      .7754   -53.0393    23.6495    12.5236   118.3383    73.8374
 4932.5000    49.3578    79.3169      .8072      .7123      .7751   -52.9694    23.6812    12.4824   117.4446    73.9828
 4933.0000    49.2648    76.6492      .8038      .7045      .7738   -52.8610    23.5955    12.4359   117.3959    72.7111
 4933.5000    49.8387    78.7893      .8010      .6968      .7703   -52.7233    23.6316    12.3529   116.7891    72.2466
 4934.0000    50.2219    80.7693      .8002      .6939      .7668   -52.5561    24.0263    11.2642   115.2505    73.1437
 4934.5000    50.0191    82.3226      .7925      .6948      .7627   -52.3731    24.4207    11.0982   116.2629    74.2970
 4935.0000    49.8780    82.8212      .7752      .6909      .7511   -52.2458    24.8078    11.4564   120.5677    75.8427
 4935.5000    49.9355    82.8381      .7672      .6833      .7397   -52.1118    25.1562    11.7885   124.0037    77.9449
 4936.0000    50.0281    82.3689      .7617      .6772      .7359   -51.9540    25.4911    11.8424   121.7502    79.2369
 4936.5000    49.6664    80.5830      .7532      .6739      .7415   -51.8528    25.0822    11.7513   117.5956    80.1970
 4937.0000    48.7689    79.5057      .7842      .6707      .7456   -51.7939    24.0088    11.6625   115.8005    79.9174
 4937.5000    48.0170    78.4194      .8183      .6686      .7493   -51.7350    22.8409    11.6764   112.2451    77.4468
 4938.0000    47.6579    76.4695      .8569      .6674      .7516   -51.7387    21.6075    11.7027   108.1395    75.0710
 4938.5000    47.5531    74.1718      .8730      .6686      .7509   -51.7059    20.5994    11.7386   111.3203    72.9948
 4939.0000    48.1246    72.2947      .8525      .6763      .7502   -51.6363    20.7469    11.7916   121.0779    70.5164
 4939.5000    48.6957    73.4905      .8249      .6839      .7506   -51.6288    20.7213    11.7112   121.7263    70.5254
 4940.0000    49.2672    75.2098      .7995      .6903      .7611   -51.6491    21.5091    11.5478   115.7581    70.2444
 4940.5000    49.6667    76.2180      .8195      .6967      .7718   -51.6898    21.7595    11.4070   111.8890    68.6871
 4941.0000    49.9737    77.0635      .8463      .7047      .7785   -51.7250    21.5667    11.3394   112.4843    69.8215
 4941.5000    49.9327    77.2836      .8528      .7137      .7849   -51.6887    21.8839    11.3230   121.1470    68.9688
 4942.0000    49.2537    75.1056      .8495      .7188      .7880   -51.6746    22.5238    11.3316   123.4629    69.1385
 4942.5000    48.4794    73.3185      .8419      .7218      .7873   -51.6542    22.7266    11.3782   119.7653    71.1525
 4943.0000    47.6915    74.5690      .8559      .7211      .7866   -51.5673    23.3289    11.4408   116.6136    72.6884
 4943.5000    47.0488    75.8481      .8640      .7204      .7854   -51.3823    23.1625    11.5230   114.9290    73.4546
 4944.0000    47.0812    77.6366      .8448      .7187      .7826   -51.2571    22.8703    11.6586   116.6362    74.1532
 4944.5000    47.3004    79.4250      .8118      .7151      .7799   -51.2197    22.6736    11.6908   118.7435    75.2611
 4945.0000    47.8331    81.0038      .8012      .7112      .7768   -51.1400    22.4400    11.7012   117.6493    76.4521
 4945.5000    47.1948    81.7285      .8106      .7033      .7711   -51.0290    22.1266    11.7096   117.0428    77.3739
 4946.0000    46.8860    82.0374      .8211      .7045      .7656   -51.0685    21.7640    11.7233   118.7555    76.5126
 4946.5000    47.2888    82.2764      .8227      .7090      .7623   -51.2993    22.0033    11.7388   120.3923    74.5651
 4947.0000    47.4155    81.1757      .8265      .7100      .7645   -51.6168    22.2538    11.7547   121.2081    75.3202
 4947.5000    47.4578    80.6104      .8366      .7073      .7666   -51.8437    21.9543    11.7641   117.3763    75.1160
 4948.0000    47.4996    82.0563      .8440      .7034      .7668   -52.0395    21.4743    11.7603   114.6738    74.6210
 4948.5000    47.4955    78.3843      .8524      .6889      .7587   -52.3241    21.2032    11.7418   116.9777    75.8966
 4949.0000    47.4915    76.3639      .8307      .6749      .7507   -52.8073    21.0326    11.7549   121.5881    77.0096
 4949.5000    47.8707    75.7814      .8111      .6641      .7421   -53.3463    21.2224    11.7965   118.3674    77.3817
 4950.0000    48.5853    76.3965      .8015      .6534      .7292   -53.9507    21.5265    11.8206   114.1583    77.3761
 4950.5000    49.0109    79.2439      .8323      .6445      .7166   -54.4482    21.5499    11.8379   110.4408    77.7450
 4951.0000    48.5121    80.6256      .8342      .6360      .7107   -54.7405    22.4206    11.8414   115.6836    75.5359
