~VERSION INFORMATION
VERS.                             2.0:   CWLS Log ASCII Standard-VERSION 2.0
WRAP.                              NO:   One line per depth step
~Well Information Block
STRT.F                       302.0000:   Top Depth
STOP.F                     11038.0000:   Bottom Depth
STEP.F                         .50000:   Depth Increment
NULL.                        -999.250:   Null Value
FLD .                         WILDCAT:   Field Name
WELL.       OCSG04565   001 ST00 BP00:   NAME
API .                    42706400940000:   WELL API
EDF .F                        76.8000:   ELEV DRILL FLOOR
COMP.                  TENNECO OIL CO:   OPERATOR
BN  .                             303:   BLOCK
CTRY.                             USA:   COUNTRY NAME
CNTY.                              GA:   COUNTY
CNTY.                        GLVSTN L:   COUNTY NAME
EKB .F                        79.0000:   ELEV KELLY BUSHING
TDD .F                      11050.000:   FINAL TD DRILLER
STAT.                           TEXAS:   STATE NAME
UWI .                    42706400940000:   WELL API
DICO.               IHS : Digitizing Company
~PARAMETER INFORMATION (zones)
#MNEM.UNIT                       Value     Description
#=========                       =====     ===========
#ZONATION                          CNL:   ZONATION NAME
#ZONE                            RUN_1:   ZONE NAME
TOP .                       4297.0000:   TOP DEPTH
BOT .                       7582.5000:   BOTTOM DEPTH
RUN .                               1:   RUN NUMBER
LCCD.                              20:   LOGGING CONTRACTOR
SRVC.                          Baroil:   LOGGING CONT NAME
DICO.          QC Data Collectors Ltd:   DIG COMPANY NAME
LDAT.                      03/12/1983:   DATE LOGGED
ELD .F                        77.8000:   LOG DATUM ELEVATION
TDD .F                      7587.0000:   TOTAL DEPTH DRILLER
TDL .F                      7584.0000:   TOTAL DEPTH LOGGER
BOTL.F                      7582.0000:   BOTTOM DEPTH LOGGED
TOPL.F                      4300.0000:   TOP DEPTH LOGGED
CS1 .IN                       13.3750:   CASING SIZE 1
BS1 .IN                       12.2500:   BIT SIZE 1
DDB1.F                      7587.0000:   DEPTH DRILLED BIT 1
BHF .                              70:   FLUID CODE
DPT .                       Phosphate:   DRILLING FLUID TYPE
MUDD.                         13.5000:   FLUID DENSITY
MUDV.                         49.0000:   FLUID VISCOSITY
DFPH.                         11.4000:   FLUID PH
FL  .                         12.8000:   FLUID LOSS
RM  .OHMM                       .0680:   RM
RMT .DEGF                     65.0000:   RM TEMP
RMF .OHMM                       .0530:   RMF
RMFT.DEGF                     65.0000:   RMF TEMP
FSC .                               M:   RMF CODE
RMC .OHMM                       .1020:   RMC
RMCT.DEGF                     65.0000:   RMC TEMP
CMC .                               C:   RMC CODE
TMAX.DEGF                    161.0000:   MAX REC TEMP
TIMC.                         10.0000:   TIME SINCE CIRCLN
~PARAMETER INFORMATION (zones)
#MNEM.UNIT                       Value     Description
#=========                       =====     ===========
#ZONATION                          DIL:   ZONATION NAME
#ZONE                            RUN_1:   ZONE NAME
TOP .                        302.0000:   TOP DEPTH
BOT .                      11038.5000:   BOTTOM DEPTH
RUN .                               1:   RUN NUMBER
LCCD.                             150:   LOGGING CONTRACTOR
SRVC.                   Dresser Atlas:   LOGGING CONT NAME
DICO.          QC Data Collectors Ltd:   DIG COMPANY NAME
LDAT.                      02/22/1983:   DATE LOGGED
ELD .F                        77.8000:   LOG DATUM ELEVATION
TDD .F                       841.0000:   TOTAL DEPTH DRILLER
TDL .F                       832.0000:   TOTAL DEPTH LOGGER
BOTL.F                     11038.0000:   BOTTOM DEPTH LOGGED
TOPL.F                       302.0000:   TOP DEPTH LOGGED
CS1 .IN                       30.6250:   CASING SIZE 1
BS1 .IN                       17.5000:   BIT SIZE 1
DDB1.F                       841.0000:   DEPTH DRILLED BIT 1
BHF .                              99:   FLUID CODE
DPT .                   Miscellaneous:   DRILLING FLUID TYPE
MUDD.                          8.7000:   FLUID DENSITY
MUDV.                         50.0000:   FLUID VISCOSITY
DFPH.                         12.0000:   FLUID PH
FL  .                         20.4000:   FLUID LOSS
RM  .OHMM                      1.1500:   RM
RMT .DEGF                     65.0000:   RM TEMP
RMF .OHMM                       .8000:   RMF
RMFT.DEGF                     65.0000:   RMF TEMP
FSC .                               M:   RMF CODE
RMC .OHMM                      1.4300:   RMC
RMCT.DEGF                     65.0000:   RMC TEMP
CMC .                               C:   RMC CODE
TMAX.DEGF                     85.0000:   MAX REC TEMP
TIMC.                          3.0000:   TIME SINCE CIRCLN
~PARAMETER INFORMATION (zones)
#MNEM.UNIT                       Value     Description
#=========                       =====     ===========
#ZONATION                          FDC:   ZONATION NAME
#ZONE                            RUN_4:   ZONE NAME
TOP .                      11038.0000:   TOP DEPTH
BOT .                      11040.0000:   BOTTOM DEPTH
RUN .                               4:   RUN NUMBER
LCCD.                             150:   LOGGING CONTRACTOR
SRVC.                   Dresser Atlas:   LOGGING CONT NAME
DICO.          QC Data Collectors Ltd:   DIG COMPANY NAME
LDAT.                      03/25/1983:   DATE LOGGED
ELD .F                        77.8000:   LOG DATUM ELEVATION
TDD .F                     11050.0000:   TOTAL DEPTH DRILLER
TDL .F                     11040.0000:   TOTAL DEPTH LOGGER
BOTL.F                     11038.0000:   BOTTOM DEPTH LOGGED
TOPL.F                      7555.0000:   TOP DEPTH LOGGED
CS1 .IN                        9.6250:   CASING SIZE 1
BS1 .IN                        8.5000:   BIT SIZE 1
DDB1.F                     11050.0000:   DEPTH DRILLED BIT 1
BHF .                              99:   FLUID CODE
DPT .                   Miscellaneous:   DRILLING FLUID TYPE
MUDD.                         16.6000:   FLUID DENSITY
MUDV.                         50.0000:   FLUID VISCOSITY
DFPH.                         11.4000:   FLUID PH
FL  .                         10.0000:   FLUID LOSS
RM  .OHMM                      1.7000:   RM
RMT .DEGF                     75.0000:   RM TEMP
RMF .OHMM                      1.2000:   RMF
RMFT.DEGF                     75.0000:   RMF TEMP
FSC .                               M:   RMF CODE
RMC .OHMM                      2.2000:   RMC
RMCT.DEGF                     75.0000:   RMC TEMP
CMC .                               M:   RMC CODE
TMAX.DEGF                    228.0000:   MAX REC TEMP
TIMC.                          4.0000:   TIME SINCE CIRCLN
~PARAMETER INFORMATION (zones)
#MNEM.UNIT                       Value     Description
#=========                       =====     ===========
#ZONATION                          FDC:   ZONATION NAME
#ZONE                            RUN_2:   ZONE NAME
TOP .                       4512.0000:   TOP DEPTH
BOT .                       7583.5000:   BOTTOM DEPTH
RUN .                               2:   RUN NUMBER
LCCD.                             150:   LOGGING CONTRACTOR
SRVC.                   Dresser Atlas:   LOGGING CONT NAME
DICO.          QC Data Collectors Ltd:   DIG COMPANY NAME
LDAT.                      02/28/1983:   DATE LOGGED
ELD .F                        77.8000:   LOG DATUM ELEVATION
TDD .F                      4512.0000:   TOTAL DEPTH DRILLER
TDL .F                      4505.0000:   TOTAL DEPTH LOGGER
BOTL.F                      7583.0000:   BOTTOM DEPTH LOGGED
TOPL.F                      4512.0000:   TOP DEPTH LOGGED
CS1 .IN                       20.0000:   CASING SIZE 1
BS1 .IN                       17.5000:   BIT SIZE 1
DDB1.F                      4512.0000:   DEPTH DRILLED BIT 1
BHF .                              99:   FLUID CODE
DPT .                   Miscellaneous:   DRILLING FLUID TYPE
MUDD.                          9.4000:   FLUID DENSITY
MUDV.                         40.0000:   FLUID VISCOSITY
DFPH.                         12.0000:   FLUID PH
FL  .                         38.0000:   FLUID LOSS
RM  .OHMM                       .2900:   RM
RMT .DEGF                     65.0000:   RM TEMP
RMF .OHMM                       .2100:   RMF
RMFT.DEGF                     65.0000:   RMF TEMP
FSC .                               M:   RMF CODE
RMC .OHMM                       .3400:   RMC
RMCT.DEGF                     65.0000:   RMC TEMP
CMC .                               C:   RMC CODE
TMAX.DEGF                     90.0000:   MAX REC TEMP
TIMC.                          3.0000:   TIME SINCE CIRCLN
~PARAMETER INFORMATION (zones)
#MNEM.UNIT                       Value     Description
#=========                       =====     ===========
#ZONATION                          FDC:   ZONATION NAME
#ZONE                            RUN_1:   ZONE NAME
TOP .                       4297.0000:   TOP DEPTH
BOT .                       7582.5000:   BOTTOM DEPTH
RUN .                               1:   RUN NUMBER
LCCD.                              20:   LOGGING CONTRACTOR
SRVC.                          Baroil:   LOGGING CONT NAME
DICO.          QC Data Collectors Ltd:   DIG COMPANY NAME
LDAT.                      03/12/1983:   DATE LOGGED
ELD .F                        77.8000:   LOG DATUM ELEVATION
TDD .F                      7587.0000:   TOTAL DEPTH DRILLER
TDL .F                      7584.0000:   TOTAL DEPTH LOGGER
BOTL.F                      7582.0000:   BOTTOM DEPTH LOGGED
TOPL.F                      4300.0000:   TOP DEPTH LOGGED
CS1 .IN                       13.3750:   CASING SIZE 1
BS1 .IN                       12.2500:   BIT SIZE 1
DDB1.F                      7587.0000:   DEPTH DRILLED BIT 1
BHF .                              70:   FLUID CODE
DPT .                       Phosphate:   DRILLING FLUID TYPE
MUDD.                         13.5000:   FLUID DENSITY
MUDV.                         49.0000:   FLUID VISCOSITY
DFPH.                         11.4000:   FLUID PH
FL  .                         12.8000:   FLUID LOSS
RM  .OHMM                       .0680:   RM
RMT .DEGF                     65.0000:   RM TEMP
RMF .OHMM                       .0530:   RMF
RMFT.DEGF                     65.0000:   RMF TEMP
FSC .                               M:   RMF CODE
RMC .OHMM                       .1020:   RMC
RMCT.DEGF                     65.0000:   RMC TEMP
CMC .                               C:   RMC CODE
TMAX.DEGF                    161.0000:   MAX REC TEMP
TIMC.                         10.0000:   TIME SINCE CIRCLN
~Curve Information Block
#MNEM.UNIT                    API CODE    No Description
#=========                    ========    == ===========
DEPT.F                   00 001 00 00:     1  DEPTH
NPHI.%                               :     2  Neutron Porosity
CILD.MMHO                            :     3  Deep Induction Conductivity
DT.US/F                              :     4  Sonic Transit Time
GR1.GAPI                              :     5  Gamma Ray
ILD.OHMM                             :     6  Deep Induction Resistivity
ILM.OHMM                             :     7  Medium Induction Resistivity
LN.OHMM                              :     8  Medium Resistivity
RFOC.OHMM                            :     9  Medium Resistivity
SN.OHMM                              :    10  Short-Normal Resistivity
SP.MV                                :    11  Spontaneous Potential
CALI.IN                              :    12  Caliper
DRHO.G/C3                            :    13  Bulk Density Correction
GR2.GAPI                              :    14  Gamma Ray
RHOB.G/C3                            :    15  Bulk Density
~ASCII
# ...
 3560.5000  -999.2500  3469.2188   123.3586    22.7962      .2942      .3878  -999.2500      .7421  -999.2500   -88.4266  -999.2500  -999.2500  -999.2500  -999.2500
 3561.0000  -999.2500  3551.5977   123.5885    22.2094      .2861      .3774  -999.2500      .7384  -999.2500   -88.5044  -999.2500  -999.2500  -999.2500  -999.2500
 3561.5000  -999.2500  3596.1328   124.2891    22.6394      .2782      .3696  -999.2500      .7327  -999.2500   -88.5818  -999.2500  -999.2500  -999.2500  -999.2500
 3562.0000  -999.2500  3623.7734   126.0667    23.1850      .2759      .3703  -999.2500      .7271  -999.2500   -88.6593  -999.2500  -999.2500  -999.2500  -999.2500
 3562.5000  -999.2500  3649.6758   127.9049    23.1700      .2783      .3710  -999.2500      .7222  -999.2500   -88.6010  -999.2500  -999.2500  -999.2500  -999.2500
 3563.0000  -999.2500  3669.7266   129.8381    23.0547      .2808      .3717  -999.2500      .7177  -999.2500   -88.5417  -999.2500  -999.2500  -999.2500  -999.2500
 3563.5000  -999.2500  3687.1641   131.4551    23.0542      .2833      .3733  -999.2500      .7132  -999.2500   -88.4248  -999.2500  -999.2500  -999.2500  -999.2500
 3564.0000  -999.2500  3685.6289   132.2024    23.1394      .2859      .3749  -999.2500      .7108  -999.2500   -88.0831  -999.2500  -999.2500  -999.2500  -999.2500
 3564.5000  -999.2500  3602.1133   131.7480    23.2246      .2803      .3794  -999.2500      .7098  -999.2500   -87.6108  -999.2500  -999.2500  -999.2500  -999.2500
 3565.0000  -999.2500  3489.4180   131.3213    23.5356      .2981      .3912  -999.2500      .7088  -999.2500   -86.6062  -999.2500  -999.2500  -999.2500  -999.2500
 3565.5000  -999.2500  3352.6055   131.0901    24.3440      .3250      .4077  -999.2500      .7081  -999.2500   -85.4867  -999.2500  -999.2500  -999.2500  -999.2500
 3566.0000  -999.2500  3188.5469   130.8589    25.1516      .3569      .4301  -999.2500      .7083  -999.2500   -83.9611  -999.2500  -999.2500  -999.2500  -999.2500
 3566.5000  -999.2500  3023.3008   131.5522    26.0128      .3920      .4537  -999.2500      .7085  -999.2500   -82.3556  -999.2500  -999.2500  -999.2500  -999.2500
 3567.0000  -999.2500  2742.9219   132.3884    26.9436      .4364      .4993  -999.2500      .7100  -999.2500   -80.4314  -999.2500  -999.2500  -999.2500  -999.2500
 3567.5000  -999.2500  2359.2305   133.3105    28.0890      .4859      .5425  -999.2500      .7148  -999.2500   -78.5835  -999.2500  -999.2500  -999.2500  -999.2500
 3568.0000  -999.2500  2034.8887   134.1240    29.8532      .5217      .5739  -999.2500      .7196  -999.2500   -76.8451  -999.2500  -999.2500  -999.2500  -999.2500
 3568.5000  -999.2500  1872.5195   134.7625    31.8168      .5600      .6004  -999.2500      .7263  -999.2500   -75.2308  -999.2500  -999.2500  -999.2500  -999.2500
 3569.0000  -999.2500  1747.6660   135.6946    34.1568      .6026      .6222  -999.2500      .7356  -999.2500   -73.8154  -999.2500  -999.2500  -999.2500  -999.2500
 3569.5000  -999.2500  1633.2324   137.1021    36.5092      .6303      .6405  -999.2500      .7449  -999.2500   -72.5101  -999.2500  -999.2500  -999.2500  -999.2500
 3570.0000  -999.2500  1582.1953   139.1775    38.9279      .6425      .6426  -999.2500      .7544  -999.2500   -71.6378  -999.2500  -999.2500  -999.2500  -999.2500
 3570.5000  -999.2500  1545.0508   141.0095    41.1991      .6499      .6472  -999.2500      .7591  -999.2500   -71.0248  -999.2500  -999.2500  -999.2500  -999.2500
 3571.0000  -999.2500  1513.9980   142.7502    43.3927      .6557      .6531  -999.2500      .7635  -999.2500   -70.7096  -999.2500  -999.2500  -999.2500  -999.2500
 3571.5000  -999.2500  1489.8691   143.4272    45.9874      .6624      .6632  -999.2500      .7686  -999.2500   -70.4492  -999.2500  -999.2500  -999.2500  -999.2500
 3572.0000  -999.2500  1480.9063   142.3762    47.4256      .6705      .6738  -999.2500      .7756  -999.2500   -70.2362  -999.2500  -999.2500  -999.2500  -999.2500
 3572.5000  -999.2500  1490.3535   141.1321    46.4697      .6786      .6843  -999.2500      .7881  -999.2500   -69.9875  -999.2500  -999.2500  -999.2500  -999.2500
 3573.0000  -999.2500  1469.2754   139.8884    44.7645      .6910      .6947  -999.2500      .8056  -999.2500   -69.6350  -999.2500  -999.2500  -999.2500  -999.2500
 3573.5000  -999.2500  1430.1719   140.2837    43.0974      .7049      .7052  -999.2500      .8222  -999.2500   -69.1914  -999.2500  -999.2500  -999.2500  -999.2500
 3574.0000  -999.2500  1388.6855   140.8823    41.9748      .7202      .7215  -999.2500      .8320  -999.2500   -68.6648  -999.2500  -999.2500  -999.2500  -999.2500
 3574.5000  -999.2500  1348.4648   141.7451    41.8591      .7425      .7415  -999.2500      .8420  -999.2500   -68.1022  -999.2500  -999.2500  -999.2500  -999.2500
 3575.0000  -999.2500  1309.3379   142.6804    42.7449      .7654      .7627  -999.2500      .8506  -999.2500   -67.6893  -999.2500  -999.2500  -999.2500  -999.2500
 3575.5000  -999.2500  1281.9453   143.2744    43.6283      .7835      .7851  -999.2500      .8585  -999.2500   -67.4911  -999.2500  -999.2500  -999.2500  -999.2500
 3576.0000  -999.2500  1259.7129   139.4397    44.5000      .8003      .7938  -999.2500      .8647  -999.2500   -67.5029  -999.2500  -999.2500  -999.2500  -999.2500
 3576.5000  -999.2500  1233.5234   136.1069    45.3710      .8138      .8040  -999.2500      .8619  -999.2500   -67.5963  -999.2500  -999.2500  -999.2500  -999.2500
 3577.0000  -999.2500  1202.4961   132.7532    46.1630      .8172      .8212  -999.2500      .8592  -999.2500   -67.5562  -999.2500  -999.2500  -999.2500  -999.2500
 3577.5000  -999.2500  1156.1484   130.0112    44.4459      .8260      .8343  -999.2500      .8594  -999.2500   -67.4823  -999.2500  -999.2500  -999.2500  -999.2500
 3578.0000  -999.2500  1113.9180   129.1606    38.3657      .8386      .8373  -999.2500      .8682  -999.2500   -67.3345  -999.2500  -999.2500  -999.2500  -999.2500
 3578.5000  -999.2500  1073.9219   131.6616    35.6763      .8513      .8486  -999.2500      .8961  -999.2500   -67.0719  -999.2500  -999.2500  -999.2500  -999.2500
 3579.0000  -999.2500  1038.9199   133.7581    34.3088      .8646      .8601  -999.2500      .9215  -999.2500   -66.4945  -999.2500  -999.2500  -999.2500  -999.2500
 3579.5000  -999.2500  1045.7168   135.2788    34.0400      .8783      .8740  -999.2500      .9226  -999.2500   -65.9285  -999.2500  -999.2500  -999.2500  -999.2500
 3580.0000  -999.2500  1055.1387   134.6877    35.7685      .8921      .8882  -999.2500      .9068  -999.2500   -65.5565  -999.2500  -999.2500  -999.2500  -999.2500
 3580.5000  -999.2500  1064.7656   133.4905    37.5955      .8964      .8928  -999.2500      .8906  -999.2500   -65.3112  -999.2500  -999.2500  -999.2500  -999.2500
 3581.0000  -999.2500  1077.2949   132.2927    39.9282      .8966      .8925  -999.2500      .9041  -999.2500   -65.5576  -999.2500  -999.2500  -999.2500  -999.2500
 3581.5000  -999.2500  1031.3926   131.3279    41.8954      .8968      .8917  -999.2500      .9234  -999.2500   -65.8920  -999.2500  -999.2500  -999.2500  -999.2500
 3582.0000  -999.2500  1001.1602   130.3857    43.5847      .8993      .8908  -999.2500      .9509  -999.2500   -66.3816  -999.2500  -999.2500  -999.2500  -999.2500
 3582.5000  -999.2500   976.9443   129.4431    42.9818      .9054      .8919  -999.2500      .9767  -999.2500   -66.8713  -999.2500  -999.2500  -999.2500  -999.2500
 3583.0000  -999.2500   959.0547   128.6270    41.7145      .9115      .9004  -999.2500      .9783  -999.2500   -67.1515  -999.2500  -999.2500  -999.2500  -999.2500
 3583.5000  -999.2500   995.8633   128.0718    40.4474      .9170      .9021  -999.2500      .9711  -999.2500   -67.3513  -999.2500  -999.2500  -999.2500  -999.2500
 3584.0000  -999.2500  1058.7363   127.5167    40.1401      .9113      .8978  -999.2500      .9379  -999.2500   -67.3986  -999.2500  -999.2500  -999.2500  -999.2500
 3584.5000  -999.2500  1120.3945   127.8767    39.8571      .9057      .8909  -999.2500      .9029  -999.2500   -67.4664  -999.2500  -999.2500  -999.2500  -999.2500
