~VERSION INFORMATION
VERS.                             2.0:   CWLS Log ASCII Standard-VERSION 2.0
WRAP.                              NO:   One line per depth step
~Well Information Block
STRT.F                       302.0000:   Top Depth
STOP.F                     11038.0000:   Bottom Depth
STEP.F                         .50000:   Depth Increment
NULL.                        -999.250:   Null Value
FLD .                         WILDCAT:   Field Name
WELL.       OCSG04565   001 ST00 BP00:   NAME
API .                    42706400940000:   WELL API
EDF .F                        76.8000:   ELEV DRILL FLOOR
COMP.                  TENNECO OIL CO:   OPERATOR
BN  .                             303:   BLOCK
CTRY.                             USA:   COUNTRY NAME
CNTY.                              GA:   COUNTY
CNTY.                        GLVSTN L:   COUNTY NAME
EKB .F                        79.0000:   ELEV KELLY BUSHING
TDD .F                      11050.000:   FINAL TD DRILLER
STAT.                           TEXAS:   STATE NAME
UWI .                    42706400940000:   WELL API
DICO.               IHS : Digitizing Company
~PARAMETER INFORMATION (zones)
#MNEM.UNIT                       Value     Description
#=========                       =====     ===========
#ZONATION                          CNL:   ZONATION NAME
#ZONE                            RUN_1:   ZONE NAME
TOP .                       4297.0000:   TOP DEPTH
BOT .                       7582.5000:   BOTTOM DEPTH
RUN .                               1:   RUN NUMBER
LCCD.                              20:   LOGGING CONTRACTOR
SRVC.                          Baroil:   LOGGING CONT NAME
DICO.          QC Data Collectors Ltd:   DIG COMPANY NAME
LDAT.                      03/12/1983:   DATE LOGGED
ELD .F                        77.8000:   LOG DATUM ELEVATION
TDD .F                      7587.0000:   TOTAL DEPTH DRILLER
TDL .F                      7584.0000:   TOTAL DEPTH LOGGER
BOTL.F                      7582.0000:   BOTTOM DEPTH LOGGED
TOPL.F                      4300.0000:   TOP DEPTH LOGGED
CS1 .IN                       13.3750:   CASING SIZE 1
BS1 .IN                       12.2500:   BIT SIZE 1
DDB1.F                      7587.0000:   DEPTH DRILLED BIT 1
BHF .                              70:   FLUID CODE
DPT .                       Phosphate:   DRILLING FLUID TYPE
MUDD.                         13.5000:   FLUID DENSITY
MUDV.                         49.0000:   FLUID VISCOSITY
DFPH.                         11.4000:   FLUID PH
FL  .                         12.8000:   FLUID LOSS
RM  .OHMM                       .0680:   RM
RMT .DEGF                     65.0000:   RM TEMP
RMF .OHMM                       .0530:   RMF
RMFT.DEGF                     65.0000:   RMF TEMP
FSC .                               M:   RMF CODE
RMC .OHMM                       .1020:   RMC
RMCT.DEGF                     65.0000:   RMC TEMP
CMC .                               C:   RMC CODE
TMAX.DEGF                    161.0000:   MAX REC TEMP
TIMC.                         10.0000:   TIME SINCE CIRCLN
~PARAMETER INFORMATION (zones)
#MNEM.UNIT                       Value     Description
#=========                       =====     ===========
#ZONATION                          DIL:   ZONATION NAME
#ZONE                            RUN_1:   ZONE NAME
TOP .                        302.0000:   TOP DEPTH
BOT .                      11038.5000:   BOTTOM DEPTH
RUN .                               1:   RUN NUMBER
LCCD.                             150:   LOGGING CONTRACTOR
SRVC.                   Dresser Atlas:   LOGGING CONT NAME
DICO.          QC Data Collectors Ltd:   DIG COMPANY NAME
LDAT.                      02/22/1983:   DATE LOGGED
ELD .F                        77.8000:   LOG DATUM ELEVATION
TDD .F                       841.0000:   TOTAL DEPTH DRILLER
TDL .F                       832.0000:   TOTAL DEPTH LOGGER
BOTL.F                     11038.0000:   BOTTOM DEPTH LOGGED
TOPL.F                       302.0000:   TOP DEPTH LOGGED
CS1 .IN                       30.6250:   CASING SIZE 1
BS1 .IN                       17.5000:   BIT SIZE 1
DDB1.F                       841.0000:   DEPTH DRILLED BIT 1
BHF .                              99:   FLUID CODE
DPT .                   Miscellaneous:   DRILLING FLUID TYPE
MUDD.                          8.7000:   FLUID DENSITY
MUDV.                         50.0000:   FLUID VISCOSITY
DFPH.                         12.0000:   FLUID PH
FL  .                         20.4000:   FLUID LOSS
RM  .OHMM                      1.1500:   RM
RMT .DEGF                     65.0000:   RM TEMP
RMF .OHMM                       .8000:   RMF
RMFT.DEGF                     65.0000:   RMF TEMP
FSC .                               M:   RMF CODE
RMC .OHMM                      1.4300:   RMC
RMCT.DEGF                     65.0000:   RMC TEMP
CMC .                               C:   RMC CODE
TMAX.DEGF                     85.0000:   MAX REC TEMP
TIMC.                          3.0000:   TIME SINCE CIRCLN
~PARAMETER INFORMATION (zones)
#MNEM.UNIT                       Value     Description
#=========                       =====     ===========
#ZONATION                          FDC:   ZONATION NAME
#ZONE                            RUN_4:   ZONE NAME
TOP .                      11038.0000:   TOP DEPTH
BOT .                      11040.0000:   BOTTOM DEPTH
RUN .                               4:   RUN NUMBER
LCCD.                             150:   LOGGING CONTRACTOR
SRVC.                   Dresser Atlas:   LOGGING CONT NAME
DICO.          QC Data Collectors Ltd:   DIG COMPANY NAME
LDAT.                      03/25/1983:   DATE LOGGED
ELD .F                        77.8000:   LOG DATUM ELEVATION
TDD .F                     11050.0000:   TOTAL DEPTH DRILLER
TDL .F                     11040.0000:   TOTAL DEPTH LOGGER
BOTL.F                     11038.0000:   BOTTOM DEPTH LOGGED
TOPL.F                      7555.0000:   TOP DEPTH LOGGED
CS1 .IN                        9.6250:   CASING SIZE 1
BS1 .IN                        8.5000:   BIT SIZE 1
DDB1.F                     11050.0000:   DEPTH DRILLED BIT 1
BHF .                              99:   FLUID CODE
DPT .                   Miscellaneous:   DRILLING FLUID TYPE
MUDD.                         16.6000:   FLUID DENSITY
MUDV.                         50.0000:   FLUID VISCOSITY
DFPH.                         11.4000:   FLUID PH
FL  .                         10.0000:   FLUID LOSS
RM  .OHMM                      1.7000:   RM
RMT .DEGF                     75.0000:   RM TEMP
RMF .OHMM                      1.2000:   RMF
RMFT.DEGF                     75.0000:   RMF TEMP
FSC .                               M:   RMF CODE
RMC .OHMM                      2.2000:   RMC
RMCT.DEGF                     75.0000:   RMC TEMP
CMC .                               M:   RMC CODE
TMAX.DEGF                    228.0000:   MAX REC TEMP
TIMC.                          4.0000:   TIME SINCE CIRCLN
~PARAMETER INFORMATION (zones)
#MNEM.UNIT                       Value     Description
#=========                       =====     ===========
#ZONATION                          FDC:   ZONATION NAME
#ZONE                            RUN_2:   ZONE NAME
TOP .                       4512.0000:   TOP DEPTH
BOT .                       7583.5000:   BOTTOM DEPTH
RUN .                               2:   RUN NUMBER
LCCD.                             150:   LOGGING CONTRACTOR
SRVC.                   Dresser Atlas:   LOGGING CONT NAME
DICO.          QC Data Collectors Ltd:   DIG COMPANY NAME
LDAT.                      02/28/1983:   DATE LOGGED
ELD .F                        77.8000:   LOG DATUM ELEVATION
TDD .F                      4512.0000:   TOTAL DEPTH DRILLER
TDL .F                      4505.0000:   TOTAL DEPTH LOGGER
BOTL.F                      7583.0000:   BOTTOM DEPTH LOGGED
TOPL.F                      4512.0000:   TOP DEPTH LOGGED
CS1 .IN                       20.0000:   CASING SIZE 1
BS1 .IN                       17.5000:   BIT SIZE 1
DDB1.F                      4512.0000:   DEPTH DRILLED BIT 1
BHF .                              99:   FLUID CODE
DPT .                   Miscellaneous:   DRILLING FLUID TYPE
MUDD.                          9.4000:   FLUID DENSITY
MUDV.                         40.0000:   FLUID VISCOSITY
DFPH.                         12.0000:   FLUID PH
FL  .                         38.0000:   FLUID LOSS
RM  .OHMM                       .2900:   RM
RMT .DEGF                     65.0000:   RM TEMP
RMF .OHMM                       .2100:   RMF
RMFT.DEGF                     65.0000:   RMF TEMP
FSC .                               M:   RMF CODE
RMC .OHMM                       .3400:   RMC
RMCT.DEGF                     65.0000:   RMC TEMP
CMC .                               C:   RMC CODE
TMAX.DEGF                     90.0000:   MAX REC TEMP
TIMC.                          3.0000:   TIME SINCE CIRCLN
~PARAMETER INFORMATION (zones)
#MNEM.UNIT                       Value     Description
#=========                       =====     ===========
#ZONATION                          FDC:   ZONATION NAME
#ZONE                            RUN_1:   ZONE NAME
TOP .                       4297.0000:   TOP DEPTH
BOT .                       7582.5000:   BOTTOM DEPTH
RUN .                               1:   RUN NUMBER
LCCD.                              20:   LOGGING CONTRACTOR
SRVC.                          Baroil:   LOGGING CONT NAME
DICO.          QC Data Collectors Ltd:   DIG COMPANY NAME
LDAT.                      03/12/1983:   DATE LOGGED
ELD .F                        77.8000:   LOG DATUM ELEVATION
TDD .F                      7587.0000:   TOTAL DEPTH DRILLER
TDL .F                      7584.0000:   TOTAL DEPTH LOGGER
BOTL.F                      7582.0000:   BOTTOM DEPTH LOGGED
TOPL.F                      4300.0000:   TOP DEPTH LOGGED
CS1 .IN                       13.3750:   CASING SIZE 1
BS1 .IN                       12.2500:   BIT SIZE 1
DDB1.F                      7587.0000:   DEPTH DRILLED BIT 1
BHF .                              70:   FLUID CODE
DPT .                       Phosphate:   DRILLING FLUID TYPE
MUDD.                         13.5000:   FLUID DENSITY
MUDV.                         49.0000:   FLUID VISCOSITY
DFPH.                         11.4000:   FLUID PH
FL  .                         12.8000:   FLUID LOSS
RM  .OHMM                       .0680:   RM
RMT .DEGF                     65.0000:   RM TEMP
RMF .OHMM                       .0530:   RMF
RMFT.DEGF                     65.0000:   RMF TEMP
FSC .                               M:   RMF CODE
RMC .OHMM                       .1020:   RMC
RMCT.DEGF                     65.0000:   RMC TEMP
CMC .                               C:   RMC CODE
TMAX.DEGF                    161.0000:   MAX REC TEMP
TIMC.                         10.0000:   TIME SINCE CIRCLN
~Curve Information Block
#MNEM.UNIT                    API CODE    No Description
#=========                    ========    == ===========
DEPT.F                   00 001 00 00:     1  DEPTH
NPHI.%                               :     2  Neutron Porosity
CILD.MMHO                            :     3  Deep Induction Conductivity
DT.US/F                              :     4  Sonic Transit Time
GR1.GAPI                              :     5  Gamma Ray
ILD.OHMM                             :     6  Deep Induction Resistivity
ILM.OHMM                             :     7  Medium Induction Resistivity
LN.OHMM                              :     8  Medium Resistivity
RFOC.OHMM                            :     9  Medium Resistivity
SN.OHMM                              :    10  Short-Normal Resistivity
SP.MV                                :    11  Spontaneous Potential
CALI.IN                              :    12  Caliper
DRHO.G/C3                            :    13  Bulk Density Correction
GR2.GAPI                              :    14  Gamma Ray
RHOB.G/C3                            :    15  Bulk Density
~ASCII
# ...
 6255.5000    32.3182  2168.4727   100.6487    52.8752      .4476      .5806  -999.2500      .9730  -999.2500   -89.9185    15.9918     -.0028    57.0673     2.2993
 6256.0000    33.5319  2161.7422    99.4497    51.1776      .4530      .5829  -999.2500      .9968  -999.2500   -90.6112    15.9923     -.0052    52.0035     2.3251
 6256.5000    34.5708  2087.4727    98.6985    49.1368      .4684      .6055  -999.2500     1.0070  -999.2500   -87.4056    15.9929     -.0090    50.0248     2.3295
 6257.0000    34.4535  2013.2031   100.2490    46.9019      .4843      .6291  -999.2500      .9691  -999.2500   -83.9536    15.9935     -.0128    53.4239     2.3383
 6257.5000    33.9695  1904.9141   101.7996    48.4337      .5052      .6585  -999.2500      .9376  -999.2500   -81.2073    15.9940     -.0167    55.4711     2.3479
 6258.0000    32.0079  1788.5137   102.1934    51.6718      .5383      .6947  -999.2500      .9649  -999.2500   -78.9158    15.9987     -.0205    56.2555     2.3334
 6258.5000    30.6031  1684.3789   101.1002    54.6172      .5737      .7329  -999.2500     1.0181  -999.2500   -76.3735    16.0037     -.0223    56.4532     2.3157
 6259.0000    30.0219  1590.5273    97.9202    55.8024      .6113      .7732  -999.2500     1.0346  -999.2500   -74.0906    16.0086     -.0156    56.5541     2.3275
 6259.5000    30.7717  1506.8613    95.3347    54.4341      .6416      .8043  -999.2500     1.1054  -999.2500   -72.5134    16.0136     -.0073    56.8130     2.3505
 6260.0000    32.6193  1435.8555    93.0781    53.0203      .6705      .8213  -999.2500     1.2458  -999.2500   -71.2152    16.0186      .0017    57.3196     2.3747
 6260.5000    34.7802  1375.2832    92.2529    52.1896      .7007      .8387  -999.2500     1.1673  -999.2500   -65.9659    16.0235     -.0009    59.8409     2.3966
 6261.0000    35.8958  1330.5137    98.7762    53.9879      .7285      .8434  -999.2500     1.0090  -999.2500   -58.2112    16.0269      .0006    63.3472     2.3976
 6261.5000    34.4475  1325.0195   104.1345    58.5315      .7425      .8491  -999.2500      .9263  -999.2500   -55.2620    16.0295      .0516    67.5387     2.3844
 6262.0000    33.2742  1321.3906   112.6506    61.5925      .7557      .8691  -999.2500      .9570  -999.2500   -54.3535    16.0321      .0624    72.8766     2.3712
 6262.5000    34.4969  1328.0605   126.0267    62.6092      .7554      .8828  -999.2500     1.0542  -999.2500   -54.0803    16.0347      .0525    74.7905     2.3551
 6263.0000    35.8441  1333.7051   125.8837    63.3659      .7469      .8763  -999.2500     1.0824  -999.2500   -54.2122    16.0373      .0349    70.9478     2.3367
 6263.5000    36.8676  1333.3887   122.4003    65.0199      .7347      .8699  -999.2500     1.0129  -999.2500   -54.4436    16.0394      .0213    69.1809     2.3224
 6264.0000    37.1147  1333.0723   118.5912    66.9894      .7389      .8636  -999.2500      .9698  -999.2500   -54.6750    16.0368      .0113    67.7069     2.3104
 6264.5000    36.3311  1311.7910   114.8956    67.7466      .7458      .8852  -999.2500      .9564  -999.2500   -55.1723    16.0341      .0225    69.2146     2.3171
 6265.0000    34.2917  1285.9805   112.4928    65.3346      .7596      .9137  -999.2500      .9419  -999.2500   -56.0795    16.0315      .0376    66.2678     2.3301
 6265.5000    32.5616  1259.6738   110.4279    63.5497      .7737      .9431  -999.2500      .9394  -999.2500   -58.7669    16.0289      .0378    64.0847     2.3206
 6266.0000    33.4368  1228.7695   109.2955    61.7646      .7919      .9753  -999.2500      .9754  -999.2500   -63.5662    16.0262     -.0063    62.1884     2.2983
 6266.5000    34.2512  1197.8906   102.3584    59.8272      .8164     1.0085  -999.2500     1.1293  -999.2500   -68.7245    16.0250     -.0250    60.2994     2.2873
 6267.0000    32.8262  1179.4707    96.2747    57.5455      .8418     1.0105  -999.2500     1.3749  -999.2500   -72.1864    16.0238     -.0429    54.5104     2.2907
 6267.5000    31.4191  1176.6270    91.3530    54.9762      .8576     1.0118  -999.2500     1.5571  -999.2500   -75.6482    16.0226     -.0421    49.6859     2.3177
 6268.0000    30.1319  1169.9512    89.8063    52.8151      .8597     1.0105  -999.2500     1.4914  -999.2500   -74.9623    16.0214     -.0214    51.3680     2.3567
 6268.5000    30.9965  1163.2832    92.0265    51.1284      .8618     1.0089  -999.2500     1.3420  -999.2500   -72.2257    16.0202     -.0008    53.7230     2.3883
 6269.0000    33.2787  1156.6074    94.4960    51.3577      .8638     1.0074  -999.2500     1.2426  -999.2500   -69.3909    16.0191      .0199    56.6685     2.4027
 6269.5000    36.3626  1149.9316    97.0024    53.1642      .8659     1.0053  -999.2500     1.1765  -999.2500   -66.8781    16.0189      .0050    59.9979     2.4004
 6270.0000    37.1014  1143.2637    99.5065    55.9794      .8680     1.0026  -999.2500     1.1365  -999.2500   -64.6973    16.0219     -.0061    67.5155     2.3928
 6270.5000    36.0344  1161.3613   101.3567    59.2339      .8626      .9999  -999.2500     1.1003  -999.2500   -62.5164    16.0248      .0104    66.9600     2.4025
 6271.0000    34.5449  1177.2695   103.1034    58.8683      .8550      .9972  -999.2500     1.0780  -999.2500   -61.2096    16.0278      .0334    65.5640     2.4203
 6271.5000    33.1288  1178.7813   103.4052    58.9150      .8475      .9924  -999.2500     1.0976  -999.2500   -60.0060    16.0307      .0688    63.9004     2.4400
 6272.0000    31.9256  1177.4707   102.7469    61.7917      .8466      .9849  -999.2500     1.1112  -999.2500   -59.0822    16.0337      .1015    65.1179     2.4420
 6272.5000    33.2547  1176.1621   101.7244    64.3147      .8480      .9775  -999.2500     1.1249  -999.2500   -58.5222    16.0367      .0904    67.1198     2.4287
 6273.0000    35.4125  1175.7539   101.3918    62.5244      .8494      .9702  -999.2500     1.1336  -999.2500   -58.0053    16.0396      .0539    68.7432     2.4153
 6273.5000    36.6863  1175.3438   102.5853    60.4481      .8464      .9634  -999.2500     1.1404  -999.2500   -57.5848    16.0426      .0362    69.3726     2.4083
 6274.0000    37.1098  1183.1484   104.4158    59.0908      .8348      .9567  -999.2500     1.1402  -999.2500   -57.1650    16.0444      .0356    68.1632     2.4021
 6274.5000    37.1804  1198.6563   106.0540    58.8954      .8205      .9501  -999.2500     1.1309  -999.2500   -56.9413    16.0439      .0446    67.2268     2.3958
 6275.0000    36.7874  1228.3496   107.2245    59.9219      .7995      .9354  -999.2500     1.1143  -999.2500   -56.8179    16.0435      .0418    67.4373     2.3758
 6275.5000    36.5140  1258.0430   107.9929    59.7449      .7791      .9123  -999.2500     1.1027  -999.2500   -56.2959    16.0430      .0359    69.1591     2.3568
 6276.0000    37.1771  1287.7363   107.5502    58.7515      .7560      .8898  -999.2500     1.1000  -999.2500   -55.0112    16.0426      .0282    72.8243     2.3313
 6276.5000    37.3325  1321.8789   106.6373    58.4614      .7320      .8678  -999.2500     1.0935  -999.2500   -50.7368    16.0421      .0184    75.1479     2.3498
 6277.0000    36.9691  1366.9258   105.2755    59.8100      .7087      .8412  -999.2500     1.0842  -999.2500   -27.6101    16.0417      .0168    73.8214     2.3792
 6277.5000    37.2430  1411.9727   106.2710    62.8121      .6848      .8266  -999.2500     1.0747  -999.2500    25.1926    16.0412      .0298    71.0906     2.4071
 6278.0000    38.1863  1451.9746   108.1163    64.4077      .6623      .8202  -999.2500     1.0644  -999.2500    46.9667    16.0408      .0399    69.1490     2.4064
 6278.5000    39.1281  1479.2324   109.9542    63.4943      .6505      .8217  -999.2500     1.0451  -999.2500    31.0541    16.0403      .0463    71.2058     2.4022
 6279.0000    39.2345  1441.2949   111.5627    62.4224      .6541      .8346  -999.2500     1.0309  -999.2500   -67.2936    16.0396      .0523    74.8937     2.3887
 6279.5000    38.4605  1352.0918   112.4645    64.1791      .6812      .8632  -999.2500     1.0260  -999.2500   -76.4841    16.0387      .0583    74.6206     2.3848
