~VERSION INFORMATION
VERS.                             2.0:   CWLS Log ASCII Standard-VERSION 2.0
WRAP.                              NO:   One line per depth step
~Well Information Block
STRT.F                       302.0000:   Top Depth
STOP.F                     11038.0000:   Bottom Depth
STEP.F                         .50000:   Depth Increment
NULL.                        -999.250:   Null Value
FLD .                         WILDCAT:   Field Name
WELL.       OCSG04565   001 ST00 BP00:   NAME
API .                    42706400940000:   WELL API
EDF .F                        76.8000:   ELEV DRILL FLOOR
COMP.                  TENNECO OIL CO:   OPERATOR
BN  .                             303:   BLOCK
CTRY.                             USA:   COUNTRY NAME
CNTY.                              GA:   COUNTY
CNTY.                        GLVSTN L:   COUNTY NAME
EKB .F                        79.0000:   ELEV KELLY BUSHING
TDD .F                      11050.000:   FINAL TD DRILLER
STAT.                           TEXAS:   STATE NAME
UWI .                    42706400940000:   WELL API
DICO.               IHS : Digitizing Company
~PARAMETER INFORMATION (zones)
#MNEM.UNIT                       Value     Description
#=========                       =====     ===========
#ZONATION                          CNL:   ZONATION NAME
#ZONE                            RUN_1:   ZONE NAME
TOP .                       4297.0000:   TOP DEPTH
BOT .                       7582.5000:   BOTTOM DEPTH
RUN .                               1:   RUN NUMBER
LCCD.                              20:   LOGGING CONTRACTOR
SRVC.                          Baroil:   LOGGING CONT NAME
DICO.          QC Data Collectors Ltd:   DIG COMPANY NAME
LDAT.                      03/12/1983:   DATE LOGGED
ELD .F                        77.8000:   LOG DATUM ELEVATION
TDD .F                      7587.0000:   TOTAL DEPTH DRILLER
TDL .F                      7584.0000:   TOTAL DEPTH LOGGER
BOTL.F                      7582.0000:   BOTTOM DEPTH LOGGED
TOPL.F                      4300.0000:   TOP DEPTH LOGGED
CS1 .IN                       13.3750:   CASING SIZE 1
BS1 .IN                       12.2500:   BIT SIZE 1
DDB1.F                      7587.0000:   DEPTH DRILLED BIT 1
BHF .                              70:   FLUID CODE
DPT .                       Phosphate:   DRILLING FLUID TYPE
MUDD.                         13.5000:   FLUID DENSITY
MUDV.                         49.0000:   FLUID VISCOSITY
DFPH.                         11.4000:   FLUID PH
FL  .                         12.8000:   FLUID LOSS
RM  .OHMM                       .0680:   RM
RMT .DEGF                     65.0000:   RM TEMP
RMF .OHMM                       .0530:   RMF
RMFT.DEGF                     65.0000:   RMF TEMP
FSC .                               M:   RMF CODE
RMC .OHMM                       .1020:   RMC
RMCT.DEGF                     65.0000:   RMC TEMP
CMC .                               C:   RMC CODE
TMAX.DEGF                    161.0000:   MAX REC TEMP
TIMC.                         10.0000:   TIME SINCE CIRCLN
~PARAMETER INFORMATION (zones)
#MNEM.UNIT                       Value     Description
#=========                       =====     ===========
#ZONATION                          DIL:   ZONATION NAME
#ZONE                            RUN_1:   ZONE NAME
TOP .                        302.0000:   TOP DEPTH
BOT .                      11038.5000:   BOTTOM DEPTH
RUN .                               1:   RUN NUMBER
LCCD.                             150:   LOGGING CONTRACTOR
SRVC.                   Dresser Atlas:   LOGGING CONT NAME
DICO.          QC Data Collectors Ltd:   DIG COMPANY NAME
LDAT.                      02/22/1983:   DATE LOGGED
ELD .F                        77.8000:   LOG DATUM ELEVATION
TDD .F                       841.0000:   TOTAL DEPTH DRILLER
TDL .F                       832.0000:   TOTAL DEPTH LOGGER
BOTL.F                     11038.0000:   BOTTOM DEPTH LOGGED
TOPL.F                       302.0000:   TOP DEPTH LOGGED
CS1 .IN                       30.6250:   CASING SIZE 1
BS1 .IN                       17.5000:   BIT SIZE 1
DDB1.F                       841.0000:   DEPTH DRILLED BIT 1
BHF .                              99:   FLUID CODE
DPT .                   Miscellaneous:   DRILLING FLUID TYPE
MUDD.                          8.7000:   FLUID DENSITY
MUDV.                         50.0000:   FLUID VISCOSITY
DFPH.                         12.0000:   FLUID PH
FL  .                         20.4000:   FLUID LOSS
RM  .OHMM                      1.1500:   RM
RMT .DEGF                     65.0000:   RM TEMP
RMF .OHMM                       .8000:   RMF
RMFT.DEGF                     65.0000:   RMF TEMP
FSC .                               M:   RMF CODE
RMC .OHMM                      1.4300:   RMC
RMCT.DEGF                     65.0000:   RMC TEMP
CMC .                               C:   RMC CODE
TMAX.DEGF                     85.0000:   MAX REC TEMP
TIMC.                          3.0000:   TIME SINCE CIRCLN
~PARAMETER INFORMATION (zones)
#MNEM.UNIT                       Value     Description
#=========                       =====     ===========
#ZONATION                          FDC:   ZONATION NAME
#ZONE                            RUN_4:   ZONE NAME
TOP .                      11038.0000:   TOP DEPTH
BOT .                      11040.0000:   BOTTOM DEPTH
RUN .                               4:   RUN NUMBER
LCCD.                             150:   LOGGING CONTRACTOR
SRVC.                   Dresser Atlas:   LOGGING CONT NAME
DICO.          QC Data Collectors Ltd:   DIG COMPANY NAME
LDAT.                      03/25/1983:   DATE LOGGED
ELD .F                        77.8000:   LOG DATUM ELEVATION
TDD .F                     11050.0000:   TOTAL DEPTH DRILLER
TDL .F                     11040.0000:   TOTAL DEPTH LOGGER
BOTL.F                     11038.0000:   BOTTOM DEPTH LOGGED
TOPL.F                      7555.0000:   TOP DEPTH LOGGED
CS1 .IN                        9.6250:   CASING SIZE 1
BS1 .IN                        8.5000:   BIT SIZE 1
DDB1.F                     11050.0000:   DEPTH DRILLED BIT 1
BHF .                              99:   FLUID CODE
DPT .                   Miscellaneous:   DRILLING FLUID TYPE
MUDD.                         16.6000:   FLUID DENSITY
MUDV.                         50.0000:   FLUID VISCOSITY
DFPH.                         11.4000:   FLUID PH
FL  .                         10.0000:   FLUID LOSS
RM  .OHMM                      1.7000:   RM
RMT .DEGF                     75.0000:   RM TEMP
RMF .OHMM                      1.2000:   RMF
RMFT.DEGF                     75.0000:   RMF TEMP
FSC .                               M:   RMF CODE
RMC .OHMM                      2.2000:   RMC
RMCT.DEGF                     75.0000:   RMC TEMP
CMC .                               M:   RMC CODE
TMAX.DEGF                    228.0000:   MAX REC TEMP
TIMC.                          4.0000:   TIME SINCE CIRCLN
~PARAMETER INFORMATION (zones)
#MNEM.UNIT                       Value     Description
#=========                       =====     ===========
#ZONATION                          FDC:   ZONATION NAME
#ZONE                            RUN_2:   ZONE NAME
TOP .                       4512.0000:   TOP DEPTH
BOT .                       7583.5000:   BOTTOM DEPTH
RUN .                               2:   RUN NUMBER
LCCD.                             150:   LOGGING CONTRACTOR
SRVC.                   Dresser Atlas:   LOGGING CONT NAME
DICO.          QC Data Collectors Ltd:   DIG COMPANY NAME
LDAT.                      02/28/1983:   DATE LOGGED
ELD .F                        77.8000:   LOG DATUM ELEVATION
TDD .F                      4512.0000:   TOTAL DEPTH DRILLER
TDL .F                      4505.0000:   TOTAL DEPTH LOGGER
BOTL.F                      7583.0000:   BOTTOM DEPTH LOGGED
TOPL.F                      4512.0000:   TOP DEPTH LOGGED
CS1 .IN                       20.0000:   CASING SIZE 1
BS1 .IN                       17.5000:   BIT SIZE 1
DDB1.F                      4512.0000:   DEPTH DRILLED BIT 1
BHF .                              99:   FLUID CODE
DPT .                   Miscellaneous:   DRILLING FLUID TYPE
MUDD.                          9.4000:   FLUID DENSITY
MUDV.                         40.0000:   FLUID VISCOSITY
DFPH.                         12.0000:   FLUID PH
FL  .                         38.0000:   FLUID LOSS
RM  .OHMM                       .2900:   RM
RMT .DEGF                     65.0000:   RM TEMP
RMF .OHMM                       .2100:   RMF
RMFT.DEGF                     65.0000:   RMF TEMP
FSC .                               M:   RMF CODE
RMC .OHMM                       .3400:   RMC
RMCT.DEGF                     65.0000:   RMC TEMP
CMC .                               C:   RMC CODE
TMAX.DEGF                     90.0000:   MAX REC TEMP
TIMC.                          3.0000:   TIME SINCE CIRCLN
~PARAMETER INFORMATION (zones)
#MNEM.UNIT                       Value     Description
#=========                       =====     ===========
#ZONATION                          FDC:   ZONATION NAME
#ZONE                            RUN_1:   ZONE NAME
TOP .                       4297.0000:   TOP DEPTH
BOT .                       7582.5000:   BOTTOM DEPTH
RUN .                               1:   RUN NUMBER
LCCD.                              20:   LOGGING CONTRACTOR
SRVC.                          Baroil:   LOGGING CONT NAME
DICO.          QC Data Collectors Ltd:   DIG COMPANY NAME
LDAT.                      03/12/1983:   DATE LOGGED
ELD .F                        77.8000:   LOG DATUM ELEVATION
TDD .F                      7587.0000:   TOTAL DEPTH DRILLER
TDL .F                      7584.0000:   TOTAL DEPTH LOGGER
BOTL.F                      7582.0000:   BOTTOM DEPTH LOGGED
TOPL.F                      4300.0000:   TOP DEPTH LOGGED
CS1 .IN                       13.3750:   CASING SIZE 1
BS1 .IN                       12.2500:   BIT SIZE 1
DDB1.F                      7587.0000:   DEPTH DRILLED BIT 1
BHF .                              70:   FLUID CODE
DPT .                       Phosphate:   DRILLING FLUID TYPE
MUDD.                         13.5000:   FLUID DENSITY
MUDV.                         49.0000:   FLUID VISCOSITY
DFPH.                         11.4000:   FLUID PH
FL  .                         12.8000:   FLUID LOSS
RM  .OHMM                       .0680:   RM
RMT .DEGF                     65.0000:   RM TEMP
RMF .OHMM                       .0530:   RMF
RMFT.DEGF                     65.0000:   RMF TEMP
FSC .                               M:   RMF CODE
RMC .OHMM                       .1020:   RMC
RMCT.DEGF                     65.0000:   RMC TEMP
CMC .                               C:   RMC CODE
TMAX.DEGF                    161.0000:   MAX REC TEMP
TIMC.                         10.0000:   TIME SINCE CIRCLN
~Curve Information Block
#MNEM.UNIT                    API CODE    No Description
#=========                    ========    == ===========
DEPT.F                   00 001 00 00:     1  DEPTH
NPHI.%                               :     2  Neutron Porosity
CILD.MMHO                            :     3  Deep Induction Conductivity
DT.US/F                              :     4  Sonic Transit Time
GR1.GAPI                              :     5  Gamma Ray
ILD.OHMM                             :     6  Deep Induction Resistivity
ILM.OHMM                             :     7  Medium Induction Resistivity
LN.OHMM                              :     8  Medium Resistivity
RFOC.OHMM                            :     9  Medium Resistivity
SN.OHMM                              :    10  Short-Normal Resistivity
SP.MV                                :    11  Spontaneous Potential
CALI.IN                              :    12  Caliper
DRHO.G/C3                            :    13  Bulk Density Correction
GR2.GAPI                              :    14  Gamma Ray
RHOB.G/C3                            :    15  Bulk Density
~ASCII
# ...
10322.5000  -999.2500  2284.7734   129.4158    62.6725      .4287      .5109  -999.2500      .8300  -999.2500   -45.6906  -999.2500  -999.2500  -999.2500  -999.2500
10323.0000  -999.2500  2207.5195   128.3010    64.0175      .4434      .5307  -999.2500      .8313  -999.2500   -44.9196  -999.2500  -999.2500  -999.2500  -999.2500
10323.5000  -999.2500  2103.3242   126.6902    63.6628      .4649      .5519  -999.2500      .8346  -999.2500   -44.2780  -999.2500  -999.2500  -999.2500  -999.2500
10324.0000  -999.2500  1998.7363   124.3678    61.9163      .4919      .5777  -999.2500      .8378  -999.2500   -43.7594  -999.2500  -999.2500  -999.2500  -999.2500
10324.5000  -999.2500  1892.1660   121.9713    60.8152      .5204      .6046  -999.2500      .8432  -999.2500   -44.1967  -999.2500  -999.2500  -999.2500  -999.2500
10325.0000  -999.2500  1806.7910   119.4315    59.7610      .5402      .6252  -999.2500      .8715  -999.2500   -44.7644  -999.2500  -999.2500  -999.2500  -999.2500
10325.5000  -999.2500  1747.6641   117.0153    58.7092      .5606      .6462  -999.2500      .9008  -999.2500   -45.7473  -999.2500  -999.2500  -999.2500  -999.2500
10326.0000  -999.2500  1704.9766   114.9078    58.1432      .5732      .6528  -999.2500      .9334  -999.2500   -46.7461  -999.2500  -999.2500  -999.2500  -999.2500
10326.5000  -999.2500  1686.6777   113.6503    57.8611      .5826      .6463  -999.2500      .9398  -999.2500   -47.4749  -999.2500  -999.2500  -999.2500  -999.2500
10327.0000  -999.2500  1707.4512   113.9825    57.3876      .5764      .6364  -999.2500      .8985  -999.2500   -47.6489  -999.2500  -999.2500  -999.2500  -999.2500
10327.5000  -999.2500  1772.9199   115.3550    56.7829      .5619      .6172  -999.2500      .8606  -999.2500   -47.8232  -999.2500  -999.2500  -999.2500  -999.2500
10328.0000  -999.2500  1851.9551   116.7904    56.1646      .5443      .5985  -999.2500      .8403  -999.2500   -47.8945  -999.2500  -999.2500  -999.2500  -999.2500
10328.5000  -999.2500  1933.1699   118.2258    56.8469      .5252      .5816  -999.2500      .8593  -999.2500   -47.8206  -999.2500  -999.2500  -999.2500  -999.2500
10329.0000  -999.2500  1998.7363   119.3748    58.3175      .5068      .5728  -999.2500      .8642  -999.2500   -47.7465  -999.2500  -999.2500  -999.2500  -999.2500
10329.5000  -999.2500  2039.3945   120.4963    59.9605      .4924      .5640  -999.2500      .8692  -999.2500   -47.6726  -999.2500  -999.2500  -999.2500  -999.2500
10330.0000  -999.2500  2055.6367   121.6180    61.6010      .4829      .5709  -999.2500      .8553  -999.2500   -47.7047  -999.2500  -999.2500  -999.2500  -999.2500
10330.5000  -999.2500  2037.6113   122.6643    62.9287      .4736      .5842  -999.2500      .8406  -999.2500   -47.7744  -999.2500  -999.2500  -999.2500  -999.2500
10331.0000  -999.2500  2009.6309   123.5958    64.0741      .4753      .5983  -999.2500      .8408  -999.2500   -47.8434  -999.2500  -999.2500  -999.2500  -999.2500
10331.5000  -999.2500  1974.2734   123.8910    64.9642      .4853      .6136  -999.2500      .8426  -999.2500   -47.8695  -999.2500  -999.2500  -999.2500  -999.2500
10332.0000  -999.2500  1919.8008   122.8286    65.1056      .4977      .6293  -999.2500      .8534  -999.2500   -47.8956  -999.2500  -999.2500  -999.2500  -999.2500
10332.5000  -999.2500  1865.2266   121.5538    63.3893      .5168      .6454  -999.2500      .8677  -999.2500   -48.0110  -999.2500  -999.2500  -999.2500  -999.2500
10333.0000  -999.2500  1810.7539   120.2789    61.0246      .5366      .6552  -999.2500      .8822  -999.2500   -48.3909  -999.2500  -999.2500  -999.2500  -999.2500
10333.5000  -999.2500  1778.9609   119.2821    59.4186      .5533      .6605  -999.2500      .8910  -999.2500   -48.7715  -999.2500  -999.2500  -999.2500  -999.2500
10334.0000  -999.2500  1747.2676   118.6459    57.8125      .5620      .6658  -999.2500      .8966  -999.2500   -48.4839  -999.2500  -999.2500  -999.2500  -999.2500
10334.5000  -999.2500  1739.1465   118.0098    57.7557      .5699      .6712  -999.2500      .9023  -999.2500   -48.0356  -999.2500  -999.2500  -999.2500  -999.2500
10335.0000  -999.2500  1757.0723   118.3531    57.9166      .5615      .6531  -999.2500      .9019  -999.2500   -47.4740  -999.2500  -999.2500  -999.2500  -999.2500
10335.5000  -999.2500  1812.3379   119.3179    58.1586      .5533      .6343  -999.2500      .8938  -999.2500   -46.9124  -999.2500  -999.2500  -999.2500  -999.2500
10336.0000  -999.2500  1867.5059   120.4396    57.4824      .5408      .6174  -999.2500      .8859  -999.2500   -46.3508  -999.2500  -999.2500  -999.2500  -999.2500
10336.5000  -999.2500  1918.8086   121.5613    55.8937      .5282      .6023  -999.2500      .8778  -999.2500   -46.1624  -999.2500  -999.2500  -999.2500  -999.2500
10337.0000  -999.2500  1969.9160   122.6804    54.8221      .5158      .5877  -999.2500      .8630  -999.2500   -46.1224  -999.2500  -999.2500  -999.2500  -999.2500
10337.5000  -999.2500  2021.1211   123.7527    57.5958      .5038      .5764  -999.2500      .8484  -999.2500   -46.0824  -999.2500  -999.2500  -999.2500  -999.2500
10338.0000  -999.2500  2067.8672   124.8224    59.1218      .4942      .5669  -999.2500      .8359  -999.2500   -46.1894  -999.2500  -999.2500  -999.2500  -999.2500
10338.5000  -999.2500  2104.8594   125.8873    59.7351      .4847      .5577  -999.2500      .8278  -999.2500   -46.3680  -999.2500  -999.2500  -999.2500  -999.2500
10339.0000  -999.2500  2121.5039   126.4604    59.0873      .4755      .5563  -999.2500      .8323  -999.2500   -46.5441  -999.2500  -999.2500  -999.2500  -999.2500
10339.5000  -999.2500  2119.6211   126.5710    59.5836      .4680      .5603  -999.2500      .8417  -999.2500   -46.7138  -999.2500  -999.2500  -999.2500  -999.2500
10340.0000  -999.2500  2122.3281   126.2455    61.2734      .4659      .5538  -999.2500      .8469  -999.2500   -46.8695  -999.2500  -999.2500  -999.2500  -999.2500
10340.5000  -999.2500  2128.6563   125.5438    63.1528      .4639      .5572  -999.2500      .8513  -999.2500   -46.8190  -999.2500  -999.2500  -999.2500  -999.2500
10341.0000  -999.2500  2136.8516   124.8422    62.3252      .4621      .5579  -999.2500      .8557  -999.2500   -46.7684  -999.2500  -999.2500  -999.2500  -999.2500
10341.5000  -999.2500  2148.2656   124.3179    60.7216      .4666      .5547  -999.2500      .8536  -999.2500   -46.6639  -999.2500  -999.2500  -999.2500  -999.2500
10342.0000  -999.2500  2158.0391   124.7897    59.1304      .4711      .5400  -999.2500      .8480  -999.2500   -46.5124  -999.2500  -999.2500  -999.2500  -999.2500
10342.5000  -999.2500  2160.4570   125.4500    59.7117      .4757      .5335  -999.2500      .8425  -999.2500   -46.3609  -999.2500  -999.2500  -999.2500  -999.2500
10343.0000  -999.2500  2135.5156   126.4629    60.7007      .4816      .5428  -999.2500      .8353  -999.2500   -46.3531  -999.2500  -999.2500  -999.2500  -999.2500
10343.5000  -999.2500  2082.4258   127.4784    61.0917      .4880      .5550  -999.2500      .8250  -999.2500   -46.3650  -999.2500  -999.2500  -999.2500  -999.2500
10344.0000  -999.2500  2012.4043   127.0052    61.4729      .4944      .5724  -999.2500      .8149  -999.2500   -46.7412  -999.2500  -999.2500  -999.2500  -999.2500
10344.5000  -999.2500  1922.0781   126.3740    59.2806      .5122      .5984  -999.2500      .8195  -999.2500   -47.7967  -999.2500  -999.2500  -999.2500  -999.2500
10345.0000  -999.2500  1847.6973   124.5161    57.6746      .5307      .6366  -999.2500      .8253  -999.2500   -50.3929  -999.2500  -999.2500  -999.2500  -999.2500
10345.5000  -999.2500  1784.6055   122.6459    56.1597      .5475      .6872  -999.2500      .8567  -999.2500   -53.9598  -999.2500  -999.2500  -999.2500  -999.2500
10346.0000  -999.2500  1736.9668   120.7014    54.2507      .5628      .7375  -999.2500      .9021  -999.2500   -58.0192  -999.2500  -999.2500  -999.2500  -999.2500
10346.5000  -999.2500  1703.6270   117.7318    50.8957      .5777      .7549  -999.2500     1.0101  -999.2500   -60.5366  -999.2500  -999.2500  -999.2500  -999.2500
