~VERSION INFORMATION
VERS.                             2.0:   CWLS Log ASCII Standard-VERSION 2.0
WRAP.                              NO:   One line per depth step
~Well Information Block
STRT.F                      3120.0000:   Top Depth
STOP.F                     12040.0000:   Bottom Depth
STEP.F                         .50000:   Depth Increment
NULL.                        -999.250:   Null Value
FLD .                      GA BLK 254:   Field Name
WELL.       OCSG01776   001 ST00 BP00:   NAME
API .                    42706300290000:   WELL API
R1  .                      SUN OIL CO:   COMMENT  1
EDF .F                        57.0000:   ELEV DRILL FLOOR
COMP.                      SUN OIL CO:   OPERATOR
BN  .                             254:   BLOCK
CTRY.                             USA:   COUNTRY NAME
CNTY.                              GA:   COUNTY
CNTY.                        GLVSTN L:   COUNTY NAME
EKB .F                        58.0000:   ELEV KELLY BUSHING
TDD .F                      12003.000:   FINAL TD DRILLER
STAT.                           TEXAS:   STATE NAME
UWI .                    42706300290000:   WELL API
DICO.               IHS : Digitizing Company
~PARAMETER INFORMATION (zones)
#MNEM.UNIT                       Value     Description
#=========                       =====     ===========
#ZONATION                           IE:   ZONATION NAME
#ZONE                            RUN_2:   ZONE NAME
TOP .                       7847.0000:   TOP DEPTH
BOT .                      10079.0000:   BOTTOM DEPTH
RUN .                               2:   RUN NUMBER
LCCD.                             440:   LOGGING CONTRACTOR
SRVC.                    Schlumberger:   LOGGING CONT NAME
DICO.          QC Data Collectors Ltd:   DIG COMPANY NAME
LDAT.                      11/28/1970:   DATE LOGGED
ELD .F                        58.0000:   LOG DATUM ELEVATION
TDD .F                     10076.0000:   TOTAL DEPTH DRILLER
TDL .F                     10080.0000:   TOTAL DEPTH LOGGER
BOTL.F                     10079.0000:   BOTTOM DEPTH LOGGED
TOPL.F                      7847.0000:   TOP DEPTH LOGGED
CS1 .IN                        9.6250:   CASING SIZE 1
BS1 .IN                        8.5000:   BIT SIZE 1
DDB1.F                     10076.0000:   DEPTH DRILLED BIT 1
BHF .                              99:   FLUID CODE
DPT .                   Miscellaneous:   DRILLING FLUID TYPE
MUDD.                         15.4000:   FLUID DENSITY
MUDV.                         48.0000:   FLUID VISCOSITY
DFPH.                         11.5000:   FLUID PH
FL  .                          3.2000:   FLUID LOSS
RM  .OHMM                       .8400:   RM
RMT .DEGF                     75.0000:   RM TEMP
RMF .OHMM                       .4600:   RMF
RMFT.DEGF                     75.0000:   RMF TEMP
FSC .                               M:   RMF CODE
RMC .OHMM                      1.3100:   RMC
RMCT.DEGF                     75.0000:   RMC TEMP
CMC .                               C:   RMC CODE
TMAX.DEGF                    202.0000:   MAX REC TEMP
TIMC.                          3.5000:   TIME SINCE CIRCLN
~PARAMETER INFORMATION (zones)
#MNEM.UNIT                       Value     Description
#=========                       =====     ===========
#ZONATION                           IE:   ZONATION NAME
#ZONE                            RUN_3:   ZONE NAME
TOP .                      10074.0000:   TOP DEPTH
BOT .                      12002.0000:   BOTTOM DEPTH
RUN .                               3:   RUN NUMBER
LCCD.                             440:   LOGGING CONTRACTOR
SRVC.                    Schlumberger:   LOGGING CONT NAME
DICO.          QC Data Collectors Ltd:   DIG COMPANY NAME
LDAT.                      12/17/1970:   DATE LOGGED
ELD .F                        58.0000:   LOG DATUM ELEVATION
TDD .F                     12000.0000:   TOTAL DEPTH DRILLER
TDL .F                     12003.0000:   TOTAL DEPTH LOGGER
BOTL.F                     12002.0000:   BOTTOM DEPTH LOGGED
TOPL.F                     10074.0000:   TOP DEPTH LOGGED
CS1 .IN                        7.6250:   CASING SIZE 1
BS1 .IN                        6.5000:   BIT SIZE 1
DDB1.F                     12000.0000:   DEPTH DRILLED BIT 1
BHF .                              99:   FLUID CODE
DPT .                   Miscellaneous:   DRILLING FLUID TYPE
MUDD.                         15.9000:   FLUID DENSITY
MUDV.                         48.0000:   FLUID VISCOSITY
DFPH.                         12.0000:   FLUID PH
FL  .                          3.0000:   FLUID LOSS
RM  .OHMM                      1.0500:   RM
RMT .DEGF                     70.0000:   RM TEMP
RMF .OHMM                       .5100:   RMF
RMFT.DEGF                     70.0000:   RMF TEMP
FSC .                               M:   RMF CODE
RMC .OHMM                      1.3000:   RMC
RMCT.DEGF                     70.0000:   RMC TEMP
CMC .                               C:   RMC CODE
TMAX.DEGF                    240.0000:   MAX REC TEMP
TIMC.                          5.0000:   TIME SINCE CIRCLN
~PARAMETER INFORMATION (zones)
#MNEM.UNIT                       Value     Description
#=========                       =====     ===========
#ZONATION                           IE:   ZONATION NAME
#ZONE                            RUN_1:   ZONE NAME
TOP .                       3120.0000:   TOP DEPTH
BOT .                      12002.5000:   BOTTOM DEPTH
RUN .                               1:   RUN NUMBER
LCCD.                             440:   LOGGING CONTRACTOR
SRVC.                    Schlumberger:   LOGGING CONT NAME
DICO.          QC Data Collectors Ltd:   DIG COMPANY NAME
LDAT.                      11/19/1970:   DATE LOGGED
ELD .F                        58.0000:   LOG DATUM ELEVATION
TDD .F                      7850.0000:   TOTAL DEPTH DRILLER
TDL .F                      7847.0000:   TOTAL DEPTH LOGGER
BOTL.F                      7847.0000:   BOTTOM DEPTH LOGGED
TOPL.F                      3120.0000:   TOP DEPTH LOGGED
CS1 .IN                       13.3750:   CASING SIZE 1
BS1 .IN                       12.2500:   BIT SIZE 1
DDB1.F                      7850.0000:   DEPTH DRILLED BIT 1
BHF .                              99:   FLUID CODE
DPT .                   Miscellaneous:   DRILLING FLUID TYPE
MUDD.                         12.5000:   FLUID DENSITY
MUDV.                         46.0000:   FLUID VISCOSITY
DFPH.                         10.5000:   FLUID PH
FL  .                          4.0000:   FLUID LOSS
RM  .OHMM                       .7900:   RM
RMT .DEGF                     80.0000:   RM TEMP
RMF .OHMM                       .5200:   RMF
RMFT.DEGF                     75.0000:   RMF TEMP
FSC .                               M:   RMF CODE
RMC .OHMM                      1.2300:   RMC
RMCT.DEGF                     75.0000:   RMC TEMP
CMC .                               M:   RMC CODE
TMAX.DEGF                    152.0000:   MAX REC TEMP
TIMC.                          4.0000:   TIME SINCE CIRCLN
~Curve Information Block
#MNEM.UNIT         API  CODE                       CURVE DESCRIPTION
#---------        ------------                    --------------------
 DEPT.F           00 001 00 00                    :1   DEPTH
 C1-3.IN          00 000 00 00                    :2
 C2-4.IN          00 000 00 00                    :3
 CALI.IN          00 000 00 00                    :4   Density Caliper
 CILD.MMHO        00 000 00 00                    :5   Deep Induction Conductivity
 CORR.G/CC        00 000 00 00                    :6   Density Correction
 DT  .US/FT       00 000 00 00                    :7   Delta-T Compressional
 GR  .API         00 000 00 00                    :8   Gamma Ray
 ILD .OHMM        00 000 00 00                    :9   Induction Deep Resistivity
 IND .OHMM        00 000 00 00                    :10
 RHOB.G/CC        00 000 00 00                    :11  Bulk Density
 SN16.OHMM        00 000 00 00                    :12  Short Normal 16 Inch
 SP  .MV          00 000 00 00                    :13  Spontaneous Potential
~A    DEPT        C1-3        C2-4        CALI        CILD        CORR          DT          GR         ILD         IND        RHOB        SN16          SP
# ...
   9673.5000      8.5600      8.7600   -999.2500   1503.6504   -999.2500    110.2000   -999.2500      0.7077      0.7400   -999.2500      0.7360    -30.4000
   9674.0000      8.5200      8.7200   -999.2500   1406.6230   -999.2500    109.9000   -999.2500      0.7403      0.8000   -999.2500      0.7720    -30.6000
   9674.5000      8.4800      8.6800   -999.2500   1195.0391   -999.2500    109.0000   -999.2500      0.7730      0.8600   -999.2500      0.8240    -30.8000
   9675.0000      8.4400      8.5600   -999.2500   1141.0723   -999.2500    108.1000   -999.2500      0.8057      0.9200   -999.2500      0.8920    -31.4000
   9675.5000      8.4000      8.4800   -999.2500   1118.1406   -999.2500    105.6000   -999.2500      0.8383      0.9000   -999.2500      0.9440    -32.8000
   9676.0000      8.3600      8.4000   -999.2500   1110.9551   -999.2500    100.5081   -999.2500      0.8710      0.8600   -999.2500      0.9800    -34.2000
   9676.5000      8.5200      8.3600   -999.2500   1142.2441   -999.2500     96.7000   -999.2500      0.8906      0.8000   -999.2500      1.0000    -36.0000
   9677.0000      8.7600      8.5600   -999.2500   1323.3555   -999.2500     94.8000   -999.2500      0.8592      0.7600   -999.2500      0.9960    -38.2000
   9677.5000      8.9200      8.7600   -999.2500   1391.4375   -999.2500     95.2000   -999.2500      0.8084      0.7200   -999.2500      0.9240    -39.2000
   9678.0000      9.1538      9.0000   -999.2500   1450.5508   -999.2500     97.3000   -999.2500      0.7423      0.6600   -999.2500      0.8280    -39.4000
   9678.5000      9.2657      9.1496   -999.2500   1530.3535   -999.2500    100.8000   -999.2500      0.6761      0.6200   -999.2500      0.7720    -37.9763
   9679.0000      9.1013      9.1404   -999.2500   1659.1797   -999.2500    104.7000   -999.2500      0.6100      0.6000   -999.2500      0.7240    -35.7549
   9679.5000      8.6545      8.8945   -999.2500   1760.8457   -999.2500    112.3000   -999.2500      0.6026      0.6200   -999.2500      0.6960    -33.9502
   9680.0000      8.1236      8.2836   -999.2500   1729.7090   -999.2500    116.8000   -999.2500      0.6436      0.6600   -999.2500      0.7120    -32.7496
   9680.5000      7.9200      7.8800   -999.2500   1554.4063   -999.2500    121.3000   -999.2500      0.7242      0.6800   -999.2500      0.7675    -32.3529
   9681.0000      7.8400      7.8800   -999.2500   1407.1328   -999.2500    123.0000   -999.2500      0.8047      0.7600   -999.2500      0.8468    -33.7255
   9681.5000      7.9200      7.9600   -999.2500   1329.4707   -999.2500    118.4000   -999.2500      0.8852      0.8400   -999.2500      0.9514    -37.4510
   9682.0000      8.0000      8.0400   -999.2500   1210.3262   -999.2500    109.9000   -999.2500      0.9658      0.9400   -999.2500      1.0920    -42.2000
   9682.5000      8.0800      8.1200   -999.2500    962.5098   -999.2500     98.6000   -999.2500      1.0272      1.0392   -999.2500      1.2627    -44.4000
   9683.0000      8.1200      8.1600   -999.2500    926.4805   -999.2500     91.5000   -999.2500      1.0802      1.1373   -999.2500      1.3608    -42.4000
   9683.5000      8.2000      8.2400   -999.2500    896.5674   -999.2500     87.4000   -999.2500      1.1331      1.1961   -999.2500      1.2941    -41.0000
   9684.0000      8.2800      8.3200   -999.2500    866.7559   -999.2500     83.5000   -999.2500      1.1678      1.1961   -999.2500      1.2588    -41.2000
   9684.5000      8.3600      8.3200   -999.2500    869.4570   -999.2500     82.1000   -999.2500      1.1263      1.1176   -999.2500      1.3333    -40.2000
   9685.0000      8.4000      8.3200   -999.2500    889.2041   -999.2500     80.4000   -999.2500      1.0852      1.0588   -999.2500      1.3843    -38.6275
   9685.5000      8.4000      8.2800   -999.2500    908.9512   -999.2500     78.4000   -999.2500      1.0442      1.0000   -999.2500      1.2980    -38.0392
   9686.0000      8.4400      8.2800   -999.2500    928.6973   -999.2500     84.7000   -999.2500      1.0031      0.9800   -999.2500      1.2000    -38.2353
   9686.5000      8.4800      8.2800   -999.2500    952.7256   -999.2500     89.1858   -999.2500      0.9621      0.9400   -999.2500      1.1760    -38.0392
   9687.0000      8.5200      8.3200   -999.2500    977.4404   -999.2500     93.4600   -999.2500      0.9210      0.9000   -999.2500      1.1800    -37.4510
   9687.5000      8.5600      8.3600   -999.2500   1002.2070   -999.2500     95.1350   -999.2500      0.8827      0.9000   -999.2500      1.1400    -37.0588
   9688.0000      8.6000      8.4400   -999.2500   1026.9219   -999.2500     95.5100   -999.2500      0.8681      0.9000   -999.2500      1.1080    -36.8627
   9688.5000      8.6400      8.4800   -999.2500   1051.6367   -999.2500     98.3000   -999.2500      0.8535      0.9003   -999.2500      1.0754    -36.2745
   9689.0000      8.6800      8.4800   -999.2500   1076.4043   -999.2500     97.3000   -999.2500      0.8388      0.9008   -999.2500      1.0345    -35.4902
   9689.5000      8.6800      8.4800   -999.2500   1101.4766   -999.2500     96.5000   -999.2500      0.8242      0.8816   -999.2500      1.0093    -34.9020
   9690.0000      8.6800      8.4000   -999.2500   1158.6523   -999.2500     97.6000   -999.2500      0.8096      0.8821   -999.2500      0.9925    -35.0980
   9690.5000      8.6800      8.3200   -999.2500   1214.6074   -999.2500     97.5000   -999.2500      0.8022      0.8850   -999.2500      0.9686    -35.2941
   9691.0000      8.6800      8.2400   -999.2500   1234.4551   -999.2500     95.6000   -999.2500      0.8140      0.8696   -999.2500      0.9529    -34.9020
   9691.5000      8.6800      8.2800   -999.2500   1254.3047   -999.2500    100.0000   -999.2500      0.8258      0.8739   -999.2500      0.9490    -34.3137
   9692.0000      8.6400      8.3600   -999.2500   1244.1133   -999.2500    102.1000   -999.2500      0.8377      0.8782   -999.2500      0.9608    -33.7255
   9692.5000      8.6400      8.4000   -999.2500   1215.7793   -999.2500    102.2000   -999.2500      0.8495      0.9000   -999.2500      0.9882    -33.9216
   9693.0000      8.6400      8.4000   -999.2500   1188.9746   -999.2500    101.7000   -999.2500      0.8613      0.9400   -999.2500      1.0400    -33.9216
   9693.5000      8.6400      8.3600   -999.2500   1167.8262   -999.2500    100.2000   -999.2500      0.8725      0.9800   -999.2500      1.0840    -33.9216
   9694.0000      8.6400      8.3200   -999.2500   1146.6777   -999.2500     99.6000   -999.2500      0.8732      0.9800   -999.2500      1.1040    -33.5294
   9694.5000      8.6400      8.3600   -999.2500   1125.5293   -999.2500     98.7000   -999.2500      0.8739      0.9800   -999.2500      1.0440    -33.1373
   9695.0000      8.6800      8.4400   -999.2500   1147.9004   -999.2500     96.3000   -999.2500      0.8637      0.9800   -999.2500      0.9412    -33.3333
   9695.5000      8.7600      8.5600   -999.2500   1190.1465   -999.2500     90.2000   -999.2500      0.8287      0.9200   -999.2500      0.9216    -33.5294
   9696.0000      8.7600      8.6800   -999.2500   1278.0020   -999.2500     86.1000   -999.2500      0.7937      0.9000   -999.2500      0.9922    -33.1373
   9696.5000      8.7200      8.6400   -999.2500   1418.0391   -999.2500     89.9000   -999.2500      0.7586      0.8600   -999.2500      0.9843    -32.9412
   9697.0000      8.7200      8.5200   -999.2500   1469.2148   -999.2500     93.3000   -999.2500      0.7236      0.8000   -999.2500      0.9412    -32.3529
   9697.5000      8.7200      8.1200   -999.2500   1475.9160   -999.2500    101.3000   -999.2500      0.7097      0.7600   -999.2500      0.8902    -32.1569
   9698.0000      8.7600      8.4400   -999.2500   1475.5215   -999.2500    102.7000   -999.2500      0.7026      0.7400   -999.2500      0.8549    -31.7647
   9698.5000      8.8046      9.2838   -999.2500   1462.7051   -999.2500    101.7941   -999.2500      0.6954      0.7400   -999.2500      0.8315    -31.3725
