~VERSION INFORMATION
VERS.                             2.0:   CWLS Log ASCII Standard-VERSION 2.0
WRAP.                              NO:   One line per depth step
~Well Information Block
STRT.F                      4122.0000:   Top Depth
STOP.F                     10958.0000:   Bottom Depth
STEP.F                         .50000:   Depth Increment
NULL.                        -999.250:   Null Value
FLD .                      GA BLK 273:   Field Name
WELL.       OCSG09037   003 ST00 BP00:   NAME
API .                  42706402950000:   WELL API
EDF .F                        95.0000:   ELEV DRILL FLOOR
COMP.       SEAGULL ENERGY E AND P IN:   OPERATOR
BN  .                             273:   BLOCK
CTRY.                             USA:   COUNTRY NAME
CNTY.                              GA:   COUNTY
CNTY.                        GLVSTN L:   COUNTY NAME
EKB .F                        96.0000:   ELEV KELLY BUSHING
TDD .F                      10964.000:   FINAL TD DRILLER
STAT.                           TEXAS:   STATE NAME
UWI .                  42706402950000:   WELL API
DICO.               IHS : Digitizing Company
~PARAMETER INFORMATION (zones)
#MNEM.UNIT                       Value     Description
#=========                       =====     ===========
#ZONATION                          DIL:   ZONATION NAME
#ZONE                            RUN_1:   ZONE NAME
TOP .                       4122.0000:   TOP DEPTH
BOT .                       9366.5000:   BOTTOM DEPTH
RUN .                               1:   RUN NUMBER
LCCD.                             440:   LOGGING CONTRACTOR
SRVC.                    Schlumberger:   LOGGING CONT NAME
DICO.          QC Data Collectors Ltd:   DIG COMPANY NAME
LDAT.                      05/20/1991:   DATE LOGGED
ELD .F                        96.0000:   LOG DATUM ELEVATION
TDD .F                      9360.0000:   TOTAL DEPTH DRILLER
TDL .F                      9366.0000:   TOTAL DEPTH LOGGER
BOTL.F                      9366.0000:   BOTTOM DEPTH LOGGED
TOPL.F                      4402.0000:   TOP DEPTH LOGGED
CS1 .IN                       10.7500:   CASING SIZE 1
BS1 .IN                        9.8750:   BIT SIZE 1
DDB1.F                      9360.0000:   DEPTH DRILLED BIT 1
BHF .                              81:   FLUID CODE
DPT .          Lignosulfonate (Ligno):   DRILLING FLUID TYPE
MUDD.                         12.5000:   FLUID DENSITY
MUDV.                         45.0000:   FLUID VISCOSITY
DFPH.                         10.0000:   FLUID PH
FL  .                          8.0000:   FLUID LOSS
RM  .OHMM                       .5080:   RM
RMT .DEGF                     67.0000:   RM TEMP
RMF .OHMM                       .3460:   RMF
RMFT.DEGF                     67.0000:   RMF TEMP
FSC .                               M:   RMF CODE
RMC .OHMM                       .6820:   RMC
RMCT.DEGF                     67.0000:   RMC TEMP
CMC .                               M:   RMC CODE
TMAX.DEGF                    170.0000:   MAX REC TEMP
TIMC.                          6.6800:   TIME SINCE CIRCLN
~PARAMETER INFORMATION (zones)
#MNEM.UNIT                       Value     Description
#=========                       =====     ===========
#ZONATION                          DIL:   ZONATION NAME
#ZONE                            RUN_2:   ZONE NAME
TOP .                       9092.0000:   TOP DEPTH
BOT .                      10398.5000:   BOTTOM DEPTH
RUN .                               2:   RUN NUMBER
LCCD.                             440:   LOGGING CONTRACTOR
SRVC.                    Schlumberger:   LOGGING CONT NAME
DICO.          QC Data Collectors Ltd:   DIG COMPANY NAME
LDAT.                      06/04/1991:   DATE LOGGED
ELD .F                        96.0000:   LOG DATUM ELEVATION
TDD .F                     10401.0000:   TOTAL DEPTH DRILLER
TDL .F                     10404.0000:   TOTAL DEPTH LOGGER
BOTL.F                     10398.0000:   BOTTOM DEPTH LOGGED
TOPL.F                      9292.0000:   TOP DEPTH LOGGED
CS1 .IN                        7.6250:   CASING SIZE 1
BS1 .IN                        6.7500:   BIT SIZE 1
DDB1.F                     10401.0000:   DEPTH DRILLED BIT 1
BHF .                              99:   FLUID CODE
DPT .                   Miscellaneous:   DRILLING FLUID TYPE
MUDD.                         14.1000:   FLUID DENSITY
MUDV.                         40.0000:   FLUID VISCOSITY
DFPH.                          9.8000:   FLUID PH
FL  .                          3.4000:   FLUID LOSS
RM  .OHMM                       .5160:   RM
RMT .DEGF                     80.0000:   RM TEMP
RMF .OHMM                       .2580:   RMF
RMFT.DEGF                     80.0000:   RMF TEMP
FSC .                               M:   RMF CODE
RMC .OHMM                      1.8700:   RMC
RMCT.DEGF                     80.0000:   RMC TEMP
CMC .                               M:   RMC CODE
TMAX.DEGF                    192.0000:   MAX REC TEMP
TIMC.                          7.4000:   TIME SINCE CIRCLN
~PARAMETER INFORMATION (zones)
#MNEM.UNIT                       Value     Description
#=========                       =====     ===========
#ZONATION                          DIL:   ZONATION NAME
#ZONE                            RUN_3:   ZONE NAME
TOP .                       9320.0000:   TOP DEPTH
BOT .                      10958.5000:   BOTTOM DEPTH
RUN .                               3:   RUN NUMBER
LCCD.                             440:   LOGGING CONTRACTOR
SRVC.                    Schlumberger:   LOGGING CONT NAME
DICO.          QC Data Collectors Ltd:   DIG COMPANY NAME
LDAT.                      06/09/1991:   DATE LOGGED
ELD .F                        96.0000:   LOG DATUM ELEVATION
TDD .F                     10960.0000:   TOTAL DEPTH DRILLER
TDL .F                     10964.0000:   TOTAL DEPTH LOGGER
BOTL.F                     10958.0000:   BOTTOM DEPTH LOGGED
TOPL.F                      9404.0000:   TOP DEPTH LOGGED
CS1 .IN                        7.6250:   CASING SIZE 1
BS1 .IN                        6.7500:   BIT SIZE 1
DDB1.F                     10960.0000:   DEPTH DRILLED BIT 1
BHF .                              99:   FLUID CODE
DPT .                   Miscellaneous:   DRILLING FLUID TYPE
MUDD.                         14.7000:   FLUID DENSITY
MUDV.                         46.0000:   FLUID VISCOSITY
DFPH.                         10.0000:   FLUID PH
FL  .                          2.3000:   FLUID LOSS
RM  .OHMM                       .4570:   RM
RMT .DEGF                     74.0000:   RM TEMP
RMF .OHMM                       .2190:   RMF
RMFT.DEGF                     74.0000:   RMF TEMP
FSC .                               M:   RMF CODE
RMC .OHMM                       .7110:   RMC
RMCT.DEGF                     74.0000:   RMC TEMP
CMC .                               M:   RMC CODE
TMAX.DEGF                    202.0000:   MAX REC TEMP
TIMC.                          7.3800:   TIME SINCE CIRCLN
~Curve Information Block
#MNEM.UNIT                    API CODE    No Description
#=========                    ========    == ===========
DEPT.F                   00 001 00 00:     1  DEPTH
DT.US/F                              :     2  Sonic Transit Time
GR.GAPI                              :     3  Gamma Ray
ILD.OHMM                             :     4  Deep Induction Resistivity
ILM.OHMM                             :     5  Medium Induction Resistivity
SFL.OHMM                             :     6  Medium Resistivity
SP.MV                                :     7  Spontaneous Potential
~ASCII
# ...
 8698.0000   108.7576    69.5367      .8497      .8391      .7316   -44.0389
 8698.5000   108.0879    69.6649      .8517      .8375      .7464   -43.5853
 8699.0000   107.4985    70.6608      .8537      .8366      .7599   -43.0801
 8699.5000   106.9563    71.5933      .8565      .8367      .7723   -43.0724
 8700.0000   106.5565    70.4125      .8639      .8383      .7826   -43.2520
 8700.5000   106.5548    69.5367      .8713      .8399      .7893   -43.3979
 8701.0000   107.3251    69.3853      .8718      .8422      .7946   -43.4827
 8701.5000   108.2542    69.7531      .8674      .8448      .7888   -43.5278
 8702.0000   109.3424    70.2123      .8591      .8477      .7752   -43.4816
 8702.5000   110.4565    68.4583      .8527      .8533      .7511   -43.3657
 8703.0000   111.2356    65.3345      .8479      .8589      .7274   -43.1885
 8703.5000   109.8394    63.3509      .8463      .8643      .7041   -43.1235
 8704.0000   107.9993    62.4418      .8482      .8629      .7063   -43.5273
 8704.5000   106.3740    61.6061      .8501      .8602      .7729   -43.9544
 8705.0000   104.7876    60.8159      .8552      .8575      .8532   -44.2595
 8705.5000   103.8190    60.9574      .8609      .8551      .9139   -44.1907
 8706.0000   103.9530    63.2067      .8684      .8528      .9493   -43.7863
 8706.5000   104.6453    65.6095      .8662      .8505      .9497   -43.3384
 8707.0000   105.3207    67.6866      .8639      .8483      .9474   -43.0100
 8707.5000   105.3019    67.8868      .8618      .8462      .9280   -42.9457
 8708.0000   104.9739    66.6841      .8618      .8440      .9130   -43.0604
 8708.5000   104.7488    65.8805      .8618      .8415      .9011   -43.0937
 8709.0000   104.6025    66.4866      .8618      .8390      .9041   -42.9898
 8709.5000   104.6276    66.9420      .8623      .8375      .9072   -42.8860
 8710.0000   104.6003    65.3506      .8634      .8382      .9165   -42.8289
 8710.5000   104.4265    62.7609      .8644      .8388      .9271   -42.8134
 8711.0000   104.0824    60.2939      .8650      .8418      .9378   -42.7980
 8711.5000   104.0161    58.8706      .8644      .8453      .9488   -42.7384
 8712.0000   104.0222    58.6777      .8638      .8503      .9599   -42.7327
 8712.5000   104.1024    60.1844      .8648      .8564      .9606   -42.7957
 8713.0000   104.2642    61.6782      .8676      .8618      .9526   -42.9803
 8713.5000   104.4890    62.4151      .8703      .8660      .9554   -43.0176
 8714.0000   104.6348    63.2120      .8725      .8649      .9632   -43.0189
 8714.5000   104.7245    65.3131      .8740      .8625      .9651   -43.1611
 8715.0000   104.8142    67.2034      .8747      .8570      .9607   -43.5380
 8715.5000   104.3929    69.1364      .8715      .8502      .9598   -44.0799
 8716.0000   103.9607    67.9723      .8684      .8435      .9598   -44.5526
 8716.5000   103.5208    65.9913      .8651      .8394      .9598   -44.3349
 8717.0000   103.0795    64.7311      .8619      .8408      .9598   -43.9177
 8717.5000   103.0023    63.5458      .8587      .8421      .9644   -43.4612
 8718.0000   103.3176    62.3150      .8592      .8435      .9691   -43.2383
 8718.5000   103.3894    61.0188      .8598      .8651      .9736   -43.2673
 8719.0000   102.9844    61.1750      .8660      .8790      .9780   -43.2326
 8719.5000   102.5793    63.5031      .8770      .8942      .9787   -42.9536
 8720.0000   101.9984    64.8954      .8968      .9148      .9755   -42.6763
 8720.5000   101.3960    66.4238      .9209      .9447      .9652   -42.4016
 8721.0000   100.4669    69.0509      .9552      .9808      .9614   -42.5211
 8721.5000    98.9568    71.8729      .9932     1.0225      .9586   -42.8705
 8722.0000    97.0261    73.3226     1.0341     1.0590      .9317   -43.1668
 8722.5000    95.2197    70.5540     1.0683     1.0939      .9166   -43.4114
 8723.0000    93.8209    68.4448     1.1006     1.1254      .9282   -43.6117
 8723.5000    93.0458    67.2261     1.1293     1.1508      .9716   -43.7986
 8724.0000    92.5696    65.9939     1.1573     1.1716     1.0403   -44.1694
 8724.5000    92.2957    64.6350     1.1842     1.1811     1.1154   -44.5925
 8725.0000    92.5386    63.2895     1.2088     1.1848     1.1420   -44.9454
 8725.5000    94.0370    61.9973     1.2303     1.1810     1.0929   -45.0196
 8726.0000    98.9438    61.0268     1.2152     1.1740     1.0856   -45.0360
 8726.5000   105.3932    60.8433     1.1713     1.1643     1.1151   -44.9948
 8727.0000   110.6106    62.0427     1.1426     1.1292     1.0758   -44.9857
 8727.5000   114.9066    65.3239     1.1188     1.0773      .9089   -45.0096
 8728.0000   114.3088    68.3407     1.0977     1.0272      .8344   -45.0906
 8728.5000   111.4801    70.1749     1.0767      .9856      .8001   -45.2079
 8729.0000   108.3228    71.3483     1.0574      .9622      .7818   -45.6017
 8729.5000   105.7710    71.9937     1.0414      .9468      .7784   -45.9848
 8730.0000   103.3306    71.7688     1.0338      .9413      .7882   -46.1110
 8730.5000   101.5060    68.0737     1.0325      .9358      .8084   -45.6945
 8731.0000   100.1693    65.6709     1.0343      .9381      .8368   -45.2360
 8731.5000   100.4475    63.5885     1.0362      .9433      .8738   -44.7194
 8732.0000   101.9006    64.5682     1.0392      .9486      .9117   -44.2020
 8732.5000   102.9346    66.2048     1.0423      .9565      .9506   -44.1694
 8733.0000   102.9391    67.0946     1.0460      .9661      .9606   -44.3188
 8733.5000   102.3729    67.7094     1.0513      .9757      .9477   -44.4030
 8734.0000   101.6212    69.1283     1.0530      .9837      .9125   -44.4228
 8734.5000   101.0377    71.2936     1.0543      .9901      .8722   -44.4003
 8735.0000   100.9114    73.5015     1.0550      .9993      .8638   -44.3619
 8735.5000   100.9037    72.9648     1.0555      .9993      .8751   -44.3198
 8736.0000   100.9911    70.9758     1.0561      .9993      .8928   -44.2713
 8736.5000   101.1119    68.6718     1.0564      .9993      .9072   -44.2044
 8737.0000   101.3003    66.0073     1.0548      .9991      .9209   -44.0526
 8737.5000   101.5076    63.1159     1.0531      .9984      .9310   -43.8730
 8738.0000   101.7936    61.3458     1.0514      .9978      .9387   -43.6647
 8738.5000   102.0870    63.1987     1.0496      .9977      .9411   -43.5988
 8739.0000   102.3947    65.5508     1.0475      .9989      .9261   -43.5557
 8739.5000   102.5283    67.9296     1.0454     1.0000      .9006   -43.5187
 8740.0000   102.0702    70.0735     1.0441     1.0012      .8842   -43.4821
 8740.5000   101.2123    71.1133     1.0434     1.0018      .8867   -43.5907
 8741.0000   100.7206    70.0587     1.0428     1.0024      .9010   -43.9057
 8741.5000   101.8114    69.2792     1.0443     1.0030      .9117   -44.4430
 8742.0000   103.1830    68.0524     1.0477     1.0070      .9078   -44.9329
 8742.5000   102.9993    64.4427     1.0512     1.0116      .8724   -45.0470
 8743.0000   101.4050    61.8691     1.0561     1.0201      .8803   -44.9591
 8743.5000    99.8652    61.5621     1.0619     1.0371      .9112   -44.8281
 8744.0000    98.9601    63.3001     1.0677     1.0563      .9435   -44.7346
 8744.5000    98.4910    63.2841     1.0736     1.0728      .9731   -44.6801
 8745.0000    98.1138    61.8571     1.0794     1.0830      .9607   -44.6362
 8745.5000    97.7411    61.5868     1.0849     1.0911      .9518   -44.6375
 8746.0000    97.5297    64.0851     1.0905     1.0956      .9436   -44.5425
 8746.5000    97.7509    68.0577     1.0931     1.0794      .9509   -44.3375
 8747.0000    98.2393    70.6528     1.0828     1.0608      .9582   -43.9311
 8747.5000    98.9478    72.2654     1.0664     1.0400      .9680   -43.4899
 8748.0000    99.7604    71.9503     1.0481     1.0197      .9787   -43.6187
 8748.5000   100.7153    68.6130     1.0296      .9966      .9744   -43.6199
 8749.0000   101.6755    64.6083     1.0125      .9718      .9327   -43.7505
 8749.5000   102.6344    61.8585      .9960      .9514      .8614   -43.9330
