~VERSION INFORMATION
VERS.                             2.0:   CWLS Log ASCII Standard-VERSION 2.0
WRAP.                              NO:   One line per depth step
~Well Information Block
STRT.F                      4703.0000:   Top Depth
STOP.F                      9304.5000:   Bottom Depth
STEP.F                         .50000:   Depth Increment
NULL.                        -999.250:   Null Value
FLD .                      BA BLK 399:   Field Name
WELL.       OCSG07218  A003 ST00 BP00:   NAME
API .                  42704403090000:   WELL API
EDF .F                       113.0000:   ELEV DRILL FLOOR
COMP.       SEAGULL ENERGY E AND P IN:   OPERATOR
EGL .F                       -62.0000:   ELEV GROUND LEVEL
EKB .F                       114.0000:   ELEV KELLY BUSHING
TDD .F                      9314.0000:   FINAL TD DRILLER
UWI .                  42704403090000:   WELL API
DICO.               IHS : Digitizing Company
~PARAMETER INFORMATION (zones)
#MNEM.UNIT                       Value     Description
#=========                       =====     ===========
#ZONATION                          CNL:   ZONATION NAME
#ZONE                            RUN_1:   ZONE NAME
TOP .                       4703.0000:   TOP DEPTH
BOT .                       9200.5000:   BOTTOM DEPTH
RUN .                               1:   RUN NUMBER
LCCD.                             510:   LOGGING CONTRACTOR
SRVC.                   Western Atlas:   LOGGING CONT NAME
DICO.          QC Data Collectors Ltd:   DIG COMPANY NAME
LDAT.                      03/24/1997:   DATE LOGGED
TDD .F                      9314.0000:   TOTAL DEPTH DRILLER
TDL .F                      9307.0000:   TOTAL DEPTH LOGGER
BOTL.F                      9305.0000:   BOTTOM DEPTH LOGGED
TOPL.F                      4703.0000:   TOP DEPTH LOGGED
CS1 .                         10.7500:   CASING SIZE 1
BS1 .                          9.8750:   BIT SIZE 1
DDB1.F                      9314.0000:   DEPTH DRILLED BIT 1
BHF .                              99:   FLUID CODE
DPT .                   Miscellaneous:   DRILLING FLUID TYPE
MUDD.                         11.5000:   FLUID DENSITY
MUDV.                         41.0000:   FLUID VISCOSITY
DFPH.                         10.2000:   FLUID PH
FL  .                          5.0000:   FLUID LOSS
RM  .OHMM                      1.1200:   RM
RMT .DEGF                     75.0000:   RM TEMP
RMF .OHMM                       .8300:   RMF
RMFT.DEGF                     75.0000:   RMF TEMP
FSC .                               M:   RMF CODE
RMC .OHMM                      1.4600:   RMC
RMCT.DEGF                     75.0000:   RMC TEMP
CMC .                               M:   RMC CODE
TMAX.DEGF                    181.0000:   MAX REC TEMP
TIMC.                         24.0000:   TIME SINCE CIRCLN
SON .                          173943:   SERVICE ORDER NUM
LMF .                             MSL:   LOGS MEAS FROM
MUDS.                             PIT:   MUD SOURCE
ENG .                         HADSALL:   ENGINEER
WIT .                        FONTENOT:   WITNESS
~PARAMETER INFORMATION (zones)
#MNEM.UNIT                       Value     Description
#=========                       =====     ===========
#ZONATION                          DAL:   ZONATION NAME
#ZONE                            RUN_1:   ZONE NAME
TOP .                       4703.0000:   TOP DEPTH
BOT .                       9242.5000:   BOTTOM DEPTH
RUN .                               1:   RUN NUMBER
LCCD.                             510:   LOGGING CONTRACTOR
SRVC.                   Western Atlas:   LOGGING CONT NAME
DICO.          QC Data Collectors Ltd:   DIG COMPANY NAME
LDAT.                      03/24/1997:   DATE LOGGED
TDD .F                      9314.0000:   TOTAL DEPTH DRILLER
TDL .F                      9307.0000:   TOTAL DEPTH LOGGER
BOTL.F                      9305.0000:   BOTTOM DEPTH LOGGED
TOPL.F                      4703.0000:   TOP DEPTH LOGGED
CS1 .                         10.7500:   CASING SIZE 1
BS1 .                          9.8750:   BIT SIZE 1
DDB1.F                      9314.0000:   DEPTH DRILLED BIT 1
BHF .                              99:   FLUID CODE
DPT .                   Miscellaneous:   DRILLING FLUID TYPE
MUDD.                         11.5000:   FLUID DENSITY
MUDV.                         41.0000:   FLUID VISCOSITY
DFPH.                         10.2000:   FLUID PH
FL  .                          5.0000:   FLUID LOSS
RM  .OHMM                      1.1200:   RM
RMT .DEGF                     75.0000:   RM TEMP
RMF .OHMM                       .8300:   RMF
RMFT.DEGF                     75.0000:   RMF TEMP
FSC .                               M:   RMF CODE
RMC .OHMM                      1.4600:   RMC
RMCT.DEGF                     75.0000:   RMC TEMP
CMC .                               M:   RMC CODE
TMAX.DEGF                    181.0000:   MAX REC TEMP
TIMC.                         24.0000:   TIME SINCE CIRCLN
SON .                          173943:   SERVICE ORDER NUM
LMF .                             MSL:   LOGS MEAS FROM
MUDS.                             PIT:   MUD SOURCE
ENG .                         HADSALL:   ENGINEER
WIT .                        FONTENOT:   WITNESS
~PARAMETER INFORMATION (zones)
#MNEM.UNIT                       Value     Description
#=========                       =====     ===========
#ZONATION                          DIL:   ZONATION NAME
#ZONE                            RUN_1:   ZONE NAME
TOP .                       4703.0000:   TOP DEPTH
BOT .                       9305.5000:   BOTTOM DEPTH
RUN .                               1:   RUN NUMBER
LCCD.                             510:   LOGGING CONTRACTOR
SRVC.                   Western Atlas:   LOGGING CONT NAME
DICO.          QC Data Collectors Ltd:   DIG COMPANY NAME
LDAT.                      03/24/1997:   DATE LOGGED
TDD .F                      9314.0000:   TOTAL DEPTH DRILLER
TDL .F                      9307.0000:   TOTAL DEPTH LOGGER
BOTL.F                      9305.0000:   BOTTOM DEPTH LOGGED
TOPL.F                      4703.0000:   TOP DEPTH LOGGED
CS1 .                         10.7500:   CASING SIZE 1
BS1 .                          9.8750:   BIT SIZE 1
DDB1.F                      9314.0000:   DEPTH DRILLED BIT 1
BHF .                              99:   FLUID CODE
DPT .                   Miscellaneous:   DRILLING FLUID TYPE
MUDD.                         11.5000:   FLUID DENSITY
MUDV.                         41.0000:   FLUID VISCOSITY
DFPH.                         10.2000:   FLUID PH
FL  .                          5.0000:   FLUID LOSS
RM  .OHMM                      1.1200:   RM
RMT .DEGF                     75.0000:   RM TEMP
RMF .OHMM                       .8300:   RMF
RMFT.DEGF                     75.0000:   RMF TEMP
FSC .                               M:   RMF CODE
RMC .OHMM                      1.4600:   RMC
RMCT.DEGF                     75.0000:   RMC TEMP
CMC .                               M:   RMC CODE
TMAX.DEGF                    181.0000:   MAX REC TEMP
TIMC.                         24.0000:   TIME SINCE CIRCLN
SON .                          173943:   SERVICE ORDER NUM
LMF .                             MSL:   LOGS MEAS FROM
MUDS.                             PIT:   MUD SOURCE
ENG .                         HADSALL:   ENGINEER
WIT .                        FONTENOT:   WITNESS
~PARAMETER INFORMATION (zones)
#MNEM.UNIT                       Value     Description
#=========                       =====     ===========
#ZONATION                          FDC:   ZONATION NAME
#ZONE                            RUN_1:   ZONE NAME
TOP .                       4703.0000:   TOP DEPTH
BOT .                       9228.5000:   BOTTOM DEPTH
RUN .                               1:   RUN NUMBER
LCCD.                             510:   LOGGING CONTRACTOR
SRVC.                   Western Atlas:   LOGGING CONT NAME
DICO.          QC Data Collectors Ltd:   DIG COMPANY NAME
LDAT.                      03/24/1997:   DATE LOGGED
TDD .F                      9314.0000:   TOTAL DEPTH DRILLER
TDL .F                      9307.0000:   TOTAL DEPTH LOGGER
BOTL.F                      9305.0000:   BOTTOM DEPTH LOGGED
TOPL.F                      4703.0000:   TOP DEPTH LOGGED
CS1 .                         10.7500:   CASING SIZE 1
BS1 .                          9.8750:   BIT SIZE 1
DDB1.F                      9314.0000:   DEPTH DRILLED BIT 1
BHF .                              99:   FLUID CODE
DPT .                   Miscellaneous:   DRILLING FLUID TYPE
MUDD.                         11.5000:   FLUID DENSITY
MUDV.                         41.0000:   FLUID VISCOSITY
DFPH.                         10.2000:   FLUID PH
FL  .                          5.0000:   FLUID LOSS
RM  .OHMM                      1.1200:   RM
RMT .DEGF                     75.0000:   RM TEMP
RMF .OHMM                       .8300:   RMF
RMFT.DEGF                     75.0000:   RMF TEMP
FSC .                               M:   RMF CODE
RMC .OHMM                      1.4600:   RMC
RMCT.DEGF                     75.0000:   RMC TEMP
CMC .                               M:   RMC CODE
TMAX.DEGF                    181.0000:   MAX REC TEMP
TIMC.                         24.0000:   TIME SINCE CIRCLN
SON .                          173943:   SERVICE ORDER NUM
LMF .                             MSL:   LOGS MEAS FROM
MUDS.                             PIT:   MUD SOURCE
ENG .                         HADSALL:   ENGINEER
WIT .                        FONTENOT:   WITNESS
~Curve Information Block
#MNEM.UNIT                    API CODE    No Description
#=========                    ========    == ===========
DEPT.F                   00 001 00 00:     1  DEPTH
CNCF.%                               :     2  Field Normalized CNC
DT24.US/F                            :     3  Unrecognised
CILD.MMHO                            :     4  Deep Induction Conductivity
RFOC.OHMM                            :     5  Medium Resistivity
RILD.OHMM                            :     6  Deep Resistivity
RILM.OHMM                            :     7  Medium Resistivity
RWAZ.OHMM                            :     8  Unrecognised
SP.MV                                :     9  Spontaneous Potential
GR.GAPI                              :    10  Gamma Ray
PORZ.%                               :    11  Neutron Porosity
ZCOR.G/C3                            :    12  Density Correction
ZDEN.G/C3                            :    13  Bulk Density
~ASCII
# ...
 8623.0000    41.2570   109.3719  1100.4727     1.2110      .9090      .9020      .0660     3.5260    66.9070    23.6820      .0410     2.2590
 8623.5000    39.8950   105.7799  1097.5723     1.2410      .9110      .9090      .0610     3.1600    63.8860    22.7350      .0460     2.2750
 8624.0000    38.4490   102.2620  1086.8398     1.2670      .9200      .9170      .0580     3.4750    65.5249    22.1640      .0420     2.2840
 8624.5000    38.4760   100.2090  1073.5879     1.2820      .9320      .9240      .0540     3.0790    62.6190    21.3860      .0500     2.2970
 8625.0000    37.8820    99.7589  1067.5254     1.2960      .9370      .9260      .0540     2.2630    65.1210    21.2620      .0460     2.2990
 8625.5000    37.1150   100.3989  1071.1895     1.2920      .9330      .9240      .0500     2.6810    61.1310    20.5170      .0500     2.3120
 8626.0000    37.3960   101.8490  1074.4492     1.2440      .9310      .9240      .0490     3.1440    61.5600    20.4160      .0490     2.3130
 8626.5000    38.4170   103.0349  1073.4141     1.1890      .9320      .9250      .0590     2.8670    63.5720    22.1730      .0410     2.2840
 8627.0000    39.9230   103.4509  1071.9082     1.1840      .9330      .9300      .0620     2.7840    66.6169    22.7520      .0480     2.2750
 8627.5000    39.1980   102.7970  1069.8086     1.2210      .9350      .9370      .0610     2.0510    63.2250    22.5570      .0470     2.2780
 8628.0000    37.5710   102.1349  1057.1328     1.2580      .9460      .9530      .0590     1.7240    61.4189    22.0070      .0520     2.2870
 8628.5000    37.5519   102.4929  1038.4297     1.2860      .9630      .9740      .0530     1.6480    58.8260    20.8580      .0510     2.3060
 8629.0000    36.9170   103.4839  1016.2695     1.3230      .9840      .9940      .0480     1.7150    59.8090    19.5790      .0590     2.3270
 8629.5000    36.1000   103.9180   996.1240     1.3350     1.0040     1.0130      .0410     1.7760    59.4420    18.1740      .0530     2.3500
 8630.0000    36.5600   103.4220   978.0977     1.3170     1.0220     1.0300      .0440     1.7230    59.1810    18.4690      .0570     2.3450
 8630.5000    36.5730   102.0549   963.8271     1.3140     1.0380     1.0460      .0440     1.6330    59.3680    18.4800      .0500     2.3450
 8631.0000    35.4399    99.7140   959.0937     1.3440     1.0430     1.0540      .0380     1.6520    60.5620    17.0980      .0590     2.3680
 8631.5000    34.2090    97.6570   956.3535     1.4060     1.0460     1.0560      .0320     1.7920    58.4399    15.9210      .0690     2.3870
 8632.0000    33.2740    95.2379   952.1875     1.4510     1.0500     1.0550      .0300     1.6780    54.2130    15.2750      .0730     2.3980
 8632.5000    33.9140    93.6119   951.4180     1.4120     1.0510     1.0520      .0300     1.6370    55.9470    15.1950      .0560     2.3990
 8633.0000    35.0970    94.3259   959.0898     1.3690     1.0430     1.0450      .0300     1.6410    56.1540    15.3020      .0640     2.3980
 8633.5000    35.2630    96.2129   978.7188     1.3510     1.0220     1.0320      .0360     1.8970    57.3180    16.9580      .0410     2.3700
 8634.0000    35.9020    98.8979  1011.3154     1.3170      .9890     1.0150      .0400     2.0250    63.2809    17.9640      .0360     2.3540
 8634.5000    37.1620   102.3069  1049.7148     1.2600      .9530      .9950      .0430     1.8380    66.4039    18.8580      .0500     2.3390
 8635.0000    37.9750   105.9750  1084.4023     1.2040      .9220      .9780      .0460     1.6450    65.4259    19.8870      .0500     2.3220
 8635.5000    37.5790   108.9779  1111.8145     1.1570      .8990      .9660      .0450     1.9000    62.1750    19.7680      .0470     2.3240
 8636.0000    36.6810   111.6620  1124.5469     1.1580      .8890      .9640      .0380     1.0870    63.7090    18.4410      .0630     2.3460
 8636.5000    35.2260   111.7839  1113.1602     1.2240      .8980      .9790      .0330     1.0000    60.3669    17.3230      .0840     2.3640
 8637.0000    33.1190   107.6139  1084.6719     1.3280      .9220     1.0170      .0300    -3.5060    58.9240    16.3310      .0850     2.3810
 8637.5000    30.8340   104.5709  1040.4824     1.4860      .9610     1.0690      .0500   -11.3520    57.8580    20.2150      .0520     2.3160
 8638.0000    30.3980   105.6320   986.4736     1.7170     1.0140     1.1290      .0750   -20.1150    56.9290    23.8660      .0400     2.2560
 8638.5000    29.5850   108.2599   938.8506     1.8970     1.0650     1.1820      .0890   -26.7830    51.3350    25.2590      .0360     2.2330
 8639.0000    27.9050   111.2000   910.7285     2.1640     1.0980     1.2070      .0920   -29.3150    46.0840    25.2540     -.0070     2.2330
 8639.5000    25.7230   110.7229   891.7061     2.8840     1.1210     1.1940      .0740   -25.9980    46.1750    22.5990     -.0010     2.2770
 8640.0000    25.2920   102.9760   879.0107     2.7130     1.1380     1.1610      .0520   -18.1140    49.0970    19.1550      .0080     2.3340
 8640.5000    24.6620    94.4640   876.7607     1.6250     1.1410     1.1290      .0480   -11.1160    52.6830    18.3230      .0300     2.3480
 8641.0000    25.3940    94.1069   885.4756     1.2070     1.1290     1.1020      .0500    -6.9270    59.7440    18.7100      .0810     2.3410
 8641.5000    30.7680    97.7360   910.9004     1.1520     1.0980     1.0770      .0570    -4.6020    62.9370    20.1800      .0820     2.3170
 8642.0000    33.3459   102.6859   955.7627     1.1700     1.0460     1.0530      .0520    -2.7690    62.4500    19.7730      .0780     2.3240
 8642.5000    36.7790   107.3030   996.5898     1.2350     1.0030     1.0310      .0450    -2.4060    62.6140    18.8160      .0670     2.3390
 8643.0000    38.4890   104.5409  1025.5801     1.2900      .9750     1.0130      .0410     -.8960    59.8010    18.3050      .0670     2.3480
 8643.5000    38.2640   100.5389  1037.6172     1.2880      .9640     1.0030      .0380    -1.7370    59.4330    17.8570      .0680     2.3550
 8644.0000    38.2679   100.4519  1025.9805     1.2510      .9750     1.0070      .0400    -2.3850    60.0450    18.1990      .0480     2.3500
 8644.5000    37.6000   102.2369  1006.0879     1.2190      .9940     1.0140      .0440    -7.7040    58.2770    18.8000      .0500     2.3400
 8645.0000    36.5649   104.3149   996.0391     1.2450     1.0040     1.0160      .0430   -12.7380    61.4950    18.4680      .0610     2.3450
 8645.5000    35.1270   104.5029   991.4277     1.3260     1.0090     1.0170      .0410    -6.8420    62.2170    18.0260      .0610     2.3530
 8646.0000    34.5370   102.4070   985.8525     1.3650     1.0140     1.0210      .0390   -15.8180    61.2029    17.5400      .0620     2.3610
 8646.5000    35.0649    99.7760   977.3203     1.3630     1.0230     1.0240      .0390   -15.9460    61.3380    17.4510      .0590     2.3620
 8647.0000    34.9740    97.8879   968.0088     1.3780     1.0330     1.0230      .0430    -4.6060    58.5760    18.2360      .0510     2.3490
 8647.5000    35.0670    97.2729   967.8105     1.3780     1.0330     1.0190      .0450    -2.3030    62.2510    18.5580      .0460     2.3440
 8648.0000    36.1360    98.2329   974.9297     1.3250     1.0260     1.0170      .0470    -2.7400    61.5210    19.0710      .0420     2.3350
 8648.5000    37.8830   100.0719   975.4824     1.2530     1.0250     1.0180      .0530    -3.1980    63.5760    20.1360      .0420     2.3180
 8649.0000    38.0680   102.8910   976.5342     1.2130     1.0240     1.0150      .0520    -3.6960    66.4979    20.0370      .0560     2.3190
 8649.5000    36.5400   104.6060   985.1416     1.2640     1.0150     1.0050      .0440    -3.6590    66.0780    18.5840      .0650     2.3430
 8650.0000    33.9709   101.6570   999.0674     1.3940     1.0010      .9900      .0360    -3.7390    62.9050    17.0210      .0570     2.3690
 8650.5000    34.6910    97.7300  1013.1885     1.4330      .9870      .9770      .0370    -3.7130    61.2760    17.4110      .0470     2.3630
