~VERSION INFORMATION
VERS.                             2.0:   CWLS Log ASCII Standard-VERSION 2.0
WRAP.                              NO:   One line per depth step
~Well Information Block
STRT.F                      3511.0000:   Top Depth
STOP.F                      7755.0000:   Bottom Depth
STEP.F                         .50000:   Depth Increment
NULL.                        -999.250:   Null Value
FLD .                      BA BLK 431:   Field Name
WELL.       OCSG09017   002 ST01 BP00:   NAME
API .                  42704402350100:   WELL API
EDF .F                        89.0000:   ELEV DRILL FLOOR
COMP.       SEAGULL ENERGY E AND P IN:   OPERATOR
BN  .                             481:   BLOCK
CTRY.                             USA:   COUNTRY NAME
CNTY.                        BRAZOS L:   COUNTY NAME
EKB .F                        90.0000:   ELEV KELLY BUSHING
TDD .F                          0.000:   FINAL TD DRILLER
STAT.                           TEXAS:   STATE NAME
UWI .                  42704402350100:   WELL API
DICO.               IHS : Digitizing Company
~PARAMETER INFORMATION (zones)
#MNEM.UNIT                       Value     Description
#=========                       =====     ===========
#ZONATION                          CNL:   ZONATION NAME
#ZONE                            RUN_0:   ZONE NAME
TOP .                       3511.0000:   TOP DEPTH
BOT .                       7755.5000:   BOTTOM DEPTH
RUN .                               0:   RUN NUMBER
LCCD.                             280:   LOGGING CONTRACTOR
SRVC.                     Halliburton:   LOGGING CONT NAME
DICO.          QC Data Collectors Ltd:   DIG COMPANY NAME
LDAT.                        --/--/--:   DATE LOGGED
BHF .                              99:   FLUID CODE
DPT .                   Miscellaneous:   DRILLING FLUID TYPE
~PARAMETER INFORMATION (zones)
#MNEM.UNIT                       Value     Description
#=========                       =====     ===========
#ZONATION                          DIL:   ZONATION NAME
#ZONE                            RUN_0:   ZONE NAME
TOP .                       3511.0000:   TOP DEPTH
BOT .                       7755.5000:   BOTTOM DEPTH
RUN .                               0:   RUN NUMBER
LCCD.                             280:   LOGGING CONTRACTOR
SRVC.                     Halliburton:   LOGGING CONT NAME
DICO.          QC Data Collectors Ltd:   DIG COMPANY NAME
LDAT.                        --/--/--:   DATE LOGGED
BHF .                              99:   FLUID CODE
DPT .                   Miscellaneous:   DRILLING FLUID TYPE
~PARAMETER INFORMATION (zones)
#MNEM.UNIT                       Value     Description
#=========                       =====     ===========
#ZONATION                          FDC:   ZONATION NAME
#ZONE                            RUN_0:   ZONE NAME
TOP .                       3511.0000:   TOP DEPTH
BOT .                       7755.5000:   BOTTOM DEPTH
RUN .                               0:   RUN NUMBER
LCCD.                             280:   LOGGING CONTRACTOR
SRVC.                     Halliburton:   LOGGING CONT NAME
DICO.          QC Data Collectors Ltd:   DIG COMPANY NAME
LDAT.                        --/--/--:   DATE LOGGED
BHF .                              99:   FLUID CODE
DPT .                   Miscellaneous:   DRILLING FLUID TYPE
~PARAMETER INFORMATION (zones)
#MNEM.UNIT                       Value     Description
#=========                       =====     ===========
#ZONATION                        SONIC:   ZONATION NAME
#ZONE                            RUN_0:   ZONE NAME
TOP .                       3511.0000:   TOP DEPTH
BOT .                       7731.5000:   BOTTOM DEPTH
RUN .                               0:   RUN NUMBER
LCCD.                             280:   LOGGING CONTRACTOR
SRVC.                     Halliburton:   LOGGING CONT NAME
DICO.          QC Data Collectors Ltd:   DIG COMPANY NAME
LDAT.                        --/--/--:   DATE LOGGED
BHF .                              99:   FLUID CODE
DPT .                   Miscellaneous:   DRILLING FLUID TYPE
~Curve Information Block
#MNEM.UNIT                    API CODE    No Description
#=========                    ========    == ===========
DEPT.F                   00 001 00 00:     1  DEPTH
NPHI.%                               :     2  Neutron Porosity
GR.GAPI                              :     3  Gamma Ray
GRD.OHMM                             :     4  Unrecognised
ILD.OHMM                             :     5  Deep Induction Resistivity
ILM.OHMM                             :     6  Medium Induction Resistivity
SP.MV                                :     7  Spontaneous Potential
DPHI.%                               :     8  Porosity
CALI.IN                              :     9  Caliper
DT.US/F                              :    10  Sonic Transit Time
GR.GAPI                              :    11  Gamma Ray
~ASCII
# ...
 5487.5000    43.7876    76.3417      .7997      .6224      .6751   -48.8453    22.2968     9.9053   115.4856    74.6166
 5488.0000    45.1971    79.1713      .7707      .6362      .6775   -48.6655    21.7909     9.9082   113.4829    75.1201
 5488.5000    46.0463    82.0034      .7918      .6533      .6787   -48.6232    20.9840     9.9213   116.1124    74.3386
 5489.0000    46.0222    84.8330      .8056      .6708      .6849   -48.7495    20.2693     9.9370   116.2798    74.5044
 5489.5000    46.1630    87.5768      .7906      .6888      .7015   -48.9655    19.7506     9.9595   115.6132    75.8665
 5490.0000    46.8214    90.8593      .8025      .7072      .7204   -49.4128    19.7654     9.9850   117.3809    77.7466
 5490.5000    47.9593    88.5659      .7870      .7231      .7431   -50.0674    20.7396     9.9802   117.5605    80.9535
 5491.0000    45.8431    82.7037      .7843      .7395      .7665   -50.8692    21.1467     9.9521   117.8975    83.2316
 5491.5000    43.7381    78.0337      .8181      .7560      .7921   -51.7042    21.1165    10.0195   119.2202    82.1852
 5492.0000    41.7849    72.8848      .8984      .7705      .8248   -52.4037    20.0592    10.1387   112.0273    78.6547
 5492.5000    40.1223    70.7502      .9850      .7812      .8584   -53.0311    19.6057    10.1669    99.3945    72.4128
 5493.0000    39.4027    73.2024     1.0329      .7899      .8834   -53.3026    19.4256    10.1401    94.0397    68.5039
 5493.5000    40.6956    75.0765     1.0619      .7973      .8990   -53.5366    18.8450    10.1260   102.3375    67.0414
 5494.0000    41.3632    74.4310      .9831      .8041      .9099   -53.8436    19.4044    10.1266   107.7323    65.3831
 5494.5000    41.5804    71.5364      .9296      .8063      .9202   -54.5663    18.9397    10.1172   102.0135    62.7632
 5495.0000    40.4432    68.6417      .9025      .8021      .9231   -56.4262    18.0589    10.0289    97.8220    59.2770
 5495.5000    39.1512    66.0880      .9264      .7941      .9201   -58.1599    17.4897     9.9554    94.0914    54.8123
 5496.0000    37.8591    63.5826      .9580      .7740      .9141   -59.9222    17.1940     9.9476    95.4634    52.8318
 5496.5000    37.0374    62.0773      .9910      .7545      .9010   -62.4941    17.3621     9.9821    96.6268    51.6549
 5497.0000    36.2924    61.6302     1.0189      .7209      .8838   -65.2533    17.8325    10.0621    97.5326    53.4215
 5497.5000    35.8332    59.7144     1.0436      .6877      .8327   -67.6742    18.2477    10.1734    98.3473    55.3264
 5498.0000    35.3373    58.6301     1.0610      .6493      .7812   -68.8678    18.6618    10.2384    99.7478    56.3395
 5498.5000    35.1532    58.2211     1.0794      .6108      .7345   -69.5920    19.1006    10.2549   100.9497    57.2450
 5499.0000    35.0584    57.8375     1.0913      .5647      .6977   -69.7568    19.8205    10.1169   100.9703    57.9342
 5499.5000    35.1074    57.3797     1.0932      .5298      .6627   -69.6448    21.4424     9.8986   100.4277    56.7524
 5500.0000    35.5114    59.3408      .9860      .4988      .6298   -68.2013    23.6336     9.8046   106.4706    57.2867
 5500.5000    36.0388    61.9960      .8877      .4794      .5920   -65.9587    24.9951     9.7990   110.1627    57.5754
 5501.0000    36.1328    64.6486      .7964      .4727      .5762   -63.7045    25.4146     9.8020   107.4640    57.7427
 5501.5000    35.9836    67.1553      .7687      .4836      .5691   -61.7639    25.1013     9.8014   102.9458    58.7643
 5502.0000    36.6333    69.5892      .8074      .5180      .5811   -59.0944    24.2852     9.7921   104.8450    59.4551
 5502.5000    37.3560    71.5383      .8123      .5549      .5927   -56.2283    23.2790     9.7881   108.5278    60.3143
 5503.0000    38.1099    71.8810      .8233      .5904      .6265   -54.0860    22.3911     9.7945   107.7748    61.5812
 5503.5000    38.8645    71.5979      .8456      .6269      .6769   -52.3914    21.3673     9.8150   105.0867    63.9584
 5504.0000    39.5995    71.8962      .8829      .6657      .7313   -51.1185    19.9059     9.8477   105.0096    68.9945
 5504.5000    40.0667    72.5216      .9153      .6989      .7712   -50.6678    18.3591     9.8823   106.9885    73.3079
 5505.0000    40.4159    73.7764      .9204      .7248      .8049   -50.2308    18.3296     9.8484   107.7468    76.2227
 5505.5000    40.7145    75.0017      .9165      .7416      .8392   -49.8328    18.9105     9.7929   109.8599    78.4329
 5506.0000    41.0621    75.6577      .9078      .7551      .8655   -49.5684    19.2543     9.9107   109.9927    76.9167
 5506.5000    41.4267    76.3182      .8919      .7592      .8785   -49.5244    19.3615    10.0704   107.5676    76.9432
 5507.0000    41.6796    77.4689      .9057      .7593      .8678   -49.4233    18.9660    10.0235   105.4320    76.3975
 5507.5000    41.7882    78.4606      .9682      .7586      .8523   -49.2984    18.3899     9.9594   103.6556    74.1742
 5508.0000    41.8072    79.3033     1.0095      .7523      .8372   -48.8895    17.9031     9.9114   103.2566    71.8428
 5508.5000    41.3979    80.9088     1.0135      .7460      .8231   -48.4167    17.8358     9.8810   104.5342    73.0189
 5509.0000    41.7209    83.4196      .9825      .7398      .8105   -48.1047    18.3679     9.8716   108.1227    73.5111
 5509.5000    43.5417    82.4226      .9438      .7316      .7982   -47.9385    19.0243     9.8860   113.5519    75.6304
 5510.0000    45.2298    80.4546      .8855      .7226      .7860   -48.0936    19.7845     9.8888   118.0276    78.0101
 5510.5000    46.5499    80.2639      .8211      .7136      .7824   -48.4763    20.9339     9.8792   121.4620    78.5314
 5511.0000    47.3300    77.9661      .7916      .7146      .7956   -48.7994    20.9282     9.8457   120.0436    78.2170
 5511.5000    47.8603    78.2355      .8021      .7170      .8090   -49.1528    20.8788     9.7811   117.0927    78.0293
 5512.0000    46.9307    80.2906      .8260      .7245      .8178   -49.5992    20.6957     9.7885   114.6038    77.5985
 5512.5000    45.4374    78.1327      .8700      .7320      .8267   -49.9168    20.2513     9.7935   110.2104    75.3146
 5513.0000    44.5231    75.2719      .9163      .7382      .8356   -49.9197    19.8396     9.7983   104.8370    71.6901
 5513.5000    44.4225    75.3265      .9851      .7415      .8383   -49.5419    19.8893     9.8061   104.1133    70.3684
 5514.0000    44.9104    77.3204     1.0375      .7446      .8409   -48.9435    20.0354     9.8158   103.6417    68.5378
 5514.5000    45.3516    76.5916     1.0430      .7439      .8416   -48.3344    20.0676     9.8267   101.1981    68.3031
 5515.0000    45.7596    79.3848      .9928      .7442      .8390   -47.8112    20.3148     9.8364   109.2489    69.4518
 5515.5000    46.1682    82.0165      .9187      .7469      .8364   -47.5617    20.8334     9.8261   118.6146    70.1877
 5516.0000    46.5814    83.6682      .8464      .7496      .8295   -47.7071    21.4607     9.8120   120.6200    71.3834
 5516.5000    47.0397    84.8455      .7995      .7530      .8225   -48.0113    21.5875     9.7992   114.1204    71.7958
 5517.0000    47.4822    85.3717      .8266      .7564      .8190   -48.4373    21.3453     9.7892   109.1666    71.2700
 5517.5000    47.5708    82.9042      .8699      .7572      .8177   -48.8824    20.8726     9.7834   107.7111    71.8682
 5518.0000    46.9763    79.9105      .9075      .7573      .8211   -49.3474    20.3060     9.7963   109.7603    72.5463
 5518.5000    46.4646    79.7726      .9334      .7562      .8305   -50.0173    20.1014     9.8060   110.5502    72.8408
 5519.0000    46.5177    81.2596      .9197      .7518      .8435   -50.8406    20.2443     9.8059   111.5386    74.1794
 5519.5000    46.6187    81.7666      .8982      .7399      .8549   -51.8265    20.4121     9.7965   113.9955    76.1483
 5520.0000    46.2615    83.1904      .8799      .7242      .8444   -53.6956    20.4636     9.7866   114.7684    77.0303
 5520.5000    45.3560    85.5281      .8732      .6950      .7843   -56.4080    20.6889     9.8061   111.9662    77.5273
