~VERSION INFORMATION
VERS.                             2.0:   CWLS Log ASCII Standard-VERSION 2.0
WRAP.                              NO:   One line per depth step
~Well Information Block
STRT.F                      4703.0000:   Top Depth
STOP.F                      9304.5000:   Bottom Depth
STEP.F                         .50000:   Depth Increment
NULL.                        -999.250:   Null Value
FLD .                      BA BLK 399:   Field Name
WELL.       OCSG07218  A003 ST00 BP00:   NAME
API .                  42704403090000:   WELL API
EDF .F                       113.0000:   ELEV DRILL FLOOR
COMP.       SEAGULL ENERGY E AND P IN:   OPERATOR
EGL .F                       -62.0000:   ELEV GROUND LEVEL
EKB .F                       114.0000:   ELEV KELLY BUSHING
TDD .F                      9314.0000:   FINAL TD DRILLER
UWI .                  42704403090000:   WELL API
DICO.               IHS : Digitizing Company
~PARAMETER INFORMATION (zones)
#MNEM.UNIT                       Value     Description
#=========                       =====     ===========
#ZONATION                          CNL:   ZONATION NAME
#ZONE                            RUN_1:   ZONE NAME
TOP .                       4703.0000:   TOP DEPTH
BOT .                       9200.5000:   BOTTOM DEPTH
RUN .                               1:   RUN NUMBER
LCCD.                             510:   LOGGING CONTRACTOR
SRVC.                   Western Atlas:   LOGGING CONT NAME
DICO.          QC Data Collectors Ltd:   DIG COMPANY NAME
LDAT.                      03/24/1997:   DATE LOGGED
TDD .F                      9314.0000:   TOTAL DEPTH DRILLER
TDL .F                      9307.0000:   TOTAL DEPTH LOGGER
BOTL.F                      9305.0000:   BOTTOM DEPTH LOGGED
TOPL.F                      4703.0000:   TOP DEPTH LOGGED
CS1 .                         10.7500:   CASING SIZE 1
BS1 .                          9.8750:   BIT SIZE 1
DDB1.F                      9314.0000:   DEPTH DRILLED BIT 1
BHF .                              99:   FLUID CODE
DPT .                   Miscellaneous:   DRILLING FLUID TYPE
MUDD.                         11.5000:   FLUID DENSITY
MUDV.                         41.0000:   FLUID VISCOSITY
DFPH.                         10.2000:   FLUID PH
FL  .                          5.0000:   FLUID LOSS
RM  .OHMM                      1.1200:   RM
RMT .DEGF                     75.0000:   RM TEMP
RMF .OHMM                       .8300:   RMF
RMFT.DEGF                     75.0000:   RMF TEMP
FSC .                               M:   RMF CODE
RMC .OHMM                      1.4600:   RMC
RMCT.DEGF                     75.0000:   RMC TEMP
CMC .                               M:   RMC CODE
TMAX.DEGF                    181.0000:   MAX REC TEMP
TIMC.                         24.0000:   TIME SINCE CIRCLN
SON .                          173943:   SERVICE ORDER NUM
LMF .                             MSL:   LOGS MEAS FROM
MUDS.                             PIT:   MUD SOURCE
ENG .                         HADSALL:   ENGINEER
WIT .                        FONTENOT:   WITNESS
~PARAMETER INFORMATION (zones)
#MNEM.UNIT                       Value     Description
#=========                       =====     ===========
#ZONATION                          DAL:   ZONATION NAME
#ZONE                            RUN_1:   ZONE NAME
TOP .                       4703.0000:   TOP DEPTH
BOT .                       9242.5000:   BOTTOM DEPTH
RUN .                               1:   RUN NUMBER
LCCD.                             510:   LOGGING CONTRACTOR
SRVC.                   Western Atlas:   LOGGING CONT NAME
DICO.          QC Data Collectors Ltd:   DIG COMPANY NAME
LDAT.                      03/24/1997:   DATE LOGGED
TDD .F                      9314.0000:   TOTAL DEPTH DRILLER
TDL .F                      9307.0000:   TOTAL DEPTH LOGGER
BOTL.F                      9305.0000:   BOTTOM DEPTH LOGGED
TOPL.F                      4703.0000:   TOP DEPTH LOGGED
CS1 .                         10.7500:   CASING SIZE 1
BS1 .                          9.8750:   BIT SIZE 1
DDB1.F                      9314.0000:   DEPTH DRILLED BIT 1
BHF .                              99:   FLUID CODE
DPT .                   Miscellaneous:   DRILLING FLUID TYPE
MUDD.                         11.5000:   FLUID DENSITY
MUDV.                         41.0000:   FLUID VISCOSITY
DFPH.                         10.2000:   FLUID PH
FL  .                          5.0000:   FLUID LOSS
RM  .OHMM                      1.1200:   RM
RMT .DEGF                     75.0000:   RM TEMP
RMF .OHMM                       .8300:   RMF
RMFT.DEGF                     75.0000:   RMF TEMP
FSC .                               M:   RMF CODE
RMC .OHMM                      1.4600:   RMC
RMCT.DEGF                     75.0000:   RMC TEMP
CMC .                               M:   RMC CODE
TMAX.DEGF                    181.0000:   MAX REC TEMP
TIMC.                         24.0000:   TIME SINCE CIRCLN
SON .                          173943:   SERVICE ORDER NUM
LMF .                             MSL:   LOGS MEAS FROM
MUDS.                             PIT:   MUD SOURCE
ENG .                         HADSALL:   ENGINEER
WIT .                        FONTENOT:   WITNESS
~PARAMETER INFORMATION (zones)
#MNEM.UNIT                       Value     Description
#=========                       =====     ===========
#ZONATION                          DIL:   ZONATION NAME
#ZONE                            RUN_1:   ZONE NAME
TOP .                       4703.0000:   TOP DEPTH
BOT .                       9305.5000:   BOTTOM DEPTH
RUN .                               1:   RUN NUMBER
LCCD.                             510:   LOGGING CONTRACTOR
SRVC.                   Western Atlas:   LOGGING CONT NAME
DICO.          QC Data Collectors Ltd:   DIG COMPANY NAME
LDAT.                      03/24/1997:   DATE LOGGED
TDD .F                      9314.0000:   TOTAL DEPTH DRILLER
TDL .F                      9307.0000:   TOTAL DEPTH LOGGER
BOTL.F                      9305.0000:   BOTTOM DEPTH LOGGED
TOPL.F                      4703.0000:   TOP DEPTH LOGGED
CS1 .                         10.7500:   CASING SIZE 1
BS1 .                          9.8750:   BIT SIZE 1
DDB1.F                      9314.0000:   DEPTH DRILLED BIT 1
BHF .                              99:   FLUID CODE
DPT .                   Miscellaneous:   DRILLING FLUID TYPE
MUDD.                         11.5000:   FLUID DENSITY
MUDV.                         41.0000:   FLUID VISCOSITY
DFPH.                         10.2000:   FLUID PH
FL  .                          5.0000:   FLUID LOSS
RM  .OHMM                      1.1200:   RM
RMT .DEGF                     75.0000:   RM TEMP
RMF .OHMM                       .8300:   RMF
RMFT.DEGF                     75.0000:   RMF TEMP
FSC .                               M:   RMF CODE
RMC .OHMM                      1.4600:   RMC
RMCT.DEGF                     75.0000:   RMC TEMP
CMC .                               M:   RMC CODE
TMAX.DEGF                    181.0000:   MAX REC TEMP
TIMC.                         24.0000:   TIME SINCE CIRCLN
SON .                          173943:   SERVICE ORDER NUM
LMF .                             MSL:   LOGS MEAS FROM
MUDS.                             PIT:   MUD SOURCE
ENG .                         HADSALL:   ENGINEER
WIT .                        FONTENOT:   WITNESS
~PARAMETER INFORMATION (zones)
#MNEM.UNIT                       Value     Description
#=========                       =====     ===========
#ZONATION                          FDC:   ZONATION NAME
#ZONE                            RUN_1:   ZONE NAME
TOP .                       4703.0000:   TOP DEPTH
BOT .                       9228.5000:   BOTTOM DEPTH
RUN .                               1:   RUN NUMBER
LCCD.                             510:   LOGGING CONTRACTOR
SRVC.                   Western Atlas:   LOGGING CONT NAME
DICO.          QC Data Collectors Ltd:   DIG COMPANY NAME
LDAT.                      03/24/1997:   DATE LOGGED
TDD .F                      9314.0000:   TOTAL DEPTH DRILLER
TDL .F                      9307.0000:   TOTAL DEPTH LOGGER
BOTL.F                      9305.0000:   BOTTOM DEPTH LOGGED
TOPL.F                      4703.0000:   TOP DEPTH LOGGED
CS1 .                         10.7500:   CASING SIZE 1
BS1 .                          9.8750:   BIT SIZE 1
DDB1.F                      9314.0000:   DEPTH DRILLED BIT 1
BHF .                              99:   FLUID CODE
DPT .                   Miscellaneous:   DRILLING FLUID TYPE
MUDD.                         11.5000:   FLUID DENSITY
MUDV.                         41.0000:   FLUID VISCOSITY
DFPH.                         10.2000:   FLUID PH
FL  .                          5.0000:   FLUID LOSS
RM  .OHMM                      1.1200:   RM
RMT .DEGF                     75.0000:   RM TEMP
RMF .OHMM                       .8300:   RMF
RMFT.DEGF                     75.0000:   RMF TEMP
FSC .                               M:   RMF CODE
RMC .OHMM                      1.4600:   RMC
RMCT.DEGF                     75.0000:   RMC TEMP
CMC .                               M:   RMC CODE
TMAX.DEGF                    181.0000:   MAX REC TEMP
TIMC.                         24.0000:   TIME SINCE CIRCLN
SON .                          173943:   SERVICE ORDER NUM
LMF .                             MSL:   LOGS MEAS FROM
MUDS.                             PIT:   MUD SOURCE
ENG .                         HADSALL:   ENGINEER
WIT .                        FONTENOT:   WITNESS
~Curve Information Block
#MNEM.UNIT                    API CODE    No Description
#=========                    ========    == ===========
DEPT.F                   00 001 00 00:     1  DEPTH
CNCF.%                               :     2  Field Normalized CNC
DT24.US/F                            :     3  Unrecognised
CILD.MMHO                            :     4  Deep Induction Conductivity
RFOC.OHMM                            :     5  Medium Resistivity
RILD.OHMM                            :     6  Deep Resistivity
RILM.OHMM                            :     7  Medium Resistivity
RWAZ.OHMM                            :     8  Unrecognised
SP.MV                                :     9  Spontaneous Potential
GR.GAPI                              :    10  Gamma Ray
PORZ.%                               :    11  Neutron Porosity
ZCOR.G/C3                            :    12  Density Correction
ZDEN.G/C3                            :    13  Bulk Density
~ASCII
# ...
 7419.0000    41.9440   111.7560   984.8066     1.3380     1.0150     1.0130      .0810      .6750    65.8049    24.7040      .0540     2.2420
 7419.5000    40.6730   105.2529   966.2861     1.4250     1.0350     1.0380      .0760      .7440    64.4049    23.8030      .0600     2.2570
 7420.0000    39.1880   101.1460   940.5020     1.4520     1.0630     1.0580      .0730      .4920    62.9040    22.9800      .0720     2.2710
 7420.5000    38.3630   101.1539   917.4121     1.4690     1.0900     1.0690      .0720      .7460    63.7079    22.5760      .0600     2.2770
 7421.0000    37.7260   105.0459   903.6455     1.4680     1.1070     1.0740      .0700      .0870    66.5160    22.1590      .0560     2.2840
 7421.5000    37.3430   108.8729   898.4678     1.4440     1.1130     1.0760      .0690     -.0210    62.8110    22.0440      .0530     2.2860
 7422.0000    37.7700   109.8490   904.9346     1.4390     1.1050     1.0690      .0700     -.2110    60.5690    22.1290      .0520     2.2850
 7422.5000    38.1299   107.5459   920.4189     1.4530     1.0870     1.0530      .0700      .8310    58.1370    22.3660      .0600     2.2810
 7423.0000    37.8279   105.5580   933.8789     1.4250     1.0710     1.0390      .0740      .8380    58.7650    23.1580      .0590     2.2680
 7423.5000    38.1550   105.8750   939.7490     1.3600     1.0640     1.0310      .0780      .9940    57.7050    23.7670      .0690     2.2580
 7424.0000    39.1620   108.0859   940.4277     1.3360     1.0630     1.0270      .0790      .7720    59.5120    23.8850      .0720     2.2560
 7424.5000    40.3320   111.0120   946.2686     1.3680     1.0570     1.0220      .0780      .6860    62.6349    23.8550      .0610     2.2560
 7425.0000    39.7390   109.3250   957.1494     1.4030     1.0450     1.0140      .0800     1.1780    61.6609    24.2210      .0470     2.2500
 7425.5000    38.4240   105.0029   964.7930     1.4190     1.0360     1.0010      .0780     1.0150    59.9820    23.9880      .0700     2.2540
 7426.0000    38.2610   103.3910   971.6064     1.4180     1.0290      .9860      .0800     1.0980    61.7270    24.3800      .0680     2.2480
 7426.5000    39.6310   104.4789   981.4092     1.3760     1.0190      .9710      .0840     1.5650    59.6570    25.1230      .0500     2.2360
 7427.0000    40.0439   109.7169   990.6348     1.3260     1.0100      .9580      .0850     1.5560    60.5490    25.3290      .0590     2.2320
 7427.5000    41.0940   115.9939   999.4170     1.2770     1.0010      .9480      .0860     1.8350    59.4520    25.5400      .0680     2.2290
 7428.0000    42.9440   119.0320  1010.7441     1.2390      .9890      .9440      .0930     2.2240    63.1920    26.6900      .0430     2.2100
 7428.5000    43.7599   119.1859  1025.0039     1.2730      .9760      .9370      .0960     2.5490    67.6169    27.2380      .0460     2.2010
 7429.0000    43.7180   116.9380  1040.6836     1.3380      .9610      .9290      .0900     2.7440    66.8679    26.5780      .0520     2.2110
 7429.5000    42.3660   114.8230  1052.4199     1.3260      .9500      .9250      .0750     2.4980    60.9570    24.6490      .0540     2.2430
 7430.0000    40.9170   113.0659  1059.0039     1.2860      .9440      .9270      .0700     2.6990    62.2310    23.8890      .0510     2.2560
 7430.5000    41.1490   111.9330  1057.2813     1.3140      .9460      .9290      .0730     2.3380    61.8799    24.3020      .0670     2.2490
 7431.0000    41.1720   112.4049  1049.5098     1.3240      .9530      .9280      .0790     2.5600    62.3500    25.1800      .0520     2.2340
 7431.5000    40.4969   112.1449  1047.1504     1.2880      .9550      .9230      .0760     2.0230    62.0010    24.6730      .0570     2.2430
 7432.0000    40.7310   111.4170  1052.1660     1.2690      .9500      .9210      .0770     1.9250    61.3520    24.8930      .0550     2.2390
 7432.5000    41.8940   111.5959  1054.8945     1.2820      .9480      .9190      .0780     2.0360    58.7330    25.0100      .0510     2.2370
 7433.0000    41.7029   111.9509  1055.6094     1.2830      .9470      .9140      .0730     1.9950    63.6620    24.3800      .0560     2.2480
 7433.5000    41.8620   111.6329  1063.1191     1.2830      .9410      .9090      .0750     1.7270    63.6860    24.7020      .0540     2.2420
 7434.0000    41.7330   110.7739  1075.2305     1.2820      .9300      .9060      .0770     1.7300    62.0930    25.1940      .0590     2.2340
 7434.5000    42.6800   110.5619  1077.6875     1.2670      .9280      .9070      .0750     1.5590    63.6349    24.7690      .0680     2.2410
 7435.0000    42.8780   109.6899  1077.4004     1.2570      .9280      .9070      .0760     1.1860    62.0680    25.0320      .0640     2.2370
 7435.5000    43.3960   107.9729  1077.1035     1.2800      .9280      .9070      .0810      .6460    61.2800    25.7540      .0570     2.2250
 7436.0000    44.1120   108.6659  1076.4453     1.2980      .9290      .9090      .0780      .4660    62.8500    25.3350      .0700     2.2320
 7436.5000    43.8870   109.5609  1074.5215     1.2890      .9310      .9090      .0780      .4550    64.6949    25.1990      .0570     2.2340
 7437.0000    44.4570   110.4789  1069.4629     1.2700      .9350      .9110      .0790     -.2690    62.8610    25.3790      .0650     2.2310
 7437.5000    44.8060   113.0149  1059.0352     1.2790      .9440      .9180      .0810    -1.6480    60.3110    25.5490      .0650     2.2280
 7438.0000    44.3380   113.5800  1054.9238     1.3110      .9480      .9240      .0810    -1.6520    59.0550    25.5030      .0550     2.2290
 7438.5000    43.1290   113.2350  1056.8672     1.3290      .9460      .9260      .0780    -1.2570    59.3440    25.1130      .0610     2.2360
 7439.0000    42.3550   113.3810  1054.0254     1.3260      .9490      .9270      .0740      .0880    61.0600    24.4750      .0600     2.2460
 7439.5000    42.3100   113.2899  1054.1172     1.3040      .9490      .9290      .0730     -.3320    60.9490    24.3040      .0640     2.2490
 7440.0000    41.8849   113.5260  1055.4082     1.2950      .9470      .9270      .0770     -.3280    62.5970    24.8690      .0480     2.2400
 7440.5000    41.2750   113.5260  1058.7129     1.3090      .9450      .9240      .0750     -.3100    63.2500    24.6240      .0600     2.2440
 7441.0000    41.8740   112.9950  1066.0605     1.3080      .9380      .9220      .0740     -.5810    62.2880    24.5960      .0650     2.2440
 7441.5000    41.8250   112.1239  1067.7031     1.2980      .9370      .9250      .0790     -.5210    60.0380    25.3840      .0580     2.2310
 7442.0000    41.0480   112.0349  1058.6094     1.2960      .9450      .9310      .0790     -.8140    59.2130    25.2780      .0410     2.2330
 7442.5000    42.2679   111.1680  1049.1309     1.2880      .9530      .9410      .0770     -.4130    62.1219    24.8940      .0500     2.2390
 7443.0000    41.1609   108.1909  1040.6094     1.2730      .9610      .9480      .0790    -1.0140    59.4950    25.0170      .0580     2.2370
 7443.5000    39.7590   106.1730  1037.2207     1.3370      .9640      .9500      .0700   -11.1620    59.5590    23.6430      .0630     2.2600
 7444.0000    40.2500   105.3669  1033.7168     1.4170      .9670      .9530      .0650    -7.0370    62.7240    22.8120      .0670     2.2740
 7444.5000    41.4910   106.5029  1014.2891     1.3620      .9860      .9620      .0700     -.6820    67.0599    23.4620      .0700     2.2630
 7445.0000    41.7590   110.3180  1009.0811     1.2860      .9910      .9670      .0810     -.7620    64.4399    25.0120      .0610     2.2370
 7445.5000    41.2850   112.3180  1018.0283     1.2810      .9820      .9650      .0850    -1.2890    66.4659    25.6680      .0560     2.2270
 7446.0000    41.4350   111.6759  1023.0703     1.3140      .9770      .9640      .0840    -1.8670    65.2899    25.5350      .0570     2.2290
 7446.5000    41.2350   110.8159  1025.9980     1.3420      .9750      .9620      .0800    -1.9240    61.5569    25.0390      .0600     2.2370
