~VERSION INFORMATION
VERS.                             2.0:   CWLS Log ASCII Standard-VERSION 2.0
WRAP.                              NO:   One line per depth step
~Well Information Block
STRT.F                      4703.0000:   Top Depth
STOP.F                      9304.5000:   Bottom Depth
STEP.F                         .50000:   Depth Increment
NULL.                        -999.250:   Null Value
FLD .                      BA BLK 399:   Field Name
WELL.       OCSG07218  A003 ST00 BP00:   NAME
API .                  42704403090000:   WELL API
EDF .F                       113.0000:   ELEV DRILL FLOOR
COMP.       SEAGULL ENERGY E AND P IN:   OPERATOR
EGL .F                       -62.0000:   ELEV GROUND LEVEL
EKB .F                       114.0000:   ELEV KELLY BUSHING
TDD .F                      9314.0000:   FINAL TD DRILLER
UWI .                  42704403090000:   WELL API
DICO.               IHS : Digitizing Company
~PARAMETER INFORMATION (zones)
#MNEM.UNIT                       Value     Description
#=========                       =====     ===========
#ZONATION                          CNL:   ZONATION NAME
#ZONE                            RUN_1:   ZONE NAME
TOP .                       4703.0000:   TOP DEPTH
BOT .                       9200.5000:   BOTTOM DEPTH
RUN .                               1:   RUN NUMBER
LCCD.                             510:   LOGGING CONTRACTOR
SRVC.                   Western Atlas:   LOGGING CONT NAME
DICO.          QC Data Collectors Ltd:   DIG COMPANY NAME
LDAT.                      03/24/1997:   DATE LOGGED
TDD .F                      9314.0000:   TOTAL DEPTH DRILLER
TDL .F                      9307.0000:   TOTAL DEPTH LOGGER
BOTL.F                      9305.0000:   BOTTOM DEPTH LOGGED
TOPL.F                      4703.0000:   TOP DEPTH LOGGED
CS1 .                         10.7500:   CASING SIZE 1
BS1 .                          9.8750:   BIT SIZE 1
DDB1.F                      9314.0000:   DEPTH DRILLED BIT 1
BHF .                              99:   FLUID CODE
DPT .                   Miscellaneous:   DRILLING FLUID TYPE
MUDD.                         11.5000:   FLUID DENSITY
MUDV.                         41.0000:   FLUID VISCOSITY
DFPH.                         10.2000:   FLUID PH
FL  .                          5.0000:   FLUID LOSS
RM  .OHMM                      1.1200:   RM
RMT .DEGF                     75.0000:   RM TEMP
RMF .OHMM                       .8300:   RMF
RMFT.DEGF                     75.0000:   RMF TEMP
FSC .                               M:   RMF CODE
RMC .OHMM                      1.4600:   RMC
RMCT.DEGF                     75.0000:   RMC TEMP
CMC .                               M:   RMC CODE
TMAX.DEGF                    181.0000:   MAX REC TEMP
TIMC.                         24.0000:   TIME SINCE CIRCLN
SON .                          173943:   SERVICE ORDER NUM
LMF .                             MSL:   LOGS MEAS FROM
MUDS.                             PIT:   MUD SOURCE
ENG .                         HADSALL:   ENGINEER
WIT .                        FONTENOT:   WITNESS
~PARAMETER INFORMATION (zones)
#MNEM.UNIT                       Value     Description
#=========                       =====     ===========
#ZONATION                          DAL:   ZONATION NAME
#ZONE                            RUN_1:   ZONE NAME
TOP .                       4703.0000:   TOP DEPTH
BOT .                       9242.5000:   BOTTOM DEPTH
RUN .                               1:   RUN NUMBER
LCCD.                             510:   LOGGING CONTRACTOR
SRVC.                   Western Atlas:   LOGGING CONT NAME
DICO.          QC Data Collectors Ltd:   DIG COMPANY NAME
LDAT.                      03/24/1997:   DATE LOGGED
TDD .F                      9314.0000:   TOTAL DEPTH DRILLER
TDL .F                      9307.0000:   TOTAL DEPTH LOGGER
BOTL.F                      9305.0000:   BOTTOM DEPTH LOGGED
TOPL.F                      4703.0000:   TOP DEPTH LOGGED
CS1 .                         10.7500:   CASING SIZE 1
BS1 .                          9.8750:   BIT SIZE 1
DDB1.F                      9314.0000:   DEPTH DRILLED BIT 1
BHF .                              99:   FLUID CODE
DPT .                   Miscellaneous:   DRILLING FLUID TYPE
MUDD.                         11.5000:   FLUID DENSITY
MUDV.                         41.0000:   FLUID VISCOSITY
DFPH.                         10.2000:   FLUID PH
FL  .                          5.0000:   FLUID LOSS
RM  .OHMM                      1.1200:   RM
RMT .DEGF                     75.0000:   RM TEMP
RMF .OHMM                       .8300:   RMF
RMFT.DEGF                     75.0000:   RMF TEMP
FSC .                               M:   RMF CODE
RMC .OHMM                      1.4600:   RMC
RMCT.DEGF                     75.0000:   RMC TEMP
CMC .                               M:   RMC CODE
TMAX.DEGF                    181.0000:   MAX REC TEMP
TIMC.                         24.0000:   TIME SINCE CIRCLN
SON .                          173943:   SERVICE ORDER NUM
LMF .                             MSL:   LOGS MEAS FROM
MUDS.                             PIT:   MUD SOURCE
ENG .                         HADSALL:   ENGINEER
WIT .                        FONTENOT:   WITNESS
~PARAMETER INFORMATION (zones)
#MNEM.UNIT                       Value     Description
#=========                       =====     ===========
#ZONATION                          DIL:   ZONATION NAME
#ZONE                            RUN_1:   ZONE NAME
TOP .                       4703.0000:   TOP DEPTH
BOT .                       9305.5000:   BOTTOM DEPTH
RUN .                               1:   RUN NUMBER
LCCD.                             510:   LOGGING CONTRACTOR
SRVC.                   Western Atlas:   LOGGING CONT NAME
DICO.          QC Data Collectors Ltd:   DIG COMPANY NAME
LDAT.                      03/24/1997:   DATE LOGGED
TDD .F                      9314.0000:   TOTAL DEPTH DRILLER
TDL .F                      9307.0000:   TOTAL DEPTH LOGGER
BOTL.F                      9305.0000:   BOTTOM DEPTH LOGGED
TOPL.F                      4703.0000:   TOP DEPTH LOGGED
CS1 .                         10.7500:   CASING SIZE 1
BS1 .                          9.8750:   BIT SIZE 1
DDB1.F                      9314.0000:   DEPTH DRILLED BIT 1
BHF .                              99:   FLUID CODE
DPT .                   Miscellaneous:   DRILLING FLUID TYPE
MUDD.                         11.5000:   FLUID DENSITY
MUDV.                         41.0000:   FLUID VISCOSITY
DFPH.                         10.2000:   FLUID PH
FL  .                          5.0000:   FLUID LOSS
RM  .OHMM                      1.1200:   RM
RMT .DEGF                     75.0000:   RM TEMP
RMF .OHMM                       .8300:   RMF
RMFT.DEGF                     75.0000:   RMF TEMP
FSC .                               M:   RMF CODE
RMC .OHMM                      1.4600:   RMC
RMCT.DEGF                     75.0000:   RMC TEMP
CMC .                               M:   RMC CODE
TMAX.DEGF                    181.0000:   MAX REC TEMP
TIMC.                         24.0000:   TIME SINCE CIRCLN
SON .                          173943:   SERVICE ORDER NUM
LMF .                             MSL:   LOGS MEAS FROM
MUDS.                             PIT:   MUD SOURCE
ENG .                         HADSALL:   ENGINEER
WIT .                        FONTENOT:   WITNESS
~PARAMETER INFORMATION (zones)
#MNEM.UNIT                       Value     Description
#=========                       =====     ===========
#ZONATION                          FDC:   ZONATION NAME
#ZONE                            RUN_1:   ZONE NAME
TOP .                       4703.0000:   TOP DEPTH
BOT .                       9228.5000:   BOTTOM DEPTH
RUN .                               1:   RUN NUMBER
LCCD.                             510:   LOGGING CONTRACTOR
SRVC.                   Western Atlas:   LOGGING CONT NAME
DICO.          QC Data Collectors Ltd:   DIG COMPANY NAME
LDAT.                      03/24/1997:   DATE LOGGED
TDD .F                      9314.0000:   TOTAL DEPTH DRILLER
TDL .F                      9307.0000:   TOTAL DEPTH LOGGER
BOTL.F                      9305.0000:   BOTTOM DEPTH LOGGED
TOPL.F                      4703.0000:   TOP DEPTH LOGGED
CS1 .                         10.7500:   CASING SIZE 1
BS1 .                          9.8750:   BIT SIZE 1
DDB1.F                      9314.0000:   DEPTH DRILLED BIT 1
BHF .                              99:   FLUID CODE
DPT .                   Miscellaneous:   DRILLING FLUID TYPE
MUDD.                         11.5000:   FLUID DENSITY
MUDV.                         41.0000:   FLUID VISCOSITY
DFPH.                         10.2000:   FLUID PH
FL  .                          5.0000:   FLUID LOSS
RM  .OHMM                      1.1200:   RM
RMT .DEGF                     75.0000:   RM TEMP
RMF .OHMM                       .8300:   RMF
RMFT.DEGF                     75.0000:   RMF TEMP
FSC .                               M:   RMF CODE
RMC .OHMM                      1.4600:   RMC
RMCT.DEGF                     75.0000:   RMC TEMP
CMC .                               M:   RMC CODE
TMAX.DEGF                    181.0000:   MAX REC TEMP
TIMC.                         24.0000:   TIME SINCE CIRCLN
SON .                          173943:   SERVICE ORDER NUM
LMF .                             MSL:   LOGS MEAS FROM
MUDS.                             PIT:   MUD SOURCE
ENG .                         HADSALL:   ENGINEER
WIT .                        FONTENOT:   WITNESS
~Curve Information Block
#MNEM.UNIT                    API CODE    No Description
#=========                    ========    == ===========
DEPT.F                   00 001 00 00:     1  DEPTH
CNCF.%                               :     2  Field Normalized CNC
DT24.US/F                            :     3  Unrecognised
CILD.MMHO                            :     4  Deep Induction Conductivity
RFOC.OHMM                            :     5  Medium Resistivity
RILD.OHMM                            :     6  Deep Resistivity
RILM.OHMM                            :     7  Medium Resistivity
RWAZ.OHMM                            :     8  Unrecognised
SP.MV                                :     9  Spontaneous Potential
GR.GAPI                              :    10  Gamma Ray
PORZ.%                               :    11  Neutron Porosity
ZCOR.G/C3                            :    12  Density Correction
ZDEN.G/C3                            :    13  Bulk Density
~ASCII
# ...
 9211.0000  -999.2500   106.3030  1022.7793     1.0820      .9780      .9980      .0890   -15.0800  -999.2500    26.2940      .0600     2.2160
 9211.5000  -999.2500   115.1089  1039.5293     1.1320      .9620     1.0040      .0970   -12.3090  -999.2500    27.5050      .0640     2.1960
 9212.0000  -999.2500   116.8119  1025.3984     1.2040      .9750     1.0170      .1090   -10.8410  -999.2500    28.9460      .0370     2.1720
 9212.5000  -999.2500   112.6649  1000.6201     1.2700      .9990     1.0340      .1130   -10.2060  -999.2500    29.0300      .0250     2.1710
 9213.0000  -999.2500   104.8710   960.1191     1.2980     1.0410     1.0650      .1170    -9.4080  -999.2500    28.9890      .0660     2.1720
 9213.5000  -999.2500    99.8510   900.4473     1.2880     1.1110     1.1250      .1310    -8.2600  -999.2500    29.6500      .0570     2.1610
 9214.0000  -999.2500    99.8669   845.5840     1.3100     1.1830     1.2080      .1390    -8.8710  -999.2500    29.5600      .0600     2.1620
 9214.5000  -999.2500   103.0420   825.5566     1.4290     1.2110     1.2510      .1130    -8.6720  -999.2500    26.6170      .0680     2.2110
 9215.0000  -999.2500   103.6439   829.1670     1.7160     1.2060     1.2050      .0590    -8.7750  -999.2500    19.7170      .0560     2.3250
 9215.5000  -999.2500   100.9459   832.5420     1.7280     1.2010     1.1380      .0340    -8.3810  -999.2500    15.1570      .0000     2.4000
 9216.0000  -999.2500   101.9290   824.6240     1.4500     1.2130     1.1060      .0410    -7.7350  -999.2500    16.5870      .0170     2.3760
 9216.5000  -999.2500   108.7339   805.1572     1.3730     1.2420     1.0980      .0850    -7.3970  -999.2500    23.0050      .0550     2.2700
 9217.0000  -999.2500   117.0229   806.9502     1.4530     1.2390     1.0810      .1130    -7.2560  -999.2500    26.2610      .0450     2.2170
 9217.5000  -999.2500   118.3049   847.5889     1.4610     1.1800     1.0540      .0730    -8.3820  -999.2500    21.9970      .0750     2.2870
 9218.0000  -999.2500   114.5099   883.1338     1.3730     1.1320     1.0380      .0590    -7.9980  -999.2500    20.2400      .0440     2.3160
 9218.5000  -999.2500   109.6720   907.7236     1.3140     1.1020     1.0280      .0640    -7.8480  -999.2500    21.3700      .0190     2.2970
 9219.0000  -999.2500   104.7040   924.8613     1.3950     1.0810     1.0190      .0790    -7.8750  -999.2500    23.6690      .0290     2.2600
 9219.5000  -999.2500   106.8829   938.4053     1.4330     1.0660     1.0100      .0900    -8.4650  -999.2500    25.3610      .0240     2.2310
 9220.0000  -999.2500   111.2770   944.8428     1.4030     1.0580     1.0060      .0940    -8.6990  -999.2500    25.9220      .0250     2.2220
 9220.5000  -999.2500   110.9540   948.9678     1.3830     1.0540     1.0080      .1000    -7.2800  -999.2500    26.7300      .0190     2.2090
 9221.0000  -999.2500   108.1570   959.3662     1.3790     1.0420     1.0010      .0960    -7.2340  -999.2500    26.3820      .0190     2.2150
 9221.5000  -999.2500   105.0800   977.5811     1.3980     1.0230      .9850      .0880    -7.2710  -999.2500    25.5430      .0210     2.2280
 9222.0000  -999.2500   103.4789   992.3340     1.4360     1.0080      .9730      .0880    -6.6230  -999.2500    25.7480      .0130     2.2250
 9222.5000  -999.2500   104.1339  1001.2861     1.4750      .9990      .9690      .0820    -6.4400  -999.2500    24.9620      .0120     2.2380
 9223.0000  -999.2500   106.0520  1012.7686     1.4970      .9870      .9710      .0790    -6.0340  -999.2500    24.7400      .0050     2.2420
 9223.5000  -999.2500   106.0229  1030.4316     1.4970      .9700      .9770      .0690    -6.1190  -999.2500    23.3880      .0280     2.2640
 9224.0000  -999.2500   101.6089  1050.4004     1.4850      .9520      .9810      .0680    -6.0130  -999.2500    23.4940      .0270     2.2620
 9224.5000  -999.2500    95.9889  1071.5801     1.4790      .9330      .9730      .0610    -5.3000  -999.2500    22.5010      .0380     2.2790
 9225.0000  -999.2500    94.1730  1086.0332     1.4460      .9210      .9600      .0640    -4.9220  -999.2500    23.1120      .0180     2.2690
 9225.5000  -999.2500    95.6470  1088.5996     1.3980      .9190      .9560      .0640    -4.9850  -999.2500    23.1000      .0230     2.2690
 9226.0000  -999.2500   100.3870  1080.9375     1.3450      .9250      .9730      .0600    -4.7800  -999.2500    22.5060      .0400     2.2790
 9226.5000  -999.2500   106.6699  1059.2520     1.2890      .9440     1.0180      .0650    -8.9350  -999.2500    23.1160      .0390     2.2690
 9227.0000  -999.2500   110.5459  1041.2305     1.2940      .9600     1.0720      .0590   -15.5060  -999.2500    21.8470      .0550     2.2890
 9227.5000  -999.2500   110.1349  1044.2871     1.4720      .9580     1.0910      .0610   -19.8510  -999.2500    22.1810      .0310     2.2840
 9228.0000  -999.2500   104.0039  1067.1406     1.9190      .9370     1.0480      .0630   -20.4400  -999.2500    22.7290      .0240     2.2750
 9228.5000  -999.2500    97.6089  1081.4512     2.5340      .9250      .9980      .0720   -22.1340  -999.2500  -999.2500  -999.2500  -999.2500
 9229.0000  -999.2500    96.7240  1059.8301     2.0850      .9430      .9890      .0900   -20.8010  -999.2500  -999.2500  -999.2500  -999.2500
 9229.5000  -999.2500   106.1139  1014.1543     1.3520      .9860     1.0280  -999.2500   -16.0280  -999.2500  -999.2500  -999.2500  -999.2500
 9230.0000  -999.2500   123.3269   972.7227     1.0890     1.0280     1.0880  -999.2500   -14.4560  -999.2500  -999.2500  -999.2500  -999.2500
 9230.5000  -999.2500   132.7749   956.8115     1.2190     1.0450     1.1320  -999.2500   -15.7690  -999.2500  -999.2500  -999.2500  -999.2500
 9231.0000  -999.2500   127.4540   977.8174     1.7520     1.0230     1.1210  -999.2500   -20.4860  -999.2500  -999.2500  -999.2500  -999.2500
 9231.5000  -999.2500   112.1189  1024.2441     2.4700      .9760     1.0700  -999.2500   -24.5180  -999.2500  -999.2500  -999.2500  -999.2500
 9232.0000  -999.2500    94.3069  1041.7539     2.1180      .9600     1.0330  -999.2500   -23.7420  -999.2500  -999.2500  -999.2500  -999.2500
 9232.5000  -999.2500    92.6780   998.5225     1.3650     1.0020     1.0380  -999.2500   -18.5900  -999.2500  -999.2500  -999.2500  -999.2500
 9233.0000  -999.2500   109.3779   970.3828     1.1310     1.0310     1.0520  -999.2500   -28.1230  -999.2500  -999.2500  -999.2500  -999.2500
 9233.5000  -999.2500   128.2239   972.0459     1.2210     1.0290     1.0440  -999.2500   -30.9240  -999.2500  -999.2500  -999.2500  -999.2500
 9234.0000  -999.2500   139.6599   965.0918     1.3670     1.0360     1.0200  -999.2500   -11.2340  -999.2500  -999.2500  -999.2500  -999.2500
 9234.5000  -999.2500   138.7068   959.4463     1.3250     1.0420     1.0110  -999.2500    -9.5500  -999.2500  -999.2500  -999.2500  -999.2500
 9235.0000  -999.2500   136.3879   975.2451     1.2360     1.0250     1.0410  -999.2500    -8.9120  -999.2500  -999.2500  -999.2500  -999.2500
 9235.5000  -999.2500   137.5850  1031.9453     1.3350      .9690     1.0740  -999.2500    -9.5640  -999.2500  -999.2500  -999.2500  -999.2500
 9236.0000  -999.2500   134.9819  1033.6875     1.5000      .9670     1.0910  -999.2500   -10.7010  -999.2500  -999.2500  -999.2500  -999.2500
 9236.5000  -999.2500   129.3398  1008.0605     1.4730      .9920     1.1140  -999.2500   -12.9380  -999.2500  -999.2500  -999.2500  -999.2500
 9237.0000  -999.2500   114.4779   999.4248     1.4440     1.0010     1.1040  -999.2500   -14.5980  -999.2500  -999.2500  -999.2500  -999.2500
 9237.5000  -999.2500    93.5969   987.9785     1.6810     1.0120     1.0890  -999.2500   -19.0540  -999.2500  -999.2500  -999.2500  -999.2500
 9238.0000  -999.2500    84.1720   987.9287     1.7780     1.0120     1.0980  -999.2500   -27.6810  -999.2500  -999.2500  -999.2500  -999.2500
 9238.5000  -999.2500    81.9879   995.3643     1.5720     1.0050     1.1100  -999.2500   -27.0960  -999.2500  -999.2500  -999.2500  -999.2500
