~VERSION INFORMATION
VERS.                             2.0:   CWLS Log ASCII Standard-VERSION 2.0
WRAP.                              NO:   One line per depth step
~Well Information Block
STRT.F                      3511.0000:   Top Depth
STOP.F                      7755.0000:   Bottom Depth
STEP.F                         .50000:   Depth Increment
NULL.                        -999.250:   Null Value
FLD .                      BA BLK 431:   Field Name
WELL.       OCSG09017   002 ST01 BP00:   NAME
API .                  42704402350100:   WELL API
EDF .F                        89.0000:   ELEV DRILL FLOOR
COMP.       SEAGULL ENERGY E AND P IN:   OPERATOR
BN  .                             481:   BLOCK
CTRY.                             USA:   COUNTRY NAME
CNTY.                        BRAZOS L:   COUNTY NAME
EKB .F                        90.0000:   ELEV KELLY BUSHING
TDD .F                          0.000:   FINAL TD DRILLER
STAT.                           TEXAS:   STATE NAME
UWI .                  42704402350100:   WELL API
DICO.               IHS : Digitizing Company
~PARAMETER INFORMATION (zones)
#MNEM.UNIT                       Value     Description
#=========                       =====     ===========
#ZONATION                          CNL:   ZONATION NAME
#ZONE                            RUN_0:   ZONE NAME
TOP .                       3511.0000:   TOP DEPTH
BOT .                       7755.5000:   BOTTOM DEPTH
RUN .                               0:   RUN NUMBER
LCCD.                             280:   LOGGING CONTRACTOR
SRVC.                     Halliburton:   LOGGING CONT NAME
DICO.          QC Data Collectors Ltd:   DIG COMPANY NAME
LDAT.                        --/--/--:   DATE LOGGED
BHF .                              99:   FLUID CODE
DPT .                   Miscellaneous:   DRILLING FLUID TYPE
~PARAMETER INFORMATION (zones)
#MNEM.UNIT                       Value     Description
#=========                       =====     ===========
#ZONATION                          DIL:   ZONATION NAME
#ZONE                            RUN_0:   ZONE NAME
TOP .                       3511.0000:   TOP DEPTH
BOT .                       7755.5000:   BOTTOM DEPTH
RUN .                               0:   RUN NUMBER
LCCD.                             280:   LOGGING CONTRACTOR
SRVC.                     Halliburton:   LOGGING CONT NAME
DICO.          QC Data Collectors Ltd:   DIG COMPANY NAME
LDAT.                        --/--/--:   DATE LOGGED
BHF .                              99:   FLUID CODE
DPT .                   Miscellaneous:   DRILLING FLUID TYPE
~PARAMETER INFORMATION (zones)
#MNEM.UNIT                       Value     Description
#=========                       =====     ===========
#ZONATION                          FDC:   ZONATION NAME
#ZONE                            RUN_0:   ZONE NAME
TOP .                       3511.0000:   TOP DEPTH
BOT .                       7755.5000:   BOTTOM DEPTH
RUN .                               0:   RUN NUMBER
LCCD.                             280:   LOGGING CONTRACTOR
SRVC.                     Halliburton:   LOGGING CONT NAME
DICO.          QC Data Collectors Ltd:   DIG COMPANY NAME
LDAT.                        --/--/--:   DATE LOGGED
BHF .                              99:   FLUID CODE
DPT .                   Miscellaneous:   DRILLING FLUID TYPE
~PARAMETER INFORMATION (zones)
#MNEM.UNIT                       Value     Description
#=========                       =====     ===========
#ZONATION                        SONIC:   ZONATION NAME
#ZONE                            RUN_0:   ZONE NAME
TOP .                       3511.0000:   TOP DEPTH
BOT .                       7731.5000:   BOTTOM DEPTH
RUN .                               0:   RUN NUMBER
LCCD.                             280:   LOGGING CONTRACTOR
SRVC.                     Halliburton:   LOGGING CONT NAME
DICO.          QC Data Collectors Ltd:   DIG COMPANY NAME
LDAT.                        --/--/--:   DATE LOGGED
BHF .                              99:   FLUID CODE
DPT .                   Miscellaneous:   DRILLING FLUID TYPE
~Curve Information Block
#MNEM.UNIT                    API CODE    No Description
#=========                    ========    == ===========
DEPT.F                   00 001 00 00:     1  DEPTH
NPHI.%                               :     2  Neutron Porosity
GR.GAPI                              :     3  Gamma Ray
GRD.OHMM                             :     4  Unrecognised
ILD.OHMM                             :     5  Deep Induction Resistivity
ILM.OHMM                             :     6  Medium Induction Resistivity
SP.MV                                :     7  Spontaneous Potential
DPHI.%                               :     8  Porosity
CALI.IN                              :     9  Caliper
DT.US/F                              :    10  Sonic Transit Time
GR.GAPI                              :    11  Gamma Ray
~ASCII
# ...
 7464.0000    43.4819    79.0834     1.2410     1.1478     1.1238   -48.0088    13.7202    10.3239   101.3611    86.8931
 7464.5000    42.1375    76.7749     1.2929     1.3383     1.2681   -48.6788    14.4908    10.1354   103.0361    87.2141
 7465.0000    40.6203    74.0048     1.4128     1.5583     1.4453   -50.1317    15.2919     9.9993   105.6233    85.2692
 7465.5000    38.9111    70.4052     1.5806     1.7374     1.6624   -51.4359    16.0696    10.2573   107.3834    84.1741
 7466.0000    37.2018    67.8228     1.9149     2.0459     1.9418   -52.4871    16.7594    10.3844   101.4701    82.1886
 7466.5000    35.5677    64.6666     2.4786     2.7292     2.2794   -53.5905    18.0478    10.3562    90.6750    74.2861
 7467.0000    33.9673    61.5469     3.1817     3.1145     2.7046   -54.9012    20.6805    10.1630    87.2717    70.3857
 7467.5000    32.0212    58.3751     3.7928     3.5448     3.3480   -56.2237    25.5586    10.1786    98.9070    65.0026
 7468.0000    30.1679    50.5968     4.7542     4.5402     4.1629   -57.5240    31.7299    10.4424   113.8605    60.1259
 7468.5000    28.8139    43.7888     7.9110     5.8739     5.1762   -58.6743    33.8729    10.6287   126.0275    56.2804
 7469.0000    27.5752    41.0369    10.7911     7.4939     6.4788   -59.3306    32.4053    10.7706   105.0968    52.0120
 7469.5000    26.3796    40.7345    14.8285     8.8701     7.9401   -59.6812    30.6320    10.6878    84.1448    49.3073
 7470.0000    25.4034    41.3839    19.1422    10.0805     9.7644   -60.1846    29.5791    10.4662    71.7864    46.1745
 7470.5000    24.4511    42.0529    19.4344    11.8153    11.7115   -60.9149    29.8294    10.4232    77.9976    42.2637
 7471.0000    24.0322    43.1067    19.2754    13.0784    13.1089   -61.6486    31.3042    10.5143    85.9423    40.1700
 7471.5000    23.7565    44.1266    19.1076    13.6900    13.7845   -62.1630    32.7590    10.5837    87.9231    39.5139
 7472.0000    23.4420    43.3923    20.7900    14.1046    13.8043   -62.7839    33.5072    10.5684    94.5969    39.6178
 7472.5000    23.0887    41.8781    22.2693    13.6883    13.5914   -63.2729    33.5160    10.5411    96.4661    40.1700
 7473.0000    22.8823    40.4135    20.0618    12.5371    13.2299   -63.5276    31.6819    10.5502    97.5828    41.1020
 7473.5000    22.8066    39.1237    18.1598    11.5081    12.7728   -63.8093    29.6589    10.6392    93.8763    41.9492
 7474.0000    22.7595    38.2955    16.6712    10.6924    12.3409   -64.0225    27.7672    10.6607    89.7710    40.1256
 7474.5000    23.0644    38.6952    15.7687    10.3645    11.9149   -63.8651    26.1076    10.5996    87.2106    39.2367
 7475.0000    23.4424    38.7845    15.6544    10.1216    11.2923   -63.1517    24.8440    10.6854    85.9868    37.8099
 7475.5000    24.1174    38.1559    15.6152     9.8037    10.5635   -62.2628    24.4525    10.7413    86.1639    37.0861
 7476.0000    24.8809    39.6884    15.1927     9.4045     9.7369   -61.5892    25.6979    10.7423    86.2062    37.4484
 7476.5000    25.7211    41.8925    12.8136     8.8084     8.6990   -60.7363    27.2663    10.8030    88.0215    39.5826
 7477.0000    26.9462    43.8096     9.8028     7.4409     7.5548   -59.8624    29.4605    10.9698    92.2783    42.9373
 7477.5000    27.7784    46.8041     8.2253     5.4189     5.4589   -58.6782    31.5939    11.0860    94.5543    46.6183
 7478.0000    28.3194    48.8857     7.9903     3.7761     3.9079   -56.3254    33.8008    10.8437    96.0725    49.3073
 7478.5000    28.7415    50.6750     8.3563     2.6742     3.0317   -53.5735    35.1917    10.3715   100.7894    50.7941
 7479.0000    30.3279    57.4673     5.7191     1.8672     2.2025   -51.2625    34.6683    10.0329   104.7804    52.5027
 7479.5000    33.9513    65.3082     3.5709     1.5239     1.5954   -49.1288    31.6595     9.9059   103.7274    58.8362
 7480.0000    36.4800    72.3562     2.4257     1.2963     1.2768   -47.4985    26.7942    10.1301   105.4159    64.1724
 7480.5000    41.8447    80.3901     1.7012     1.1782     1.1786   -47.3297    21.8904    10.3712   106.2162    74.3540
 7481.0000    44.3781    84.2533     1.4310     1.1207     1.1164   -47.3864    17.8477    10.4997   104.9054    78.2125
 7481.5000    44.9999    84.8303     1.3908     1.0988     1.1222   -47.5846    17.3100    10.5310   106.0885    80.8468
 7482.0000    43.9924    84.8190     1.3830     1.1650     1.2083   -48.6906    17.6197    10.5420   108.4843    78.0507
 7482.5000    41.8159    84.2662     1.4619     1.3136     1.4852   -50.2269    17.8433    10.5704   106.1178    77.0065
 7483.0000    39.0567    81.4231     1.7336     1.5625     1.9205   -51.7711    17.5639    10.4943   103.6504    77.2126
 7483.5000    35.7694    78.2095     2.2782     2.0264     2.6300   -53.0192    18.2943    10.3670    97.4604    75.6411
 7484.0000    32.6101    73.3944     3.6398     2.7880     3.6721   -54.1591    20.6901    10.1627    91.5205    74.0094
 7484.5000    30.1967    68.2245     7.0159     3.8603     4.7811   -55.1868    24.8288    10.0404    89.7657    69.2893
 7485.0000    28.4106    63.2529    10.1973     5.4162     6.1674   -55.9537    28.6699     9.9895    92.7277    61.1650
 7485.5000    26.9142    57.6238    13.0576     7.3990     8.3287   -56.6645    31.3714    10.0123    95.6737    54.7009
 7486.0000    25.7011    51.7079    16.9514     9.4652    10.7410   -57.2377    29.4957    10.1119    82.1028    47.8766
 7486.5000    24.6320    45.1660    22.4007    12.1619    14.2969   -57.7104    26.5669    10.2148    68.3829    40.7913
 7487.0000    23.9826    39.0310    25.1566    15.5086    16.4521   -58.1285    23.2956    10.2181    59.3973    36.7917
 7487.5000    23.7662    37.5142    25.5605    16.2517    16.2597   -58.3622    20.7669    10.2160    57.9841    34.9049
 7488.0000    23.7889    39.1719    21.5473     9.9699    11.7029   -58.6277    18.3071    10.2159    65.1498    34.9623
 7488.5000    24.3679    43.6844    14.9453     7.2005     9.0191   -58.8828    20.5013    10.1557    81.1244    36.8205
 7489.0000    26.1764    49.2143     9.1909     6.0358     7.0383   -59.0320    24.3519     9.6918    94.4958    40.2379
 7489.5000    27.9849    54.0764     5.8667     5.2042     5.5902   -59.1634    25.5826     9.2648    98.6357    47.2240
 7490.0000    29.7230    58.3594     4.6409     4.4151     4.8389   -59.4082    24.4639    10.2109    91.7173    55.1187
 7490.5000    30.8369    62.1260     4.2610     3.7237     4.1416   -59.5579    22.3866    10.4158    83.9028    60.0737
 7491.0000    31.7187    66.3568     3.9194     3.2846     3.2830   -60.0215    20.1364    10.2219    83.5918    63.7534
 7491.5000    32.2038    67.9427     3.6886     3.0644     3.0764   -60.6462    17.6061    10.0970    87.3939    64.9647
 7492.0000    32.3791    68.8674     3.6191     2.9524     2.9583   -61.4236    16.4698    10.0226    88.5406    65.5029
 7492.5000    32.1632    67.4106     3.4685     3.0223     2.9915   -62.3652    18.0110     9.9523    88.6304    65.5603
 7493.0000    31.2466    63.7980     3.5117     3.5465     3.2706   -63.1438    20.9846     9.9298    96.8436    65.4111
 7493.5000    30.0943    61.5822     4.0048     4.1742     3.7687   -63.7086    24.7648     9.9601   100.4651    64.5249
 7494.0000    28.7339    60.4357     4.9371     5.3372     4.4205   -64.1898    28.5066    10.0299   102.3053    62.2458
 7494.5000    27.3895    55.1406     6.1795     7.1723     5.7191   -64.1161    31.0513     9.9670   102.7889    59.4341
 7495.0000    26.3284    50.0908     8.1032     8.9619     7.3233   -63.6903    32.9910     9.8013   102.2598    55.9958
 7495.5000    25.5426    48.2831    10.8841    10.6715     9.2701   -63.2220    34.3314     9.7260   101.7041    53.9830
 7496.0000    24.9317    47.0102    14.4767    12.6668    12.2787   -62.7499    35.1884     9.6861   100.4385    51.6725
 7496.5000    24.6954    45.6199    19.5786    14.4749    14.5951   -62.1357    35.9482     9.6802    97.4712    50.0853
 7497.0000    24.7350    46.1938    23.9931    13.7775    15.2500   -61.4418    35.9012     9.6799    97.9152    48.2911
