~VERSION INFORMATION
VERS.                             2.0:   CWLS Log ASCII Standard-VERSION 2.0
WRAP.                              NO:   One line per depth step
~Well Information Block
STRT.F                      4122.0000:   Top Depth
STOP.F                     10958.0000:   Bottom Depth
STEP.F                         .50000:   Depth Increment
NULL.                        -999.250:   Null Value
FLD .                      GA BLK 273:   Field Name
WELL.       OCSG09037   003 ST00 BP00:   NAME
API .                  42706402950000:   WELL API
EDF .F                        95.0000:   ELEV DRILL FLOOR
COMP.       SEAGULL ENERGY E AND P IN:   OPERATOR
BN  .                             273:   BLOCK
CTRY.                             USA:   COUNTRY NAME
CNTY.                              GA:   COUNTY
CNTY.                        GLVSTN L:   COUNTY NAME
EKB .F                        96.0000:   ELEV KELLY BUSHING
TDD .F                      10964.000:   FINAL TD DRILLER
STAT.                           TEXAS:   STATE NAME
UWI .                  42706402950000:   WELL API
DICO.               IHS : Digitizing Company
~PARAMETER INFORMATION (zones)
#MNEM.UNIT                       Value     Description
#=========                       =====     ===========
#ZONATION                          DIL:   ZONATION NAME
#ZONE                            RUN_1:   ZONE NAME
TOP .                       4122.0000:   TOP DEPTH
BOT .                       9366.5000:   BOTTOM DEPTH
RUN .                               1:   RUN NUMBER
LCCD.                             440:   LOGGING CONTRACTOR
SRVC.                    Schlumberger:   LOGGING CONT NAME
DICO.          QC Data Collectors Ltd:   DIG COMPANY NAME
LDAT.                      05/20/1991:   DATE LOGGED
ELD .F                        96.0000:   LOG DATUM ELEVATION
TDD .F                      9360.0000:   TOTAL DEPTH DRILLER
TDL .F                      9366.0000:   TOTAL DEPTH LOGGER
BOTL.F                      9366.0000:   BOTTOM DEPTH LOGGED
TOPL.F                      4402.0000:   TOP DEPTH LOGGED
CS1 .IN                       10.7500:   CASING SIZE 1
BS1 .IN                        9.8750:   BIT SIZE 1
DDB1.F                      9360.0000:   DEPTH DRILLED BIT 1
BHF .                              81:   FLUID CODE
DPT .          Lignosulfonate (Ligno):   DRILLING FLUID TYPE
MUDD.                         12.5000:   FLUID DENSITY
MUDV.                         45.0000:   FLUID VISCOSITY
DFPH.                         10.0000:   FLUID PH
FL  .                          8.0000:   FLUID LOSS
RM  .OHMM                       .5080:   RM
RMT .DEGF                     67.0000:   RM TEMP
RMF .OHMM                       .3460:   RMF
RMFT.DEGF                     67.0000:   RMF TEMP
FSC .                               M:   RMF CODE
RMC .OHMM                       .6820:   RMC
RMCT.DEGF                     67.0000:   RMC TEMP
CMC .                               M:   RMC CODE
TMAX.DEGF                    170.0000:   MAX REC TEMP
TIMC.                          6.6800:   TIME SINCE CIRCLN
~PARAMETER INFORMATION (zones)
#MNEM.UNIT                       Value     Description
#=========                       =====     ===========
#ZONATION                          DIL:   ZONATION NAME
#ZONE                            RUN_2:   ZONE NAME
TOP .                       9092.0000:   TOP DEPTH
BOT .                      10398.5000:   BOTTOM DEPTH
RUN .                               2:   RUN NUMBER
LCCD.                             440:   LOGGING CONTRACTOR
SRVC.                    Schlumberger:   LOGGING CONT NAME
DICO.          QC Data Collectors Ltd:   DIG COMPANY NAME
LDAT.                      06/04/1991:   DATE LOGGED
ELD .F                        96.0000:   LOG DATUM ELEVATION
TDD .F                     10401.0000:   TOTAL DEPTH DRILLER
TDL .F                     10404.0000:   TOTAL DEPTH LOGGER
BOTL.F                     10398.0000:   BOTTOM DEPTH LOGGED
TOPL.F                      9292.0000:   TOP DEPTH LOGGED
CS1 .IN                        7.6250:   CASING SIZE 1
BS1 .IN                        6.7500:   BIT SIZE 1
DDB1.F                     10401.0000:   DEPTH DRILLED BIT 1
BHF .                              99:   FLUID CODE
DPT .                   Miscellaneous:   DRILLING FLUID TYPE
MUDD.                         14.1000:   FLUID DENSITY
MUDV.                         40.0000:   FLUID VISCOSITY
DFPH.                          9.8000:   FLUID PH
FL  .                          3.4000:   FLUID LOSS
RM  .OHMM                       .5160:   RM
RMT .DEGF                     80.0000:   RM TEMP
RMF .OHMM                       .2580:   RMF
RMFT.DEGF                     80.0000:   RMF TEMP
FSC .                               M:   RMF CODE
RMC .OHMM                      1.8700:   RMC
RMCT.DEGF                     80.0000:   RMC TEMP
CMC .                               M:   RMC CODE
TMAX.DEGF                    192.0000:   MAX REC TEMP
TIMC.                          7.4000:   TIME SINCE CIRCLN
~PARAMETER INFORMATION (zones)
#MNEM.UNIT                       Value     Description
#=========                       =====     ===========
#ZONATION                          DIL:   ZONATION NAME
#ZONE                            RUN_3:   ZONE NAME
TOP .                       9320.0000:   TOP DEPTH
BOT .                      10958.5000:   BOTTOM DEPTH
RUN .                               3:   RUN NUMBER
LCCD.                             440:   LOGGING CONTRACTOR
SRVC.                    Schlumberger:   LOGGING CONT NAME
DICO.          QC Data Collectors Ltd:   DIG COMPANY NAME
LDAT.                      06/09/1991:   DATE LOGGED
ELD .F                        96.0000:   LOG DATUM ELEVATION
TDD .F                     10960.0000:   TOTAL DEPTH DRILLER
TDL .F                     10964.0000:   TOTAL DEPTH LOGGER
BOTL.F                     10958.0000:   BOTTOM DEPTH LOGGED
TOPL.F                      9404.0000:   TOP DEPTH LOGGED
CS1 .IN                        7.6250:   CASING SIZE 1
BS1 .IN                        6.7500:   BIT SIZE 1
DDB1.F                     10960.0000:   DEPTH DRILLED BIT 1
BHF .                              99:   FLUID CODE
DPT .                   Miscellaneous:   DRILLING FLUID TYPE
MUDD.                         14.7000:   FLUID DENSITY
MUDV.                         46.0000:   FLUID VISCOSITY
DFPH.                         10.0000:   FLUID PH
FL  .                          2.3000:   FLUID LOSS
RM  .OHMM                       .4570:   RM
RMT .DEGF                     74.0000:   RM TEMP
RMF .OHMM                       .2190:   RMF
RMFT.DEGF                     74.0000:   RMF TEMP
FSC .                               M:   RMF CODE
RMC .OHMM                       .7110:   RMC
RMCT.DEGF                     74.0000:   RMC TEMP
CMC .                               M:   RMC CODE
TMAX.DEGF                    202.0000:   MAX REC TEMP
TIMC.                          7.3800:   TIME SINCE CIRCLN
~Curve Information Block
#MNEM.UNIT                    API CODE    No Description
#=========                    ========    == ===========
DEPT.F                   00 001 00 00:     1  DEPTH
DT.US/F                              :     2  Sonic Transit Time
GR.GAPI                              :     3  Gamma Ray
ILD.OHMM                             :     4  Deep Induction Resistivity
ILM.OHMM                             :     5  Medium Induction Resistivity
SFL.OHMM                             :     6  Medium Resistivity
SP.MV                                :     7  Spontaneous Potential
~ASCII
# ...
 4798.0000   112.8055    42.7945      .5043      .5357      .6575   -72.8320
 4798.5000   105.0093    44.5016      .5163      .5568      .7512   -72.3813
 4799.0000   100.1631    45.9428      .5269      .5765      .8481   -71.8629
 4799.5000   102.2740    46.7460      .5378      .5816      .9349   -71.2080
 4800.0000   108.3350    47.0955      .5526      .5873      .8888   -70.5370
 4800.5000   115.8878    47.3641      .5688      .5964      .8074   -69.5508
 4801.0000   123.8292    47.4960      .5851      .6110      .7444   -68.5813
 4801.5000   125.7925    47.0242      .6018      .6259      .7483   -67.8224
 4802.0000   119.8507    45.4797      .6188      .6496      .7850   -67.1188
 4802.5000   112.8212    46.1207      .6319      .6784      .7652   -65.8954
 4803.0000   107.4440    48.3102      .6416      .7076      .7759   -64.4122
 4803.5000   104.0366    50.8608      .6471      .7376      .8238   -62.9611
 4804.0000   104.8694    52.2168      .6444      .7600      .8944   -61.7523
 4804.5000   111.6970    52.9990      .6346      .7649      .9626   -60.8762
 4805.0000   114.3986    53.8832      .6180      .7619      .9265   -60.6321
 4805.5000   116.1210    54.9134      .5926      .7511      .8415   -60.4768
 4806.0000   116.8969    56.4446      .5632      .7220      .7649   -60.3935
 4806.5000   117.1237    54.4723      .5315      .6701      .6958   -62.1721
 4807.0000   117.6102    51.8803      .5018      .6034      .6321   -64.1710
 4807.5000   118.5964    49.8547      .4746      .5473      .5735   -66.4178
 4808.0000   119.8197    48.5301      .4506      .5040      .5280   -69.4323
 4808.5000   120.8032    48.6194      .4314      .4696      .4899   -70.2737
 4809.0000   121.3798    49.9254      .4160      .4469      .4554   -70.1449
 4809.5000   121.5492    51.5072      .4061      .4348      .4491   -69.7504
 4810.0000   121.6287    50.0906      .3980      .4283      .4817   -69.3442
 4810.5000   121.6294    46.2126      .3900      .4219      .5198   -69.4509
 4811.0000   121.6498    43.7633      .3828      .4173      .5479   -70.4310
 4811.5000   121.6669    41.7977      .3773      .4142      .5558   -71.7830
 4812.0000   121.5311    40.6669      .3720      .4082      .5560   -72.9550
 4812.5000   121.1316    40.1346      .3651      .4001      .5438   -73.8398
 4813.0000   120.4932    39.7061      .3563      .3922      .5102   -74.5009
 4813.5000   119.4725    39.1198      .3497      .3872      .4641   -74.9536
 4814.0000   117.9445    39.8187      .3498      .3852      .4151   -75.1831
 4814.5000   116.4602    43.8752      .3503      .3845      .3755   -74.9240
 4815.0000   116.3212    48.4515      .3513      .3885      .3776   -73.7653
 4815.5000   117.0690    51.0914      .3490      .3926      .4117   -72.4467
 4816.0000   119.0051    50.8209      .3438      .3946      .4482   -71.0880
 4816.5000   120.4634    44.1258      .3364      .3961      .4823   -72.0028
 4817.0000   121.2294    33.3555      .3279      .3885      .4797   -74.0697
 4817.5000   121.2546    29.5576      .3181      .3708      .4626   -75.9474
 4818.0000   121.0210    26.5032      .3090      .3511      .4316   -77.7372
 4818.5000   120.8542    26.1314      .3005      .3341      .3893   -78.7819
 4819.0000   120.7019    27.3354      .2914      .3234      .3426   -79.4602
 4819.5000   121.1747    28.4042      .2876      .3175      .3053   -79.8252
 4820.0000   121.7804    29.0605      .2838      .3128      .3403   -80.0319
 4820.5000   122.1954    28.2189      .2855      .3099      .3720   -80.4058
 4821.0000   121.1394    27.6138      .2874      .3124      .3905   -80.6398
 4821.5000   119.9661    27.4182      .2892      .3180      .4104   -80.7100
 4822.0000   118.8729    26.5378      .2900      .3255      .4304   -80.7139
 4822.5000   117.8647    25.1346      .2907      .3350      .4494   -80.5973
 4823.0000   117.9185    24.1764      .2904      .3462      .4682   -80.3511
 4823.5000   118.8776    24.0765      .2894      .3453      .4467   -79.9286
 4824.0000   119.8242    25.2679      .2869      .3338      .4178   -79.4265
 4824.5000   119.7607    26.7297      .2816      .3192      .3877   -79.0627
 4825.0000   118.9985    26.6631      .2766      .3061      .3570   -78.7937
 4825.5000   118.3271    25.0613      .2723      .2947      .3298   -78.7429
 4826.0000   117.8593    23.2542      .2681      .2814      .3108   -79.1874
 4826.5000   118.3090    22.5233      .2649      .2684      .3045   -79.6625
 4827.0000   118.6652    22.9801      .2619      .2623      .2999   -80.0303
 4827.5000   117.6938    23.3312      .2591      .2581      .2961   -80.3116
 4828.0000   116.8029    23.6053      .2575      .2564      .2922   -80.3748
 4828.5000   116.0115    23.5648      .2558      .2547      .2869   -80.4563
 4829.0000   115.9410    24.2231      .2542      .2537      .2832   -80.6124
 4829.5000   115.9745    24.8874      .2532      .2527      .2796   -80.7368
 4830.0000   116.0465    25.1372      .2523      .2521      .2826   -80.7900
 4830.5000   116.1185    23.8829      .2513      .2523      .2857   -80.8918
 4831.0000   116.1904    23.9546      .2502      .2525      .2898   -81.0687
 4831.5000   116.1453    24.6152      .2481      .2525      .2917   -81.2844
 4832.0000   116.1305    24.9060      .2460      .2526      .2874   -81.1473
 4832.5000   116.1892    24.0738      .2464      .2541      .2837   -80.6742
 4833.0000   116.0901    23.2889      .2471      .2559      .2804   -80.1858
 4833.5000   115.6366    22.9924      .2501      .2606      .2930   -79.7883
 4834.0000   115.3138    23.9632      .2545      .2661      .3231   -80.7129
 4834.5000   116.4745    24.8421      .2603      .2737      .3521   -81.7437
 4835.0000   118.5298    25.5399      .2661      .2848      .3807   -82.2717
 4835.5000   120.7236    25.6836      .2713      .2960      .4078   -82.6648
 4836.0000   122.1611    25.6503      .2725      .3072      .4287   -82.9896
 4836.5000   120.7094    25.9558      .2737      .3210      .4165   -83.4647
 4837.0000   118.8121    26.4169      .2742      .3319      .4117   -83.9205
 4837.5000   117.4115    27.0029      .2745      .3295      .4073   -83.9246
 4838.0000   116.4537    27.8958      .2749      .3158      .4056   -83.6265
 4838.5000   116.3469    29.0285      .2746      .3030      .4039   -83.3455
 4839.0000   117.3318    29.9727      .2741      .2940      .3994   -83.1685
 4839.5000   118.5259    28.6714      .2755      .2904      .3927   -83.1499
 4840.0000   119.8922    27.4847      .2777      .3045      .3858   -83.4526
 4840.5000   120.4115    26.4739      .2814      .3229      .3865   -83.4133
 4841.0000   119.7549    26.3632      .2851      .3389      .4019   -83.0289
 4841.5000   119.2130    26.5082      .2875      .3490      .4215   -82.4113
 4842.0000   119.1864    26.9723      .2898      .3488      .4486   -81.8920
 4842.5000   120.2302    27.2409      .2888      .3438      .4759   -81.3729
 4843.0000   120.9561    25.9662      .2852      .3334      .4530   -81.0127
 4843.5000   121.3336    24.6389      .2803      .3151      .4125   -80.6722
 4844.0000   120.5203    24.2246      .2755      .2930      .3785   -80.3789
 4844.5000   119.2072    24.3392      .2701      .2791      .3489   -80.1144
 4845.0000   117.9353    24.5033      .2646      .2694      .3170   -79.8793
 4845.5000   117.1058    24.7158      .2580      .2625      .2918   -79.7706
 4846.0000   116.7733    24.9115      .2522      .2558      .2788   -79.7787
 4846.5000   116.9232    25.0646      .2515      .2510      .2828   -79.8749
 4847.0000   117.0375    25.0853      .2511      .2468      .2901   -80.0132
 4847.5000   117.1378    24.4263      .2521      .2453      .2976   -79.9534
 4848.0000   117.2382    23.5328      .2531      .2444      .3053   -79.8893
 4848.5000   117.3386    22.0922      .2536      .2435      .3075   -79.8876
 4849.0000   117.4324    20.9168      .2540      .2428      .3024   -79.9768
 4849.5000   117.5261    21.5019      .2543      .2420      .2939   -80.2482
