~VERSION INFORMATION
VERS.                             2.0:   CWLS Log ASCII Standard-VERSION 2.0
WRAP.                              NO:   One line per depth step
~Well Information Block
STRT.F                      4703.0000:   Top Depth
STOP.F                      9304.5000:   Bottom Depth
STEP.F                         .50000:   Depth Increment
NULL.                        -999.250:   Null Value
FLD .                      BA BLK 399:   Field Name
WELL.       OCSG07218  A003 ST00 BP00:   NAME
API .                  42704403090000:   WELL API
EDF .F                       113.0000:   ELEV DRILL FLOOR
COMP.       SEAGULL ENERGY E AND P IN:   OPERATOR
EGL .F                       -62.0000:   ELEV GROUND LEVEL
EKB .F                       114.0000:   ELEV KELLY BUSHING
TDD .F                      9314.0000:   FINAL TD DRILLER
UWI .                  42704403090000:   WELL API
DICO.               IHS : Digitizing Company
~PARAMETER INFORMATION (zones)
#MNEM.UNIT                       Value     Description
#=========                       =====     ===========
#ZONATION                          CNL:   ZONATION NAME
#ZONE                            RUN_1:   ZONE NAME
TOP .                       4703.0000:   TOP DEPTH
BOT .                       9200.5000:   BOTTOM DEPTH
RUN .                               1:   RUN NUMBER
LCCD.                             510:   LOGGING CONTRACTOR
SRVC.                   Western Atlas:   LOGGING CONT NAME
DICO.          QC Data Collectors Ltd:   DIG COMPANY NAME
LDAT.                      03/24/1997:   DATE LOGGED
TDD .F                      9314.0000:   TOTAL DEPTH DRILLER
TDL .F                      9307.0000:   TOTAL DEPTH LOGGER
BOTL.F                      9305.0000:   BOTTOM DEPTH LOGGED
TOPL.F                      4703.0000:   TOP DEPTH LOGGED
CS1 .                         10.7500:   CASING SIZE 1
BS1 .                          9.8750:   BIT SIZE 1
DDB1.F                      9314.0000:   DEPTH DRILLED BIT 1
BHF .                              99:   FLUID CODE
DPT .                   Miscellaneous:   DRILLING FLUID TYPE
MUDD.                         11.5000:   FLUID DENSITY
MUDV.                         41.0000:   FLUID VISCOSITY
DFPH.                         10.2000:   FLUID PH
FL  .                          5.0000:   FLUID LOSS
RM  .OHMM                      1.1200:   RM
RMT .DEGF                     75.0000:   RM TEMP
RMF .OHMM                       .8300:   RMF
RMFT.DEGF                     75.0000:   RMF TEMP
FSC .                               M:   RMF CODE
RMC .OHMM                      1.4600:   RMC
RMCT.DEGF                     75.0000:   RMC TEMP
CMC .                               M:   RMC CODE
TMAX.DEGF                    181.0000:   MAX REC TEMP
TIMC.                         24.0000:   TIME SINCE CIRCLN
SON .                          173943:   SERVICE ORDER NUM
LMF .                             MSL:   LOGS MEAS FROM
MUDS.                             PIT:   MUD SOURCE
ENG .                         HADSALL:   ENGINEER
WIT .                        FONTENOT:   WITNESS
~PARAMETER INFORMATION (zones)
#MNEM.UNIT                       Value     Description
#=========                       =====     ===========
#ZONATION                          DAL:   ZONATION NAME
#ZONE                            RUN_1:   ZONE NAME
TOP .                       4703.0000:   TOP DEPTH
BOT .                       9242.5000:   BOTTOM DEPTH
RUN .                               1:   RUN NUMBER
LCCD.                             510:   LOGGING CONTRACTOR
SRVC.                   Western Atlas:   LOGGING CONT NAME
DICO.          QC Data Collectors Ltd:   DIG COMPANY NAME
LDAT.                      03/24/1997:   DATE LOGGED
TDD .F                      9314.0000:   TOTAL DEPTH DRILLER
TDL .F                      9307.0000:   TOTAL DEPTH LOGGER
BOTL.F                      9305.0000:   BOTTOM DEPTH LOGGED
TOPL.F                      4703.0000:   TOP DEPTH LOGGED
CS1 .                         10.7500:   CASING SIZE 1
BS1 .                          9.8750:   BIT SIZE 1
DDB1.F                      9314.0000:   DEPTH DRILLED BIT 1
BHF .                              99:   FLUID CODE
DPT .                   Miscellaneous:   DRILLING FLUID TYPE
MUDD.                         11.5000:   FLUID DENSITY
MUDV.                         41.0000:   FLUID VISCOSITY
DFPH.                         10.2000:   FLUID PH
FL  .                          5.0000:   FLUID LOSS
RM  .OHMM                      1.1200:   RM
RMT .DEGF                     75.0000:   RM TEMP
RMF .OHMM                       .8300:   RMF
RMFT.DEGF                     75.0000:   RMF TEMP
FSC .                               M:   RMF CODE
RMC .OHMM                      1.4600:   RMC
RMCT.DEGF                     75.0000:   RMC TEMP
CMC .                               M:   RMC CODE
TMAX.DEGF                    181.0000:   MAX REC TEMP
TIMC.                         24.0000:   TIME SINCE CIRCLN
SON .                          173943:   SERVICE ORDER NUM
LMF .                             MSL:   LOGS MEAS FROM
MUDS.                             PIT:   MUD SOURCE
ENG .                         HADSALL:   ENGINEER
WIT .                        FONTENOT:   WITNESS
~PARAMETER INFORMATION (zones)
#MNEM.UNIT                       Value     Description
#=========                       =====     ===========
#ZONATION                          DIL:   ZONATION NAME
#ZONE                            RUN_1:   ZONE NAME
TOP .                       4703.0000:   TOP DEPTH
BOT .                       9305.5000:   BOTTOM DEPTH
RUN .                               1:   RUN NUMBER
LCCD.                             510:   LOGGING CONTRACTOR
SRVC.                   Western Atlas:   LOGGING CONT NAME
DICO.          QC Data Collectors Ltd:   DIG COMPANY NAME
LDAT.                      03/24/1997:   DATE LOGGED
TDD .F                      9314.0000:   TOTAL DEPTH DRILLER
TDL .F                      9307.0000:   TOTAL DEPTH LOGGER
BOTL.F                      9305.0000:   BOTTOM DEPTH LOGGED
TOPL.F                      4703.0000:   TOP DEPTH LOGGED
CS1 .                         10.7500:   CASING SIZE 1
BS1 .                          9.8750:   BIT SIZE 1
DDB1.F                      9314.0000:   DEPTH DRILLED BIT 1
BHF .                              99:   FLUID CODE
DPT .                   Miscellaneous:   DRILLING FLUID TYPE
MUDD.                         11.5000:   FLUID DENSITY
MUDV.                         41.0000:   FLUID VISCOSITY
DFPH.                         10.2000:   FLUID PH
FL  .                          5.0000:   FLUID LOSS
RM  .OHMM                      1.1200:   RM
RMT .DEGF                     75.0000:   RM TEMP
RMF .OHMM                       .8300:   RMF
RMFT.DEGF                     75.0000:   RMF TEMP
FSC .                               M:   RMF CODE
RMC .OHMM                      1.4600:   RMC
RMCT.DEGF                     75.0000:   RMC TEMP
CMC .                               M:   RMC CODE
TMAX.DEGF                    181.0000:   MAX REC TEMP
TIMC.                         24.0000:   TIME SINCE CIRCLN
SON .                          173943:   SERVICE ORDER NUM
LMF .                             MSL:   LOGS MEAS FROM
MUDS.                             PIT:   MUD SOURCE
ENG .                         HADSALL:   ENGINEER
WIT .                        FONTENOT:   WITNESS
~PARAMETER INFORMATION (zones)
#MNEM.UNIT                       Value     Description
#=========                       =====     ===========
#ZONATION                          FDC:   ZONATION NAME
#ZONE                            RUN_1:   ZONE NAME
TOP .                       4703.0000:   TOP DEPTH
BOT .                       9228.5000:   BOTTOM DEPTH
RUN .                               1:   RUN NUMBER
LCCD.                             510:   LOGGING CONTRACTOR
SRVC.                   Western Atlas:   LOGGING CONT NAME
DICO.          QC Data Collectors Ltd:   DIG COMPANY NAME
LDAT.                      03/24/1997:   DATE LOGGED
TDD .F                      9314.0000:   TOTAL DEPTH DRILLER
TDL .F                      9307.0000:   TOTAL DEPTH LOGGER
BOTL.F                      9305.0000:   BOTTOM DEPTH LOGGED
TOPL.F                      4703.0000:   TOP DEPTH LOGGED
CS1 .                         10.7500:   CASING SIZE 1
BS1 .                          9.8750:   BIT SIZE 1
DDB1.F                      9314.0000:   DEPTH DRILLED BIT 1
BHF .                              99:   FLUID CODE
DPT .                   Miscellaneous:   DRILLING FLUID TYPE
MUDD.                         11.5000:   FLUID DENSITY
MUDV.                         41.0000:   FLUID VISCOSITY
DFPH.                         10.2000:   FLUID PH
FL  .                          5.0000:   FLUID LOSS
RM  .OHMM                      1.1200:   RM
RMT .DEGF                     75.0000:   RM TEMP
RMF .OHMM                       .8300:   RMF
RMFT.DEGF                     75.0000:   RMF TEMP
FSC .                               M:   RMF CODE
RMC .OHMM                      1.4600:   RMC
RMCT.DEGF                     75.0000:   RMC TEMP
CMC .                               M:   RMC CODE
TMAX.DEGF                    181.0000:   MAX REC TEMP
TIMC.                         24.0000:   TIME SINCE CIRCLN
SON .                          173943:   SERVICE ORDER NUM
LMF .                             MSL:   LOGS MEAS FROM
MUDS.                             PIT:   MUD SOURCE
ENG .                         HADSALL:   ENGINEER
WIT .                        FONTENOT:   WITNESS
~Curve Information Block
#MNEM.UNIT                    API CODE    No Description
#=========                    ========    == ===========
DEPT.F                   00 001 00 00:     1  DEPTH
CNCF.%                               :     2  Field Normalized CNC
DT24.US/F                            :     3  Unrecognised
CILD.MMHO                            :     4  Deep Induction Conductivity
RFOC.OHMM                            :     5  Medium Resistivity
RILD.OHMM                            :     6  Deep Resistivity
RILM.OHMM                            :     7  Medium Resistivity
RWAZ.OHMM                            :     8  Unrecognised
SP.MV                                :     9  Spontaneous Potential
GR.GAPI                              :    10  Gamma Ray
PORZ.%                               :    11  Neutron Porosity
ZCOR.G/C3                            :    12  Density Correction
ZDEN.G/C3                            :    13  Bulk Density
~ASCII
# ...
 6495.0000    40.9059   120.9559  1072.2090     1.2790      .9330      .8990      .0760     1.5330    68.5919    24.8900      .0730     2.2390
 6495.5000    40.0060   120.7090  1070.9629     1.2830      .9340      .9030      .0780     1.4680    65.2959    25.2220      .0650     2.2340
 6496.0000    40.0860   117.4270  1070.9609     1.2730      .9340      .9070      .0810     1.4510    65.9089    25.6770      .0750     2.2260
 6496.5000    41.1530   114.0299  1068.4121     1.2940      .9360      .9050      .0770     -.5060    67.7780    25.0930      .0830     2.2360
 6497.0000    41.9109   113.0940  1071.5059     1.3010      .9330      .8990      .0750    -1.7030    64.1570    24.8200      .0800     2.2400
 6497.5000    42.8790   113.5480  1078.6328     1.2630      .9270      .8920      .0800    -2.7400    64.7660    25.5560      .0720     2.2280
 6498.0000    42.7900   116.6599  1082.8066     1.2380      .9240      .8870      .0810    -1.6550    66.1570    25.8720      .0710     2.2230
 6498.5000    43.4470   120.3889  1093.8848     1.2400      .9140      .8800      .0790     1.1720    67.0690    25.5610      .0810     2.2280
 6499.0000    43.2200   121.8839  1113.5332     1.2490      .8980      .8690      .0790      .2570    66.7510    25.8730      .0720     2.2230
 6499.5000    43.6920   121.8109  1129.1133     1.2520      .8860      .8580      .0800      .6390    67.5399    26.1370      .0700     2.2190
 6500.0000    43.4820   121.7670  1135.9336     1.2270      .8800      .8530      .0820     1.2630    66.2109    26.4840      .0820     2.2130
 6500.5000    43.7530   122.1429  1132.3008     1.1920      .8830      .8580      .0840     1.3470    65.9789    26.8350      .0770     2.2070
 6501.0000    43.8920   122.0790  1116.7285     1.1810      .8960      .8740      .0840      .9080    68.1379    26.6990      .0700     2.2100
 6501.5000    43.4370   121.4130  1105.2852     1.2060      .9050      .8930      .0830      .8100    66.3280    26.3100      .0710     2.2160
 6502.0000    42.1410   118.3820  1099.4941     1.2860      .9100      .9020      .0790      .4810    62.2029    25.6460      .0680     2.2270
 6502.5000    40.4579   114.2920  1092.2285     1.3890      .9160      .9020      .0720     -.0710    64.4220    24.5110      .0720     2.2460
 6503.0000    40.3920   111.6639  1077.9668     1.3640      .9280      .9030      .0730     -.2500    68.2410    24.6250      .0800     2.2440
 6503.5000    41.6580   110.9519  1057.5527     1.2570      .9460      .9100      .0820     -.9240    68.5110    25.7090      .0750     2.2260
 6504.0000    41.7130   112.5809  1046.6934     1.2130      .9550      .9140      .0830    -7.0170    69.5549    25.6950      .0750     2.2260
 6504.5000    41.2660   114.8180  1049.4570     1.2510      .9530      .9040      .0790    -6.5620    69.5959    25.1070      .0840     2.2360
 6505.0000    41.3380   115.8610  1068.1719     1.2950      .9360      .8860      .0800     3.5160    70.4729    25.4970      .0800     2.2290
 6505.5000    40.9880   116.1969  1100.1953     1.2890      .9090      .8690      .0810     3.9800    71.4690    25.9410      .0700     2.2220
 6506.0000    41.5820   118.0220  1119.4961     1.2490      .8930      .8570      .0830     4.3150    72.3960    26.5560      .0690     2.2120
 6506.5000    42.5340   121.1349  1129.9004     1.2120      .8850      .8500      .0890     4.6920    71.7119    27.4720      .0670     2.1970
 6507.0000    43.5680   123.8450  1135.4258     1.1920      .8810      .8490      .0910     4.6430    71.4149    27.8680      .0670     2.1900
 6507.5000    43.9200   125.3739  1146.9258     1.1950      .8720      .8500      .0870     4.1720    71.6370    27.4600      .0760     2.1970
 6508.0000    44.2910   124.7019  1155.9902     1.2170      .8650      .8520      .0860     3.8180    68.2389    27.3190      .0720     2.1990
 6508.5000    43.8040   121.8639  1151.1973     1.2560      .8690      .8550      .0830     3.5550    66.2240    26.7810      .0750     2.2080
 6509.0000    43.8440   119.2620  1139.3613     1.2940      .8780      .8510      .0800     3.6000    69.8359    26.3510      .0790     2.2150
 6509.5000    43.9730   119.1730  1128.3809     1.2890      .8860      .8470      .0820     4.1350    71.9099    26.3960      .0730     2.2140
 6510.0000    44.2980   120.6239  1124.7129     1.2540      .8890      .8490      .0820     4.4080    72.8760    26.4890      .0730     2.2130
 6510.5000    44.4709   122.2670  1134.1055     1.2280      .8820      .8510      .0870     3.6580    71.7200    27.3210      .0760     2.1990
 6511.0000    44.3730   123.8450  1146.7324     1.2290      .8720      .8440      .0890     3.1930    71.0299    27.6210      .0810     2.1940
 6511.5000    43.6450   123.9059  1154.7305     1.2720      .8660      .8300      .0870     3.1000    70.6229    27.5440      .0780     2.1950
 6512.0000    43.4340   122.9800  1161.0410     1.3410      .8610      .8210      .0880     2.7870    71.9120    27.6650      .0790     2.1940
 6512.5000    44.8620   123.3519  1166.6387     1.3190      .8570      .8170      .0860     3.0520    72.0859    27.4830      .0690     2.1970
 6513.0000    45.7020   124.9609  1169.8613     1.2370      .8550      .8130      .0890     3.6590    65.0439    27.9970      .0630     2.1880
 6513.5000    45.8750   126.7190  1167.8535     1.2080      .8560      .8090      .0930     4.0130    58.6420    28.4690      .0690     2.1800
 6514.0000    45.1340   127.8839  1169.7324     1.2120      .8550      .8040      .0920     4.0550    56.0030    28.3650      .0690     2.1820
 6514.5000    44.2500   127.9650  1181.3047     1.2290      .8460      .8000      .0890     3.8500    56.0980    28.0870      .0790     2.1870
 6515.0000    43.8019   126.6270  1198.5703     1.2590      .8340      .7970      .0860     3.6500    59.4260    27.7740      .0800     2.1920
 6515.5000    44.0920   126.1809  1215.7363     1.2640      .8220      .7920      .0830     3.5770    61.2289    27.5510      .0860     2.1950
 6516.0000    43.9410   127.3479  1229.8398     1.2450      .8130      .7880      .0840     3.5880    61.5330    27.9100      .0700     2.1900
 6516.5000    43.4850   128.6208  1234.7500     1.2060      .8100      .7860      .0840     3.5570    61.6769    27.9050      .0640     2.1900
 6517.0000    42.9550   130.0168  1227.0762     1.2100      .8150      .7870      .0860     3.5400    63.8660    28.1710      .0600     2.1850
 6517.5000    42.1450   130.0779  1216.9531     1.2680      .8220      .7920      .0870     3.7810    63.7620    28.1810      .0650     2.1850
 6518.0000    41.3890   128.6309  1210.8594     1.2740      .8260      .7980      .0840     3.3630    70.5210    27.7200      .0680     2.1930
 6518.5000    42.0699   127.4700  1201.5898     1.2910      .8320      .8070      .0850     2.9890    88.2699    27.7420      .0660     2.1920
 6519.0000    42.2809   125.7699  1192.6523     1.3230      .8390      .8180      .0840     3.1340   125.7279    27.4160      .0680     2.1980
 6519.5000    42.3920   123.4349  1178.4727     1.3160      .8490      .8290      .0840     2.7560   172.4399    27.2810      .0640     2.2000
 6520.0000    42.7450   121.7429  1166.1875     1.2890      .8580      .8330      .0840     2.6000   222.2739    27.1630      .0650     2.2020
 6520.5000    43.2850   120.4349  1170.1094     1.2630      .8550      .8270      .0820     2.6200   277.2476    26.9730      .0650     2.2050
 6521.0000    44.2580   120.5969  1182.3008     1.2480      .8460      .8160      .0820     2.4100   276.6909    27.0620      .0690     2.2040
 6521.5000    44.3920   122.6410  1203.5352     1.2370      .8310      .7990      .0860     2.5660   181.7788    27.9270      .0570     2.1890
 6522.0000    45.6380   125.4559  1234.8594     1.2100      .8100      .7800      .0840     2.4070   107.5669    27.9300      .0640     2.1890
 6522.5000    46.6429   128.4849  1267.7168     1.1850      .7890      .7630      .0900     2.6070    81.3989    29.1560      .0610     2.1690
