#------------------------------------------------------------------------------
# Created by    : vladimir.rabinovich
# Created on    : 09/19/2023 17:20:13
#------------------------------------------------------------------------------
~Version Information Section
VERS.           2.0     :   CWLS log ASCII Standard - VERSION 2.0
WRAP.           NO      :   One line per depth step
~Well Information Section
#MNEM       .UNIT                                         VALUE :DESCRIPTION
#------------------------------------------------------------------------------
STRT        .FT                                             206 :START DEPTH
STOP        .FT                                           16504 :STOP DEPTH
STEP        .FT                                             0.5 :STEP      
NULL        .                                           -999.25 :NULL      
COMP        .                                 ARCO OIL & GAS CO :COMPANY   
WELL        .                                 MIAMI CORPORATION :WELL      
FLD         .                                           WILDCAT :FIELD     
LOC         .                                                   :LOCATION  
CNTY        .                                           CAMERON :LOCATION  
STAT        .                                         LOUISIANA :STATE     
CTRY        .                                     UNITED STATES :COUNTRY   
SRVC        .                                                   :SERVICE COMPANY
DATE        .                             9/13/2023 11:18:18 AM :LOG DATE  
API         .                                    17023218610000 :API NUMBER
UWI         .                                    17023218610000 :UNIQUE WELL ID
XCOORD      .                                  1618322.01672943 :SURFACE X 
YCOORD      .                                  10857815.2770888 :SURFACE Y 
LAT         .                                        29.9175237 :LATITUDE  
LON         .                                        -93.069766 :LONGITUDE 
ELEV        .FT                                              28 :ELEVATION VALUE
ELEV_TYPE   .                                                KB :ELEVATION REFERENCE TYPE
~Curve Information Section
#MNEM       .UNIT                                      API CODE :CURVE DESCRIPTION
#------------------------------------------------------------------------------
DEPT        .FT                                                 :DEPTH     
ASFL        .OHMM                                               :          
CILD        .MMHO                                               :          
SP          .MV                                                 :          
SP_NORM     .MV                                                 :SP Normalized
VSH_SP      .V/V                                                :Volume of Shale from SP
~A        DEPTH           ASFL           CILD             SP        SP_NORM         VSH_SP
# ...
      8874.0000         0.7232        4582.07      -137.7163      -91.15594      0.0408942
      8874.5000         0.7834       4475.523      -137.6921      -91.13742     0.04109127
      8875.0000         0.8173       4398.891       -137.668        -91.119     0.04128728
      8875.5000         0.8455        4334.18      -137.6438      -91.10046     0.04148443
      8876.0000         0.8031           3938      -137.6196      -91.08194     0.04168149
      8876.5000          0.761       3825.418      -137.6558      -91.12383     0.04123591
      8877.0000         0.7202       3728.449      -137.7175      -91.19118     0.04051931
      8877.5000         0.6848       3624.836      -137.7791      -91.25845     0.03980369
      8878.0000         0.6495       3504.992      -137.8411      -91.32613     0.03908376
      8878.5000         0.6027       3355.043      -137.9028      -91.39351     0.03836692
      8879.0000         0.5955           3218      -137.9644      -91.46078      0.0376513
      8879.5000          0.614       3097.961      -138.7524      -92.25444     0.02920808
      8880.0000         0.6346         3291.5      -139.6699      -93.17763     0.01938694
      8880.5000         0.6593         3650.5      -140.5854       -94.0988    0.009587227
      8881.0000         0.6135           4010      -141.5361      -95.05517              0
      8881.5000         0.6172       4437.992      -142.5664      -96.09114              0
      8882.0000         0.6246       4881.383      -143.5947      -97.12511              0
      8882.5000          0.632       5325.563      -144.4495      -97.98558              0
      8883.0000         0.6467       5768.953       -144.238      -97.77976              0
      8883.5000         0.6638       6213.125      -144.0266      -97.57402              0
      8884.0000         0.6808       6517.719      -143.8152       -97.3683              0
      8884.5000         0.6979       6225.836       -143.604      -97.16278              0
      8885.0000          0.701       6169.531      -143.3928      -96.95725              0
      8885.5000         0.7023       6113.133      -143.1738      -96.74391              0
      8886.0000         0.7035       6027.016       -142.677      -96.25279              0
      8886.5000         0.7048       5929.945      -142.1814      -95.76286              0
      8887.0000          0.706       5868.609      -141.6848      -95.27193              0
      8887.5000         0.7073       5827.508      -141.1882      -94.78101    0.002329725
      8888.0000         0.7007       5861.328      -140.6917      -94.29018    0.007551315
      8888.5000         0.6908       5904.922       -140.196      -93.80016      0.0127643
      8889.0000         0.6809       5948.523      -137.8682      -91.47802     0.03746787
      8889.5000         0.6363       6103.258      -135.5642      -89.17969     0.06191822
      8890.0000         0.5705       6378.133      -133.5374      -87.15857     0.08341947
      8890.5000         0.5075       6664.734      -131.2334      -84.86024      0.1078697
      8891.0000         0.4445       6708.133      -128.4495      -82.08201      0.1374254
      8891.5000         0.4176       6293.672      -118.2888      -71.92699      0.2454576
      8892.0000          0.395        5878.43      -109.8264      -63.47026      0.3354228
      8892.5000         0.3724       5463.977      -104.8088      -58.45833      0.3887411
      8893.0000         0.3774       5048.734      -100.7438        -54.399      0.4319255
      8893.5000         0.4059       4634.273       -93.4001      -47.06098      0.5099896
      8894.0000         0.4343       4207.305       -91.5245      -45.19105      0.5298825
      8894.5000         0.4628           3948       -90.5221      -44.19432      0.5404859
      8895.0000         0.5686       3356.414       -89.9868       -43.6647      0.5461203
      8895.5000         0.6794       2727.688       -89.4514      -43.13497      0.5517557
      8896.0000         0.7519       2098.176       -88.9152      -42.60444      0.5573996
      8896.5000          0.813       1938.258       -87.8842      -41.57911      0.5683073
      8897.0000         0.8498       2083.516       -85.9863      -39.68688      0.5884374
      8897.5000         0.8095       2171.586       -84.5039      -38.21016      0.6041473
      8898.0000         0.7856       2238.352       -83.4425      -37.15443      0.6153784
      8898.5000          0.788       2331.797       -82.8444        -36.562      0.6216809
      8899.0000         0.7904       2401.594       -84.6277      -38.35098      0.6026492
      8899.5000         0.8262       2498.559       -90.1696      -43.89855      0.5436324
      8900.0000         0.8935       2784.773       -98.3661      -52.10072      0.4563754
      8900.5000         0.9198        3014.68      -102.5087      -56.24899      0.4122448
      8901.0000         0.9364       3244.195      -105.7614      -59.50736      0.3775812
      8901.5000          0.938       3423.859       -109.531      -63.28263      0.3374188
      8902.0000         0.9396       3560.906      -112.5992      -66.35651       0.304718
      8902.5000         0.9412       3739.008      -114.6133      -68.37628       0.283231
      8903.0000         0.9428       3816.914       -115.948      -69.71665      0.2689718
      8903.5000         0.9444       3873.215      -117.2845      -71.05882      0.2546934
      8904.0000         0.9359       3956.012      -118.6118       -72.3918      0.2405128
      8904.5000         0.9273        4059.75      -119.3374      -73.12308      0.2327332
      8905.0000         0.9186       4255.102      -116.8525      -70.64384       0.259108
      8905.5000         0.9067       4308.961      -114.3678      -68.16481      0.2854807
      8906.0000         0.8043        4239.07      -111.8866      -65.68929      0.3118161
      8906.5000         0.7715        3991.25       -109.472      -63.28036       0.337443
      8907.0000         0.7438       3717.695      -107.0574      -60.87144      0.3630698
      8907.5000         0.7161       3543.508      -104.2144      -58.03411      0.3932542
      8908.0000         0.7073       3435.395        -99.014      -52.83938      0.4485173
      8908.5000         0.7021       3130.023      -100.5665      -54.39755       0.431941
      8909.0000         0.7273       2970.496      -103.9855      -57.82222      0.3955083
      8909.5000         0.7725       3119.273      -107.6703       -61.5127      0.3562479
      8910.0000         0.8178       3261.203      -112.3518      -66.19987      0.3063844
      8910.5000         0.8606       3385.543      -115.8962      -69.74994      0.2686177
      8911.0000         0.9014       3509.684      -116.9484      -70.80782      0.2573637
      8911.5000         0.8904       3722.387      -117.0381      -70.90318      0.2563491
      8912.0000         0.8542       4076.707      -117.1278      -70.99856      0.2553345
      8912.5000         0.8188        4106.18      -116.1917      -70.06813      0.2652327
      8913.0000         0.7834       4072.602      -114.3345      -68.21661      0.2849297
      8913.5000          0.748       3908.504      -112.4738      -66.36157      0.3046641
      8914.0000         0.7578       3715.742      -110.6129      -64.50635      0.3244005
      8914.5000         0.7755       3523.371      -108.7557      -62.65482      0.3440976
      8915.0000         0.8594       3330.605      -106.1011      -60.00589      0.3722777
      8915.5000         0.9113       3138.234      -103.5701      -57.48057      0.3991429
      8916.0000         0.9433       2945.473      -102.6121      -56.52824       0.409274
      8916.5000         0.9753       2753.102      -105.6285      -59.55032      0.3771243
      8917.0000         1.0074       2700.707      -108.6487      -62.57618      0.3449342
      8917.5000         1.0395        2871.77      -120.9619      -74.89506      0.2138824
