#------------------------------------------------------------------------------
# Created by    : vladimir.rabinovich
# Created on    : 09/19/2023 17:20:13
#------------------------------------------------------------------------------
~Version Information Section
VERS.           2.0     :   CWLS log ASCII Standard - VERSION 2.0
WRAP.           NO      :   One line per depth step
~Well Information Section
#MNEM       .UNIT                                         VALUE :DESCRIPTION
#------------------------------------------------------------------------------
STRT        .FT                                             206 :START DEPTH
STOP        .FT                                           16504 :STOP DEPTH
STEP        .FT                                             0.5 :STEP      
NULL        .                                           -999.25 :NULL      
COMP        .                                 ARCO OIL & GAS CO :COMPANY   
WELL        .                                 MIAMI CORPORATION :WELL      
FLD         .                                           WILDCAT :FIELD     
LOC         .                                                   :LOCATION  
CNTY        .                                           CAMERON :LOCATION  
STAT        .                                         LOUISIANA :STATE     
CTRY        .                                     UNITED STATES :COUNTRY   
SRVC        .                                                   :SERVICE COMPANY
DATE        .                             9/13/2023 11:18:18 AM :LOG DATE  
API         .                                    17023218610000 :API NUMBER
UWI         .                                    17023218610000 :UNIQUE WELL ID
XCOORD      .                                  1618322.01672943 :SURFACE X 
YCOORD      .                                  10857815.2770888 :SURFACE Y 
LAT         .                                        29.9175237 :LATITUDE  
LON         .                                        -93.069766 :LONGITUDE 
ELEV        .FT                                              28 :ELEVATION VALUE
ELEV_TYPE   .                                                KB :ELEVATION REFERENCE TYPE
~Curve Information Section
#MNEM       .UNIT                                      API CODE :CURVE DESCRIPTION
#------------------------------------------------------------------------------
DEPT        .FT                                                 :DEPTH     
ASFL        .OHMM                                               :          
CILD        .MMHO                                               :          
SP          .MV                                                 :          
SP_NORM     .MV                                                 :SP Normalized
VSH_SP      .V/V                                                :Volume of Shale from SP
~A        DEPTH           ASFL           CILD             SP        SP_NORM         VSH_SP
# ...
      9930.0000         0.7242       1660.576       -20.4263       1.836998              1
      9930.5000         0.7405       1667.834       -20.8648       1.387152              1
      9931.0000         0.7746        1586.75        -22.889     -0.6483955              1
      9931.5000         0.8028       1504.053       -31.1298      -8.900543      0.9059459
      9932.0000         0.8557       1421.162       -33.0386      -10.82069       0.883087
      9932.5000          0.943       1320.479       -34.9474      -12.74084      0.8602281
      9933.0000         0.9691       1213.102        -36.908      -14.71279      0.8367525
      9933.5000         0.9951       1180.648       -38.9424      -16.75853      0.8123984
      9934.0000         1.0207       1148.195       -40.9804      -18.80788      0.7880014
      9934.5000         1.0896       1115.742       -54.4641      -32.30293      0.6273462
      9935.0000          1.345       1084.219       -70.4436      -48.29378      0.4369788
      9935.5000         1.5579       1053.035       -73.6853      -51.54682      0.3982521
      9936.0000         1.7713       1021.805       -76.1257      -53.99857      0.3690647
      9936.5000         1.9842        990.623       -75.4539      -53.33812      0.3769271
      9937.0000         2.1506       981.1289       -73.2903      -51.18586      0.4025493
      9937.5000         2.1317        972.002       -70.3402      -48.24711      0.4375344
      9938.0000         1.9764        962.874       -63.2218      -41.14006      0.5221422
      9938.5000         1.7857       953.7471       -60.5413       -38.4709      0.5539178
      9939.0000          1.595        947.375       -57.8572      -35.79815      0.5857363
      9939.5000         1.4043       942.3164       -54.1465      -32.09879      0.6297763
      9940.0000         1.2316       937.2578       -49.2508      -27.21445      0.6879233
      9940.5000         1.2725       932.2051       -45.5143      -23.48929      0.7322704
      9941.0000          1.336        915.209       -41.7853      -19.77164      0.7765281
      9941.5000         1.3996       870.8301       -38.6738      -16.67149      0.8134347
      9942.0000         1.4632       824.3994       -38.0101      -16.01913      0.8212008
      9942.5000         1.5267       776.7949       -37.3474      -15.36778       0.828955
      9943.0000         1.5903       745.4658       -36.6837      -14.71543      0.8367211
      9943.5000         1.6539       725.5742       -35.6896      -13.73267      0.8484206
      9944.0000         1.6826       756.2187       -34.0872      -12.14162      0.8673617
      9944.5000         1.6229       781.8291       -32.4848      -10.55057      0.8863028
      9945.0000         1.4546       803.0898       -31.0412      -9.118315      0.9033534
      9945.5000         1.2058       824.3506       -29.6991      -7.787561      0.9191957
      9946.0000         1.1375       845.6113        -28.357      -6.456808       0.935038
      9946.5000         1.1208       866.8711       -27.2679      -5.379055      0.9478684
      9947.0000         1.1055       888.1318       -26.4408      -4.563301      0.9575797
      9947.5000         1.1096       909.3926       -25.6156      -3.749449      0.9672685
      9948.0000         1.1138       930.6533       -24.7886      -2.933798      0.9769786
      9948.5000         1.1179       951.9141       -24.1277      -2.284245      0.9847113
      9949.0000         1.1221       969.6797       -23.8111      -1.978991      0.9883453
      9949.5000         1.1262       978.8926        -23.494      -1.673237      0.9919853
      9950.0000          1.109       988.1055       -23.1774      -1.367985      0.9956192
      9950.5000         1.0062       997.0986       -22.8608      -1.062731      0.9992532
      9951.0000         0.9961       1003.477       -22.5443     -0.7575779              1
      9951.5000          0.986       1009.856        -22.248     -0.4726238              1
      9952.0000         0.9754       1016.245       -22.1157     -0.3516731              1
      9952.5000         0.9635       1022.624       -21.9833     -0.2306194              1
      9953.0000         0.9516       1029.002        -21.851     -0.1096668              1
      9953.5000         0.9429       1035.025       -21.7186     0.01138687              1
      9954.0000         0.9397       1040.902       -21.5864      0.1322403              1
      9954.5000          0.938       1046.779       -21.4541      0.2531929              1
      9955.0000         0.9431       1052.656       -21.3217      0.3742466              1
      9955.5000         0.9482       1058.547       -21.1895      0.4950981              1
      9956.0000         0.9534       1065.547       -21.2507      0.4225521              1
      9956.5000         0.9585       1072.586       -21.3359       0.326004              1
      9957.0000         0.9615       1079.611       -21.4211      0.2294559              1
      9957.5000         0.9596        1086.65       -21.5063      0.1329098              1
      9958.0000         0.9576       1093.688       -21.5914     0.03646278              1
      9958.5000         0.9534       1100.713       -21.6767    -0.06018448              1
      9959.0000         0.9472       1107.141       -21.7791     -0.1739311              1
      9959.5000         0.9409       1113.566       -21.8845      -0.290678              1
      9960.0000         0.9347       1120.006       -21.9897     -0.4072247              1
      9960.5000         0.9296       1126.434       -22.0952     -0.5240726              1
      9961.0000         0.9273       1132.873       -22.2004     -0.6406193              1
      9961.5000         0.9249       1138.279       -22.2131     -0.6646671              1
      9962.0000         0.9226       1142.477       -22.0864     -0.5493126              1
      9962.5000         0.9197       1146.668         -21.96     -0.4342594              1
      9963.0000         0.9158       1150.865       -21.8335     -0.3191071              1
      9963.5000         0.9119       1155.057       -21.8097      -0.306654              1
      9964.0000          0.908       1159.248       -21.8621     -0.3704014              1
      9964.5000         0.9041       1160.258       -21.9145     -0.4341488              1
      9965.0000         0.8977       1158.688       -21.9669     -0.4978962              1
      9965.5000         0.8911       1157.115       -22.0106     -0.5529423              1
      9966.0000         0.8845       1155.545       -22.0341     -0.5877895              1
      9966.5000          0.878       1153.975       -22.0577      -0.622736              1
      9967.0000         0.8767       1152.404       -22.0813     -0.6576843              1
      9967.5000         0.8777       1149.955       -22.1049     -0.6926308              1
      9968.0000         0.8786       1146.166       -22.0555     -0.6545773              1
      9968.5000         0.8858       1142.373       -21.9934     -0.6038265              1
      9969.0000         0.9016       1138.586       -21.9315     -0.5532722              1
      9969.5000         0.9174       1134.791       -21.8694     -0.5025196              1
      9970.0000         0.9295       1130.998       -21.8073      -0.451767              1
      9970.5000         0.9305       1127.209       -21.8606     -0.5164127              1
      9971.0000          0.926       1130.039       -21.9337     -0.6008606              1
      9971.5000         0.9193       1135.586       -22.0067     -0.6852074              1
      9972.0000         0.9125       1141.121       -22.0796      -0.769453              1
      9972.5000         0.9077       1146.656       -22.1526     -0.8538017              1
      9973.0000         0.9085       1152.203        -22.313      -1.025549      0.9996958
      9973.5000         0.9093       1157.738       -22.5992      -1.323095      0.9961537
