#------------------------------------------------------------------------------
# Created by    : vladimir.rabinovich
# Created on    : 09/19/2023 17:20:13
#------------------------------------------------------------------------------
~Version Information Section
VERS.           2.0     :   CWLS log ASCII Standard - VERSION 2.0
WRAP.           NO      :   One line per depth step
~Well Information Section
#MNEM       .UNIT                                         VALUE :DESCRIPTION
#------------------------------------------------------------------------------
STRT        .FT                                             206 :START DEPTH
STOP        .FT                                           16504 :STOP DEPTH
STEP        .FT                                             0.5 :STEP      
NULL        .                                           -999.25 :NULL      
COMP        .                                 ARCO OIL & GAS CO :COMPANY   
WELL        .                                 MIAMI CORPORATION :WELL      
FLD         .                                           WILDCAT :FIELD     
LOC         .                                                   :LOCATION  
CNTY        .                                           CAMERON :LOCATION  
STAT        .                                         LOUISIANA :STATE     
CTRY        .                                     UNITED STATES :COUNTRY   
SRVC        .                                                   :SERVICE COMPANY
DATE        .                             9/13/2023 11:18:18 AM :LOG DATE  
API         .                                    17023218610000 :API NUMBER
UWI         .                                    17023218610000 :UNIQUE WELL ID
XCOORD      .                                  1618322.01672943 :SURFACE X 
YCOORD      .                                  10857815.2770888 :SURFACE Y 
LAT         .                                        29.9175237 :LATITUDE  
LON         .                                        -93.069766 :LONGITUDE 
ELEV        .FT                                              28 :ELEVATION VALUE
ELEV_TYPE   .                                                KB :ELEVATION REFERENCE TYPE
~Curve Information Section
#MNEM       .UNIT                                      API CODE :CURVE DESCRIPTION
#------------------------------------------------------------------------------
DEPT        .FT                                                 :DEPTH     
ASFL        .OHMM                                               :          
CILD        .MMHO                                               :          
SP          .MV                                                 :          
SP_NORM     .MV                                                 :SP Normalized
VSH_SP      .V/V                                                :Volume of Shale from SP
~A        DEPTH           ASFL           CILD             SP        SP_NORM         VSH_SP
# ...
      2362.0000         0.6476        2192.18      -133.1738      -5.098373      0.9146172
      2362.5000         0.6658        2180.75      -133.5774      -5.498428      0.9062827
      2363.0000         0.6741       2194.211      -133.9534      -5.870895       0.898523
      2363.5000          0.681       2211.629      -134.0742      -5.988159        0.89608
      2364.0000         0.6808       2229.047      -134.0583      -5.968735      0.8964847
      2364.5000         0.6757       2255.348      -134.0425      -5.949387      0.8968878
      2365.0000         0.6707       2285.543       -134.106      -6.009354      0.8956385
      2365.5000         0.6657       2315.738      -134.2793      -6.179108      0.8921019
      2366.0000         0.6554        2330.66       -134.968      -6.864273      0.8778276
      2366.5000         0.6444        2343.48      -135.8347      -7.727432      0.8598452
      2367.0000         0.6642       2356.309      -140.7761       -12.6653       0.756973
      2367.5000         0.6883       2369.133      -144.3003      -16.18596      0.6836259
      2368.0000         0.7295       2381.961      -144.6719      -16.55403      0.6759577
      2368.5000         0.7938       2388.082      -144.5676      -16.44618      0.6782045
      2369.0000         0.8225       2350.539      -144.4631      -16.33815      0.6804552
      2369.5000         0.8468       2282.707      -143.8523      -15.72382      0.6932538
      2370.0000          0.863       2192.438      -143.0132      -14.88118      0.7108088
      2370.5000         0.8793       2091.242      -142.1738      -14.03824        0.72837
      2371.0000         0.8621       2063.586      -141.1084       -12.9693      0.7506396
      2371.5000         0.8335       2035.932      -139.8386      -11.69595      0.7771676
      2372.0000         0.7812       2008.275      -138.5691      -10.42293       0.803689
      2372.5000         0.6984       1980.252      -137.7412      -9.591492      0.8210106
      2373.0000         0.6778        1952.18      -137.0349      -8.881653      0.8357989
      2373.5000         0.6571       1941.285      -136.3289      -8.172119      0.8505809
      2374.0000         0.6416        1934.82      -135.6357      -7.475372      0.8650964
      2374.5000         0.6278       1928.357      -134.9614      -6.797531      0.8792181
      2375.0000          0.614       1923.959      -134.2869      -6.119492      0.8933439
      2375.5000         0.6109       1919.773      -133.6111       -5.44017      0.9074965
      2376.0000         0.6116       1915.592      -132.7952      -4.620728      0.9245682
      2376.5000         0.6122       1911.406      -132.8596      -4.681595      0.9233001
      2377.0000         0.6129       1888.828      -134.4604      -6.278854      0.8900239
      2377.5000         0.6135       1845.203      -135.2695      -7.084412      0.8732414
      2378.0000         0.6205       1801.578      -136.0232      -7.834564      0.8576133
      2378.5000         0.6299       1773.199        -136.76      -8.567841      0.8423367
      2379.0000         0.6394       1751.422      -137.4097      -9.214005      0.8288749
      2379.5000         0.6489       1729.646      -138.0591      -9.859863      0.8154195
      2380.0000         0.6583       1707.871      -146.8853      -18.68253       0.631614
      2380.5000         0.6779       1686.107      -149.4629      -21.25659      0.5779877
      2381.0000         0.6978       1685.641       -152.574      -24.36415      0.5132468
      2381.5000         0.7425       1700.033      -153.8088      -25.59543      0.4875952
      2382.0000         0.7659        1745.58      -155.0193      -26.80238      0.4624504
      2382.5000         0.7784       1810.514      -156.1824      -27.96194      0.4382928
      2383.0000         0.7909       1875.449      -156.8186       -28.5946      0.4251124
      2383.5000         0.8035       1940.383      -157.4548      -29.22726       0.411932
      2384.0000          0.816       2209.719      -155.8047      -27.57364      0.4463825
      2384.5000         0.8276       2339.539       -154.593       -26.3584         0.4717
      2385.0000          0.839       2422.898      -153.7852      -25.54706       0.488603
      2385.5000         0.8255       2446.039      -152.9771      -24.73541      0.5055122
      2386.0000         0.8046       2469.176      -152.1692      -23.92398      0.5224171
      2386.5000         0.7826       2480.613      -151.3611      -23.11234      0.5393264
      2387.0000         0.7597        2471.93      -150.5532      -22.30092      0.5562308
      2387.5000         0.7368        2463.25      -149.6724      -21.41656      0.5746549
      2388.0000         0.7229        2454.57      -148.2766      -20.01723      0.6038077
      2388.5000         0.7204       2445.887      -146.8804      -18.61749      0.6329689
      2389.0000          0.718       2437.207      -145.4846      -17.21815      0.6621218
      2389.5000         0.7266       2470.098       -158.095      -29.82501      0.3994789
      2390.0000         0.7364         2513.5      -159.9941      -31.72058      0.3599879
      2390.5000         0.7462       2559.434      -161.7341      -33.45705      0.3238115
      2391.0000         0.7542       2607.453      -163.0903      -34.80971      0.2956311
      2391.5000         0.7615       2727.625      -164.2451      -35.96097      0.2716465
      2392.0000         0.7688        2810.75      -165.6018      -37.31413      0.2434556
      2392.5000         0.7634        2886.34       -165.958      -37.66678      0.2361088
      2393.0000         0.7428       2955.645      -165.3003      -37.00555      0.2498843
      2393.5000         0.7221       3052.027      -164.4822      -36.18391      0.2670018
      2394.0000         0.6765       3187.594      -163.6641      -35.36227      0.2841193
      2394.5000         0.6437       3253.828      -162.8457      -34.54034      0.3012428
      2395.0000         0.6327       3299.883      -162.0276       -33.7187      0.3183603
      2395.5000         0.6217       3345.914      -161.6758      -33.36337      0.3257631
      2396.0000         0.6242       3397.566      -161.7458      -33.42984      0.3243783
      2396.5000         0.6414       3450.594      -163.7983      -35.47879      0.2816919
      2397.0000         0.6586       3474.703      -165.2603      -36.93726      0.2513072
      2397.5000          0.668       3498.813      -166.7227      -38.39612      0.2209142
      2398.0000         0.6763       3522.918      -168.2146      -39.88448      0.1899068
      2398.5000         0.6846       3550.402      -169.9033      -41.56966      0.1547988
      2399.0000         0.6763       3582.121      -171.9551       -43.6179       0.112127
      2399.5000         0.6648        3613.84       -173.469      -45.12827     0.08066114
      2400.0000         0.6533       3645.461      -173.6287      -45.28442     0.07740784
      2400.5000         0.6561       3671.973      -173.7886       -45.4408     0.07415009
      2401.0000         0.6592       3698.488      -173.9482      -45.59685     0.07089901
      2401.5000         0.6666       3725.004      -174.0266      -45.67172     0.06933912
      2402.0000         0.6782       3755.188      -174.0891      -45.73068     0.06811079
      2402.5000         0.6898       3811.625      -174.1516      -45.78964     0.06688245
      2403.0000         0.7014       3872.141      -174.2141       -45.8486     0.06565412
      2403.5000         0.6967       3943.313      -174.2766      -45.90756     0.06442579
      2404.0000          0.687       3998.625      -174.5974      -46.22482     0.05781619
      2404.5000         0.6766       4054.188      -174.9609      -46.58481     0.05031649
      2405.0000         0.6662        4133.68      -175.3242      -46.94456     0.04282157
      2405.5000         0.6614       4237.031      -175.6497      -47.26653     0.03611406
