#------------------------------------------------------------------------------
# Created by    : vladimir.rabinovich
# Created on    : 09/19/2023 17:20:13
#------------------------------------------------------------------------------
~Version Information Section
VERS.           2.0     :   CWLS log ASCII Standard - VERSION 2.0
WRAP.           NO      :   One line per depth step
~Well Information Section
#MNEM       .UNIT                                         VALUE :DESCRIPTION
#------------------------------------------------------------------------------
STRT        .FT                                             206 :START DEPTH
STOP        .FT                                           16504 :STOP DEPTH
STEP        .FT                                             0.5 :STEP      
NULL        .                                           -999.25 :NULL      
COMP        .                                 ARCO OIL & GAS CO :COMPANY   
WELL        .                                 MIAMI CORPORATION :WELL      
FLD         .                                           WILDCAT :FIELD     
LOC         .                                                   :LOCATION  
CNTY        .                                           CAMERON :LOCATION  
STAT        .                                         LOUISIANA :STATE     
CTRY        .                                     UNITED STATES :COUNTRY   
SRVC        .                                                   :SERVICE COMPANY
DATE        .                             9/13/2023 11:18:18 AM :LOG DATE  
API         .                                    17023218610000 :API NUMBER
UWI         .                                    17023218610000 :UNIQUE WELL ID
XCOORD      .                                  1618322.01672943 :SURFACE X 
YCOORD      .                                  10857815.2770888 :SURFACE Y 
LAT         .                                        29.9175237 :LATITUDE  
LON         .                                        -93.069766 :LONGITUDE 
ELEV        .FT                                              28 :ELEVATION VALUE
ELEV_TYPE   .                                                KB :ELEVATION REFERENCE TYPE
~Curve Information Section
#MNEM       .UNIT                                      API CODE :CURVE DESCRIPTION
#------------------------------------------------------------------------------
DEPT        .FT                                                 :DEPTH     
ASFL        .OHMM                                               :          
CILD        .MMHO                                               :          
SP          .MV                                                 :          
SP_NORM     .MV                                                 :SP Normalized
VSH_SP      .V/V                                                :Volume of Shale from SP
~A        DEPTH           ASFL           CILD             SP        SP_NORM         VSH_SP
# ...
      7774.0000          0.707       3634.219      -142.9836      -65.56731      0.2313416
      7774.5000         0.6919       3524.738      -142.9744      -65.55947      0.2314349
      7775.0000         0.6877       3415.258      -140.7922      -63.37864      0.2573971
      7775.5000         0.6873       3305.777       -138.876      -61.46381      0.2801928
      7776.0000          0.717       3210.961      -137.8774      -60.46656      0.2920648
      7776.5000         0.7416       3127.973       -142.343      -64.93353      0.2388866
      7777.0000         0.7506        3044.98      -144.3735      -66.96539      0.2146977
      7777.5000         0.7596       3019.078      -146.4043      -68.99755      0.1905053
      7778.0000         0.7612       3162.867      -148.4092      -71.00381      0.1666213
      7778.5000         0.7612       3493.262      -149.7791      -72.37508      0.1502967
      7779.0000         0.7613       3782.797      -151.1487      -73.74604      0.1339757
      7779.5000         0.7579       4897.023      -152.6587      -75.25741      0.1159832
      7780.0000          0.754        5697.25       -154.708      -77.30806     0.09157072
      7780.5000         0.7472       5738.797      -155.7583      -78.35973     0.07905079
      7781.0000         0.7373       5780.391      -156.5991       -79.2019     0.06902504
      7781.5000         0.7291       5865.313      -157.4402      -80.04436     0.05899575
      7782.0000         0.7276       5847.297      -158.2791      -80.88462     0.04899261
      7782.5000         0.7261       5829.289      -159.1201      -81.72698      0.0389645
      7783.0000         0.7358       5811.281      -159.9609      -82.56915     0.02893866
      7783.5000         0.7523       5793.289      -160.6157      -83.22532     0.02112716
      7784.0000         0.7687       5775.867      -161.1128      -83.72376      0.0151933
      7784.5000         0.7851       5760.523      -161.6094      -84.22174    0.009264992
      7785.0000         0.7986       5745.172      -162.1064       -84.7201    0.003332138
      7785.5000         0.8054       5729.805      -162.5381      -85.15316              0
      7786.0000         0.8096       5713.531      -162.9358      -85.55223              0
      7786.5000         0.8045       5695.344      -163.3337      -85.95148              0
      7787.0000         0.7994       5754.977      -163.7319      -86.35105              0
      7787.5000         0.7943       5902.672      -164.1299      -86.75041              0
      7788.0000         0.7891       6140.602      -164.3738      -86.99567              0
      7788.5000         0.7837       6247.344      -164.3687      -86.99194              0
      7789.0000         0.7783       6313.617      -164.3633       -86.9879              0
      7789.5000         0.7728       6190.063      -164.3579      -86.98386              0
      7790.0000         0.7285       6059.664      -164.3525      -86.97982              0
      7790.5000         0.6823       5923.789      -163.3364      -85.96509              0
      7791.0000         0.6524       5307.766      -162.1365      -84.76656    0.002779098
      7791.5000         0.6248       5177.961      -160.9348      -83.56622     0.01706886
      7792.0000         0.5971       5052.055      -159.7349      -82.36768     0.03133719
      7792.5000         0.5658       4926.156      -156.7793      -79.41344     0.06650671
      7793.0000         0.5435        4800.25      -153.6279       -76.2634      0.1040071
      7793.5000         0.5572       4674.352      -152.6052      -75.24207      0.1161659
      7794.0000         0.5708       4548.641      -153.9141      -76.55232      0.1005676
      7794.5000          0.591       4424.695      -155.3872       -78.0268     0.08301426
      7795.0000         0.6179       4786.766      -156.8826      -79.52356     0.06519572
      7795.5000         0.6448       5148.828      -158.1426      -80.78491     0.05017962
      7796.0000         0.6717       5510.891      -158.6008      -81.24448     0.04470852
      7796.5000         0.7006       5873.352      -159.0591      -81.70415     0.03923634
      7797.0000         0.7312       6235.414      -159.4148       -82.0612     0.03498568
      7797.5000         0.7555       6194.359      -159.3088      -81.95658     0.03623118
      7798.0000         0.7683        6122.32      -159.2029      -81.85204     0.03747577
      7798.5000          0.781       6038.258      -158.7673       -81.4178     0.04264523
      7799.0000         0.7659       5816.266      -158.2654      -80.91726     0.04860406
      7799.5000         0.7319        5600.43      -157.7642      -80.41743     0.05455435
      7800.0000         0.6979       5387.336       -157.262      -79.91658      0.0605169
      7800.5000         0.6648       5174.242      -156.7598      -79.41575     0.06647918
      7801.0000         0.6324       5100.445      -156.0703      -78.72762     0.07467125
      7801.5000            0.6       5042.086      -154.8481      -77.50677     0.08920506
      7802.0000         0.5796       4983.633      -153.6262      -76.28625      0.1037351
      7802.5000         0.5721       4924.297      -152.1252       -74.7866      0.1215881
      7803.0000         0.5673        4856.75      -150.4731      -73.13586      0.1412397
      7803.5000         0.5925       4789.203      -148.9482      -71.61233      0.1593771
      7804.0000         0.6176       4821.172       -147.739      -70.40449      0.1737561
      7804.5000         0.6428       5180.109      -146.5298      -69.19666      0.1881351
      7805.0000         0.6611       5416.367      -145.3188      -67.98702      0.2025355
      7805.5000         0.6765       5476.875      -143.7385      -66.40807      0.2213325
      7806.0000         0.6919       5362.117      -141.1799      -63.85085      0.2517757
      7806.5000         0.6946       5181.672      -138.5991      -61.27142      0.2824832
      7807.0000         0.6858           4472      -135.6824      -58.35607      0.3171896
      7807.5000         0.6766       3916.324      -132.5439      -55.21893      0.3545365
      7808.0000         0.6665       3602.742      -128.9443       -51.6207      0.3973726
      7808.5000         0.6564       2708.918        -110.55      -33.22776      0.6163362
      7809.0000         0.6482       2102.867       -82.8221      -5.501221      0.9464141
      7809.5000         0.6738       1731.811        -79.335      -2.015488      0.9879109
      7810.0000         0.6993       1513.242       -78.2291     -0.9109497              1
      7810.5000         0.7249       1388.025        -80.186      -2.869209      0.9777475
      7811.0000         0.7485       1330.547        -82.368      -5.052574       0.951755
      7811.5000         0.7716       1292.156         -84.55      -7.235939      0.9257627
      7812.0000         0.8006        1269.82       -85.9467      -8.634003       0.909119
      7812.5000         0.8427       1248.316        -86.344      -9.032669       0.904373
      7813.0000          0.875       1271.801        -86.741      -9.431023      0.8996307
      7813.5000         0.9075       1295.285       -87.1383      -9.829689      0.8948846
      7814.0000         0.9549       1318.793       -85.5396      -8.232353      0.9139006
      7814.5000         1.0311       1342.277       -83.6714      -6.365517      0.9361248
      7815.0000         0.9962       1370.137       -79.8906      -2.586082      0.9811181
      7815.5000         0.9676       1412.314       -76.3721      0.9310532              1
      7816.0000          0.939       1454.543       -74.0165       3.285294              1
      7816.5000          0.842       1487.631       -74.1124       3.187096              1
      7817.0000         0.7785       1513.682       -76.7708      0.5202942              1
      7817.5000         0.7311       1539.635       -80.2747      -2.992004      0.9762856
