#------------------------------------------------------------------------------
# Created by    : vladimir.rabinovich
# Created on    : 09/19/2023 17:20:13
#------------------------------------------------------------------------------
~Version Information Section
VERS.           2.0     :   CWLS log ASCII Standard - VERSION 2.0
WRAP.           NO      :   One line per depth step
~Well Information Section
#MNEM       .UNIT                                         VALUE :DESCRIPTION
#------------------------------------------------------------------------------
STRT        .FT                                             206 :START DEPTH
STOP        .FT                                           16504 :STOP DEPTH
STEP        .FT                                             0.5 :STEP      
NULL        .                                           -999.25 :NULL      
COMP        .                                 ARCO OIL & GAS CO :COMPANY   
WELL        .                                 MIAMI CORPORATION :WELL      
FLD         .                                           WILDCAT :FIELD     
LOC         .                                                   :LOCATION  
CNTY        .                                           CAMERON :LOCATION  
STAT        .                                         LOUISIANA :STATE     
CTRY        .                                     UNITED STATES :COUNTRY   
SRVC        .                                                   :SERVICE COMPANY
DATE        .                             9/13/2023 11:18:18 AM :LOG DATE  
API         .                                    17023218610000 :API NUMBER
UWI         .                                    17023218610000 :UNIQUE WELL ID
XCOORD      .                                  1618322.01672943 :SURFACE X 
YCOORD      .                                  10857815.2770888 :SURFACE Y 
LAT         .                                        29.9175237 :LATITUDE  
LON         .                                        -93.069766 :LONGITUDE 
ELEV        .FT                                              28 :ELEVATION VALUE
ELEV_TYPE   .                                                KB :ELEVATION REFERENCE TYPE
~Curve Information Section
#MNEM       .UNIT                                      API CODE :CURVE DESCRIPTION
#------------------------------------------------------------------------------
DEPT        .FT                                                 :DEPTH     
ASFL        .OHMM                                               :          
CILD        .MMHO                                               :          
SP          .MV                                                 :          
SP_NORM     .MV                                                 :SP Normalized
VSH_SP      .V/V                                                :Volume of Shale from SP
~A        DEPTH           ASFL           CILD             SP        SP_NORM         VSH_SP
# ...
     15342.0000         0.6482       1848.336         0.2738     -0.9531939              1
     15342.5000         0.6434       1859.969          0.241     -0.9859939              1
     15343.0000         0.6483       1871.604         0.1955      -1.031494      0.9996251
     15343.5000          0.655        1882.77         0.1463      -1.080694      0.9990394
     15344.0000         0.6616        1873.57          0.097      -1.129994      0.9984524
     15344.5000         0.6683       1864.371         0.0478      -1.179194      0.9978667
     15345.0000          0.675       1855.174         0.0449      -1.182094      0.9978322
     15345.5000         0.6789       1845.975         0.1827      -1.044294      0.9994727
     15346.0000         0.6821       1836.777         0.3209      -0.906094              1
     15346.5000         0.6853       1827.578         0.4588      -0.768194              1
     15347.0000         0.6884       1818.379         0.5967     -0.6302939              1
     15347.5000         0.6914       1809.182         0.7348     -0.4921939              1
     15348.0000         0.6943       1799.982         0.7736     -0.4533939              1
     15348.5000         0.6974       1790.809         0.7661     -0.4608939              1
     15349.0000         0.7015       1784.365         0.7586     -0.4683939              1
     15349.5000         0.7053       1780.049         0.7512     -0.4757939              1
     15350.0000         0.6952       1775.744         0.7437     -0.4832939              1
     15350.5000          0.685       1771.428         0.7362     -0.4907939              1
     15351.0000         0.6816       1767.123         0.7287     -0.4982939              1
     15351.5000         0.6822       1762.807         0.6988     -0.5281939              1
     15352.0000         0.6904       1758.504         0.6022     -0.6247939              1
     15352.5000         0.6985       1755.355         0.5054     -0.7215939              1
     15353.0000         0.7066       1756.088         0.4088     -0.8181939              1
     15353.5000         0.7147        1756.82         0.3123      -0.914694              1
     15354.0000         0.7169       1757.551         0.2157      -1.011294      0.9998655
     15354.5000         0.7083       1758.283         0.2483     -0.9786939              1
     15355.0000         0.7017       1759.014         0.3334     -0.8935939              1
     15355.5000            0.7       1759.744         0.4182     -0.8087939              1
     15356.0000         0.6984       1760.477         0.5031     -0.7238939              1
     15356.5000         0.6967       1761.209         0.5882     -0.6387939              1
     15357.0000          0.695        1767.91          0.673     -0.5539939              1
     15357.5000         0.6928       1776.102         0.6493     -0.5776939              1
     15358.0000         0.6903       1784.266         0.6159     -0.6110939              1
     15358.5000         0.6878       1792.432         0.5825     -0.6444939              1
     15359.0000         0.6755       1800.941          0.549     -0.6779939              1
     15359.5000         0.6631       1810.756         0.5156     -0.7113939              1
     15360.0000         0.6539       1820.568         0.4822     -0.7447939              1
     15360.5000         0.6547       1830.381         0.4172     -0.8097939              1
     15361.0000         0.6556       1840.195         0.3129     -0.9140939              1
     15361.5000         0.6564       1850.008         0.2086      -1.018394       0.999781
     15362.0000         0.6572       1859.822         0.1044      -1.122594      0.9985405
     15362.5000         0.6593       1849.861         0.0001      -1.226894      0.9972989
     15363.0000         0.6662       1838.744        -0.1041      -1.331094      0.9960584
     15363.5000          0.673       1827.627        -0.2081      -1.435094      0.9948203
     15364.0000         0.6799        1816.51        -0.3123      -1.539294      0.9935799
     15364.5000         0.6868       1805.393        -0.3058      -1.532794      0.9936572
     15365.0000         0.6937       1794.277        -0.2565      -1.483494      0.9942441
     15365.5000         0.7006       1781.143         -0.207      -1.433994      0.9948334
     15366.0000         0.7096       1755.711        -0.1576      -1.384594      0.9954215
     15366.5000         0.7209        1730.23        -0.1083      -1.335294      0.9960084
     15367.0000         0.7322        1704.75        -0.0588      -1.285794      0.9965977
     15367.5000         0.7437        1679.27        -0.0094      -1.236394      0.9971858
     15368.0000         0.7597       1653.791         0.0399      -1.187094      0.9977727
     15368.5000         0.7756       1628.311         0.0924      -1.134594      0.9983977
     15369.0000         0.7916        1602.83         0.1581      -1.068894      0.9991798
     15369.5000         0.8052       1577.398         0.2236      -1.003394      0.9999596
     15370.0000         0.8142       1556.689         0.2891     -0.9378939              1
     15370.5000         0.8143       1536.129         0.3547     -0.8722939              1
     15371.0000         0.8047       1515.566         0.4204     -0.8065939              1
     15371.5000         0.7951       1495.006         0.4859     -0.7410939              1
     15372.0000         0.7883       1474.443         0.5515     -0.6754939              1
     15372.5000         0.7954       1460.424          0.617     -0.6099939              1
     15373.0000         0.8025       1454.018         0.6827     -0.5442939              1
     15373.5000         0.8097       1459.811         0.6931     -0.5338939              1
     15374.0000         0.8182       1470.066         0.6789     -0.5480939              1
     15374.5000         0.8286       1480.322         0.6648     -0.5621939              1
     15375.0000          0.839       1490.553         0.6506     -0.5763939              1
     15375.5000         0.8263       1523.092         0.6365     -0.5904939              1
     15376.0000         0.8102       1558.115         0.6223     -0.6046939              1
     15376.5000         0.7919       1593.139         0.6082     -0.6187939              1
     15377.0000         0.7677       1628.162         0.5091     -0.7178939              1
     15377.5000         0.7436       1663.186         0.3937     -0.8332939              1
     15378.0000         0.7243       1682.861         0.2787     -0.9482939              1
     15378.5000         0.7173       1694.027         0.1633      -1.063694      0.9992418
     15379.0000         0.7103       1705.193         0.0482      -1.178794      0.9978715
     15379.5000         0.7124       1711.443        -0.0671      -1.294094      0.9964989
     15380.0000         0.7197       1710.459        -0.1825      -1.409494      0.9951251
     15380.5000          0.727       1709.473        -0.2331      -1.460094      0.9945227
     15381.0000         0.7342       1708.488        -0.2201      -1.447094      0.9946774
     15381.5000         0.7415       1707.506        -0.2071      -1.434094      0.9948322
     15382.0000         0.7398       1711.811        -0.1941      -1.421094       0.994987
     15382.5000         0.7357       1720.787         -0.181      -1.407994      0.9951429
     15383.0000         0.7317       1729.789         -0.168      -1.394994      0.9952977
     15383.5000         0.7267       1738.791        -0.1549      -1.381894      0.9954537
     15384.0000         0.7182       1749.637        -0.1419      -1.368894      0.9956084
     15384.5000         0.7096       1762.229        -0.1101      -1.337094       0.995987
     15385.0000          0.701       1774.846        -0.0603      -1.287294      0.9965798
     15385.5000         0.6925       1787.439        -0.0104      -1.237394      0.9971739
