#------------------------------------------------------------------------------
# Created by    : vladimir.rabinovich
# Created on    : 09/19/2023 17:20:13
#------------------------------------------------------------------------------
~Version Information Section
VERS.           2.0     :   CWLS log ASCII Standard - VERSION 2.0
WRAP.           NO      :   One line per depth step
~Well Information Section
#MNEM       .UNIT                                         VALUE :DESCRIPTION
#------------------------------------------------------------------------------
STRT        .FT                                             206 :START DEPTH
STOP        .FT                                           16504 :STOP DEPTH
STEP        .FT                                             0.5 :STEP      
NULL        .                                           -999.25 :NULL      
COMP        .                                 ARCO OIL & GAS CO :COMPANY   
WELL        .                                 MIAMI CORPORATION :WELL      
FLD         .                                           WILDCAT :FIELD     
LOC         .                                                   :LOCATION  
CNTY        .                                           CAMERON :LOCATION  
STAT        .                                         LOUISIANA :STATE     
CTRY        .                                     UNITED STATES :COUNTRY   
SRVC        .                                                   :SERVICE COMPANY
DATE        .                             9/13/2023 11:18:18 AM :LOG DATE  
API         .                                    17023218610000 :API NUMBER
UWI         .                                    17023218610000 :UNIQUE WELL ID
XCOORD      .                                  1618322.01672943 :SURFACE X 
YCOORD      .                                  10857815.2770888 :SURFACE Y 
LAT         .                                        29.9175237 :LATITUDE  
LON         .                                        -93.069766 :LONGITUDE 
ELEV        .FT                                              28 :ELEVATION VALUE
ELEV_TYPE   .                                                KB :ELEVATION REFERENCE TYPE
~Curve Information Section
#MNEM       .UNIT                                      API CODE :CURVE DESCRIPTION
#------------------------------------------------------------------------------
DEPT        .FT                                                 :DEPTH     
ASFL        .OHMM                                               :          
CILD        .MMHO                                               :          
SP          .MV                                                 :          
SP_NORM     .MV                                                 :SP Normalized
VSH_SP      .V/V                                                :Volume of Shale from SP
~A        DEPTH           ASFL           CILD             SP        SP_NORM         VSH_SP
       206.0000          1.275       -13.2773      -121.6871       12.05522      0.6827573
       206.5000         1.3022       -13.5142      -124.5251       9.217224      0.7574415
       207.0000         1.3222       -12.8335      -129.8406       3.901718      0.8973232
       207.5000          1.344         -4.738      -134.1245     -0.3821716              1
       208.0000         1.3663        62.6042      -134.7378     -0.9954681              1
       208.5000         1.3888       144.4148      -135.0454       -1.30307              1
       209.0000         1.6838       254.0378       -135.417      -1.674683              1
       209.5000         2.2384       431.5986      -135.8101       -2.06778              1
       210.0000          2.451       623.7422      -136.1562      -2.413879              1
       210.5000         2.6666       359.7349      -136.4639      -2.721573              1
       211.0000         2.8443       317.3867      -136.6045      -2.862183              1
       211.5000         2.8908       291.1128      -136.6919       -2.94957              1
       212.0000         2.9042       276.5518      -136.7791      -2.789764              1
       212.5000         2.9104       263.3286      -136.8643      -2.460007              1
       213.0000         2.9172       256.4111       -136.948      -2.128723              1
       213.5000          2.924       249.4944       -137.032      -1.797745              1
       214.0000         2.9271       242.5776       -137.116      -1.466766              1
       214.5000         2.9268       236.5256      -137.2542      -1.190002              1
       215.0000         2.9264       230.6523      -137.3967     -0.9175262              1
       215.5000         2.9261       224.7788      -137.5496     -0.6554565              1
       216.0000         2.9553       218.8633      -137.7488     -0.4396667              1
       216.5000         3.0754        210.947      -137.9478     -0.2237091              1
       217.0000         3.2044       203.0305      -138.1711     -0.0320282              1
       217.5000         3.3745        195.114      -138.4768     0.07723999      0.9979674
       218.0000          3.558       182.9521      -138.7905      0.1785278      0.9953019
       218.5000         3.7154       168.9136      -139.3015     0.08250427      0.9978288
       219.0000         3.9128       164.0627      -139.8899    -0.09092712              1
       219.5000         4.0284       170.6006      -140.5845     -0.3705597              1
       220.0000         4.1359       175.9146      -141.3867      -0.757782              1
       220.5000          4.255        181.229        -142.22      -1.176102              1
       221.0000         4.3783       186.2131      -142.9346      -1.475739              1
       221.5000          4.424        190.198      -143.5967      -1.722855              1
       222.0000         4.4399       194.1829      -144.1611      -1.872284              1
       222.5000         4.4216       197.9866       -144.708      -2.004196              1
       223.0000         4.4033       200.4905      -145.2185      -2.099747              1
       223.5000         4.3849       202.9941      -145.7061      -2.172363              1
       224.0000         4.3507       205.4978       -146.061      -2.112289              1
       224.5000         4.3055       208.2893      -146.3254        -1.9617              1
       225.0000         4.2602       211.4717      -146.5889      -1.810242              1
       225.5000         4.2069       214.6538      -146.8484       -1.65477              1
       226.0000         4.1461       217.8364      -147.1079      -1.499283              1
       226.5000         4.0917       220.2864       -147.397      -1.373413              1
       227.0000         4.0549       222.0745      -147.7026      -1.264038              1
       227.5000         4.0268       223.8628      -147.9778      -1.124268              1
       228.0000          4.005       225.6509      -148.2161     -0.9475861              1
       228.5000         3.9831       227.3838      -148.4546     -0.7711182              1
       229.0000         3.9425       228.9512      -148.6655     -0.5670319              1
       229.5000         3.8968       230.5183      -148.8484     -0.3349762              1
       230.0000         3.8381       232.0857       -149.031     -0.1026001              1
       230.5000         3.7841       233.0522      -149.2136      0.1297913      0.9965844
       231.0000         3.7458       232.9907      -149.3965      0.3618622      0.9904773
       231.5000         3.7027       232.9294      -149.5791       0.594223      0.9843625
       232.0000         3.6545       232.3528      -149.7617      0.8265991      0.9782474
       232.5000         3.6172       230.4238      -149.9126       1.090683      0.9712978
       233.0000         3.5901       228.4946      -150.0171       1.401154      0.9631276
       233.5000         3.5739       226.5652      -150.1216       1.711624      0.9549572
       234.0000         3.6101       224.5378      -150.2261       2.022095       0.946787
       234.5000         3.6463       220.3428      -150.3232       2.339981      0.9384215
       235.0000         3.6825       216.1479      -150.4028       2.675354      0.9295959
       235.5000         3.7395       211.9526      -150.4541       3.039032      0.9200255
       236.0000          3.784       206.9597      -150.4526        3.45549       0.909066
       236.5000         3.8177       199.1096      -150.4514       3.871674      0.8981138
       237.0000         3.8546         191.26      -150.3889       4.349152      0.8855487
       237.5000         3.8981        182.334      -150.2915       4.861526      0.8720651
       238.0000         3.9618       171.6252      -150.1943       5.373688      0.8585871
       238.5000         4.0882       160.9165      -150.0657       5.738434      0.8489886
       239.0000          4.387        150.011       -149.927       5.812592      0.8470371
       239.5000         4.9026       138.9475      -149.6912       5.983841      0.8425305
       240.0000         5.1173       128.1125      -149.3401       6.270386      0.8349898
       240.5000         5.3111       119.0828      -148.9548       6.591141      0.8265489
       241.0000         5.5235       110.0532      -148.4314       7.049988       0.814474
       241.5000           5.69       102.1614      -147.8467       7.570145      0.8007857
       242.0000         5.9233        95.5645      -146.9468       8.405487       0.778803
       242.5000         6.2652         88.968      -146.2363       9.051437      0.7618043
       243.0000         6.6081        85.3306      -145.2422       9.980972      0.7373428
       243.5000         7.1467        82.4031      -144.2681       10.89053       0.713407
       244.0000         7.3696        79.4758      -143.8689       11.22519      0.7046003
       244.5000          7.605        76.5481      -143.6038       11.42572      0.6993232
       245.0000         7.8268         74.345      -143.6211       11.34389      0.7014766
       245.5000          7.967        73.2585      -143.6763       11.22412      0.7046284
       246.0000         8.1105        72.1721      -143.8975       10.93837      0.7121482
       246.5000          8.173        71.4988      -144.0789       10.69241      0.7186207
       247.0000          8.114        71.7515      -144.2036       10.50317      0.7236007
       247.5000         8.0258        72.0044      -144.2903       10.35191      0.7275812
       248.0000         7.9178        72.2571      -144.3699       10.20776      0.7313746
       248.5000         7.8098        72.5103      -144.4497       10.06342      0.7351733
       249.0000         7.7134        72.5999      -144.6555        9.79306      0.7422879
       249.5000         7.6225        72.2656      -144.8726       9.511414      0.7496997
