#------------------------------------------------------------------------------
# Created by    : vladimir.rabinovich
# Created on    : 09/19/2023 17:20:13
#------------------------------------------------------------------------------
~Version Information Section
VERS.           2.0     :   CWLS log ASCII Standard - VERSION 2.0
WRAP.           NO      :   One line per depth step
~Well Information Section
#MNEM       .UNIT                                         VALUE :DESCRIPTION
#------------------------------------------------------------------------------
STRT        .FT                                             206 :START DEPTH
STOP        .FT                                           16504 :STOP DEPTH
STEP        .FT                                             0.5 :STEP      
NULL        .                                           -999.25 :NULL      
COMP        .                                 ARCO OIL & GAS CO :COMPANY   
WELL        .                                 MIAMI CORPORATION :WELL      
FLD         .                                           WILDCAT :FIELD     
LOC         .                                                   :LOCATION  
CNTY        .                                           CAMERON :LOCATION  
STAT        .                                         LOUISIANA :STATE     
CTRY        .                                     UNITED STATES :COUNTRY   
SRVC        .                                                   :SERVICE COMPANY
DATE        .                             9/13/2023 11:18:18 AM :LOG DATE  
API         .                                    17023218610000 :API NUMBER
UWI         .                                    17023218610000 :UNIQUE WELL ID
XCOORD      .                                  1618322.01672943 :SURFACE X 
YCOORD      .                                  10857815.2770888 :SURFACE Y 
LAT         .                                        29.9175237 :LATITUDE  
LON         .                                        -93.069766 :LONGITUDE 
ELEV        .FT                                              28 :ELEVATION VALUE
ELEV_TYPE   .                                                KB :ELEVATION REFERENCE TYPE
~Curve Information Section
#MNEM       .UNIT                                      API CODE :CURVE DESCRIPTION
#------------------------------------------------------------------------------
DEPT        .FT                                                 :DEPTH     
ASFL        .OHMM                                               :          
CILD        .MMHO                                               :          
SP          .MV                                                 :          
SP_NORM     .MV                                                 :SP Normalized
VSH_SP      .V/V                                                :Volume of Shale from SP
~A        DEPTH           ASFL           CILD             SP        SP_NORM         VSH_SP
# ...
      4518.0000         0.6522       4944.766      -182.3728      -55.00619      0.0356038
      4518.5000         0.6248       5083.398      -181.7187       -54.3548     0.04723576
      4519.0000          0.608       5213.539      -179.5212         -52.16     0.08642851
      4519.5000         0.5955           4948      -176.7986      -49.44012      0.1349978
      4520.0000         0.5866       3917.691      -174.9326      -47.57684      0.1682708
      4520.5000         0.5776       3906.793      -173.0667      -45.71365       0.201542
      4521.0000         0.6136       3752.996      -171.8555      -44.50516      0.2231222
      4521.5000         0.7447       3601.863      -172.3638      -45.01617      0.2139969
      4522.0000         0.8675       3441.262      -173.2563      -45.91138       0.198011
      4522.5000         0.8957       3212.711      -174.1479       -46.8057       0.182041
      4523.0000         0.9238       2973.125      -175.0261       -47.6866      0.1663107
      4523.5000         0.9523       2836.738      -174.9658      -47.62903      0.1673388
      4524.0000          0.981       2772.254      -174.9058      -47.57174      0.1683618
      4524.5000         0.9955       2640.941      -174.8457      -47.51435      0.1693866
      4525.0000         1.0058       2614.066      -174.7854      -47.45676      0.1704151
      4525.5000           0.98       2587.195       -173.937      -46.61107      0.1855166
      4526.0000         0.9466       2562.227      -172.8391      -45.51588      0.2050736
      4526.5000         0.9208       2537.891      -171.7412      -44.42069      0.2246305
      4527.0000         0.8995       2512.945      -170.6433       -43.3255      0.2441875
      4527.5000         0.8783       2422.445      -169.7761      -42.46101      0.2596247
      4528.0000         0.8594       2365.527      -169.3557      -42.04333      0.2670834
      4528.5000         0.8469       2318.711      -170.8359      -43.52625      0.2406026
      4529.0000         0.8372       2262.695      -172.3767      -45.06975      0.2130402
      4529.5000         0.8318       2254.375      -176.5684      -49.26418      0.1381397
      4530.0000         0.8263        2665.98      -180.7222      -53.42068     0.06391648
      4530.5000          0.817       2783.625      -183.9514       -56.6526    0.006203651
      4531.0000         0.7861       2916.695      -186.9429       -59.6468              0
      4531.5000         0.7465       3567.449       -188.137      -60.84361              0
      4532.0000         0.6942       3608.477      -185.5024      -58.21172              0
      4532.5000          0.606       3650.094      -180.9819      -53.69395     0.05903666
      4533.0000         0.5781       3697.395      -179.2532      -51.96796     0.08985792
      4533.5000         0.5504       3763.246      -177.7646      -50.48207      0.1163916
      4534.0000          0.527       3878.547       -176.689      -49.40917      0.1355505
      4534.5000         0.5036       3951.672      -175.8113      -48.53419      0.1511752
      4535.0000         0.5123       4022.563      -174.9326      -47.65821      0.1668177
      4535.5000         0.5217       4116.766      -174.8357      -47.56401      0.1684998
      4536.0000          0.531       4232.844      -175.0916      -47.82263      0.1638816
      4536.5000         0.5403       4370.109       -175.634      -48.36774      0.1541474
      4537.0000         0.5433       4772.938      -176.2583      -48.99476      0.1429507
      4537.5000         0.5435       4883.938      -176.8823      -49.62146      0.1317596
      4538.0000          0.542       5080.078      -177.5068      -50.24869      0.1205591
      4538.5000         0.5393       5186.984      -178.1313      -50.87589      0.1093591
      4539.0000         0.5365       5283.539      -178.7554      -51.50271     0.09816592
      4539.5000         0.5337       5380.094      -178.6909      -51.44092     0.09926932
      4540.0000          0.531        5476.75      -178.0623      -50.81503      0.1104458
      4540.5000         0.5282       5573.305      -177.4336      -50.18903      0.1216244
      4541.0000         0.5266        5356.57      -176.8049      -49.56306      0.1328026
      4541.5000         0.5356       4995.531      -175.1167      -47.87756      0.1629007
      4542.0000         0.5446       4596.617      -170.3789      -43.14249      0.2474556
      4542.5000         0.5536       4397.547      -168.9404      -41.70669      0.2730949
      4543.0000         0.5627       4050.277      -167.5007      -40.26971      0.2987552
      4543.5000         0.5755           3966      -166.0161      -38.78781      0.3252177
      4544.0000          0.601       3787.164      -164.3259      -37.10033      0.3553513
      4544.5000         0.6264       3359.547       -162.636      -35.41314      0.3854797
      4545.0000         0.6582       2931.926      -160.4246      -33.20446      0.4249204
      4545.5000         0.7033        2642.16      -157.7112      -30.49376      0.4733257
      4546.0000         0.7267       2561.422      -153.4036      -26.18887      0.5501987
      4546.5000         0.7632       2519.145      -152.1997      -24.98769      0.5716483
      4547.0000         0.7975       2445.828      -150.9949      -23.78561      0.5931142
      4547.5000         0.8182        2350.93      -150.2937      -23.08711      0.6055873
      4548.0000         0.8389       2248.418      -149.8413      -22.63742      0.6136175
      4548.5000         0.9024       2102.754      -149.3892      -22.18804      0.6216421
      4549.0000         0.9469       1655.316       -148.937      -21.73855      0.6296688
      4549.5000         0.9822       1387.176      -148.4841      -21.28836      0.6377078
      4550.0000         1.2177       1326.451      -148.1233      -20.93028      0.6441021
      4550.5000         1.3364        1276.27       -148.188       -20.9977      0.6428983
      4551.0000         1.4165       1222.523      -148.3047       -21.1171       0.640766
      4551.5000         1.4132        1245.93      -149.2339      -22.04902      0.6241246
      4552.0000         1.3784       1316.834      -150.1643      -22.98213      0.6074619
      4552.5000         1.3436        1399.43      -151.0945      -23.91504      0.5908028
      4553.0000         1.2607       1484.563      -152.0237      -24.84695      0.5741616
      4553.5000          1.194       1569.744      -152.5898      -25.41576      0.5640042
      4554.0000         1.1259        1724.83      -152.8904      -25.71907       0.558588
      4554.5000         1.0711       2005.199      -153.1912      -26.02258      0.5531682
      4555.0000         1.0639       2001.064      -153.3159         -26.15      0.5508928
      4555.5000         1.0566        1996.93      -152.3831      -25.21992      0.5675015
      4556.0000         1.0494       1988.277      -151.4509      -24.29042      0.5840997
      4556.5000         1.0417       1979.248      -150.5178      -23.36005      0.6007134
      4557.0000         1.0333       1982.377      -149.5857      -22.43064        0.61731
      4557.5000         1.0229       2039.441      -148.8071      -21.65476       0.631165
      4558.0000         1.0001       2080.762      -148.0361      -20.88647      0.6448844
      4558.5000         0.9265       2109.199      -147.2656      -20.11868       0.658595
      4559.0000         0.8806        2124.93      -148.0522        -20.908      0.6445001
      4559.5000          0.831       2125.477      -150.0002      -22.85871      0.6096659
      4560.0000           0.76        2112.59      -152.7136      -25.57481       0.561164
      4560.5000          0.746       2099.703       -155.425      -28.28894      0.5126975
      4561.0000         0.7831       2086.816      -158.3706      -31.23725      0.4600491
      4561.5000         0.8201       2073.918      -161.4321      -34.30146      0.4053311
