#------------------------------------------------------------------------------
# Created by    : vladimir.rabinovich
# Created on    : 09/19/2023 17:20:13
#------------------------------------------------------------------------------
~Version Information Section
VERS.           2.0     :   CWLS log ASCII Standard - VERSION 2.0
WRAP.           NO      :   One line per depth step
~Well Information Section
#MNEM       .UNIT                                         VALUE :DESCRIPTION
#------------------------------------------------------------------------------
STRT        .FT                                             206 :START DEPTH
STOP        .FT                                           16504 :STOP DEPTH
STEP        .FT                                             0.5 :STEP      
NULL        .                                           -999.25 :NULL      
COMP        .                                 ARCO OIL & GAS CO :COMPANY   
WELL        .                                 MIAMI CORPORATION :WELL      
FLD         .                                           WILDCAT :FIELD     
LOC         .                                                   :LOCATION  
CNTY        .                                           CAMERON :LOCATION  
STAT        .                                         LOUISIANA :STATE     
CTRY        .                                     UNITED STATES :COUNTRY   
SRVC        .                                                   :SERVICE COMPANY
DATE        .                             9/13/2023 11:18:18 AM :LOG DATE  
API         .                                    17023218610000 :API NUMBER
UWI         .                                    17023218610000 :UNIQUE WELL ID
XCOORD      .                                  1618322.01672943 :SURFACE X 
YCOORD      .                                  10857815.2770888 :SURFACE Y 
LAT         .                                        29.9175237 :LATITUDE  
LON         .                                        -93.069766 :LONGITUDE 
ELEV        .FT                                              28 :ELEVATION VALUE
ELEV_TYPE   .                                                KB :ELEVATION REFERENCE TYPE
~Curve Information Section
#MNEM       .UNIT                                      API CODE :CURVE DESCRIPTION
#------------------------------------------------------------------------------
DEPT        .FT                                                 :DEPTH     
ASFL        .OHMM                                               :          
CILD        .MMHO                                               :          
SP          .MV                                                 :          
SP_NORM     .MV                                                 :SP Normalized
VSH_SP      .V/V                                                :Volume of Shale from SP
~A        DEPTH           ASFL           CILD             SP        SP_NORM         VSH_SP
# ...
     11030.0000          0.749       1776.047       -16.2635      -2.137762      0.9864552
     11030.5000         0.7631       1699.205       -16.4003       -2.28179      0.9847406
     11031.0000         0.7291       1622.166       -16.4272      -2.315919      0.9843343
     11031.5000          0.695       1599.094       -16.4541      -2.350047       0.983928
     11032.0000          0.661       1577.047       -16.4664      -2.369576      0.9836955
     11032.5000         0.6328       1659.316       -16.4325      -2.342905       0.984013
     11033.0000         0.6066       1901.773       -16.3987      -2.316333      0.9843293
     11033.5000         0.5906       1960.529       -16.3649      -2.289761      0.9846457
     11034.0000          0.587       2017.918       -16.2385      -2.170589      0.9860644
     11034.5000         0.5835       2067.094        -16.079      -2.018317      0.9878772
     11035.0000         0.5868        2116.27       -15.9199      -1.866446      0.9896852
     11035.5000         0.5912       2167.398       -15.7608      -1.714574      0.9914932
     11036.0000         0.5956       2218.883       -15.6798      -1.640802      0.9923714
     11036.5000            0.6       2209.242       -15.6702      -1.638431      0.9923996
     11037.0000         0.6045       2182.211       -15.6606      -1.636059      0.9924279
     11037.5000         0.6118       2155.129       -15.6509      -1.633587      0.9924573
     11038.0000         0.6219       2128.098       -15.6367      -1.626616      0.9925403
     11038.5000         0.6319       2101.066       -15.6165      -1.613644      0.9926947
     11039.0000         0.6419       2071.734       -15.5962      -1.600573      0.9928503
     11039.5000         0.6505       2040.941        -15.576      -1.587601      0.9930047
     11040.0000         0.6451       2010.193       -15.5557       -1.57453      0.9931604
     11040.5000         0.6397        1998.82       -15.5354      -1.561458       0.993316
     11041.0000         0.6343       2000.867       -15.5658      -1.599086       0.992868
     11041.5000         0.6289       2002.914       -15.6326      -1.673114      0.9919868
     11042.0000         0.6245       2015.424       -15.6995      -1.747243      0.9911042
     11042.5000          0.623       2033.168       -15.7694       -1.82437      0.9901861
     11043.0000         0.6216       2050.914         -15.91      -1.972199      0.9884262
     11043.5000         0.6201       2068.633       -16.0507      -2.120127      0.9866651
     11044.0000         0.6229         2009.9       -16.1913      -2.267955      0.9849053
     11044.5000         0.6532       1932.471        -16.332      -2.415885      0.9831442
     11045.0000         0.6847       1825.125       -16.4958      -2.586912      0.9811082
     11045.5000          0.725       1791.006       -16.7231      -2.821442      0.9783162
     11046.0000         0.7605       1756.887       -16.9501      -3.055669      0.9755278
     11046.5000         0.7789       1722.521       -17.1774      -3.290198      0.9727358
     11047.0000         0.7972       1687.961       -17.4044      -3.524426      0.9699473
     11047.5000         0.8152       1653.402       -17.6317      -3.758955      0.9671553
     11048.0000         0.8216       1618.842        -17.859      -3.993482      0.9643633
     11048.5000          0.828        1547.67       -17.8532      -3.994912      0.9643463
     11049.0000         0.7739       1576.656       -17.8023      -3.951239      0.9648662
     11049.5000         0.7172       1622.752       -17.7515      -3.907667      0.9653849
     11050.0000         0.6955       1684.834       -17.7006      -3.863996      0.9659048
     11050.5000         0.6752       1745.936       -17.6231      -3.793725      0.9667414
     11051.0000         0.6563       1794.525       -17.4238      -3.601652      0.9690279
     11051.5000         0.6503       1843.213       -17.2243      -3.409382      0.9713169
     11052.0000         0.6391       1918.197       -17.0247       -3.21701       0.973607
     11052.5000         0.6256       2134.355       -16.8255      -3.025039      0.9758924
     11053.0000         0.6121       2208.363       -16.6265      -2.833265      0.9781754
     11053.5000          0.599       2265.945       -16.4513      -2.665295      0.9801751
     11054.0000         0.5871       2303.977       -16.2762      -2.497422      0.9821736
     11054.5000         0.5752        2341.91        -16.101      -2.329451      0.9841732
     11055.0000         0.5633       2376.664       -15.9258       -2.16148      0.9861729
     11055.5000         0.5599       2395.336       -15.7506      -1.993507      0.9881725
     11056.0000         0.5635       2414.059       -15.5757      -1.825836      0.9901686
     11056.5000         0.5672        2429.48       -15.4886      -1.745964      0.9911195
     11057.0000         0.5709       2411.543       -15.4355      -1.700093      0.9916655
     11057.5000         0.5745       2393.578       -15.3825      -1.654321      0.9922104
     11058.0000         0.5796       2375.637       -15.3293       -1.60835      0.9927577
     11058.5000         0.5868       2357.699       -15.3075      -1.593778      0.9929312
     11059.0000         0.5941       2339.734       -15.3743      -1.667807      0.9920499
     11059.5000         0.6013       2312.773       -15.4411      -1.741835      0.9911686
     11060.0000         0.6086       2252.941        -15.508      -1.815964      0.9902862
     11060.5000         0.6167       2105.711       -15.5748      -1.889991      0.9894049
     11061.0000         0.6265       2086.328       -15.6571       -1.97952      0.9883391
     11061.5000         0.6364       2069.219       -15.7534      -2.083048      0.9871066
     11062.0000         0.6414       2057.109       -15.8496      -2.186477      0.9858752
     11062.5000         0.6423       2051.926       -15.9457      -2.289804      0.9846452
     11063.0000          0.641       2046.758       -16.0419      -2.393234      0.9834139
     11063.5000         0.6391       2041.588       -16.1027      -2.461261       0.982604
     11064.0000         0.6372       2044.877       -16.0184      -2.384191      0.9835215
     11064.5000         0.6358       2060.199       -15.9344      -2.307418      0.9844355
     11065.0000         0.6344       2079.117       -15.8504      -2.230646      0.9853495
     11065.5000          0.633       2114.215       -15.7661      -2.153575       0.986267
     11066.0000         0.6289       2149.313       -15.6821      -2.076803      0.9871809
     11066.5000         0.6184       2184.457       -15.5981      -2.000031      0.9880949
     11067.0000         0.6096       2208.777       -15.5347       -1.94386      0.9887636
     11067.5000         0.6064       2221.953       -15.4839      -1.900289      0.9892823
     11068.0000         0.6032       2235.148        -15.433      -1.856616      0.9898022
     11068.5000         0.6001       2248.348       -15.3821      -1.812945      0.9903221
     11069.0000         0.5969       2260.484       -15.3313      -1.769373      0.9908408
     11069.5000         0.5975       2269.465       -15.2804      -1.725702      0.9913607
     11070.0000            0.6       2278.434       -15.2296       -1.68213      0.9918794
     11070.5000         0.6026       2268.926       -15.1786      -1.638359      0.9924005
     11071.0000         0.6051       2250.059       -15.0063      -1.473287      0.9943656
     11071.5000         0.6076       2231.238       -14.8142      -1.288416      0.9965665
     11072.0000         0.6101       2212.418       -14.6303      -1.111743      0.9986697
     11072.5000         0.6126       2193.602       -14.4832     -0.9718723              1
     11073.0000         0.6151       2183.262       -14.5871         -1.083      0.9990119
     11073.5000         0.6176       2173.828       -14.7361      -1.239229       0.997152
