#------------------------------------------------------------------------------
# Created by    : vladimir.rabinovich
# Created on    : 09/19/2023 17:20:13
#------------------------------------------------------------------------------
~Version Information Section
VERS.           2.0     :   CWLS log ASCII Standard - VERSION 2.0
WRAP.           NO      :   One line per depth step
~Well Information Section
#MNEM       .UNIT                                         VALUE :DESCRIPTION
#------------------------------------------------------------------------------
STRT        .FT                                             206 :START DEPTH
STOP        .FT                                           16504 :STOP DEPTH
STEP        .FT                                             0.5 :STEP      
NULL        .                                           -999.25 :NULL      
COMP        .                                 ARCO OIL & GAS CO :COMPANY   
WELL        .                                 MIAMI CORPORATION :WELL      
FLD         .                                           WILDCAT :FIELD     
LOC         .                                                   :LOCATION  
CNTY        .                                           CAMERON :LOCATION  
STAT        .                                         LOUISIANA :STATE     
CTRY        .                                     UNITED STATES :COUNTRY   
SRVC        .                                                   :SERVICE COMPANY
DATE        .                             9/13/2023 11:18:18 AM :LOG DATE  
API         .                                    17023218610000 :API NUMBER
UWI         .                                    17023218610000 :UNIQUE WELL ID
XCOORD      .                                  1618322.01672943 :SURFACE X 
YCOORD      .                                  10857815.2770888 :SURFACE Y 
LAT         .                                        29.9175237 :LATITUDE  
LON         .                                        -93.069766 :LONGITUDE 
ELEV        .FT                                              28 :ELEVATION VALUE
ELEV_TYPE   .                                                KB :ELEVATION REFERENCE TYPE
~Curve Information Section
#MNEM       .UNIT                                      API CODE :CURVE DESCRIPTION
#------------------------------------------------------------------------------
DEPT        .FT                                                 :DEPTH     
ASFL        .OHMM                                               :          
CILD        .MMHO                                               :          
SP          .MV                                                 :          
SP_NORM     .MV                                                 :SP Normalized
VSH_SP      .V/V                                                :Volume of Shale from SP
~A        DEPTH           ASFL           CILD             SP        SP_NORM         VSH_SP
# ...
      6718.0000         0.5294       5017.414      -162.5583      -80.06567     0.05874198
      6718.5000         0.5315       5067.578      -163.2778      -80.79208     0.05009433
      6719.0000         0.5336       5211.492      -163.6328      -81.15398     0.04578599
      6719.5000         0.5357       5395.813      -163.4692      -80.99728     0.04765147
      6720.0000          0.543       5351.688      -160.4263      -77.96129     0.08379418
      6720.5000         0.5509       5201.531        -155.95      -73.49189      0.1370013
      6721.0000         0.5588       5039.852      -154.9507       -72.4995      0.1488154
      6721.5000         0.5667       4883.844      -153.9597      -71.51541      0.1605308
      6722.0000         0.5738       4739.742      -152.9687      -70.53132      0.1722462
      6722.5000         0.5805       4506.016      -153.5149      -71.08441      0.1656618
      6723.0000         0.5872       4480.828      -154.1909      -71.76733      0.1575318
      6723.5000          0.594       4657.344      -154.8679      -72.45124        0.14939
      6724.0000         0.6564       4786.406      -155.5439      -73.13414      0.1412602
      6724.5000         0.7346        5084.57      -156.6721      -74.26925       0.127747
      6725.0000         0.7455        5218.32      -158.0813      -75.68535      0.1108887
      6725.5000         0.7564       5447.555      -159.4905      -77.10145     0.09403038
      6726.0000         0.7673       5625.633      -160.8979      -78.51576      0.0771933
      6726.5000         0.7782       5915.398      -162.3071      -79.93187     0.06033489
      6727.0000         0.7902           5936      -163.2539      -80.88558     0.04898117
      6727.5000         0.8044        5872.25       -163.729      -81.36758     0.04324304
      6728.0000         0.8186       5808.398      -164.2039      -81.84939     0.03750728
      6728.5000         0.8327       5743.086      -164.6792      -82.33159      0.0317668
      6729.0000         0.8361       5677.867      -165.1538      -82.81309     0.02603467
      6729.5000         0.8373       5615.039      -165.5955      -83.26171     0.02069391
      6730.0000         0.8386       5577.164      -165.9231      -83.59621     0.01671183
      6730.5000         0.8266       5539.328      -166.2505      -83.93052     0.01273192
      6731.0000         0.8153       5585.609      -166.5774      -84.26431    0.008758182
      6731.5000         0.8041       5745.328      -166.9048      -84.59863    0.004778272
      6732.0000         0.7867       5911.492      -167.2322      -84.93292   0.0007985433
      6732.5000         0.7667       6094.258      -167.4978      -85.20544              0
      6733.0000         0.7461       6160.156      -167.4929      -85.20745              0
      6733.5000         0.7301       6228.695      -167.4883      -85.20975              0
      6734.0000         0.7177       6327.984      -167.4834      -85.21175              0
      6734.5000         0.7169        6481.07      -167.4785      -85.21376              0
      6735.0000         0.7162       6730.125      -167.4739      -85.21607              0
      6735.5000         0.7156       6845.523      -166.6543      -84.40337    0.007102694
      6736.0000          0.715       6915.719      -164.3884      -82.14438     0.03399549
      6736.5000         0.6992       6444.945      -162.1228      -79.88569     0.06088466
      6737.0000         0.6756       5167.555      -159.7483       -77.5181     0.08907028
      6737.5000         0.6479       4885.305      -157.1511      -74.92779      0.1199073
      6738.0000         0.6182       4776.453      -154.8596       -72.6432      0.1471047
      6738.5000         0.5884       4584.898      -153.5388      -71.32932      0.1627463
      6739.0000         0.5014       4389.148       -152.218      -70.01542      0.1783879
      6739.5000         0.4739       4301.383      -151.2629      -69.06721       0.189676
      6740.0000         0.4764       4094.992      -152.0144      -69.82563      0.1806473
      6740.5000         0.4948       4214.688      -152.7661      -70.58423      0.1716163
      6741.0000         0.5131       4497.031      -153.5176      -71.34263      0.1625878
      6741.5000         0.5381       4779.766      -154.2693      -72.10125      0.1535566
      6742.0000         0.5655       5062.508        -155.46      -73.29886      0.1392993
      6742.5000         0.5928       5344.852      -156.8618      -74.70756      0.1225291
      6743.0000         0.6201       5627.586      -158.2637      -76.11636      0.1057576
      6743.5000         0.6588       5855.406      -159.6636      -77.52317     0.08900987
      6744.0000         0.7691       5812.398      -161.0654      -78.93188     0.07223956
      6744.5000         0.7932       5758.555      -162.1946      -80.06798     0.05871455
      6745.0000         0.8036       5698.758      -162.8347      -80.71499     0.05101204
      6745.5000         0.7978        5640.57      -163.4739       -81.3611     0.04332025
      6746.0000         0.7921        5588.68       -164.114      -82.00809     0.03561792
      6746.5000         0.7818       5537.133      -164.5623       -82.4633     0.03019878
      6747.0000         0.7694        5486.32      -164.9026      -82.81052     0.02606528
      6747.5000         0.7571       5435.797      -165.2424      -83.15722     0.02193787
      6748.0000         0.7448       5386.539      -165.5828      -83.50452     0.01780337
      6748.5000         0.7432       5528.789      -165.9226      -83.85123     0.01367578
      6749.0000         0.7422       5680.695      -166.0952      -84.03073     0.01153891
      6749.5000         0.7412       5751.969      -165.5215      -83.46394     0.01828648
      6750.0000         0.7402       5722.188      -164.9485      -82.89785     0.02502559
      6750.5000         0.7143       5683.141      -164.3757      -82.33195     0.03176244
      6751.0000         0.6835       5644.086      -162.6035      -80.56666     0.05277788
      6751.5000          0.652       5565.688      -159.7004      -77.67046     0.08725648
      6752.0000         0.6205       5411.531       -156.801      -74.77796      0.1216909
      6752.5000         0.5892        5323.57      -153.8979      -71.88177      0.1561693
      6753.0000         0.5582        5230.43      -151.6506      -69.64139      0.1828406
      6753.5000         0.5272       5115.906      -149.6282      -67.62589      0.2068346
      6754.0000          0.474       4510.703      -149.8491       -67.8537      0.2041226
      6754.5000         0.4588       4337.602      -151.2693       -69.2808      0.1871333
      6755.0000         0.4727       4251.148      -152.6914      -70.70981      0.1701213
      6755.5000         0.4867       4196.867      -153.8142       -71.8395      0.1566726
      6756.0000         0.5006       4144.836      -154.8071      -72.83932        0.14477
      6756.5000         0.5145       4351.758      -155.7991      -73.83823      0.1328783
      6757.0000         0.5285       4739.156       -156.792      -74.83804      0.1209758
      6757.5000         0.5648       5046.883      -157.7839      -75.83684      0.1090853
      6758.0000         0.6042       5354.813      -158.6523      -76.71214     0.09866506
      6758.5000         0.6739       5459.273      -159.0317      -77.09843     0.09406625
      6759.0000         0.6718       5538.547      -159.4114      -77.48506     0.08946355
      6759.5000         0.6698       5668.984      -159.7908      -77.87136     0.08486475
      6760.0000         0.6677       5820.313       -160.197      -78.28447     0.07994679
      6760.5000         0.6657       5932.391      -160.8196      -78.91396     0.07245282
      6761.0000         0.6656       5898.414      -161.4421      -79.54337     0.06495994
      6761.5000         0.6661       5864.438      -162.0647      -80.17287     0.05746578
