#------------------------------------------------------------------------------
# Created by    : vladimir.rabinovich
# Created on    : 09/19/2023 17:20:13
#------------------------------------------------------------------------------
~Version Information Section
VERS.           2.0     :   CWLS log ASCII Standard - VERSION 2.0
WRAP.           NO      :   One line per depth step
~Well Information Section
#MNEM       .UNIT                                         VALUE :DESCRIPTION
#------------------------------------------------------------------------------
STRT        .FT                                             206 :START DEPTH
STOP        .FT                                           16504 :STOP DEPTH
STEP        .FT                                             0.5 :STEP      
NULL        .                                           -999.25 :NULL      
COMP        .                                 ARCO OIL & GAS CO :COMPANY   
WELL        .                                 MIAMI CORPORATION :WELL      
FLD         .                                           WILDCAT :FIELD     
LOC         .                                                   :LOCATION  
CNTY        .                                           CAMERON :LOCATION  
STAT        .                                         LOUISIANA :STATE     
CTRY        .                                     UNITED STATES :COUNTRY   
SRVC        .                                                   :SERVICE COMPANY
DATE        .                             9/13/2023 11:18:18 AM :LOG DATE  
API         .                                    17023218610000 :API NUMBER
UWI         .                                    17023218610000 :UNIQUE WELL ID
XCOORD      .                                  1618322.01672943 :SURFACE X 
YCOORD      .                                  10857815.2770888 :SURFACE Y 
LAT         .                                        29.9175237 :LATITUDE  
LON         .                                        -93.069766 :LONGITUDE 
ELEV        .FT                                              28 :ELEVATION VALUE
ELEV_TYPE   .                                                KB :ELEVATION REFERENCE TYPE
~Curve Information Section
#MNEM       .UNIT                                      API CODE :CURVE DESCRIPTION
#------------------------------------------------------------------------------
DEPT        .FT                                                 :DEPTH     
ASFL        .OHMM                                               :          
CILD        .MMHO                                               :          
SP          .MV                                                 :          
SP_NORM     .MV                                                 :SP Normalized
VSH_SP      .V/V                                                :Volume of Shale from SP
~A        DEPTH           ASFL           CILD             SP        SP_NORM         VSH_SP
# ...
     13186.0000          0.531        2291.93        -0.0192      -2.660323      0.9802343
     13186.5000         0.5273       2295.938        -0.0465      -2.687199      0.9799143
     13187.0000         0.5236       2307.031        -0.0738      -2.714076      0.9795943
     13187.5000         0.5218       2325.918        -0.1011      -2.740952      0.9792744
     13188.0000         0.5204       2344.809        -0.1285      -2.767929      0.9789532
     13188.5000          0.519       2363.699        -0.1558      -2.794805      0.9786333
     13189.0000          0.518       2380.648        -0.1831      -2.821681      0.9783133
     13189.5000         0.5207       2377.016        -0.2104      -2.848558      0.9779934
     13190.0000         0.5234       2373.383        -0.2377      -2.875434      0.9776734
     13190.5000         0.5261       2369.746         -0.265       -2.90231      0.9773535
     13191.0000         0.5288       2366.121        -0.2923      -2.929187      0.9770335
     13191.5000         0.5293       2362.484        -0.2886      -2.925063      0.9770826
     13192.0000         0.5243       2373.633        -0.2814      -2.917439      0.9771733
     13192.5000         0.5172       2391.145        -0.2741      -2.909716      0.9772653
     13193.0000           0.51       2458.191        -0.2669      -2.902092       0.977356
     13193.5000         0.5025       2535.516        -0.2597      -2.894469      0.9774468
     13194.0000          0.495       2585.617        -0.2525      -2.886845      0.9775376
     13194.5000         0.4875       2596.266        -0.2453      -2.879221      0.9776283
     13195.0000           0.48       2606.891         -0.238      -2.871497      0.9777203
     13195.5000         0.4813       2597.719        -0.2308      -2.863874       0.977811
     13196.0000         0.4852       2582.738        -0.2236       -2.85625      0.9779018
     13196.5000         0.4891       2567.785        -0.2164      -2.848627      0.9779925
     13197.0000         0.4929       2552.832        -0.2091      -2.840903      0.9780845
     13197.5000         0.4968       2537.879        -0.2019      -2.833279      0.9781752
     13198.0000         0.5002       2522.926        -0.1935      -2.824456      0.9782803
     13198.5000         0.5035       2507.973        -0.1791      -2.809632      0.9784567
     13199.0000         0.5068       2493.016        -0.1647      -2.794808      0.9786332
     13199.5000         0.5101       2472.605        -0.1502      -2.779885      0.9788109
     13200.0000         0.5182        2450.91        -0.1358      -2.765061      0.9789874
     13200.5000         0.5304       2429.219        -0.1214      -2.750237      0.9791638
     13201.0000          0.546       2407.477         -0.107      -2.735414      0.9793403
     13201.5000         0.5631       2323.016        -0.0926       -2.72059      0.9795168
     13202.0000         0.5689       2213.422        -0.0781      -2.705667      0.9796944
     13202.5000         0.5714       2127.684        -0.0637      -2.690843      0.9798709
     13203.0000         0.5739       2132.051        -0.0493      -2.676019      0.9800474
     13203.5000         0.5764        2136.43        -0.0349      -2.661196      0.9802238
     13204.0000         0.5789       2140.793        -0.0205      -2.646372      0.9804003
     13204.5000         0.5784       2145.172        -0.0061      -2.631548      0.9805768
     13205.0000         0.5768       2155.477         -0.002      -2.627025      0.9806306
     13205.5000         0.5751        2176.48        -0.0112      -2.635801      0.9805261
     13206.0000         0.5735       2197.484        -0.0204      -2.644578      0.9804217
     13206.5000         0.5718       2218.488        -0.0296      -2.653354      0.9803172
     13207.0000         0.5684       2239.445        -0.0389       -2.66223      0.9802116
     13207.5000         0.5642       2237.574        -0.0481      -2.671006      0.9801071
     13208.0000           0.56       2220.113        -0.0573      -2.679783      0.9800026
     13208.5000         0.5563       2202.648        -0.0666      -2.688659      0.9798969
     13209.0000         0.5544       2185.188        -0.0758      -2.697435      0.9797924
     13209.5000         0.5542       2167.727         -0.085      -2.706212      0.9796879
     13210.0000         0.5613       2149.379        -0.0943      -2.715088      0.9795823
     13210.5000         0.5684        2130.93        -0.1035      -2.723865      0.9794778
     13211.0000         0.5756       2112.484        -0.1127      -2.732641      0.9793733
     13211.5000          0.573       2102.402        -0.1262      -2.745717      0.9792176
     13212.0000         0.5679       2118.633        -0.1443      -2.763394      0.9790072
     13212.5000         0.5506       2134.867        -0.1623       -2.78097       0.978798
     13213.0000         0.5333       2151.098        -0.1804      -2.798646      0.9785876
     13213.5000         0.5237        2171.02        -0.1985      -2.816323      0.9783771
     13214.0000         0.5259       2204.766        -0.2166      -2.833999      0.9781667
     13214.5000          0.528        2238.41        -0.2347      -2.851676      0.9779562
     13215.0000         0.5301       2272.055        -0.2528      -2.869352      0.9777458
     13215.5000         0.5308       2305.703        -0.2709      -2.887028      0.9775354
     13216.0000         0.5309       2339.348         -0.286      -2.901705      0.9773607
     13216.5000         0.5309       2373.094        -0.2731      -2.888381      0.9775193
     13217.0000          0.531       2406.738        -0.2602      -2.875057      0.9776779
     13217.5000         0.5183       2440.383        -0.2473      -2.861733      0.9778365
     13218.0000         0.4994       2521.746        -0.2344       -2.84841      0.9779951
     13218.5000         0.4948       2604.383        -0.2215      -2.835086      0.9781537
     13219.0000         0.4903       2668.969        -0.2086      -2.821763      0.9783124
     13219.5000         0.4857       2697.008        -0.1957      -2.808439       0.978471
     13220.0000         0.4811       2725.047         -0.176      -2.788315      0.9787105
     13220.5000         0.4787        2715.75        -0.1183      -2.730192      0.9794025
     13221.0000          0.477       2686.629        -0.0606      -2.672068      0.9800944
     13221.5000         0.4753       2657.508        -0.0031      -2.614144       0.980784
     13222.0000         0.4735       2636.355         0.0546      -2.556021      0.9814759
     13222.5000         0.4702       2625.289         0.1123      -2.497897      0.9821679
     13223.0000         0.4632       2614.195         0.1698      -2.439974      0.9828575
     13223.5000         0.4563       2603.105         0.2275       -2.38185      0.9835494
     13224.0000         0.4494       2592.012         0.2851      -2.323826      0.9842402
     13224.5000         0.4426       2643.734          0.357      -2.251503      0.9851012
     13225.0000         0.4359       2724.996         0.4445      -2.163579      0.9861479
     13225.5000         0.4292       2922.938         0.5319      -2.075755      0.9871934
     13226.0000          0.424       2962.191         0.6193      -1.987932      0.9882389
     13226.5000          0.426       2991.605         0.7068      -1.900008      0.9892856
     13227.0000         0.4279       2962.684         0.7941      -1.812284      0.9903299
     13227.5000         0.4299       2928.742         0.8312      -1.774761      0.9907767
     13228.0000         0.4319       2894.801         0.7934      -1.812137      0.9903317
     13228.5000         0.4339       2860.762         0.7556      -1.849514      0.9898868
     13229.0000         0.4358        2826.82         0.7177       -1.88699      0.9894406
     13229.5000         0.4398       2792.879         0.6799      -1.924366      0.9889956
