#------------------------------------------------------------------------------
# Created by    : vladimir.rabinovich
# Created on    : 09/19/2023 17:20:13
#------------------------------------------------------------------------------
~Version Information Section
VERS.           2.0     :   CWLS log ASCII Standard - VERSION 2.0
WRAP.           NO      :   One line per depth step
~Well Information Section
#MNEM       .UNIT                                         VALUE :DESCRIPTION
#------------------------------------------------------------------------------
STRT        .FT                                             206 :START DEPTH
STOP        .FT                                           16504 :STOP DEPTH
STEP        .FT                                             0.5 :STEP      
NULL        .                                           -999.25 :NULL      
COMP        .                                 ARCO OIL & GAS CO :COMPANY   
WELL        .                                 MIAMI CORPORATION :WELL      
FLD         .                                           WILDCAT :FIELD     
LOC         .                                                   :LOCATION  
CNTY        .                                           CAMERON :LOCATION  
STAT        .                                         LOUISIANA :STATE     
CTRY        .                                     UNITED STATES :COUNTRY   
SRVC        .                                                   :SERVICE COMPANY
DATE        .                             9/13/2023 11:18:18 AM :LOG DATE  
API         .                                    17023218610000 :API NUMBER
UWI         .                                    17023218610000 :UNIQUE WELL ID
XCOORD      .                                  1618322.01672943 :SURFACE X 
YCOORD      .                                  10857815.2770888 :SURFACE Y 
LAT         .                                        29.9175237 :LATITUDE  
LON         .                                        -93.069766 :LONGITUDE 
ELEV        .FT                                              28 :ELEVATION VALUE
ELEV_TYPE   .                                                KB :ELEVATION REFERENCE TYPE
~Curve Information Section
#MNEM       .UNIT                                      API CODE :CURVE DESCRIPTION
#------------------------------------------------------------------------------
DEPT        .FT                                                 :DEPTH     
ASFL        .OHMM                                               :          
CILD        .MMHO                                               :          
SP          .MV                                                 :          
SP_NORM     .MV                                                 :SP Normalized
VSH_SP      .V/V                                                :Volume of Shale from SP
~A        DEPTH           ASFL           CILD             SP        SP_NORM         VSH_SP
# ...
      5618.0000         0.6566       5382.734      -176.4263      -64.76986      0.1382452
      5618.5000         0.6611       4926.602      -176.6841      -65.02766      0.1347614
      5619.0000         0.6656       4470.086      -176.9421      -65.28565       0.131275
      5619.5000         0.6701         4014.5      -177.5759      -65.91946        0.12271
      5620.0000         0.6685         3686.5       -178.719      -67.06255      0.1072628
      5620.5000         0.6547       3861.852      -179.8621      -68.20567     0.09181533
      5621.0000         0.6345       3971.395      -180.5195      -68.86306     0.08293162
      5621.5000         0.6171       3997.063      -180.9934      -69.33695     0.07652767
      5622.0000         0.6173       4300.992      -181.4678      -69.81136     0.07011671
      5622.5000         0.6175       5271.578      -181.5447      -69.88825     0.06907767
      5623.0000         0.6185       5226.328      -181.5347      -69.87826     0.06921273
      5623.5000         0.6206       5417.094      -181.5244      -69.86796     0.06935192
      5624.0000         0.6226       5732.836      -181.3811      -69.72466     0.07128834
      5624.5000         0.6246       6046.813       -181.115      -69.45856     0.07488426
      5625.0000         0.6058       6257.109      -180.8486      -69.19216      0.0784843
      5625.5000         0.5707       6086.445      -180.5823      -68.92587      0.0820829
      5626.0000         0.5499       5836.906       -179.991      -68.33456     0.09007356
      5626.5000         0.5291       5506.914      -178.9741      -67.31767      0.1038153
      5627.0000         0.5135       5335.086      -177.9573      -66.30087      0.1175559
      5627.5000          0.505       5216.664      -177.2871      -65.63065      0.1266128
      5628.0000         0.4965       5129.477      -176.9644      -65.30796      0.1309735
      5628.5000         0.5048       5040.242      -176.9019      -65.24546      0.1318181
      5629.0000         0.5263       4945.641      -177.3047      -65.64826      0.1263748
      5629.5000         0.5479       4851.039      -177.3687      -65.71226        0.12551
      5630.0000         0.5713       4768.148       -176.967      -65.31055      0.1309385
      5630.5000         0.5834       5374.141      -176.5652      -64.90876      0.1363681
      5631.0000         0.5591       5559.836      -176.1189      -64.46246      0.1423993
      5631.5000          0.539       5725.805      -175.3093      -63.65285      0.1533398
      5632.0000         0.5218       5665.664      -174.5007      -62.84426      0.1642667
      5632.5000         0.5047       5579.453      -173.6919      -62.03545      0.1751966
      5633.0000         0.4875       5493.344      -172.8125      -61.15606      0.1870803
      5633.5000         0.4758       5407.141      -171.9143      -60.25787       0.199218
      5634.0000         0.4726       5321.031      -172.2327      -60.57626      0.1949155
      5634.5000         0.4695       5530.742      -172.7852      -61.12876      0.1874492
      5635.0000         0.4663       5790.242      -173.3374      -61.68096       0.179987
      5635.5000         0.4733       5833.633      -173.8452      -62.18876      0.1731249
      5636.0000         0.4885       5882.891      -174.1172      -62.46076      0.1694492
      5636.5000         0.5037       5959.531      -174.3892      -62.73277      0.1657734
      5637.0000         0.5188       6043.977      -174.6611      -63.00466      0.1620992
      5637.5000         0.5236       6208.289      -174.9331      -63.27666      0.1584235
      5638.0000         0.5271       6636.109      -174.2463      -62.58987      0.1677045
      5638.5000         0.5305       6736.664      -173.1494      -61.49296      0.1825276
      5639.0000         0.5296       6865.438      -172.0525      -60.39606      0.1973505
      5639.5000         0.5288       6464.469      -163.2466      -51.59016      0.3163492
      5640.0000         0.5279       4582.164      -155.6572      -44.00076      0.4189087
      5640.5000         0.5271       4297.477      -149.8879      -38.23145      0.4968722
      5641.0000         0.5262       3995.516      -145.1907      -33.53426      0.5603478
      5641.5000         0.5254       3944.934      -137.3545      -25.69807      0.6662424
      5642.0000         0.5246       3529.031      -126.9579      -15.30146       0.806737
      5642.5000         0.5418        3113.52       -123.843      -12.18656      0.8488302
      5643.0000         0.5666       2698.004      -121.2346      -9.578156       0.884079
      5643.5000         0.5914       1789.559      -118.7054      -7.048958      0.9182574
      5644.0000         0.6199        1735.08      -119.2581      -7.601662      0.9107884
      5644.5000         0.6493       1680.555      -125.5211      -13.86466      0.8261532
      5645.0000         0.6915       1626.076      -130.9146      -19.25816      0.7532682
      5645.5000         0.7375       1851.357      -133.0588      -21.40237      0.7242923
      5646.0000         0.7586       1974.566      -134.4734      -22.81696      0.7051762
      5646.5000         0.7798       2038.027      -135.8901      -24.23367      0.6860315
      5647.0000         0.7954       2131.359      -137.5461      -25.88966      0.6636533
      5647.5000         0.8021       2243.051      -140.1951      -28.53866       0.627856
      5648.0000         0.8088       2337.652      -142.3889      -30.73246        0.59821
      5648.5000         0.8086       2420.832      -144.0835      -32.42706      0.5753101
      5649.0000         0.7924       2491.613      -145.7783      -34.12186      0.5524073
      5649.5000         0.7763       2564.641       -147.427      -35.77056      0.5301275
      5650.0000         0.7808       2667.543      -149.0146      -37.35816      0.5086735
      5650.5000         0.7895       2769.617      -150.6025      -38.94605      0.4872155
      5651.0000         0.8003       2821.215      -149.9451      -38.28866      0.4960992
      5651.5000          0.812       2872.813      -149.0479      -37.39146      0.5082235
      5652.0000         0.8237       2924.359      -147.4307      -35.77425      0.5300776
      5652.5000         0.8354       2904.785      -144.5532      -32.89677      0.5689626
      5653.0000         0.8471       2845.914       -141.676      -30.01955      0.6078439
      5653.5000          0.826       2521.488      -137.0525      -25.39606      0.6703234
      5654.0000         0.8006       2078.445       -131.272      -19.61556      0.7484384
      5654.5000         0.7691       1940.715      -126.6375      -14.98106      0.8110668
      5655.0000         0.7335       1911.205      -122.4117      -10.75526      0.8681722
      5655.5000         0.7098       1881.697      -115.5446      -3.888161      0.9609708
      5656.0000          0.697       1852.188      -110.7496      0.9068375              1
      5656.5000         0.6952       1822.654      -111.2139       0.442543              1
      5657.0000         0.6962       1835.225      -111.8788     -0.2223587              1
      5657.5000         0.7043        1862.17      -112.5945     -0.9380569              1
      5658.0000         0.7156       1889.092      -113.3101      -1.687775      0.9907057
      5658.5000         0.7269       1916.039      -114.0258      -2.445183      0.9804705
      5659.0000         0.7382       1947.963      -114.7413      -3.202385       0.970238
      5659.5000         0.7482        1994.68       -115.457      -3.959785      0.9600029
      5660.0000         0.7566       2041.346      -115.3737       -3.91819       0.960565
      5660.5000         0.7457       2088.012      -115.0988       -3.68499      0.9637163
      5661.0000         0.7271       2114.129      -114.8236      -3.451492      0.9668717
      5661.5000         0.7163       2131.227      -114.4089      -3.078491      0.9719123
