#------------------------------------------------------------------------------
# Created by    : vladimir.rabinovich
# Created on    : 09/19/2023 17:20:13
#------------------------------------------------------------------------------
~Version Information Section
VERS.           2.0     :   CWLS log ASCII Standard - VERSION 2.0
WRAP.           NO      :   One line per depth step
~Well Information Section
#MNEM       .UNIT                                         VALUE :DESCRIPTION
#------------------------------------------------------------------------------
STRT        .FT                                             206 :START DEPTH
STOP        .FT                                           16504 :STOP DEPTH
STEP        .FT                                             0.5 :STEP      
NULL        .                                           -999.25 :NULL      
COMP        .                                 ARCO OIL & GAS CO :COMPANY   
WELL        .                                 MIAMI CORPORATION :WELL      
FLD         .                                           WILDCAT :FIELD     
LOC         .                                                   :LOCATION  
CNTY        .                                           CAMERON :LOCATION  
STAT        .                                         LOUISIANA :STATE     
CTRY        .                                     UNITED STATES :COUNTRY   
SRVC        .                                                   :SERVICE COMPANY
DATE        .                             9/13/2023 11:18:18 AM :LOG DATE  
API         .                                    17023218610000 :API NUMBER
UWI         .                                    17023218610000 :UNIQUE WELL ID
XCOORD      .                                  1618322.01672943 :SURFACE X 
YCOORD      .                                  10857815.2770888 :SURFACE Y 
LAT         .                                        29.9175237 :LATITUDE  
LON         .                                        -93.069766 :LONGITUDE 
ELEV        .FT                                              28 :ELEVATION VALUE
ELEV_TYPE   .                                                KB :ELEVATION REFERENCE TYPE
~Curve Information Section
#MNEM       .UNIT                                      API CODE :CURVE DESCRIPTION
#------------------------------------------------------------------------------
DEPT        .FT                                                 :DEPTH     
ASFL        .OHMM                                               :          
CILD        .MMHO                                               :          
SP          .MV                                                 :          
SP_NORM     .MV                                                 :SP Normalized
VSH_SP      .V/V                                                :Volume of Shale from SP
~A        DEPTH           ASFL           CILD             SP        SP_NORM         VSH_SP
# ...
      1306.0000         0.9153       1162.832      -147.1699       1.300568              1
      1306.5000         0.9547       1157.955      -147.7537      0.7149811              1
      1307.0000         1.0506       1154.521      -148.3748     0.09207153              1
      1307.5000         1.1403        1151.48      -149.0632     -0.6248322              1
      1308.0000         1.2127       1149.971      -150.4958      -2.099335      0.9620919
      1308.5000         1.2462       1149.186      -152.6924      -4.337845      0.8849019
      1309.0000         1.2708       1134.314      -154.5688      -6.256165      0.8187529
      1309.5000         1.2913       1133.592      -156.5273      -8.256577      0.7497732
      1310.0000         1.3036       1136.285      -158.7395       -10.5107      0.6720449
      1310.5000         1.3106       1257.773      -161.9358      -13.74892      0.5603822
      1311.0000         1.3167       1302.299      -163.9639      -15.81892      0.4890026
      1311.5000          1.322       1317.982      -165.6484      -17.54535      0.4294707
      1312.0000         1.3339       1329.338      -166.9824      -18.92126      0.3820254
      1312.5000         1.3506       1336.533      -168.2009      -20.18167      0.3385631
      1313.0000          1.382       1339.055      -169.0786      -21.10129      0.3068521
      1313.5000         1.4379       1337.645      -169.5081      -21.57269      0.2905968
      1314.0000         1.4858       1336.234      -169.9375      -22.04401      0.2743446
      1314.5000         1.5154       1334.449      -170.3669      -22.51532      0.2580924
      1315.0000         1.5393       1328.404      -170.7964      -22.98674      0.2418365
      1315.5000         1.5612       1322.359      -171.1743      -23.40656      0.2273602
      1316.0000         1.5784       1316.314      -171.2893      -23.56348      0.2219491
      1316.5000         1.5902       1311.369      -171.4041      -23.72018      0.2165454
      1317.0000         1.5769        1306.99       -171.519        -23.877       0.211138
      1317.5000         1.5635       1302.613      -171.6033      -24.00322      0.2067855
      1318.0000         1.5493       1298.236      -171.6497      -24.09154      0.2037401
      1318.5000         1.5189       1294.375      -171.6958      -24.17955      0.2007052
      1319.0000         1.4902       1290.795      -171.7422      -24.26787      0.1976597
      1319.5000         1.4631       1287.215      -171.7671      -24.33467      0.1953562
      1320.0000         1.4291       1283.633      -171.7537      -24.36317      0.1943733
      1320.5000         1.3918       1280.771      -171.7405      -24.39189      0.1933831
      1321.0000         1.3589       1278.328      -171.7271      -24.42041      0.1923997
      1321.5000         1.3423       1275.887      -171.6077      -24.34293      0.1950715
      1322.0000         1.3436       1273.443      -171.4727      -24.24985      0.1982811
      1322.5000         1.3449       1271.014      -171.3376      -24.15666      0.2014944
      1323.0000          1.348       1269.074      -171.0728      -23.93378      0.2091801
      1323.5000         1.3516       1267.137      -170.7231      -23.62599      0.2197934
      1324.0000         1.3552       1265.479      -170.2644      -23.20921      0.2341651
      1324.5000         1.3434       1264.068      -169.5872      -22.57393      0.2560714
      1325.0000         1.3286        1262.66      -168.8501      -21.87874      0.2800435
      1325.5000         1.3116       1261.563      -167.6665      -20.73705      0.3194122
      1326.0000         1.2914       1264.773      -167.3281      -20.44055      0.3296362
      1326.5000         1.2667       1269.623      -167.2791      -20.43347      0.3298803
      1327.0000          1.242       1286.379      -167.8823      -21.07858      0.3076351
      1327.5000          1.215       1303.139      -168.5017       -21.7399      0.2848311
      1328.0000         1.1838       1325.268      -169.1414      -22.42152      0.2613268
      1328.5000         1.1393       1360.514       -169.728      -23.05003       0.239654
      1329.0000         1.1066        1412.99      -170.1768      -23.54076      0.2227325
      1329.5000         1.0771       1471.555      -170.6257      -24.03157      0.2058079
      1330.0000         1.0558       1558.721      -171.0098      -24.45758      0.1911179
      1330.5000         1.0581       1633.131      -171.3223        -24.812      0.1788967
      1331.0000         1.0649       1678.197      -171.6345      -25.16612      0.1666854
      1331.5000         1.0841       1671.777       -171.947      -25.52052      0.1544647
      1332.0000         1.1033       1663.373      -172.1213      -25.73674       0.147009
      1332.5000         1.1221        1638.49      -172.2383      -25.89565      0.1415295
      1333.0000         1.1396       1606.826       -172.355      -26.05426        0.13606
      1333.5000          1.154       1576.438      -172.4482      -26.18938      0.1314008
      1334.0000         1.1646       1538.207      -172.5024      -26.28549      0.1280865
      1334.5000         1.1731       1499.484      -172.5569      -26.38191      0.1247616
      1335.0000         1.1803       1459.834      -172.6113      -26.47823      0.1214405
      1335.5000         1.1865       1397.428      -172.6384      -26.54724      0.1190607
      1336.0000         1.1928       1327.676      -172.6619      -26.61266       0.116805
      1336.5000         1.2001       1275.162      -172.6853      -26.67798      0.1145525
      1337.0000         1.2118       1222.477      -172.7234        -26.758      0.1117933
      1337.5000         1.2236       1183.006      -172.7659      -26.84239       0.108883
      1338.0000          1.253       1149.018      -172.8081      -26.92651      0.1059823
      1338.5000         1.3264       1124.246      -172.8506      -27.01093      0.1030715
      1339.0000         1.3823       1110.066      -172.8931      -27.09534      0.1001608
      1339.5000         1.4208       1096.504      -172.9355      -27.17966     0.09725321
      1340.0000         1.4426         1088.1      -172.9814      -27.26747     0.09422512
      1340.5000         1.4353       1079.695        -173.03      -27.35799     0.09110392
      1341.0000         1.4281       1071.291      -173.0789      -27.44881     0.08797218
      1341.5000         1.4195       1063.611      -173.1277      -27.53952     0.08484413
      1342.0000         1.4107        1056.02      -173.1763      -27.63004     0.08172292
      1342.5000         1.4045       1048.428      -173.2253      -27.72095     0.07858802
      1343.0000         1.4027       1040.834      -173.2776      -27.81517     0.07533895
      1343.5000         1.4037       1034.547      -173.3296      -27.90907     0.07210094
      1344.0000         1.4062       1028.379      -173.3669      -27.98828     0.06936961
      1344.5000         1.4092       1022.212      -173.3308      -27.99409     0.06916914
      1345.0000         1.4122       1016.009      -173.2949      -28.00012     0.06896131
      1345.5000         1.4153       1009.729       -173.259      -28.00613       0.068754
      1346.0000         1.4184       1003.448      -173.1672      -27.95625     0.07047404
      1346.5000         1.4205       997.1689      -173.0498      -27.88077     0.07307697
      1347.0000         1.4215       991.9512      -172.9324      -27.80528     0.07567991
      1347.5000         1.4219       987.7725      -172.7935       -27.7083     0.07902422
      1348.0000         1.4199       983.5947      -172.6404      -27.59711     0.08285838
      1348.5000          1.415        979.416      -172.4875      -27.48613     0.08668518
      1349.0000         1.4027       975.2383      -172.3738      -27.41432     0.08916131
      1349.5000         1.3845       971.0615      -172.2749      -27.35735     0.09112602
