#------------------------------------------------------------------------------
# Created by    : vladimir.rabinovich
# Created on    : 09/19/2023 17:20:13
#------------------------------------------------------------------------------
~Version Information Section
VERS.           2.0     :   CWLS log ASCII Standard - VERSION 2.0
WRAP.           NO      :   One line per depth step
~Well Information Section
#MNEM       .UNIT                                         VALUE :DESCRIPTION
#------------------------------------------------------------------------------
STRT        .FT                                             206 :START DEPTH
STOP        .FT                                           16504 :STOP DEPTH
STEP        .FT                                             0.5 :STEP      
NULL        .                                           -999.25 :NULL      
COMP        .                                 ARCO OIL & GAS CO :COMPANY   
WELL        .                                 MIAMI CORPORATION :WELL      
FLD         .                                           WILDCAT :FIELD     
LOC         .                                                   :LOCATION  
CNTY        .                                           CAMERON :LOCATION  
STAT        .                                         LOUISIANA :STATE     
CTRY        .                                     UNITED STATES :COUNTRY   
SRVC        .                                                   :SERVICE COMPANY
DATE        .                             9/13/2023 11:18:18 AM :LOG DATE  
API         .                                    17023218610000 :API NUMBER
UWI         .                                    17023218610000 :UNIQUE WELL ID
XCOORD      .                                  1618322.01672943 :SURFACE X 
YCOORD      .                                  10857815.2770888 :SURFACE Y 
LAT         .                                        29.9175237 :LATITUDE  
LON         .                                        -93.069766 :LONGITUDE 
ELEV        .FT                                              28 :ELEVATION VALUE
ELEV_TYPE   .                                                KB :ELEVATION REFERENCE TYPE
~Curve Information Section
#MNEM       .UNIT                                      API CODE :CURVE DESCRIPTION
#------------------------------------------------------------------------------
DEPT        .FT                                                 :DEPTH     
ASFL        .OHMM                                               :          
CILD        .MMHO                                               :          
SP          .MV                                                 :          
SP_NORM     .MV                                                 :SP Normalized
VSH_SP      .V/V                                                :Volume of Shale from SP
~A        DEPTH           ASFL           CILD             SP        SP_NORM         VSH_SP
# ...
      3462.0000         0.9422       1869.766      -141.7927      -12.95834      0.7700319
      3462.5000         0.9515       1885.857      -141.3945      -12.56015      0.7776894
      3463.0000         0.9608       1901.963      -140.9602      -12.12585      0.7860413
      3463.5000         0.9702       1914.072       -140.385      -11.55064       0.797103
      3464.0000         0.9761       1905.836      -139.5281      -10.69376      0.8135816
      3464.5000         0.9809       1897.594      -137.9907      -9.156357       0.843147
      3465.0000         0.9678       1889.355      -133.4756      -4.641251      0.9299759
      3465.5000         0.9342       1874.479      -130.5754      -1.741043      0.9857492
      3466.0000         0.8919       1857.367      -129.2439     -0.4095459              1
      3466.5000         0.8229       1840.256      -128.2566      0.5777435              1
      3467.0000         0.8037       1823.133      -127.2687       1.565651              1
      3467.5000         0.7876       1806.021      -126.0441       2.790253              1
      3468.0000         0.7829        1788.91      -124.9084       3.925949              1
      3468.5000         0.7783       1771.799      -122.8356       5.998749              1
      3469.0000         0.7727       1756.854      -121.5863       7.248047              1
      3469.5000         0.7662       1748.906      -120.6702       8.164154              1
      3470.0000         0.7596       1740.959      -120.8773       7.957054              1
      3470.5000         0.7531        1733.01      -123.2885       5.545853              1
      3471.0000         0.7466       1725.057      -127.8257       1.008652              1
      3471.5000         0.7432       1717.107      -128.5208      0.3135529              1
      3472.0000         0.7398       1707.238      -128.9521     -0.1177521              1
      3472.5000         0.7364       1696.652       -129.384     -0.5496521              1
      3473.0000          0.733       1686.064      -129.8159     -0.9815521              1
      3473.5000          0.748       1675.477      -130.3311       -1.49675      0.9904471
      3474.0000         0.7774       1664.891      -131.0156      -2.181244      0.9772838
      3474.5000         0.8057       1657.344      -131.7002      -2.865845      0.9641184
      3475.0000         0.8339       1649.801      -132.9626       -4.12825      0.9398413
      3475.5000         0.8655        1659.25      -134.6025      -5.768143      0.9083049
      3476.0000         0.8973       1684.059      -136.1873      -7.352951      0.8778279
      3476.5000         0.9245       1725.129      -137.5972      -8.762848      0.8507144
      3477.0000         0.9481       1766.201      -139.0869      -10.25255      0.8220664
      3477.5000         0.9545       1807.273      -141.5657      -12.73135       0.774397
      3478.0000         0.9481       1864.402      -144.6042      -15.76985      0.7159644
      3478.5000          0.927       1941.635      -147.6001      -18.76575       0.658351
      3479.0000          0.906       2056.527      -148.8784      -20.04405      0.6337682
      3479.5000         0.8849       2165.703      -149.8882      -21.05385      0.6143491
      3480.0000         0.8095       2203.313      -150.8755      -22.04115      0.5953624
      3480.5000         0.7716       2240.945      -152.5312      -23.69685       0.563522
      3481.0000         0.7558       2278.559      -154.0981      -25.26375      0.5333894
      3481.5000         0.7458       2334.629      -155.5908      -26.75645      0.5046836
      3482.0000         0.7422        2395.27      -157.3689      -28.53455      0.4704895
      3482.5000         0.7418       2456.691      -160.3889      -31.55455      0.4124125
      3483.0000         0.7414       2525.629      -164.0134      -35.17905      0.3427106
      3483.5000          0.741       2667.625      -165.5833      -36.74895      0.3125202
      3484.0000         0.7385       2847.184      -166.6848      -37.85045      0.2913375
      3484.5000         0.7294       2935.906      -166.1492      -37.31485      0.3016375
      3485.0000         0.7204       3054.336      -165.2275      -36.39314      0.3193626
      3485.5000         0.7107       3221.273      -164.3057      -35.47134      0.3370895
      3486.0000         0.6953       3409.816      -163.3838      -34.54945      0.3548182
      3486.5000         0.6799       3732.625      -161.5432      -32.70885      0.3902145
      3487.0000         0.6645       3599.148      -158.8013      -29.96695      0.4429433
      3487.5000         0.6564       3362.926      -156.1951      -27.36075      0.4930625
      3488.0000         0.6636       3252.602      -153.7878      -24.95345      0.5393568
      3488.5000         0.6712       3100.098      -151.6824      -22.84805      0.5798451
      3489.0000         0.6854       2821.898      -149.5779      -20.74355      0.6203164
      3489.5000         0.6996       2721.047      -147.4734      -18.63905      0.6607875
      3490.0000         0.7139       2608.902      -145.3987      -16.56435      0.7006856
      3490.5000         0.7244       2433.516      -143.3376      -14.50325      0.7403221
      3491.0000         0.7136        2240.75      -157.0713      -28.23695      0.4762124
      3491.5000         0.7034       2165.531      -159.5833      -30.74895      0.4279049
      3492.0000          0.696       2268.246      -161.8335      -32.99915      0.3846318
      3492.5000         0.6885       2904.875      -164.0417      -35.20735      0.3421663
      3493.0000         0.6811       3479.734      -165.4727      -36.63835      0.3146471
      3493.5000         0.6737        3649.23       -162.428      -33.59364      0.3731992
      3494.0000          0.674       3767.855      -159.5044      -30.67004      0.4294222
      3494.5000         0.6936       3615.449      -156.6548      -27.82045      0.4842221
      3495.0000         0.7131       3198.297      -154.3872      -25.55286      0.5278297
      3495.5000         0.7327       2972.828      -149.8882      -21.05385      0.6143491
      3496.0000          0.761       2861.766      -146.9495      -18.11514      0.6708626
      3496.5000         0.8219       2771.473      -143.8257      -14.99135      0.7309356
      3497.0000         0.8639       2612.828       -140.697      -11.86266      0.7911028
      3497.5000         0.8768       2446.676      -136.3225      -7.488144       0.875228
      3498.0000         0.8866        1969.23      -134.4949      -5.660553       0.910374
      3498.5000         0.8902       1577.805      -132.8911      -4.056747      0.9412164
      3499.0000         0.8829        1461.07      -131.5103      -2.675949      0.9677702
      3499.5000          0.869       1429.279       -130.894      -2.059647      0.9796222
      3500.0000          0.855       1397.512      -130.1094      -1.275055      0.9947105
      3500.5000          0.842       1374.152      -127.6023       1.232048              1
      3501.0000          0.835        1364.24      -126.0552       2.779152              1
      3501.5000         0.8281       1354.328      -124.7607       4.073654              1
      3502.0000         0.8295        1344.41      -123.9928       4.841553              1
      3502.5000         0.8379       1356.961      -123.8624       4.971954              1
      3503.0000         0.8463        1371.34      -124.7886       4.045753              1
      3503.5000         0.8546       1385.715      -127.3452       1.489151              1
      3504.0000         0.8569       1411.063      -130.2219      -1.387543      0.9925473
      3504.5000         0.8436       1482.553      -132.2744      -3.440048       0.953076
      3505.0000         0.8242       1554.041      -134.0142      -5.179855      0.9196182
      3505.5000         0.8048        1625.58      -135.7627      -6.928345      0.8859934
