#------------------------------------------------------------------------------
# Created by    : vladimir.rabinovich
# Created on    : 09/19/2023 17:20:13
#------------------------------------------------------------------------------
~Version Information Section
VERS.           2.0     :   CWLS log ASCII Standard - VERSION 2.0
WRAP.           NO      :   One line per depth step
~Well Information Section
#MNEM       .UNIT                                         VALUE :DESCRIPTION
#------------------------------------------------------------------------------
STRT        .FT                                             206 :START DEPTH
STOP        .FT                                           16504 :STOP DEPTH
STEP        .FT                                             0.5 :STEP      
NULL        .                                           -999.25 :NULL      
COMP        .                                 ARCO OIL & GAS CO :COMPANY   
WELL        .                                 MIAMI CORPORATION :WELL      
FLD         .                                           WILDCAT :FIELD     
LOC         .                                                   :LOCATION  
CNTY        .                                           CAMERON :LOCATION  
STAT        .                                         LOUISIANA :STATE     
CTRY        .                                     UNITED STATES :COUNTRY   
SRVC        .                                                   :SERVICE COMPANY
DATE        .                             9/13/2023 11:18:18 AM :LOG DATE  
API         .                                    17023218610000 :API NUMBER
UWI         .                                    17023218610000 :UNIQUE WELL ID
XCOORD      .                                  1618322.01672943 :SURFACE X 
YCOORD      .                                  10857815.2770888 :SURFACE Y 
LAT         .                                        29.9175237 :LATITUDE  
LON         .                                        -93.069766 :LONGITUDE 
ELEV        .FT                                              28 :ELEVATION VALUE
ELEV_TYPE   .                                                KB :ELEVATION REFERENCE TYPE
~Curve Information Section
#MNEM       .UNIT                                      API CODE :CURVE DESCRIPTION
#------------------------------------------------------------------------------
DEPT        .FT                                                 :DEPTH     
ASFL        .OHMM                                               :          
CILD        .MMHO                                               :          
SP          .MV                                                 :          
SP_NORM     .MV                                                 :SP Normalized
VSH_SP      .V/V                                                :Volume of Shale from SP
~A        DEPTH           ASFL           CILD             SP        SP_NORM         VSH_SP
# ...
     16442.0000         0.6407       1389.305        -0.4641      -1.691094      0.9917727
     16442.5000         0.6513       1384.627        -0.4986      -1.725594       0.991362
     16443.0000         0.6618       1388.645        -0.5331      -1.760094      0.9909512
     16443.5000         0.6724       1392.676        -0.5676      -1.794594      0.9905406
     16444.0000         0.6737       1399.127        -0.6021      -1.829094      0.9901298
     16444.5000         0.6745       1408.484        -0.6076      -1.834594      0.9900644
     16445.0000         0.6754       1417.816        -0.5486      -1.775594      0.9907668
     16445.5000         0.6762       1427.174        -0.4898      -1.716794      0.9914668
     16446.0000         0.6768       1433.393        -0.4308      -1.657794      0.9921691
     16446.5000         0.6774        1430.57         -0.372      -1.598994      0.9928691
     16447.0000          0.678       1427.748        -0.3131      -1.540094      0.9935703
     16447.5000         0.6786       1424.926        -0.2431      -1.470094      0.9944037
     16448.0000         0.6792       1422.105        -0.0973      -1.324294      0.9961393
     16448.5000         0.6799       1400.738         0.0482      -1.178794      0.9978715
     16449.0000         0.6888       1376.746         0.1937      -1.033294      0.9996036
     16449.5000         0.7009       1352.705         0.3396      -0.887394              1
     16450.0000          0.713       1326.564         0.4145     -0.8124939              1
     16450.5000         0.7242       1299.396         0.4644     -0.7625939              1
     16451.0000         0.7349       1272.227         0.5144     -0.7125939              1
     16451.5000         0.7457       1246.477         0.5642     -0.6627939              1
     16452.0000         0.7565       1227.225         0.5195     -0.7074939              1
     16452.5000         0.7666       1224.635         0.4278     -0.7991939              1
     16453.0000         0.7764       1236.313         0.3102     -0.9167939              1
     16453.5000         0.7637       1250.092        -0.0317      -1.258694      0.9969203
     16454.0000         0.7494        1263.92        -0.3747      -1.601694       0.992837
     16454.5000          0.735       1274.012        -0.7166      -1.943594      0.9887667
     16455.0000         0.7207       1284.541        -0.9643      -2.191294      0.9858179
     16455.5000         0.7091       1310.244        -1.0758      -2.302794      0.9844906
     16456.0000         0.7018        1327.98        -1.1872      -2.414194      0.9831644
     16456.5000         0.6945       1345.768        -1.2207      -2.447694      0.9827656
     16457.0000         0.6872       1360.377        -1.0194      -2.246394       0.985162
     16457.5000         0.6799       1374.988        -0.8175      -2.044494      0.9875656
     16458.0000         0.6725       1390.869        -0.6156      -1.842594      0.9899691
     16458.5000         0.6672       1406.799        -0.4144      -1.641394      0.9923643
     16459.0000         0.6643       1423.021        -0.2859      -1.512894      0.9938941
     16459.5000         0.6614       1439.488        -0.1887      -1.415694      0.9950513
     16460.0000         0.6585       1455.955        -0.0911      -1.318094      0.9962131
     16460.5000         0.6556       1435.041        -0.1129      -1.339894      0.9959536
     16461.0000         0.6657       1407.482        -0.1623      -1.389294      0.9953656
     16461.5000         0.6771       1379.826        -0.2116      -1.438594      0.9947786
     16462.0000         0.6886       1351.289        -0.3456      -1.572594      0.9931834
     16462.5000         0.7001       1350.752        -0.5203      -1.747294      0.9911036
     16463.0000         0.7092       1367.561        -0.6955      -1.922494      0.9890179
     16463.5000         0.7183        1380.24        -0.8643      -2.091294      0.9870084
     16464.0000         0.7273       1390.135        -0.9516      -2.178594      0.9859691
     16464.5000         0.7302       1400.031        -1.0386      -2.265594      0.9849334
     16465.0000         0.7275       1409.949        -1.1256      -2.352594      0.9838977
     16465.5000         0.7234        1425.27        -1.2129      -2.439894      0.9828584
     16466.0000         0.7183       1441.932        -1.2554      -2.482394      0.9823524
     16466.5000         0.7131       1460.988        -1.0163      -2.243294      0.9851989
     16467.0000          0.708       1464.652        -0.7773      -2.004294      0.9880441
     16467.5000         0.7029       1451.166        -0.5376      -1.764594      0.9908977
     16468.0000         0.7028       1436.947        -0.2986      -1.525594      0.9937429
     16468.5000         0.7048       1421.018         -0.226      -1.452994      0.9946072
     16469.0000         0.7069       1405.088        -0.1934      -1.420394      0.9949953
     16469.5000         0.7089       1389.207        -0.1723      -1.399294      0.9952465
     16470.0000         0.7141       1374.842        -0.1808      -1.407794      0.9951453
     16470.5000         0.7197       1362.137        -0.1893      -1.416294      0.9950441
     16471.0000         0.7249       1349.432        -0.1978      -1.424794      0.9949429
     16471.5000          0.727       1336.678         -0.203      -1.429994       0.994881
     16472.0000          0.729       1321.238         -0.194      -1.420994      0.9949881
     16472.5000         0.7311       1305.113         -0.185      -1.411994      0.9950953
     16473.0000         0.7331       1288.939         -0.176      -1.402994      0.9952025
     16473.5000         0.7352       1282.959         -0.167      -1.393994      0.9953096
     16474.0000         0.7372       1281.236        -0.1604      -1.387394      0.9953882
     16474.5000         0.7429       1279.752        -0.1711      -1.398094      0.9952608
     16475.0000         0.7487       1288.156        -0.1818      -1.408794      0.9951334
     16475.5000         0.7545       1296.561        -0.1926      -1.419594      0.9950048
     16476.0000         0.7603       1304.967        -0.2008      -1.427794      0.9949072
     16476.5000         0.7661       1313.371        -0.2085      -1.435494      0.9948155
     16477.0000         0.7746        1321.75        -0.2161      -1.443094       0.994725
     16477.5000          0.785       1330.156        -0.2238      -1.450794      0.9946334
     16478.0000         0.7954       1335.299        -0.2462      -1.473194      0.9943668
     16478.5000         0.7916       1339.891         -0.301      -1.527994      0.9937143
     16479.0000         0.7862       1344.473         -0.356      -1.582994      0.9930596
     16479.5000          0.773       1349.066        -0.4108      -1.637794      0.9924072
     16480.0000         0.7586       1353.658         -0.511      -1.737994      0.9912143
     16480.5000         0.7443       1354.709         -0.624      -1.850994      0.9898691
     16481.0000         0.7299       1349.773         -0.737      -1.963994      0.9885239
     16481.5000         0.7287       1337.949          -0.85      -2.076994      0.9871786
     16482.0000         0.7317         1318.6        -0.9448      -2.171794      0.9860501
     16482.5000         0.7429       1299.297        -1.0281      -2.255094      0.9850584
     16483.0000          0.758       1279.947        -1.1117      -2.338694      0.9840631
     16483.5000         0.7732       1266.389        -1.1953      -2.422294      0.9830679
     16484.0000         0.7824       1258.057        -1.0398      -2.266794      0.9849191
     16484.5000         0.7866       1256.957        -0.8479      -2.074894      0.9872037
     16485.0000         0.7855       1264.238        -0.6559      -1.882894      0.9894894
     16485.5000         0.7787       1271.494        -0.4639      -1.690894      0.9917751
