#------------------------------------------------------------------------------
# Created by    : vladimir.rabinovich
# Created on    : 09/19/2023 17:20:13
#------------------------------------------------------------------------------
~Version Information Section
VERS.           2.0     :   CWLS log ASCII Standard - VERSION 2.0
WRAP.           NO      :   One line per depth step
~Well Information Section
#MNEM       .UNIT                                         VALUE :DESCRIPTION
#------------------------------------------------------------------------------
STRT        .FT                                             206 :START DEPTH
STOP        .FT                                           16504 :STOP DEPTH
STEP        .FT                                             0.5 :STEP      
NULL        .                                           -999.25 :NULL      
COMP        .                                 ARCO OIL & GAS CO :COMPANY   
WELL        .                                 MIAMI CORPORATION :WELL      
FLD         .                                           WILDCAT :FIELD     
LOC         .                                                   :LOCATION  
CNTY        .                                           CAMERON :LOCATION  
STAT        .                                         LOUISIANA :STATE     
CTRY        .                                     UNITED STATES :COUNTRY   
SRVC        .                                                   :SERVICE COMPANY
DATE        .                             9/13/2023 11:18:18 AM :LOG DATE  
API         .                                    17023218610000 :API NUMBER
UWI         .                                    17023218610000 :UNIQUE WELL ID
XCOORD      .                                  1618322.01672943 :SURFACE X 
YCOORD      .                                  10857815.2770888 :SURFACE Y 
LAT         .                                        29.9175237 :LATITUDE  
LON         .                                        -93.069766 :LONGITUDE 
ELEV        .FT                                              28 :ELEVATION VALUE
ELEV_TYPE   .                                                KB :ELEVATION REFERENCE TYPE
~Curve Information Section
#MNEM       .UNIT                                      API CODE :CURVE DESCRIPTION
#------------------------------------------------------------------------------
DEPT        .FT                                                 :DEPTH     
ASFL        .OHMM                                               :          
CILD        .MMHO                                               :          
SP          .MV                                                 :          
SP_NORM     .MV                                                 :SP Normalized
VSH_SP      .V/V                                                :Volume of Shale from SP
~A        DEPTH           ASFL           CILD             SP        SP_NORM         VSH_SP
# ...
     14286.0000         0.8029       1305.379        -0.2232      -1.932311      0.9889011
     14286.5000         0.8142       1332.285        -0.2903      -1.998987      0.9881073
     14287.0000          0.827       1348.861        -0.3575      -2.065764      0.9873123
     14287.5000         0.8431       1365.391        -0.3436       -2.05144      0.9874828
     14288.0000         0.8592       1381.967        -0.2622      -1.969616       0.988457
     14288.5000         0.8795       1398.494        -0.1806      -1.887593      0.9894334
     14289.0000          0.909       1415.072        -0.0992      -1.805769      0.9904075
     14289.5000         0.9354       1420.182         0.0526      -1.653545      0.9922197
     14290.0000         0.9487       1423.176         0.2457      -1.460022      0.9945235
     14290.5000         0.9619       1426.176         0.4381      -1.267198      0.9968191
     14291.0000         0.9751       1424.621         0.4529      -1.251974      0.9970003
     14291.5000         0.9883       1422.191           0.32      -1.384451      0.9954232
     14292.0000         1.0043       1419.764          0.187      -1.517027      0.9938449
     14292.5000         1.0233       1417.334         0.0538      -1.649804      0.9922643
     14293.0000         1.0239       1417.762        -0.0791       -1.78228      0.9906871
     14293.5000          1.019       1419.375        -0.2124      -1.915156      0.9891053
     14294.0000         1.0148       1419.389        -0.3453      -2.047633      0.9875282
     14294.5000         1.0119       1419.246        -0.3893      -2.091209      0.9870094
     14295.0000          1.009       1419.621        -0.3311      -2.032585      0.9877073
     14295.5000         1.0061       1423.396        -0.2728      -1.973862      0.9884064
     14296.0000         1.0032       1427.172        -0.2147      -1.915338      0.9891031
     14296.5000         1.0003       1430.947        -0.1564      -1.856614      0.9898022
     14297.0000         0.9974       1429.178        -0.0983      -1.798091      0.9904989
     14297.5000         0.9943       1426.902        -0.1097      -1.809067      0.9903682
     14298.0000         0.9911       1424.627        -0.1236      -1.822544      0.9902078
     14298.5000         0.9879       1412.439        -0.1376       -1.83612      0.9900462
     14299.0000         0.9847       1399.896        -0.1515      -1.849596      0.9898857
     14299.5000         0.9815       1377.688        -0.1654      -1.863073      0.9897254
     14300.0000         0.9783       1332.729        -0.1859      -1.883149      0.9894863
     14300.5000         0.9751       1295.344        -0.2108      -1.907625      0.9891949
     14301.0000          0.972       1263.469        -0.2357      -1.932102      0.9889035
     14301.5000         0.9713       1244.186        -0.2607      -1.956678       0.988611
     14302.0000         0.9706       1226.527        -0.2856      -1.981154      0.9883196
     14302.5000         0.9698       1209.754        -0.3105      -2.005631      0.9880282
     14303.0000         0.9692       1193.127        -0.3355      -2.030207      0.9877356
     14303.5000         0.9771       1176.451        -0.3228      -2.017083      0.9878919
     14304.0000          0.985       1155.596        -0.3016       -1.99546      0.9881493
     14304.5000         0.9929       1132.525        -0.2805      -1.973936      0.9884055
     14305.0000         1.0009       1109.455        -0.2593      -1.952312       0.988663
     14305.5000         1.0088       1086.385        -0.2381      -1.930689      0.9889204
     14306.0000         1.0167       1063.314        -0.2169      -1.909065      0.9891778
     14306.5000         1.0544       1033.457        -0.1957      -1.887442      0.9894352
     14307.0000         1.0926       1000.992        -0.1485      -1.839818      0.9900022
     14307.5000         1.1397       968.5264        -0.0218      -1.712694      0.9915155
     14308.0000         1.1947       936.0615         0.1047      -1.585771      0.9930266
     14308.5000         1.2497       909.7451         0.2315      -1.458547      0.9945411
     14309.0000         1.2507       885.1992          0.382      -1.307623      0.9963378
     14309.5000         1.2451       895.3809         0.5775        -1.1117      0.9986702
     14310.0000         1.2037       1050.182         0.5368      -1.151976      0.9981908
     14310.5000         1.1419       1158.301         0.3826      -1.305753      0.9963601
     14311.0000         1.0591       1194.996         0.2284      -1.459529      0.9945294
     14311.5000         1.0113       1261.305         0.0742      -1.613305      0.9926987
     14312.0000          0.954       1316.545        -0.0798      -1.766881      0.9908705
     14312.5000         0.9074       1342.418        -0.2247      -1.911358      0.9891505
     14313.0000         0.8732       1361.799        -0.3401      -2.026334      0.9877818
     14313.5000         0.8317       1370.334        -0.4554      -2.141211      0.9864141
     14314.0000         0.8046       1375.449        -0.5705      -2.255887      0.9850489
     14314.5000         0.7916       1380.553        -0.6859      -2.370863      0.9836802
     14315.0000         0.7903       1385.521        -0.7164       -2.40094      0.9833221
     14315.5000         0.7945       1390.256        -0.7454      -2.429516       0.982982
     14316.0000         0.8173       1382.262        -0.7744      -2.458092      0.9826418
     14316.5000         0.8401       1360.471        -0.8407      -2.523969      0.9818575
     14317.0000         0.8629        1338.68        -0.9379      -2.620745      0.9807054
     14317.5000         0.8857       1278.619         -1.035      -2.717422      0.9795545
     14318.0000         0.9134       1197.357        -1.1778      -2.859798      0.9778596
     14318.5000         0.9452       1049.787        -1.3287      -3.010274      0.9760681
     14319.0000         0.9987       984.6611        -1.4145      -3.095651      0.9750518
     14319.5000         1.0875       936.3564         -1.367      -3.047727      0.9756223
     14320.0000         1.1452        920.001        -1.3195      -2.999803      0.9761928
     14320.5000         1.2399        906.916         -1.272       -2.95188      0.9767634
     14321.0000         1.2761       893.8076        -1.2324      -2.911856      0.9772398
     14321.5000         1.2837       881.3867         -1.199      -2.878032      0.9776425
     14322.0000         1.2856       870.9834        -1.1656      -2.844209      0.9780451
     14322.5000         1.2874       860.5791        -1.1322      -2.810385      0.9784478
     14323.0000         1.2893       852.4014        -1.0988      -2.776561      0.9788505
     14323.5000         1.2912       846.4131        -1.0654      -2.742738      0.9792531
     14324.0000         1.2977       840.4365        -1.2534      -2.930314      0.9770201
     14324.5000         1.3061         834.46        -1.4675      -3.143991      0.9744763
     14325.0000         1.3145       828.4707        -1.6815      -3.357567      0.9719337
     14325.5000         1.3229       816.9727        -1.8956      -3.571243        0.96939
     14326.0000          1.352       802.3633        -1.9966       -3.67182      0.9681926
     14326.5000         1.3819       787.7539        -2.0151      -3.689896      0.9679774
     14327.0000         1.4016       786.1748        -2.0334      -3.707772      0.9677646
     14327.5000         1.4213       785.7266        -2.0519      -3.725849      0.9675494
     14328.0000          1.441       785.2773        -2.0703      -3.743825      0.9673354
     14328.5000         1.4565       784.8291        -1.9693      -3.642401      0.9685428
     14329.0000         1.4707       784.3809        -1.7978      -3.470478      0.9705896
     14329.5000         1.4337       793.8291         -1.626      -3.298254      0.9726399
