#------------------------------------------------------------------------------
# Created by    : vladimir.rabinovich
# Created on    : 09/19/2023 17:20:13
#------------------------------------------------------------------------------
~Version Information Section
VERS.           2.0     :   CWLS log ASCII Standard - VERSION 2.0
WRAP.           NO      :   One line per depth step
~Well Information Section
#MNEM       .UNIT                                         VALUE :DESCRIPTION
#------------------------------------------------------------------------------
STRT        .FT                                             206 :START DEPTH
STOP        .FT                                           16504 :STOP DEPTH
STEP        .FT                                             0.5 :STEP      
NULL        .                                           -999.25 :NULL      
COMP        .                                 ARCO OIL & GAS CO :COMPANY   
WELL        .                                 MIAMI CORPORATION :WELL      
FLD         .                                           WILDCAT :FIELD     
LOC         .                                                   :LOCATION  
CNTY        .                                           CAMERON :LOCATION  
STAT        .                                         LOUISIANA :STATE     
CTRY        .                                     UNITED STATES :COUNTRY   
SRVC        .                                                   :SERVICE COMPANY
DATE        .                             9/13/2023 11:18:18 AM :LOG DATE  
API         .                                    17023218610000 :API NUMBER
UWI         .                                    17023218610000 :UNIQUE WELL ID
XCOORD      .                                  1618322.01672943 :SURFACE X 
YCOORD      .                                  10857815.2770888 :SURFACE Y 
LAT         .                                        29.9175237 :LATITUDE  
LON         .                                        -93.069766 :LONGITUDE 
ELEV        .FT                                              28 :ELEVATION VALUE
ELEV_TYPE   .                                                KB :ELEVATION REFERENCE TYPE
~Curve Information Section
#MNEM       .UNIT                                      API CODE :CURVE DESCRIPTION
#------------------------------------------------------------------------------
DEPT        .FT                                                 :DEPTH     
ASFL        .OHMM                                               :          
CILD        .MMHO                                               :          
SP          .MV                                                 :          
SP_NORM     .MV                                                 :SP Normalized
VSH_SP      .V/V                                                :Volume of Shale from SP
~A        DEPTH           ASFL           CILD             SP        SP_NORM         VSH_SP
# ...
     12130.0000         0.4876       2016.311         1.1926      -2.343255      0.9840088
     12130.5000         0.4955        1888.26         1.0513      -2.484131      0.9823318
     12131.0000         0.4974       1791.979         0.9097      -2.625308      0.9806511
     12131.5000         0.4971       1698.637         0.7487      -2.785884      0.9787395
     12132.0000         0.4968       1589.609         0.5427       -2.99146      0.9762921
     12132.5000         0.4964       1539.703         0.3366      -3.197136      0.9738436
     12133.0000         0.4958       1713.934         0.3333      -3.200013      0.9738094
     12133.5000         0.4933       1824.727         0.5199      -3.012989      0.9760358
     12134.0000         0.4909       1901.398         0.7068      -2.825666      0.9782659
     12134.5000         0.4884       1978.268         0.8934      -2.638642      0.9804924
     12135.0000         0.4827       2184.164         1.0803      -2.451318      0.9827224
     12135.5000         0.4688       2414.773         1.1747      -2.356495      0.9838513
     12136.0000          0.455       2545.762          1.163      -2.367771       0.983717
     12136.5000         0.4437       2830.492         1.1513      -2.379047      0.9835828
     12137.0000         0.4375       3117.184         1.1395      -2.390424      0.9834473
     12137.5000         0.4312       3244.055         1.1068        -2.4227      0.9830631
     12138.0000          0.425       3317.922         1.0001      -2.528976      0.9817979
     12138.5000         0.4187       3322.445         0.8934      -2.635253      0.9805327
     12139.0000         0.4159       3326.609         0.8041      -2.724129      0.9794747
     12139.5000         0.4148       3291.609         0.8852      -2.642606      0.9804451
     12140.0000         0.4138       3256.605         0.9663      -2.561082      0.9814157
     12140.5000         0.4182       3221.602         1.0475      -2.479458      0.9823874
     12141.0000         0.4239       3186.699         1.1286      -2.397934      0.9833579
     12141.5000         0.4297       3151.695         1.2097      -2.316411      0.9843284
     12142.0000         0.4282       3122.281         1.2991      -2.226587      0.9853978
     12142.5000         0.4249       3099.387         1.3909      -2.134364      0.9864957
     12143.0000         0.4215       3076.492         1.4825       -2.04234      0.9875912
     12143.5000         0.4208       3053.648         1.5743      -1.950116      0.9886891
     12144.0000         0.4227       3032.863          1.666      -1.857993      0.9897858
     12144.5000         0.4246       3023.277         1.7027      -1.820869      0.9902278
     12145.0000         0.4265       3013.719         1.7096      -1.813545       0.990315
     12145.5000         0.4284       3004.133         1.7165      -1.806222      0.9904021
     12146.0000         0.4314       2994.551         1.7234      -1.798898      0.9904893
     12146.5000         0.4345       2984.988         1.7304      -1.791475      0.9905777
     12147.0000         0.4376       2979.789          1.732      -1.789451      0.9906018
     12147.5000          0.439       2979.492         1.7276      -1.793427      0.9905545
     12148.0000         0.4375       2979.199         1.7231      -1.797504      0.9905059
     12148.5000          0.436       2978.906         1.7186       -1.80158      0.9904574
     12149.0000         0.4337       2979.918         1.5923      -1.927456      0.9889588
     12149.5000         0.4294       2984.609         1.4649      -2.054433      0.9874472
     12150.0000         0.4251       2989.293         1.3376      -2.181309      0.9859368
     12150.5000         0.4208       2993.984         1.2102      -2.308286      0.9844252
     12151.0000         0.4187        2998.68         1.2743      -2.243762      0.9851933
     12151.5000         0.4172       2992.563         1.3664      -2.151238      0.9862948
     12152.0000         0.4157       2984.379         1.4585      -2.058714      0.9873962
     12152.5000         0.4149        2975.16         1.5504      -1.966391      0.9884953
     12153.0000         0.4179       2961.215         1.6349      -1.881467      0.9895064
     12153.5000         0.4209       2947.266          1.716      -1.799944      0.9904768
     12154.0000         0.4239       2933.246         1.7971       -1.71842      0.9914474
     12154.5000         0.4242       2919.078         1.8783      -1.636796      0.9924191
     12155.0000         0.4235        2904.91         1.9594      -1.555273      0.9933896
     12155.5000         0.4226       2891.281         1.9873      -1.526949      0.9937268
     12156.0000         0.4214        2878.07         1.9264      -1.587425      0.9930068
     12156.5000         0.4202       2860.984         1.8655      -1.647902      0.9922869
     12157.0000         0.4191       2855.141         1.8045      -1.708478      0.9915658
     12157.5000         0.4216        2862.75         1.7438      -1.768754      0.9908482
     12158.0000         0.4291       2870.359         1.6829      -1.829231      0.9901282
     12158.5000         0.4365       2877.973         1.6219      -1.889807      0.9894071
     12159.0000         0.4435       2885.582         1.5983      -1.912984      0.9891312
     12159.5000         0.4407       2887.359          1.576       -1.93486      0.9888707
     12160.0000          0.438       2875.375         1.5537      -1.956736      0.9886103
     12160.5000         0.4353       2860.102         1.5314      -1.978613      0.9883499
     12161.0000         0.4322        2833.09         1.4662      -2.043389      0.9875787
     12161.5000          0.429       2825.063         1.3969      -2.112265      0.9867588
     12162.0000         0.4257       2837.602         1.3277      -2.181042        0.98594
     12162.5000         0.4339       2857.113         1.3719      -2.136418      0.9864712
     12163.0000          0.447       2876.672         1.4444      -2.063495      0.9873394
     12163.5000         0.4584       2896.184         1.5169      -1.990571      0.9882075
     12164.0000         0.4568       2888.191           1.59      -1.917047      0.9890828
     12164.5000         0.4552       2866.723          1.666      -1.840623      0.9899926
     12165.0000         0.4536       2844.953         1.7422         -1.764      0.9909047
     12165.5000         0.4529       2816.719         1.8184      -1.687376      0.9918169
     12166.0000         0.4525       2788.527         1.6778      -1.827552      0.9901482
     12166.5000         0.4522       2747.348         1.4693      -2.035629      0.9876711
     12167.0000         0.4519        2690.09         1.2284      -2.276105      0.9848083
     12167.5000         0.4523       2589.688         0.9347      -2.569382      0.9813169
     12168.0000          0.463       2510.074         0.6411      -2.862558      0.9778267
     12168.5000         0.4737       2449.875         0.5899      -2.913334      0.9772222
     12169.0000         0.4844       2481.051          0.981      -2.521811      0.9818832
     12169.5000         0.5033       2549.684         1.3721      -2.130287      0.9865442
     12170.0000         0.5227       2602.141         1.6994      -1.802563      0.9904457
     12170.5000         0.5362       2654.598         1.8523       -1.64924      0.9922709
     12171.0000         0.5497       2531.055         2.0053      -1.495816      0.9940974
     12171.5000         0.5631       2433.598         2.1586      -1.342093      0.9959275
     12172.0000         0.5938       2360.652         2.3116      -1.188669      0.9977539
     12172.5000         0.6215       2201.422            2.2      -1.299845      0.9964304
     12173.0000         0.6072       1864.141         2.0726      -1.426822      0.9949188
     12173.5000         0.5928       1729.521         1.9452      -1.553798      0.9934072
