#------------------------------------------------------------------------------
# Created by    : vladimir.rabinovich
# Created on    : 09/19/2023 17:22:07
#------------------------------------------------------------------------------
~Version Information Section
VERS.           2.0     :   CWLS log ASCII Standard - VERSION 2.0
WRAP.           NO      :   One line per depth step
~Well Information Section
#MNEM       .UNIT                                         VALUE :DESCRIPTION
#------------------------------------------------------------------------------
STRT        .FT                                            4421 :START DEPTH
STOP        .FT                                           11895 :STOP DEPTH
STEP        .FT                                             0.5 :STEP      
NULL        .                                           -999.25 :NULL      
COMP        .                MURPHY EXPLORATION & PRODUCTION CO :COMPANY   
WELL        .                               OCS G02828 ST00BP00 :WELL      
FLD         .                           WEST CAMERON BLOCK 0116 :FIELD     
LOC         .                                                   :LOCATION  
CNTY        .                                      WEST CAMERON :LOCATION  
STAT        .                                         LOUISIANA :STATE     
CTRY        .                                     UNITED STATES :COUNTRY   
SRVC        .                                                   :SERVICE COMPANY
DATE        .                             9/13/2023 11:18:31 AM :LOG DATE  
API         .                                    17700404120000 :API NUMBER
UWI         .                                    17700404120000 :UNIQUE WELL ID
XCOORD      .                                  1472413.58592246 :SURFACE X 
YCOORD      .                                  10706677.6123634 :SURFACE Y 
LAT         .                                         29.500724 :LATITUDE  
LON         .                                        -93.528296 :LONGITUDE 
ELEV        .FT                                              75 :ELEVATION VALUE
ELEV_TYPE   .                                                KB :ELEVATION REFERENCE TYPE
~Curve Information Section
#MNEM       .UNIT                                      API CODE :CURVE DESCRIPTION
#------------------------------------------------------------------------------
DEPT        .FT                                                 :DEPTH     
CALI        .IN                                                 :          
DRHO        .G/C3                                               :          
DT          .US/F                                               :          
GR          .GAPI                                               :          
GR_1        .GAPI                                               :          
GR_NORM     .GAPI                                               :GammaRay Normalized
ILD         .OHMM                                               :          
NPHI        .%                                                  :          
RHOB        .G/C3                                               :          
SFL         .OHMM                                               :          
SP          .MV                                                 :          
SP_NORM     .MV                                                 :SP Normalized
VSH_GR      .V/V                                                :Volume of Shale from GR
VSH_SP      .V/V                                                :Volume of Shale from SP
~A        DEPTH           CALI           DRHO             DT             GR           GR_1        GR_NORM            ILD           NPHI           RHOB            SFL             SP        SP_NORM         VSH_GR         VSH_SP
# ...
      9425.0000         10.141        -0.0002        87.9567        46.0437        -999.25       39.27014         0.5644        20.4805         2.4108         2.0476      -128.0964       -84.0822      0.1334072      0.0109262
      9425.5000        10.1426        -0.0051        91.2191        47.0597        -999.25       40.60516         0.5815        20.1706         2.4418         1.3054      -128.4204       -84.4087       0.161812    0.007039297
      9426.0000         10.146        -0.0124        92.1602        48.0134        -999.25       41.85839          0.508        21.5904          2.384         1.0179      -128.7678       -84.7587      0.1884764    0.002872649
      9426.5000        10.1495         -0.014        92.2325        48.0439        -999.25       41.89758         0.4514        23.6626         2.3368         0.8639      -129.1648       -85.1582      0.1893101              0
      9427.0000         10.151        -0.0051        91.8889        45.8872        -999.25       39.06039         0.3843        25.7348         2.2922         0.7194      -129.9973       -85.9933      0.1289446              0
      9427.5000        10.1514        -0.0004         91.387        44.3613        -999.25       37.05286         0.3501         27.804         2.2379         0.5926      -131.1206       -87.1191     0.08623099              0
      9428.0000        10.1541        -0.0089        90.9342        43.6118        -999.25       36.06619         0.3172        28.4852         2.2096         0.5129      -131.7905       -87.7915     0.06523806              0
      9428.5000        10.1586        -0.0054        90.5138        43.1472        -999.25        35.4543         0.2843        28.6447         2.2003         0.4721      -131.6941       -87.6977     0.05221923              0
      9429.0000        10.1617         0.0005        90.3018        42.9534        -999.25       35.19853         0.2603        28.6768          2.199         0.4329      -131.7295       -87.7356     0.04677728              0
      9429.5000        10.1639         0.0022        90.1195        42.7569        -999.25       34.93907         0.2385        28.7195         2.2016         0.3899      -131.9358       -87.9445     0.04125676              0
      9430.0000        10.1675         0.0015        89.9995        42.5322        -999.25       34.64266         0.2143        29.0305         2.2034         0.3321      -132.2661       -88.2773     0.03495017              0
      9430.5000        10.1744         0.0012        89.8884        40.9893        -999.25       32.61277        -999.25        29.3018         2.2044         0.2953      -131.9741       -87.9879              0              0
      9431.0000        10.1812         0.0029         89.746        40.0013        -999.25       31.31247        -999.25         29.242         2.2051         0.2959      -131.3271       -87.3434              0              0
      9431.5000        10.1922         0.0064        89.5887        39.3925        -999.25       30.51095        -999.25        29.2062         2.2056         0.3122      -130.2507       -86.2695              0              0
      9432.0000        10.2034         0.0099        89.4688        38.8674        -999.25       29.81951        -999.25        30.0357         2.2041         0.3306      -128.4443       -84.4657              0    0.006360735
      9432.5000        10.2093         0.0075        89.3591        39.2054        -999.25       30.26294        -999.25        30.8651         2.1996         0.2969      -126.7336       -82.7575              0     0.02669643
      9433.0000        10.2136         0.0075        89.2411        41.1629        -999.25        32.8362        -999.25        31.6946         2.1915         0.2636      -125.2799       -81.3064              0     0.04397147
      9433.5000        10.2195         0.0076        89.3416        43.6082        -999.25        36.0508         0.1906         32.524         2.1943         0.2367      -121.0947       -77.1237     0.06491072     0.09376544
      9434.0000        10.2265         0.0065        91.1014        46.4838        -999.25        39.8314         0.2612        33.0035          2.203         0.2153      -112.5923       -68.6239       0.145349      0.1949536
      9434.5000        10.2357         0.0038        93.8345        49.2324        -999.25       43.44498         0.2872        33.1194         2.1985         0.2134      -104.1045       -60.1386      0.2222336      0.2959691
      9435.0000        10.2455         0.0101        96.7562        52.4113        -999.25       47.62429         0.3148        33.2971         2.2042         0.2392       -92.3861       -48.4227      0.3111552      0.4354441
      9435.5000        10.2556         0.0165         97.847        55.5706        -999.25       51.77797         0.3625        33.5993         2.2204         0.4185       -96.7474       -52.7866      0.3995313      0.3834929
      9436.0000        10.2631         0.0078         95.462        58.3973        -999.25       55.49426         0.4148        33.9926         2.2388         0.6992      -103.6639       -59.7056      0.4786013      0.3011238
      9436.5000        10.2733         0.0024        92.7217        60.6495        -999.25       58.45493         0.4774        34.4885         2.2581         1.0864      -110.5804       -66.6247      0.5415943      0.2187535
      9437.0000        10.2913        -0.0031        91.2731         60.559        -999.25         58.335         0.4898        35.0247         2.2692         1.2958      -117.5117       -73.5585      0.5390425      0.1362083
      9437.5000         10.302        -0.0028        90.4373        59.2679        -999.25       56.63624         0.4537        35.1778         2.2703         1.2818      -122.1851       -78.2344      0.5028987     0.08054288
      9438.0000         10.296         0.0089        90.5278        56.8886        -999.25       53.50632         0.4262         33.755         2.2444         1.1939      -125.1073       -81.1592      0.4363046     0.04572378
      9438.5000        10.2492        -0.0017        91.1088        55.7051        -999.25       51.94906         0.3573        31.7212         2.2133         1.0989      -127.5652       -83.6196      0.4031714     0.01643335
      9439.0000        10.2169        -0.0038        91.4691        54.3357        -999.25       50.14719         0.3246        30.3832         2.2017         1.0535       -128.738        -84.795      0.3648339    0.002440498
      9439.5000        10.2015        -0.0031        91.3362        53.3891        -999.25       48.90146         0.3007        30.1266         2.2159         1.0187      -129.8137       -85.8732      0.3383289              0
      9440.0000        10.2045        -0.0028        90.6455        53.1485        -999.25       48.58414         0.2871        30.0988         2.2215         0.9808      -130.1763       -86.2384      0.3315774              0
      9440.5000        10.2267        -0.0037        89.9595        53.5397        -999.25       49.09753         0.2896        30.8017         2.2139         0.9405      -129.5559       -85.6205      0.3425007              0
      9441.0000        10.2529        -0.0061        89.7893        53.9292        -999.25       49.60882         0.2977        31.1489         2.2048         0.9118      -129.3672       -85.4343      0.3533791              0
      9441.5000        10.2873          -0.01        89.8314        52.8025        -999.25       48.12625         0.3035        31.1522         2.1981         0.9896      -129.5894       -85.6591      0.3218351              0
      9442.0000        10.3339        -0.0104        89.8717        50.3034        -999.25       44.83879         0.3098        30.6497          2.202         1.0737      -129.9836       -86.0558      0.2518892              0
      9442.5000        10.3783        -0.0037        89.8926         49.266        -999.25       43.47365         0.3198        29.8091         2.2133         1.1844      -130.3552         -86.43      0.2228436              0
