#------------------------------------------------------------------------------
# Created by    : vladimir.rabinovich
# Created on    : 09/19/2023 17:21:57
#------------------------------------------------------------------------------
~Version Information Section
VERS.           2.0     :   CWLS log ASCII Standard - VERSION 2.0
WRAP.           NO      :   One line per depth step
~Well Information Section
#MNEM       .UNIT                                         VALUE :DESCRIPTION
#------------------------------------------------------------------------------
STRT        .FT                                             570 :START DEPTH
STOP        .FT                                           10083 :STOP DEPTH
STEP        .FT                                             0.5 :STEP      
NULL        .                                           -999.25 :NULL      
COMP        .                                BP EXPLORATION INC :COMPANY   
WELL        .                               OCS G10548 ST00BP00 :WELL      
FLD         .                                           WILDCAT :FIELD     
LOC         .                                                   :LOCATION  
CNTY        .                                      WEST CAMERON :LOCATION  
STAT        .                                         LOUISIANA :STATE     
CTRY        .                                     UNITED STATES :COUNTRY   
SRVC        .                                                   :SERVICE COMPANY
DATE        .                             9/13/2023 11:18:09 AM :LOG DATE  
API         .                                    17700408010000 :API NUMBER
UWI         .                                    17700408010000 :UNIQUE WELL ID
XCOORD      .                                  1469734.01149431 :SURFACE X 
YCOORD      .                                  10675810.5973196 :SURFACE Y 
LAT         .                                        29.4157778 :LATITUDE  
LON         .                                        -93.536275 :LONGITUDE 
ELEV        .FT                                              80 :ELEVATION VALUE
ELEV_TYPE   .                                                KB :ELEVATION REFERENCE TYPE
~Curve Information Section
#MNEM       .UNIT                                      API CODE :CURVE DESCRIPTION
#------------------------------------------------------------------------------
DEPT        .FT                                                 :DEPTH     
CALI        .IN                                                 :          
DPHI        .%                                                  :          
GR          .GAPI                                               :          
GR_1        .GAPI                                               :          
GR_NORM     .GAPI                                               :GammaRay Normalized
ILD         .OHMM                                               :          
ILM         .OHMM                                               :          
NPHI        .%                                                  :          
SFL         .OHMM                                               :          
SP          .MV                                                 :          
SP_NORM     .MV                                                 :SP Normalized
VSH_GR      .V/V                                                :Volume of Shale from GR
VSH_SP      .V/V                                                :Volume of Shale from SP
~A        DEPTH           CALI           DPHI             GR           GR_1        GR_NORM            ILD            ILM           NPHI            SFL             SP        SP_NORM         VSH_GR         VSH_SP
# ...
      9443.0000        10.5637        11.6246        -999.25        77.1615         65.643         1.6489         1.4439        24.9747         1.4492       -45.7994        -4.1082      0.6945319      0.9414389
      9443.5000         10.569        10.9024        -999.25        75.2216        63.6988         1.6477         1.4387         25.344         1.4451       -45.6783        -3.9887      0.6531659      0.9447584
      9444.0000        10.5748         10.548        -999.25        73.1926        61.6655         1.6491         1.4338        25.5029         1.4409       -45.5571        -3.8692      0.6099043      0.9480778
      9444.5000        10.5667        10.8225        -999.25        70.9783        59.4469         1.6505         1.4289        25.0463         1.4357       -45.4648        -3.7785         0.5627      0.9505972
      9445.0000        10.5436         11.218        -999.25        69.3287         57.793         1.6509          1.425         24.536         1.4295       -45.3782        -3.6935      0.5275106      0.9529583
      9445.5000        10.4995        11.6358        -999.25         70.662         59.122         1.6512         1.4215        23.9577         1.4234       -45.2676        -3.5846      0.5557873      0.9559833
      9446.0000        10.4591        12.0499        -999.25        72.7107        61.1663           1.65         1.4179        23.3527         1.4183       -45.1415        -3.4601       0.599283      0.9594417
      9446.5000        10.4328        12.4602        -999.25        74.8385        63.2898         1.6463         1.4143        22.5275         1.4138       -45.0189        -3.3392      0.6444638         0.9628
      9447.0000         10.417        12.6037        -999.25         77.001         65.448         1.6413         1.4108        21.5411         1.4094       -44.9005        -3.2224       0.690383      0.9660444
      9447.5000        10.4169        12.6376        -999.25         79.707        68.1497         1.6303         1.4075        20.8219         1.4099       -44.7773        -3.1009      0.7478659      0.9694194
      9448.0000        10.4312        12.2498        -999.25        82.7715        71.2099         1.6134         1.4058        20.2444         1.4123       -44.6254        -2.9506      0.8129766      0.9735944
      9448.5000        10.4648        11.7522        -999.25        85.2971        73.7311         1.5883         1.4041        20.1981         1.4141       -44.4437        -2.7706      0.8666192      0.9785944
      9449.0000        10.5244        11.6059        -999.25        84.7637        73.1934         1.5641         1.4028        21.7366         1.4144       -44.3367        -2.6652      0.8551787      0.9815222
      9449.5000        10.6418        12.0752        -999.25        85.1661        73.5915         1.5391          1.402        24.0734         1.4147       -44.5383        -2.8685       0.863649       0.975875
      9450.0000        10.7765        12.5266        -999.25        85.8965        74.3176         1.5129         1.4018        26.1297          1.416       -45.0177        -3.3495      0.8790978      0.9625139
      9450.5000        10.9226        12.5356        -999.25        86.0781        74.4949         1.4928         1.4026        27.6607         1.4175       -45.2719        -3.6054      0.8828703      0.9554055
      9451.0000        11.0699        12.3065        -999.25        84.6274        73.0399         1.4784         1.3997        28.8723         1.4185       -45.4041        -3.7392      0.8519128      0.9516889
      9451.5000        11.1732        11.9618        -999.25        83.3745        71.7826         1.4676         1.3932        29.2462         1.4169       -45.3252        -3.6619      0.8251617      0.9538361
      9452.0000        11.2168         11.644        -999.25        83.7081        72.1119         1.4642         1.3803        28.9149         1.4154       -45.2441        -3.5825      0.8321681      0.9560417
      9452.5000        11.2266        11.7335        -999.25        84.4087        72.8082         1.4638         1.3672        28.2993         1.4109       -45.0881        -3.4281      0.8469829      0.9603305
      9453.0000        11.2216        12.2841        -999.25        84.9592        73.3544         1.4637         1.3523         27.642         1.4054       -44.9321        -3.2738      0.8586043      0.9646167
      9453.5000        11.2045        12.6005        -999.25        85.1003        73.4912         1.4643         1.3375        27.2421         1.3875       -44.7616        -3.1049       0.861515      0.9693083
      9454.0000        11.1664        12.8131        -999.25        85.1469        73.5334         1.4648         1.3262        27.2274         1.1631       -44.5716        -2.9166      0.8624128      0.9745389
      9454.5000        11.1129        13.0053        -999.25        85.1921        73.5743         1.4633         1.3153        27.0783         1.0894       -44.3817        -2.7283       0.863283      0.9797695
      9455.0000        11.0325        13.1892        -999.25        85.9001         74.278         1.4618         1.3079         26.815         1.0848       -44.1935        -2.5418      0.8782553        0.98495
      9455.5000        10.8573        13.6309        -999.25        86.9159        75.2895         1.4594         1.3031        26.3401          1.082       -44.0066        -2.3565      0.8997765      0.9900972
      9456.0000        10.8862        15.6812        -999.25        88.2034        76.5727         1.4564         1.2998        25.8693         1.0801       -43.7752        -2.1268      0.9270787      0.9964778
      9456.5000        11.0491        18.1165        -999.25        89.2946        77.6596         1.4529         1.2993        25.4336         1.0782       -43.4929        -1.8461      0.9502043              1
      9457.0000        11.2199         19.537        -999.25        87.3779        75.7385         1.4488         1.2989        24.9978         1.0767       -43.2902        -1.6451      0.9093298              1
      9457.5000        11.2595        20.1974        -999.25        85.0797         73.436         1.4318         1.2994        24.6352         1.0752       -43.2908        -1.6473      0.8603404              1
      9458.0000        11.2504         20.516        -999.25         82.937         71.289         1.4085            1.3        24.2592         1.0743       -44.7582        -3.1164      0.8146596      0.9689889
      9458.5000        11.2448        20.6846        -999.25        81.1355        69.4832          1.374         1.3014        24.0406         1.0754       -48.7568        -7.1166      0.7762383      0.8578722
      9459.0000         11.242        20.8179        -999.25         82.208        70.5514         1.3478         1.3032        24.0195         1.0765       -50.0616         -8.423      0.7989659      0.8215833
      9459.5000         11.241        21.0252        -999.25        83.3868        71.7258         1.3281         1.3082         24.077         1.0775        -52.271       -10.6341      0.8239532      0.7601639
      9460.0000        11.2401        21.2781        -999.25        84.4841        72.8188         1.3244         1.3163         24.727          1.078       -52.6386       -11.0033      0.8472086      0.7499083
      9460.5000        11.2428        21.2203        -999.25         85.553        73.8834         1.3208         1.3113         28.174         1.0785       -52.6784       -11.0448      0.8698596      0.7487556
      9461.0000        11.2439        20.9252        -999.25        86.5946        74.9207          1.314         1.3016        30.6391         1.0789       -52.5688       -10.9368      0.8919298      0.7517555
      9461.5000        11.2408        20.5458        -999.25        87.4484        75.7702         1.3055         1.2876        32.6096         1.0794       -52.4168       -10.7865      0.9100043      0.7559305
