#------------------------------------------------------------------------------
# Created by    : vladimir.rabinovich
# Created on    : 09/19/2023 17:21:58
#------------------------------------------------------------------------------
~Version Information Section
VERS.           2.0     :   CWLS log ASCII Standard - VERSION 2.0
WRAP.           NO      :   One line per depth step
~Well Information Section
#MNEM       .UNIT                                         VALUE :DESCRIPTION
#------------------------------------------------------------------------------
STRT        .FT                                            3382 :START DEPTH
STOP        .FT                                           10910 :STOP DEPTH
STEP        .FT                                             0.5 :STEP      
NULL        .                                           -999.25 :NULL      
COMP        .                               B P EXPLORATION INC :COMPANY   
WELL        .                               OCS G07597 ST00BP00 :WELL      
FLD         .                           WEST CAMERON BLOCK 0045 :FIELD     
LOC         .                                                   :LOCATION  
CNTY        .                                      WEST CAMERON :LOCATION  
STAT        .                                         LOUISIANA :STATE     
CTRY        .                                     UNITED STATES :COUNTRY   
SRVC        .                                                   :SERVICE COMPANY
DATE        .                             9/13/2023 11:18:09 AM :LOG DATE  
API         .                                    17700407640000 :API NUMBER
UWI         .                                    17700407640000 :UNIQUE WELL ID
XCOORD      .                                  1473636.79229916 :SURFACE X 
YCOORD      .                                   10762774.556795 :SURFACE Y 
LAT         .                                        29.6550545 :LATITUDE  
LON         .                                       -93.5252479 :LONGITUDE 
ELEV        .FT                                              90 :ELEVATION VALUE
ELEV_TYPE   .                                                KB :ELEVATION REFERENCE TYPE
~Curve Information Section
#MNEM       .UNIT                                      API CODE :CURVE DESCRIPTION
#------------------------------------------------------------------------------
DEPT        .FT                                                 :DEPTH     
CALI        .IN                                                 :          
DRHO        .G/C3                                               :          
DT          .US/F                                               :          
GR          .GAPI                                               :          
GR_1        .GAPI                                               :          
GR_NORM     .GAPI                                               :GammaRay Normalized
ILD         .OHMM                                               :          
ILM         .OHMM                                               :          
NPHI        .%                                                  :          
RHOB        .G/C3                                               :          
SFL         .OHMM                                               :          
SP          .MV                                                 :          
SP_NORM     .MV                                                 :SP Normalized
VSH_GR      .V/V                                                :Volume of Shale from GR
VSH_SP      .V/V                                                :Volume of Shale from SP
~A        DEPTH           CALI           DRHO             DT             GR           GR_1        GR_NORM            ILD            ILM           NPHI           RHOB            SFL             SP        SP_NORM         VSH_GR         VSH_SP
# ...
     10896.0000         7.2205        -0.2457       107.3918        -999.25       103.7097        -999.25         0.5606         0.6074        32.6682         2.2957         0.6081       -37.3381         2.6619        -999.25              1
     10896.5000         7.1941        -0.3324       107.3418        -999.25       102.5057        -999.25         0.5461          0.586        32.5398         2.2751         0.6171       -38.9381         1.0619        -999.25              1
     10897.0000         7.1704        -0.3117       107.2463        -999.25       100.9093        -999.25         0.5406         0.5765         32.332         2.3269         0.6486       -39.7983         0.2017        -999.25              1
     10897.5000         7.1466        -0.2883       107.1604        -999.25        99.6342        -999.25         0.5431         0.5699        32.1461          2.334         0.6392       -41.0432        -1.0432        -999.25              1
     10898.0000         7.1164         -0.276       107.1349        -999.25        98.7394        -999.25         0.5462         0.5694        32.0152         2.3472         0.6085       -41.5279        -1.5279        -999.25              1
     10898.5000         7.0932        -0.2572       107.1217        -999.25        98.3674        -999.25         0.5462         0.5652        32.0102         2.3677          0.583       -41.1962        -1.1962        -999.25              1
     10899.0000         7.0797        -0.2531       107.1392        -999.25        98.1202        -999.25         0.5416         0.5586        32.0032         2.3807         0.5971       -41.7966        -1.7966        -999.25              1
     10899.5000         7.0637        -0.2503       107.1553        -999.25        97.9871        -999.25         0.5351         0.5529        31.9584         2.3806         0.6282       -43.3032        -3.3032        -999.25      0.9953354
     10900.0000         7.0483        -0.2476       107.1683        -999.25        98.1924        -999.25         0.5309         0.5493        31.8575          2.371         0.6353       -36.6229         3.3771        -999.25              1
     10900.5000         7.0508        -0.2449       107.1747        -999.25        98.6205        -999.25         0.5406         0.5477        31.6864          2.374         0.6156       -41.1207        -1.1207        -999.25              1
     10901.0000         7.0747        -0.2331       107.1682        -999.25        98.9821        -999.25         0.5524          0.552        31.4173         2.3924         0.5972        -42.996         -2.996        -999.25              1
     10901.5000         7.1283        -0.2234       107.1847        -999.25        99.2954        -999.25         0.5642         0.5637        31.1301         2.3994         0.5814        -43.592         -3.592        -999.25      0.9908923
     10902.0000         7.1629        -0.2111       107.2402        -999.25        99.6553        -999.25         0.5788         0.5766        30.9314         2.4251         0.5988       -44.0405        -4.0405        -999.25      0.9839923
     10902.5000          7.086        -0.2351       107.3352        -999.25       100.1069        -999.25         0.5942         0.5905        30.9726         2.4075         0.6156       -45.3911        -5.3911        -999.25      0.9632139
     10903.0000         6.8353        -0.3566       107.4636        -999.25       100.2917        -999.25         0.6076         0.6112        31.1811         2.3068         0.6194       -44.6427        -4.6427        -999.25      0.9747277
     10903.5000         6.6576        -0.5642       107.5269        -999.25       100.7802        -999.25         0.6203         0.6299        31.5063         2.2163         0.6214        -43.662         -3.662        -999.25      0.9898154
     10904.0000         6.5629        -0.7178         107.58        -999.25       101.8223        -999.25         0.6352         0.6451        31.8278         2.1472         0.7112       -43.4506        -3.4506        -999.25      0.9930677
     10904.5000        -999.25        -999.25       107.6172        -999.25        -999.25        -999.25         0.6461         0.6558        32.0217        -999.25         0.7265       -44.7656        -4.7656        -999.25      0.9728369
     10905.0000        -999.25        -999.25        107.651        -999.25        -999.25        -999.25           0.65         0.6611        32.1213        -999.25         0.7275       -45.5287        -5.5287        -999.25      0.9610969
     10905.5000        -999.25        -999.25       107.6847        -999.25        -999.25        -999.25          0.644         0.6588        -999.25        -999.25         0.7558        -44.918         -4.918        -999.25      0.9704923
     10906.0000        -999.25        -999.25       107.7184        -999.25        -999.25        -999.25         0.6364         0.6517        -999.25        -999.25         0.7833       -42.5707        -2.5707        -999.25              1
     10906.5000        -999.25        -999.25       107.7823        -999.25        -999.25        -999.25         0.6245         0.6426        -999.25        -999.25         0.7368       -42.7797        -2.7797        -999.25              1
     10907.0000        -999.25        -999.25       107.8604        -999.25        -999.25        -999.25          0.612         0.6304        -999.25        -999.25         0.6865       -46.7515        -6.7515        -999.25      0.9422846
     10907.5000        -999.25        -999.25       107.8776        -999.25        -999.25        -999.25         0.6034         0.6114        -999.25        -999.25         0.6488       -49.3666        -9.3666        -999.25      0.9020523
     10908.0000        -999.25        -999.25       107.8632        -999.25        -999.25        -999.25         0.5981         0.5968        -999.25        -999.25         0.6043       -50.3829       -10.3829        -999.25      0.8864169
     10908.5000        -999.25        -999.25       107.7784        -999.25        -999.25        -999.25         0.5938         0.5872        -999.25        -999.25         0.5716       -51.0262       -11.0262        -999.25        0.87652
     10909.0000        -999.25        -999.25       107.7621        -999.25        -999.25        -999.25         0.5908          0.582        -999.25        -999.25         0.5411       -51.8834       -11.8834        -999.25      0.8633323
     10909.5000        -999.25        -999.25       107.7747        -999.25        -999.25        -999.25         0.5885         0.5779        -999.25        -999.25         0.5253       -53.7857       -13.7857        -999.25      0.8340662
     10910.0000        -999.25        -999.25       107.7303        -999.25        -999.25        -999.25         0.5862         0.5758        -999.25        -999.25         0.5181        -54.468        -14.468        -999.25      0.8235692
