#------------------------------------------------------------------------------
# Created by    : vladimir.rabinovich
# Created on    : 09/19/2023 17:22:13
#------------------------------------------------------------------------------
~Version Information Section
VERS.           2.0     :   CWLS log ASCII Standard - VERSION 2.0
WRAP.           NO      :   One line per depth step
~Well Information Section
#MNEM       .UNIT                                         VALUE :DESCRIPTION
#------------------------------------------------------------------------------
STRT        .FT                                            4265 :START DEPTH
STOP        .FT                                           12768 :STOP DEPTH
STEP        .FT                                             0.5 :STEP      
NULL        .                                           -999.25 :NULL      
COMP        .                                SHELL OFFSHORE INC :COMPANY   
WELL        .                               OCS G04749 ST00BP02 :WELL      
FLD         .                                           WILDCAT :FIELD     
LOC         .                                                   :LOCATION  
CNTY        .                                      WEST CAMERON :LOCATION  
STAT        .                                         LOUISIANA :STATE     
CTRY        .                                     UNITED STATES :COUNTRY   
SRVC        .                                                   :SERVICE COMPANY
DATE        .                             9/13/2023 11:19:06 AM :LOG DATE  
API         .                                    17700406070000 :API NUMBER
UWI         .                                    17700406070000 :UNIQUE WELL ID
XCOORD      .                                   1486969.7252092 :SURFACE X 
YCOORD      .                                  10728694.6404599 :SURFACE Y 
LAT         .                                        29.5614647 :LATITUDE  
LON         .                                       -93.4828123 :LONGITUDE 
ELEV        .FT                                              98 :ELEVATION VALUE
ELEV_TYPE   .                                                KB :ELEVATION REFERENCE TYPE
~Curve Information Section
#MNEM       .UNIT                                      API CODE :CURVE DESCRIPTION
#------------------------------------------------------------------------------
DEPT        .FT                                                 :DEPTH     
CALI        .IN                                                 :          
DRHO        .G/C3                                               :          
DT          .US/F                                               :          
GR          .GAPI                                               :          
GR_1        .GAPI                                               :          
GR_NORM     .GAPI                                               :GammaRay Normalized
ILD         .OHMM                                               :          
ILM         .OHMM                                               :          
NPHI        .%                                                  :          
RHOB        .G/C3                                               :          
SFL         .OHMM                                               :          
SP          .MV                                                 :          
SP_NORM     .MV                                                 :SP Normalized
VSH_GR      .V/V                                                :Volume of Shale from GR
VSH_SP      .V/V                                                :Volume of Shale from SP
~A        DEPTH           CALI           DRHO             DT             GR           GR_1        GR_NORM            ILD            ILM           NPHI           RHOB            SFL             SP        SP_NORM         VSH_GR         VSH_SP
# ...
      5574.0000        12.6735         0.0473       125.9365        -999.25        83.1833       86.80857          0.617         0.6245        53.8191         2.0496         0.7172       -32.7797        -1.9458              1              1
      5574.5000        12.6585         0.0577       125.1345        -999.25        83.0956       86.71019         0.6078         0.6183        53.7894         2.0642         0.7259       -32.4684        -1.6408              1              1
      5575.0000        12.6542         0.0765       126.0231        -999.25        83.0576       86.66814            0.6         0.6123        53.8923         2.0835         0.7367       -32.1663        -1.3451              1              1
      5575.5000        12.6606         0.0941       128.2327        -999.25        82.1993       87.29343         0.5938         0.6077        54.2966         2.0903         0.7469       -31.7576        -0.9427              1              1
      5576.0000        12.6846         0.0897       129.9983        -999.25        79.5662       83.46354         0.5895          0.604        54.6057         2.0736         0.7448       -31.4504        -0.6418              1              1
      5576.5000        12.7195         0.0684       131.4292        -999.25        77.3823       80.28725         0.5883         0.6031        54.3463         2.0426         0.7162       -31.8819        -1.0796              1              1
      5577.0000        12.7795         0.0504       132.1497        -999.25        76.6909       79.28281         0.5952         0.6058        53.3676         2.0216          0.684        -32.731         -1.935      0.9847407              1
      5577.5000        12.8917         0.0421       131.5195        -999.25        77.4774        80.4287          0.609         0.6169        49.6713         2.0148          0.684       -33.5079        -2.7182              1      0.9901617
      5578.0000        13.0702         0.0421       130.1338        -999.25        76.8058       79.45306         0.6357         0.6349        46.2309         2.0244         0.7212       -34.2917        -3.5083      0.9883631      0.9793383
      5578.5000        13.1206         0.0497       127.9268        -999.25        74.4471       76.02246          0.674         0.6602        45.7695         2.0379         0.7796       -35.1135        -4.3365      0.9153715      0.9679931
      5579.0000        12.9986         0.0572       125.1075        -999.25         72.599        73.3348         0.7141          0.693        45.8619         2.0539         0.8334        -35.939        -5.1683      0.8581873      0.9565986
      5579.5000        12.8749         0.0627       122.0402        -999.25        71.0902       71.14097         0.7513         0.7371        45.3433         2.0766         0.9287       -36.7371        -5.9727        0.81151      0.9455795
      5580.0000        12.8794         0.0663       119.8004        -999.25        70.3346       70.04298         0.7828          0.781        44.6365         2.1008         1.0177       -37.4604        -6.7023      0.7881486      0.9355849
      5580.5000        12.9356         0.0685       118.4197        -999.25        70.5841       70.40762         0.8039         0.8019        45.2222         2.1168         1.1434       -37.8854        -7.1336      0.7959067      0.9296767
      5581.0000        12.9316         0.0748       117.7776        -999.25        72.4205       73.08117          0.815          0.793        47.1629          2.123         1.1413       -37.6286        -6.8831      0.8527908      0.9331082
      5581.5000        12.8236         0.0836       117.5135        -999.25         74.829       76.58717         0.8232         0.7721        47.4689          2.111         1.0074       -36.7695        -6.0304      0.9273865      0.9447891
      5582.0000         12.709         0.0832       117.8302        -999.25        76.2928        78.7187         0.8258         0.7533        46.9996         2.0929          0.873       -35.9284        -5.1956      0.9727382      0.9562247
      5582.5000        12.6849         0.0608        118.515        -999.25        77.1852       80.01866         0.8084         0.7371        47.3541         2.0741         0.8095       -35.1384        -4.4119              1      0.9669603
      5583.0000        12.6777         0.0402       119.6499        -999.25        77.9894       81.19044         0.7769         0.7198        50.2194          2.055         0.7962       -34.4637        -3.7435              1      0.9761164
      5583.5000        12.6963         0.0313       121.7543        -999.25         78.702       82.22878         0.7343         0.7009         51.859         2.0505         0.7954       -33.9397        -3.2258              1      0.9832082
      5584.0000        12.7219          0.032       124.4554        -999.25        79.2255       82.99195         0.6918          0.682        50.5145         2.0559           0.79       -33.4782        -2.7706              1      0.9894438
      5584.5000        12.7513         0.0368       126.3077        -999.25        79.3953       83.24062         0.6648         0.6629        48.1265         2.0569         0.7645       -33.2482        -2.5469              1      0.9925082
      5585.0000        12.7994         0.0387       128.0823        -999.25        78.5753       82.04889         0.6507         0.6512        45.4143         2.0564         0.7293       -33.2762        -2.5813              1       0.992037
      5585.5000        12.8674         0.0331       129.2603        -999.25          77.65       80.70415         0.6388         0.6433        45.5699          2.058          0.701       -33.4556         -2.767              1      0.9894931
      5586.0000        12.9231         0.0263       129.6899        -999.25        76.8694       79.56977         0.6331         0.6408        47.2382         2.0636         0.7235       -33.7709        -3.0886      0.9908462      0.9850877
      5586.5000        12.8689         0.0203       129.1738        -999.25        78.1161       81.38525         0.6274         0.6379        48.6817         2.0728         0.7827       -33.9774        -3.3014              1      0.9821726
      5587.0000        12.8089         0.0176        128.269        -999.25        80.6219       85.03298          0.623         0.6346        48.3027         2.0819         0.8319       -33.9451        -3.2754              1      0.9825287
      5587.5000         12.754         0.0174        128.886        -999.25        82.2642       87.42408         0.6188         0.6314        45.0197         2.0867          0.838       -33.3852        -2.7218              1      0.9901123
      5588.0000        12.7522         0.0197       130.8086        -999.25        80.4497       84.78531         0.6165         0.6286        44.1276         2.0885         0.8142       -32.6108        -1.9538              1              1
      5588.5000        12.7817         0.0232        133.239        -999.25        78.1536       81.44592         0.6156         0.6266        46.9852         2.0913          0.778       -31.8327         -1.182              1              1
      5589.0000        12.8756         0.0282       135.4875        -999.25        76.9082       79.63524         0.6181         0.6275        49.2339         2.0971         0.7459       -31.4598        -0.8154      0.9922391              1
      5589.5000        13.0108         0.0346        136.374        -999.25        76.8104       79.49453         0.6248         0.6369        49.4346         2.1097         0.7182       -31.9666        -1.3285      0.9892453              1
      5590.0000        13.2055         0.0399       133.6077        -999.25        75.7275        77.9203         0.6342         0.6548        49.1594          2.129         0.6972       -33.3684        -2.7366       0.955751      0.9899096
      5590.5000        13.5077         0.0376       127.7537        -999.25        72.4604       73.16788         0.6461         0.6791         49.835         2.1465         0.7061       -35.2076        -4.5821      0.8546358      0.9646288
