#------------------------------------------------------------------------------
# Created by    : vladimir.rabinovich
# Created on    : 09/19/2023 17:20:47
#------------------------------------------------------------------------------
~Version Information Section
VERS.           2.0     :   CWLS log ASCII Standard - VERSION 2.0
WRAP.           NO      :   One line per depth step
~Well Information Section
#MNEM       .UNIT                                         VALUE :DESCRIPTION
#------------------------------------------------------------------------------
STRT        .FT                                            2030 :START DEPTH
STOP        .FT                                            9342 :STOP DEPTH
STEP        .FT                                             0.5 :STEP      
NULL        .                                           -999.25 :NULL      
COMP        .                                      SHELL OIL CO :COMPANY   
WELL        .                               OCS G00950 ST00BP00 :WELL      
FLD         .                           EAST CAMERON BLOCK 0193 :FIELD     
LOC         .                                                   :LOCATION  
CNTY        .                                      EAST CAMERON :LOCATION  
STAT        .                                         LOUISIANA :STATE     
CTRY        .                                     UNITED STATES :COUNTRY   
SRVC        .                                                   :SERVICE COMPANY
DATE        .                             9/13/2023 11:18:15 AM :LOG DATE  
API         .                                    17703004920000 :API NUMBER
UWI         .                                    17703004920000 :UNIQUE WELL ID
XCOORD      .                                  1684363.85071557 :SURFACE X 
YCOORD      .                                  10458597.1936422 :SURFACE Y 
LAT         .                                        28.8191951 :LATITUDE  
LON         .                                       -92.8627139 :LONGITUDE 
ELEV        .FT                                              75 :ELEVATION VALUE
ELEV_TYPE   .                                                KB :ELEVATION REFERENCE TYPE
~Curve Information Section
#MNEM       .UNIT                                      API CODE :CURVE DESCRIPTION
#------------------------------------------------------------------------------
DEPT        .FT                                                 :DEPTH     
ASN         .OHMM                                               :          
CILM        .MMHO                                               :          
ILM         .OHMM                                               :          
LN          .OHMM                                               :          
SP          .MV                                                 :          
SP_NORM     .MV                                                 :SP Normalized
VSH_SP      .V/V                                                :Volume of Shale from SP
~A        DEPTH            ASN           CILM            ILM             LN             SP        SP_NORM         VSH_SP
# ...
      6887.5000          0.485       2496.082         0.4336        -999.25       -82.2803       -25.4056         0.6558
      6888.0000         0.4845       2530.129         0.4368        -999.25       -84.3564       -27.4625      0.6255515
      6888.5000         0.4822        2588.48         0.4401        -999.25       -86.3657       -29.4526      0.5962853
      6889.0000         0.4778       2626.809         0.4433        -999.25       -87.2954        -30.363      0.5828971
      6889.5000         0.4734       2653.348         0.4465        -999.25       -86.0939       -29.1423      0.6008486
      6890.0000         0.4689       2618.422         0.4456        -999.25       -84.0414       -27.0706      0.6313147
      6890.5000         0.4649       2561.965         0.4439        -999.25       -81.9873       -24.9973      0.6618044
      6891.0000         0.4612       2501.539         0.4397        -999.25       -79.8146       -22.8054      0.6940382
      6891.5000         0.4591       2436.426         0.4324        -999.25       -76.4547       -19.4263      0.7437309
      6892.0000         0.4603       2382.176         0.4251        -999.25       -74.1312       -17.0836      0.7781824
      6892.5000         0.4615       2330.816         0.4179        -999.25       -71.9365       -14.8697      0.8107397
      6893.0000          0.466       2259.297         0.4154        -999.25       -69.4691       -12.3831      0.8473074
      6893.5000         0.4707       2194.543         0.4134        -999.25       -67.7773       -10.6721      0.8724691
      6894.0000         0.4716       2143.586         0.4115        -999.25       -66.7307        -9.6063      0.8881426
      6894.5000         0.4684       2105.664         0.4096        -999.25       -65.7808        -8.6372      0.9023941
      6895.0000         0.4626       2086.297         0.4065        -999.25       -64.8857        -7.7229      0.9158397
      6895.5000         0.4568       2071.008         0.4029        -999.25       -63.8231        -6.6411      0.9317485
      6896.0000          0.454       2055.719         0.3993        -999.25       -62.6224        -5.4211      0.9496897
      6896.5000         0.4557       2049.133         0.3994        -999.25       -62.2329        -5.0124         0.9557
      6897.0000         0.4573       2042.551         0.4026        -999.25       -63.8113        -6.5716      0.9327706
      6897.5000         0.4589       2034.619         0.4059        -999.25       -65.4641        -8.2052      0.9087471
      6898.0000         0.4606       2024.631         0.4091        -999.25       -67.8942       -10.6161      0.8732926
      6898.5000         0.4622       2014.643         0.4135        -999.25       -69.6182       -12.3209      0.8482221
      6899.0000          0.466       2004.666         0.4199        -999.25       -70.7155        -13.399      0.8323677
      6899.5000         0.4704       1994.678         0.4265        -999.25       -70.2091       -12.8734      0.8400971
      6900.0000         0.4747       1984.689         0.4346        -999.25       -68.8002       -11.4453      0.8610985
      6900.5000          0.479       1974.701         0.4427        -999.25       -67.1914        -9.8173      0.8850397
      6901.0000         0.4868       1951.828         0.4502        -999.25       -65.7266        -8.3333      0.9068632
      6901.5000         0.4962       1927.861         0.4573        -999.25       -64.4065         -6.994      0.9265589
      6902.0000         0.5048       1906.217         0.4643        -999.25       -63.4921        -6.0604      0.9402882
      6902.5000         0.5113       1886.262         0.4712        -999.25       -62.6093        -5.1583      0.9535544
      6903.0000         0.5177        1866.33         0.4779        -999.25       -62.3193        -4.8491      0.9581015
      6903.5000         0.5227        1851.09         0.4847        -999.25       -62.0314         -4.542      0.9626176
      6904.0000         0.5273       1836.795         0.4871        -999.25       -62.2139        -4.7053      0.9602162
      6904.5000         0.5309       1822.477         0.4892        -999.25       -62.3965        -4.8687      0.9578133
      6905.0000         0.5283       1812.939         0.4913        -999.25       -62.5844        -5.0374      0.9553323
      6905.5000         0.5257         1818.6         0.4933        -999.25       -63.1779        -5.6117      0.9468868
      6906.0000         0.5232       1824.264         0.4953        -999.25       -63.1652        -5.5798      0.9473559
      6906.5000         0.5206       1829.924         0.4972        -999.25       -62.4311        -4.8265      0.9584338
      6907.0000          0.518       1835.588         0.4992        -999.25        -61.697        -4.0732      0.9695117
      6907.5000         0.5154       1841.248         0.5014        -999.25       -60.9197        -3.2767       0.981225
      6908.0000         0.5129       1847.289         0.5035        -999.25       -60.1017        -2.4395      0.9935368
      6908.5000         0.5107        1856.15         0.5056        -999.25       -59.6057        -1.9243              1
      6909.0000         0.5087       1865.012         0.5077        -999.25        -59.607        -1.9063              1
      6909.5000         0.5077       1873.873         0.5098        -999.25       -59.6084        -1.8885              1
      6910.0000         0.5074       1882.734         0.5119        -999.25       -59.6097        -1.8706              1
      6910.5000         0.5071       1891.594         0.5114        -999.25       -59.8223         -2.064      0.9990588
      6911.0000         0.5067       1900.297         0.5108        -999.25        -60.404        -2.6265      0.9907868
      6911.5000         0.5064       1908.764         0.5101        -999.25        -61.012        -3.2153       0.982128
      6912.0000         0.5075       1917.219         0.5094        -999.25       -62.4717        -4.6558      0.9609441
      6912.5000         0.5087       1925.686         0.5087        -999.25       -63.6834        -5.8483      0.9434074
      6913.0000         0.5099        1934.15          0.508        -999.25       -64.4746        -6.6203      0.9320544
      6913.5000          0.511       1942.348         0.5075        -999.25       -64.9569        -7.0834      0.9252441
      6914.0000         0.5122       1949.674         0.5073        -999.25        -64.188        -6.2953      0.9368338
      6914.5000         0.5156       1936.475         0.5072        -999.25       -63.4819          -5.57         0.9475
      6915.0000         0.5206       1907.547          0.507        -999.25       -62.8468        -4.9157      0.9571221
      6915.5000         0.5256       1885.066         0.5069        -999.25       -62.2643         -4.334      0.9656765
      6916.0000         0.5301       1862.611         0.5068        -999.25       -62.0162        -4.1268      0.9687235
      6916.5000         0.5317       1842.025         0.5066        -999.25       -61.8314        -3.9828      0.9708412
      6917.0000         0.5333       1830.041         0.5065        -999.25       -61.9311        -4.1234      0.9687735
      6917.5000         0.5321       1818.059         0.5071        -999.25       -62.0998         -4.333      0.9656911
      6918.0000         0.5307       1828.553         0.5077        -999.25       -62.3265        -4.6005      0.9617574
      6918.5000         0.5292       1840.459         0.5083        -999.25       -62.7698        -5.0847      0.9546368
      6919.0000         0.5278       1850.334          0.509        -999.25       -62.9768        -5.3325      0.9509926
      6919.5000          0.526       1860.209         0.5096        -999.25        -62.476        -4.8726      0.9577559
      6920.0000         0.5235       1870.084         0.5102        -999.25       -61.9755        -4.4129      0.9645162
      6920.5000         0.5209       1879.961         0.5108        -999.25       -61.0627         -3.541      0.9773383
