#------------------------------------------------------------------------------
# Created by    : vladimir.rabinovich
# Created on    : 09/19/2023 17:22:07
#------------------------------------------------------------------------------
~Version Information Section
VERS.           2.0     :   CWLS log ASCII Standard - VERSION 2.0
WRAP.           NO      :   One line per depth step
~Well Information Section
#MNEM       .UNIT                                         VALUE :DESCRIPTION
#------------------------------------------------------------------------------
STRT        .FT                                            4421 :START DEPTH
STOP        .FT                                           11895 :STOP DEPTH
STEP        .FT                                             0.5 :STEP      
NULL        .                                           -999.25 :NULL      
COMP        .                MURPHY EXPLORATION & PRODUCTION CO :COMPANY   
WELL        .                               OCS G02828 ST00BP00 :WELL      
FLD         .                           WEST CAMERON BLOCK 0116 :FIELD     
LOC         .                                                   :LOCATION  
CNTY        .                                      WEST CAMERON :LOCATION  
STAT        .                                         LOUISIANA :STATE     
CTRY        .                                     UNITED STATES :COUNTRY   
SRVC        .                                                   :SERVICE COMPANY
DATE        .                             9/13/2023 11:18:31 AM :LOG DATE  
API         .                                    17700404120000 :API NUMBER
UWI         .                                    17700404120000 :UNIQUE WELL ID
XCOORD      .                                  1472413.58592246 :SURFACE X 
YCOORD      .                                  10706677.6123634 :SURFACE Y 
LAT         .                                         29.500724 :LATITUDE  
LON         .                                        -93.528296 :LONGITUDE 
ELEV        .FT                                              75 :ELEVATION VALUE
ELEV_TYPE   .                                                KB :ELEVATION REFERENCE TYPE
~Curve Information Section
#MNEM       .UNIT                                      API CODE :CURVE DESCRIPTION
#------------------------------------------------------------------------------
DEPT        .FT                                                 :DEPTH     
CALI        .IN                                                 :          
DRHO        .G/C3                                               :          
DT          .US/F                                               :          
GR          .GAPI                                               :          
GR_1        .GAPI                                               :          
GR_NORM     .GAPI                                               :GammaRay Normalized
ILD         .OHMM                                               :          
NPHI        .%                                                  :          
RHOB        .G/C3                                               :          
SFL         .OHMM                                               :          
SP          .MV                                                 :          
SP_NORM     .MV                                                 :SP Normalized
VSH_GR      .V/V                                                :Volume of Shale from GR
VSH_SP      .V/V                                                :Volume of Shale from SP
~A        DEPTH           CALI           DRHO             DT             GR           GR_1        GR_NORM            ILD           NPHI           RHOB            SFL             SP        SP_NORM         VSH_GR         VSH_SP
# ...
      8921.0000        13.1569         0.0453       106.0612        76.4131        -999.25       80.17178          0.691        48.2444         2.3198         0.7358       -50.2659        -3.6895              1      0.9679821
      8921.5000        13.2275         0.0571       105.6453        76.6503        -999.25       80.46412         0.7016        47.7309         2.3369         0.8044       -50.5375        -3.9636              1      0.9647191
      8922.0000        13.2993         0.0606       105.2439        76.8239        -999.25       80.67785         0.7141        46.3887         2.3247         0.8536       -50.8206        -4.2493              1      0.9613178
      8922.5000        13.3438           0.04        105.239        76.0707        -999.25        79.7458         0.7278        45.9489         2.3096         0.8787       -51.0696        -4.5008      0.9945914      0.9583238
      8923.0000        13.3574         0.0278       106.5234        75.2051        -999.25       78.67494         0.7426        46.2045         2.3049         0.8688       -51.1865        -4.6203      0.9718073      0.9569012
      8923.5000        13.3673         0.0193       108.5092        75.5229        -999.25       79.06693         0.7579        46.2446         2.3005         0.8338       -51.0342        -4.4705      0.9801474      0.9586845
      8924.0000        13.3748         0.0144       110.9023        76.2761        -999.25       79.99699         0.7661        46.0672         2.2999         0.7927       -50.7268        -4.1656      0.9999359      0.9623143
      8924.5000        13.3808         0.0118       112.9758        76.1221        -999.25       79.80575         0.7733        46.5254          2.307         0.7707       -50.2888        -3.7302       0.995867      0.9674976
      8925.0000        13.3888         0.0103       114.6219        74.3407        -999.25       77.60271         0.7801        47.3303         2.3042         0.7662        -49.844        -3.2879      0.9489939      0.9727631
      8925.5000         13.401         0.0096       110.4218        72.5972        -999.25       75.44666         0.7877        48.1699          2.298         0.7769       -49.3807        -2.8272      0.9031203      0.9782476
      8926.0000        13.4249         0.0089        104.567        71.2963        -999.25        73.8377         0.7975        47.9763         2.3007         0.7976       -48.9487        -2.3977      0.8688872      0.9833607
      8926.5000        13.4597         0.0081       100.5662        70.6116        -999.25       72.99033         0.8107        47.0021         2.3059         0.8257       -48.5618        -2.0133      0.8508582      0.9879369
      8927.0000        13.5032         0.0129         98.256        70.2374        -999.25       72.52691         0.8198        46.0058         2.3025         0.8522       -48.5788        -2.0329      0.8409981      0.9877036
      8927.5000        13.5511          0.035        98.7903        70.0627        -999.25       72.31009         0.8207        45.7689         2.3125         0.8766       -49.1096        -2.5662      0.8363849      0.9813548
      8928.0000        13.6051         0.0341        100.376        70.1403        -999.25       72.40502         0.8044         45.889         2.3206          0.839       -49.6615        -3.1207      0.8384047      0.9747536
      8928.5000        13.6782         0.0328       101.4774        70.1161        -999.25       72.37424         0.7986        46.0655         2.3001         0.7681       -50.0503         -3.512      0.8377499      0.9700952
      8929.0000        13.7527         0.0423       102.1604        68.9097        -999.25       70.88211         0.8003        46.1685         2.2983         0.8336       -50.3555        -3.8198      0.8060024       0.966431
      8929.5000        13.8186         0.0551       102.7715         67.934        -999.25       69.67503         0.8044        45.9482         2.3055         0.8686       -50.5295        -3.9963      0.7803197      0.9643298
      8930.0000        13.8458         0.0649       103.0216        67.4633        -999.25       69.09231         0.8095        44.3783         2.3428         0.8342        -50.412        -3.8813      0.7679214      0.9656988
      8930.5000        13.8373         0.0718       102.9736        67.6234        -999.25       69.28934         0.8135        43.0228         2.3518         0.8247       -50.9471         -4.419      0.7721137      0.9592976
      8931.0000        13.8125         0.0673       102.7361        69.2826        -999.25       71.33935         0.8168        42.3325         2.3463         0.8774       -51.7862        -5.2606      0.8157308      0.9492786
      8931.5000        13.7756         0.0557       102.5774        69.8358        -999.25       72.02232           0.82        41.8018         2.3363          0.907       -52.3517        -5.8287      0.8302621      0.9425155
      8932.0000        13.7261         0.0384       102.6398        69.8827        -999.25        72.0793         0.8236        41.6484         2.3276         0.9115       -52.3836        -5.8631      0.8314745      0.9421059
      8932.5000        13.6712         0.0305       102.7054        69.5479        -999.25       71.66457          0.828        41.8927         2.3253         0.9098       -52.5714        -6.0534      0.8226505      0.9398405
      8933.0000        13.5988         0.0287       102.6508         69.016        -999.25       71.00621         0.8337        42.1451         2.3314          0.909       -52.8957        -6.3803      0.8086427      0.9359488
      8933.5000        13.5353         0.0261       102.1165        67.6699        -999.25       69.34126         0.8346        42.2263         2.3292         0.9083       -53.2269         -6.714      0.7732183      0.9319762
      8934.0000        13.5097         0.0079       101.1151        64.4225        -999.25       65.32618         0.8336        42.0302         2.3195         0.9427       -53.6611        -7.1508       0.687791      0.9267762
      8934.5000        13.5196         0.0284        98.9659        61.5811        -999.25       61.81297         0.9256        41.4367         2.3291         1.0321        -54.233        -7.7252      0.6130418      0.9199381
      8935.0000        13.4819           0.03        94.9749        58.7642        -999.25       58.32991         1.0927        40.6414         2.3346         1.1146       -55.8215        -9.3163      0.5389343      0.9009964
      8935.5000        13.4417         0.0151        88.9542        55.1793        -999.25       53.89764         1.1771        38.9918         2.3334         1.1618       -59.7416       -13.2389      0.4446306      0.8542988
      8936.0000        13.3984         0.0257        82.9238        50.8756        -999.25       48.57682         1.2645        37.1884         2.3446         1.5236       -65.2903       -18.7901      0.3314216      0.7882131
      8936.5000        13.3383         0.0365        74.1417        47.2712        -999.25       44.12031         1.3467        32.9193         2.3525         2.0781       -75.4216        -28.924      0.2366024      0.6675714
      8937.0000        13.2725         0.0397        68.2968        41.3683        -999.25       36.82267         1.4402         30.974         2.3517         1.8284       -81.7463       -35.2512     0.08133349      0.5922476
      8937.5000        13.1786         0.0421        62.4907        38.5415        -999.25       33.32738         1.5417        27.7574          2.351          1.358       -86.6455        -40.153    0.006965637      0.5338929
      8938.0000        12.0821         0.0548        67.1062        37.4362        -999.25       31.96022         1.6704        25.1321         2.3638         1.2101       -81.6805       -35.1905              0      0.5929703
      8938.5000        11.3704         0.0818        71.7217        40.9135        -999.25       36.25776         1.6479        24.4267         2.3868         1.2419       -70.9124       -24.4249     0.06931411      0.7211322
