#------------------------------------------------------------------------------
# Created by    : vladimir.rabinovich
# Created on    : 09/19/2023 17:22:04
#------------------------------------------------------------------------------
~Version Information Section
VERS.           2.0     :   CWLS log ASCII Standard - VERSION 2.0
WRAP.           NO      :   One line per depth step
~Well Information Section
#MNEM       .UNIT                                         VALUE :DESCRIPTION
#------------------------------------------------------------------------------
STRT        .FT                                            4308 :START DEPTH
STOP        .FT                                           11086 :STOP DEPTH
STEP        .FT                                             0.5 :STEP      
NULL        .                                           -999.25 :NULL      
COMP        .                                     GULF OIL CORP :COMPANY   
WELL        .                               OCS G01859 ST00BP00 :WELL      
FLD         .                           WEST CAMERON BLOCK 0045 :FIELD     
LOC         .                                                   :LOCATION  
CNTY        .                                      WEST CAMERON :LOCATION  
STAT        .                                         LOUISIANA :STATE     
CTRY        .                                     UNITED STATES :COUNTRY   
SRVC        .                                                   :SERVICE COMPANY
DATE        .                             9/13/2023 11:18:18 AM :LOG DATE  
API         .                                    17700402800000 :API NUMBER
UWI         .                                    17700402800000 :UNIQUE WELL ID
XCOORD      .                                  1464540.60646957 :SURFACE X 
YCOORD      .                                  10776790.0411311 :SURFACE Y 
LAT         .                                        29.6934919 :LATITUDE  
LON         .                                       -93.5541052 :LONGITUDE 
ELEV        .FT                                              79 :ELEVATION VALUE
ELEV_TYPE   .                                                KB :ELEVATION REFERENCE TYPE
~Curve Information Section
#MNEM       .UNIT                                      API CODE :CURVE DESCRIPTION
#------------------------------------------------------------------------------
DEPT        .FT                                                 :DEPTH     
CALI        .IN                                                 :          
DRHO        .G/C3                                               :          
DT          .US/F                                               :          
GR          .GAPI                                               :          
GR_NORM     .GAPI                                               :GammaRay Normalized
ILD         .OHMM                                               :          
NPHI        .%                                                  :          
RHOB        .G/C3                                               :          
SFLU        .OHMM                                               :          
SP          .MV                                                 :          
SP_NORM     .MV                                                 :SP Normalized
VSH_GR      .V/V                                                :Volume of Shale from GR
VSH_SP      .V/V                                                :Volume of Shale from SP
~A        DEPTH           CALI           DRHO             DT             GR        GR_NORM            ILD           NPHI           RHOB           SFLU             SP        SP_NORM         VSH_GR         VSH_SP
# ...
      7006.0000        10.4465         0.0161        118.615        72.3047       85.31792         0.9905        40.5267         2.2202         0.7209        -42.605         1.2045              1              1
      7006.5000        10.4505         0.0054       127.3816        72.5553       85.85095         0.9391        44.0625         2.2057         0.7007         -41.85         1.9595              1              1
      7007.0000        10.4083         0.0131       135.7749        72.5986       85.94197         0.8929         45.307         2.2118         0.6876       -41.3473         2.4622              1              1
      7007.5000         10.371         0.0197       137.8745        72.4061       85.53043         0.8481        45.6302         2.2222         0.6817       -41.3122         2.4973              1              1
      7008.0000        10.3689         0.0232       138.1152        72.1237        84.9275          0.809        45.2384         2.2296         0.6746       -41.7325          2.077              1              1
      7008.5000        10.3802         0.0213       137.8669        72.1324       84.94478         0.7798        44.8145         2.2335         0.6633       -42.3066         1.5029              1              1
      7009.0000        10.3941         0.0189       137.0784        72.4603       85.64231         0.7444        44.4227         2.2407         0.6442       -42.7737         1.0358              1              1
      7009.5000        10.4099         0.0144        134.531        72.4382       85.59415         0.7123        44.2363         2.2433         0.6207       -43.2235          0.586              1              1
      7010.0000        10.4555         0.0068       132.0286        71.5872       83.77917         0.6839        44.0648          2.238         0.6038       -43.6739         0.1356              1              1
      7010.5000        10.5146        -0.0005       131.6255        69.8821       80.14392         0.6575        43.7203         2.2332         0.5697       -44.1367        -0.3272              1              1
      7011.0000        10.5965         -0.007       133.7275        67.6019       75.28297         0.6333        42.7636         2.2316          0.529       -44.8068        -0.9973      0.8996378              1
      7011.5000        10.7333        -0.0145         135.74        65.8733       71.59783         0.6094        41.5154         2.2257         0.4785       -46.8546        -3.0451      0.8212305      0.9703609
      7012.0000        10.9951        -0.0281       136.7102        64.4189       68.49685         0.5789        40.2896         2.2167         0.5785       -53.1262        -9.3167      0.7552521      0.8794681
      7012.5000        11.2488        -0.0385       135.4268         63.554       66.65228         0.5345        38.4001         2.2022         0.7778       -65.0984       -21.2889       0.716006      0.7059579
      7013.0000         11.333        -0.0335       130.3469         63.174       65.84135         0.5048        36.6284         2.1835         0.9629       -76.9081       -33.0986       0.698752      0.5348029
      7013.5000        11.4335        -0.0166       123.4908        63.0628       65.60307         0.4788        35.6263         2.1894         1.0606       -79.9651       -36.1556      0.6936823      0.4904985
      7014.0000        11.7652         0.0014       118.9832        63.3718       66.26033         0.4672        34.9891         2.1994         1.0788       -80.8367       -37.0272      0.7076666      0.4778667
      7014.5000         11.823         0.0127       117.5696        64.4264       68.50687         0.4655        34.8708         2.2225          1.071       -77.3658       -33.5563      0.7554654      0.5281696
      7015.0000        11.2768         0.0247       117.2679        65.9706       71.79668         0.4679        35.3243         2.2562         0.9944       -70.2968       -26.4873      0.8254614      0.6306188
      7015.5000        11.1094         0.0348       114.8387        67.9043       75.91659         0.4786        36.0528         2.2819         0.7697       -58.7283       -14.9188      0.9131189      0.7982783
      7016.0000        10.8825         0.0357       110.6295        69.7317       79.81017         0.4987        37.4487         2.2798         0.6492       -51.0095           -7.2       0.995961      0.9101449
      7016.5000        10.6342         0.0321       108.8683        71.0178       82.54987         0.5203        40.6505         2.2592         0.5826       -45.4418        -1.6323              1      0.9908362
      7017.0000         10.481         0.0485       110.9032        71.6757       83.95075         0.5399        41.6019         2.2617         0.5446       -44.0607        -0.2512              1              1
      7017.5000        10.4613         0.0561       118.8887        71.9434       84.52021         0.5625        42.6577         2.2501         0.5112       -43.7647         0.0448              1              1
      7018.0000        10.5983         0.0329       125.9934        71.2125        82.9612          0.586        43.9701         2.2356           0.49       -43.4468         0.3627              1              1
      7018.5000        10.7489         0.0235       130.1875        70.0636       80.51135         0.6061        45.0662         2.2493         0.4768       -43.2355          0.574              1              1
      7019.0000        10.6949         0.0254       132.8916        69.0193       78.28441         0.6201        45.4741         2.2707         0.4702       -43.0927         0.7168      0.9634981              1
      7019.5000        10.6455         0.0319       134.8594        67.9027       75.90359         0.6363        43.8582         2.2985         0.4776        -42.886         0.9235      0.9128425              1
      7020.0000         10.609         0.0152       136.1917        67.0613       74.10907         0.6641        41.0218         2.3092         0.5356       -43.2635          0.546      0.8746611              1
      7020.5000        10.5932         -0.002       133.8445        66.4614       72.82927         0.7021         37.908         2.3322         0.7766       -46.2048        -2.3953      0.8474312      0.9797783
      7021.0000        10.7834        -0.0081       128.8442        66.4719       72.85057         0.7304        35.9096         2.3576          1.022       -48.5554        -4.7459      0.8478845      0.9457116
      7021.5000        10.8772        -0.0081       122.6351        66.6942       73.32307         0.7493        34.6942         2.3586         1.0687        -50.191        -6.3815      0.8579376      0.9220073
      7022.0000        10.8641        -0.0156        113.376        66.8105       73.56966         0.7609        35.5786         2.3309         1.0163       -53.4315         -9.622      0.8631842      0.8750435
      7022.5000        10.9004        -0.0246       106.7538        66.6685       73.26596         0.7586        36.3018          2.312         0.9794       -55.5806       -11.7711      0.8567226      0.8438971
      7023.0000        10.9158        -0.0152       105.4191         66.568       73.05049         0.7511        36.5897         2.3262         0.9504       -55.1323       -11.3228      0.8521381      0.8503942
      7023.5000        10.9121        -0.0054       106.6219        66.6595       73.24422         0.7411        36.6555         2.3376         0.8127       -54.1218       -10.3123      0.8562599      0.8650391
      7024.0000        10.8363        -0.0006       109.1295        66.5605       73.03217         0.7178        36.7606         2.3271         0.7075       -52.9059        -9.0964      0.8517483      0.8826609
      7024.5000        10.8369         0.0001       111.7291         66.145       72.14535         0.6913        37.3383         2.3066         0.7244       -53.2616        -9.4521      0.8328797      0.8775058
