#------------------------------------------------------------------------------
# Created by    : vladimir.rabinovich
# Created on    : 09/19/2023 17:20:47
#------------------------------------------------------------------------------
~Version Information Section
VERS.           2.0     :   CWLS log ASCII Standard - VERSION 2.0
WRAP.           NO      :   One line per depth step
~Well Information Section
#MNEM       .UNIT                                         VALUE :DESCRIPTION
#------------------------------------------------------------------------------
STRT        .FT                                            2030 :START DEPTH
STOP        .FT                                            9342 :STOP DEPTH
STEP        .FT                                             0.5 :STEP      
NULL        .                                           -999.25 :NULL      
COMP        .                                      SHELL OIL CO :COMPANY   
WELL        .                               OCS G00950 ST00BP00 :WELL      
FLD         .                           EAST CAMERON BLOCK 0193 :FIELD     
LOC         .                                                   :LOCATION  
CNTY        .                                      EAST CAMERON :LOCATION  
STAT        .                                         LOUISIANA :STATE     
CTRY        .                                     UNITED STATES :COUNTRY   
SRVC        .                                                   :SERVICE COMPANY
DATE        .                             9/13/2023 11:18:15 AM :LOG DATE  
API         .                                    17703004920000 :API NUMBER
UWI         .                                    17703004920000 :UNIQUE WELL ID
XCOORD      .                                  1684363.85071557 :SURFACE X 
YCOORD      .                                  10458597.1936422 :SURFACE Y 
LAT         .                                        28.8191951 :LATITUDE  
LON         .                                       -92.8627139 :LONGITUDE 
ELEV        .FT                                              75 :ELEVATION VALUE
ELEV_TYPE   .                                                KB :ELEVATION REFERENCE TYPE
~Curve Information Section
#MNEM       .UNIT                                      API CODE :CURVE DESCRIPTION
#------------------------------------------------------------------------------
DEPT        .FT                                                 :DEPTH     
ASN         .OHMM                                               :          
CILM        .MMHO                                               :          
ILM         .OHMM                                               :          
LN          .OHMM                                               :          
SP          .MV                                                 :          
SP_NORM     .MV                                                 :SP Normalized
VSH_SP      .V/V                                                :Volume of Shale from SP
~A        DEPTH            ASN           CILM            ILM             LN             SP        SP_NORM         VSH_SP
# ...
      3470.5000         0.4054       2681.039         0.4259        -999.25       -87.2859       -10.6504      0.8131509
      3471.0000         0.4394       2469.914         0.4482        -999.25       -85.1445         -8.509      0.8507193
      3471.5000         0.4685        2374.16         0.4654        -999.25       -83.0767        -6.4412      0.8869965
      3472.0000         0.4976       2274.039         0.4795        -999.25       -81.1707        -4.5352      0.9204351
      3472.5000         0.5244       2161.504         0.4936        -999.25       -80.5591        -3.9236      0.9311649
      3473.0000         0.5505       2054.902         0.5077        -999.25       -81.9326        -5.2971      0.9070684
      3473.5000         0.5661       1983.539         0.5218        -999.25       -83.4504        -6.8149      0.8804404
      3474.0000         0.5817        1935.73         0.5359        -999.25       -85.8177        -9.1822      0.8389088
      3474.5000         0.5896        1925.92         0.5478        -999.25       -88.8146       -12.1791      0.7863316
      3475.0000         0.5933       1917.146         0.5473        -999.25       -91.2098       -14.5743      0.7443106
      3475.5000          0.597       1908.365         0.5469        -999.25       -89.8119       -13.1764      0.7688351
      3476.0000         0.6002       1900.086         0.5464        -999.25       -88.5059       -11.8704      0.7917473
      3476.5000         0.6016       1895.781          0.546        -999.25        -87.274       -10.6385      0.8133596
      3477.0000         0.6029       1891.152         0.5445        -999.25       -86.1937        -9.5582      0.8323123
      3477.5000         0.6043       1883.826         0.5423        -999.25       -85.5044        -8.8689      0.8444052
      3478.0000         0.6056       1854.127           0.54        -999.25       -85.6658        -9.0303      0.8415737
      3478.5000         0.6061       1824.451         0.5378        -999.25       -86.0397        -9.4042       0.835014
      3479.0000         0.6023       1794.754         0.5356        -999.25       -86.4137        -9.7782      0.8284526
      3479.5000         0.5981       1775.922         0.5334        -999.25       -85.7621        -9.1266      0.8398842
      3480.0000         0.5835       1754.516         0.5395        -999.25       -84.4401        -7.8046      0.8630772
      3480.5000         0.5689       1726.988         0.5569        -999.25       -83.0698        -6.4343      0.8871176
      3481.0000         0.5535       1689.461         0.5743        -999.25       -81.7579        -5.1224      0.9101334
      3481.5000         0.5311       1666.951         0.5917        -999.25       -80.5447        -3.9092      0.9314175
      3482.0000         0.5358       1676.254         0.6102        -999.25       -79.3306        -2.6951      0.9527175
      3482.5000          0.577       1710.293         0.6289        -999.25       -78.5835         -1.948      0.9658245
      3483.0000         0.6146       1747.057         0.6446        -999.25       -79.0817        -2.4462      0.9570842
      3483.5000         0.6581       1783.842         0.6411        -999.25       -80.3726        -3.7371      0.9344369
      3484.0000         0.6582       1818.152         0.6376        -999.25       -81.8026        -5.1671      0.9093491
      3484.5000         0.6506       1848.412         0.6286        -999.25       -85.8162        -9.1807      0.8389351
      3485.0000         0.6429       1878.674         0.6178        -999.25       -92.3066       -15.6711      0.7250684
      3485.5000         0.6355       1908.957          0.607        -999.25       -91.9481       -15.3126      0.7313579
      3486.0000         0.6281       1915.912         0.5962        -999.25       -89.0525        -12.417      0.7821579
      3486.5000         0.6207       1919.748         0.5854        -999.25       -85.7131        -9.0776      0.8407438
      3487.0000         0.6133       1887.471         0.5746        -999.25        -82.826        -6.1905      0.8913947
      3487.5000         0.6059        1871.43         0.5663        -999.25       -80.1599        -3.5244      0.9381684
      3488.0000         0.5972       1855.398         0.5611        -999.25       -78.2178        -1.5823      0.9722403
      3488.5000         0.5882       1839.369         0.5558        -999.25       -77.0095         -0.374      0.9934386
      3489.0000         0.5793       1839.357         0.5505        -999.25       -78.2819        -1.6464      0.9711158
      3489.5000         0.5703       1854.285         0.5453        -999.25       -79.2955          -2.66      0.9533333
      3490.0000         0.5707       1868.943           0.54        -999.25       -79.8435         -3.208      0.9437193
      3490.5000         0.5787        1883.01         0.5347        -999.25       -79.4546        -2.8191      0.9505421
      3491.0000         0.5837       1889.504         0.5295        -999.25       -79.0657        -2.4709      0.9566509
      3491.5000         0.5791           1896         0.5591        -999.25       -78.6768        -2.1315      0.9626052
      3492.0000         0.5745       1891.914         0.5908        -999.25       -78.2878         -1.792      0.9685614
      3492.5000          0.578       1856.129         0.6225        -999.25       -77.8988        -1.4525      0.9773047
      3493.0000         0.5901       1815.678         0.6622        -999.25       -77.5725        -1.1757      0.9816297
      3493.5000         0.6168       1765.844         0.7281        -999.25       -77.2653         -0.918      0.9856563
      3494.0000         0.6663       1661.135         0.7939        -999.25       -77.5909        -1.2931      0.9797953
      3494.5000           0.72       1567.406         0.8599        -999.25       -78.4869        -2.2386      0.9650218
      3495.0000         0.8059       1314.115         0.9181        -999.25       -79.3833        -3.1845      0.9502422
      3495.5000         0.8424       1211.117         0.9708        -999.25       -80.2798        -4.1304      0.9354625
      3496.0000         0.9208       1135.432         1.0235        -999.25        -81.385        -5.2851      0.9174203
      3496.5000         1.2427       1069.691         1.0762        -999.25       -84.3784         -8.328       0.869875
      3497.0000         1.5761       999.3613         1.1306        -999.25       -89.5723       -13.5714      0.7879469
      3497.5000         1.7825       924.5303         1.1864        -999.25        -95.355       -19.4036      0.6968188
      3498.0000         1.8018       840.8135         1.2271        -999.25       -97.5975       -21.6956      0.6610062
      3498.5000         1.7916       821.3301         1.2483        -999.25       -98.3978       -22.5454      0.6477281
      3499.0000         1.7815       814.7041         1.2696        -999.25       -99.1348       -23.3319      0.6354391
      3499.5000         1.7787       818.7871         1.2908        -999.25       -99.8717       -24.1183      0.6231515
      3500.0000         1.7784       822.8711         1.2924        -999.25      -100.5298       -24.8259      0.6120953
      3500.5000          1.778       832.6807         1.2881        -999.25      -101.1664        -25.512       0.601375
      3501.0000          1.801       846.3145         1.2837        -999.25       -101.803       -26.1981      0.5906547
      3501.5000         1.8246       859.9482         1.2793        -999.25      -102.4396       -26.8842      0.5799344
      3502.0000         1.8503        873.583          1.275        -999.25      -103.0698       -27.5639      0.5693141
      3502.5000         1.8839       887.2168         1.2666        -999.25      -103.6274        -28.171      0.5598282
      3503.0000         1.9093       928.4678         1.2446        -999.25      -104.1852       -28.7783      0.5503391
      3503.5000         1.9495       969.7529         1.2226        -999.25      -104.6373       -29.2799      0.5425016
