#------------------------------------------------------------------------------
# Created by    : vladimir.rabinovich
# Created on    : 09/19/2023 17:22:13
#------------------------------------------------------------------------------
~Version Information Section
VERS.           2.0     :   CWLS log ASCII Standard - VERSION 2.0
WRAP.           NO      :   One line per depth step
~Well Information Section
#MNEM       .UNIT                                         VALUE :DESCRIPTION
#------------------------------------------------------------------------------
STRT        .FT                                            4265 :START DEPTH
STOP        .FT                                           12768 :STOP DEPTH
STEP        .FT                                             0.5 :STEP      
NULL        .                                           -999.25 :NULL      
COMP        .                                SHELL OFFSHORE INC :COMPANY   
WELL        .                               OCS G04749 ST00BP02 :WELL      
FLD         .                                           WILDCAT :FIELD     
LOC         .                                                   :LOCATION  
CNTY        .                                      WEST CAMERON :LOCATION  
STAT        .                                         LOUISIANA :STATE     
CTRY        .                                     UNITED STATES :COUNTRY   
SRVC        .                                                   :SERVICE COMPANY
DATE        .                             9/13/2023 11:19:06 AM :LOG DATE  
API         .                                    17700406070000 :API NUMBER
UWI         .                                    17700406070000 :UNIQUE WELL ID
XCOORD      .                                   1486969.7252092 :SURFACE X 
YCOORD      .                                  10728694.6404599 :SURFACE Y 
LAT         .                                        29.5614647 :LATITUDE  
LON         .                                       -93.4828123 :LONGITUDE 
ELEV        .FT                                              98 :ELEVATION VALUE
ELEV_TYPE   .                                                KB :ELEVATION REFERENCE TYPE
~Curve Information Section
#MNEM       .UNIT                                      API CODE :CURVE DESCRIPTION
#------------------------------------------------------------------------------
DEPT        .FT                                                 :DEPTH     
CALI        .IN                                                 :          
DRHO        .G/C3                                               :          
DT          .US/F                                               :          
GR          .GAPI                                               :          
GR_1        .GAPI                                               :          
GR_NORM     .GAPI                                               :GammaRay Normalized
ILD         .OHMM                                               :          
ILM         .OHMM                                               :          
NPHI        .%                                                  :          
RHOB        .G/C3                                               :          
SFL         .OHMM                                               :          
SP          .MV                                                 :          
SP_NORM     .MV                                                 :SP Normalized
VSH_GR      .V/V                                                :Volume of Shale from GR
VSH_SP      .V/V                                                :Volume of Shale from SP
~A        DEPTH           CALI           DRHO             DT             GR           GR_1        GR_NORM            ILD            ILM           NPHI           RHOB            SFL             SP        SP_NORM         VSH_GR         VSH_SP
# ...
      6662.0000        12.6493         0.0322       107.8014        -999.25        56.4421       68.59155         0.2776         0.3262        33.6394         2.1775          0.607        -82.254       -50.6941      0.7572671       0.446658
      6662.5000        12.6297         0.0304       108.1331        -999.25        63.9724       79.54283         0.2846         0.3582        35.9724         2.2142         0.5329       -75.7451       -44.1891       0.990273      0.5205784
      6663.0000        12.6206         0.0365       111.1184        -999.25        66.8497       83.72357         0.2886         0.4003        40.6625         2.2427         0.5898       -69.5945       -38.0425              1      0.5904261
      6663.5000        12.6366         0.0428       112.7968        -999.25        67.6602       84.89692         0.2891          0.421          42.41         2.2489         0.6579       -68.9277       -37.3796              1      0.5979591
      6664.0000        12.6868         0.0484       113.6758        -999.25        65.6729       81.99931         0.2894         0.4248         40.894         2.2291          0.698        -74.098       -42.5539              1      0.5391602
      6664.5000        12.7679         0.0432       112.7867        -999.25        61.2445       75.54971         0.2918         0.4185        36.8232         2.1774         0.7757       -79.4076       -47.8674      0.9053129      0.4787795
      6665.0000        12.8296         0.0382       110.3444        -999.25         59.155       72.50338         0.3046         0.3856        35.8447         2.1463         0.8589       -82.7567       -51.2205      0.8404974      0.4406761
      6665.5000        12.7942         0.0425       108.4418        -999.25        61.1099       75.34207         0.3218         0.3708        37.3885         2.1513         0.8444       -80.7114       -49.1791      0.9008951      0.4638739
      6666.0000        12.6811         0.0581       108.2852        -999.25        65.3038       81.43851         0.3393         0.3668        40.3889         2.1919         0.7096       -70.8485       -39.3202              1      0.5759068
      6666.5000        12.5882         0.0796       111.2336        -999.25        69.6525       87.76022         0.3578          0.394        42.6031         2.2374         0.5552       -58.1791       -26.6547              1       0.719833
      6667.0000        12.5132          0.091       113.6484        -999.25        69.1936       87.08652         0.3801         0.4596        42.1011         2.2499         0.5357       -46.2759       -14.7555              1      0.8550512
      6667.5000        12.4628         0.0811       115.4818        -999.25        66.0743       82.54174         0.4195         0.5161        41.3089         2.2378         0.6369       -38.9409        -7.4244              1      0.9383591
      6668.0000        12.4266         0.0677       114.1395        -999.25        64.1749       79.77201         0.4811         0.5679          41.64         2.2279         0.7825       -36.8359        -5.3234      0.9951492      0.9622341
      6668.5000        12.4487         0.0614       109.7582        -999.25        64.8289       80.71766         0.6034         0.6348        41.4088         2.2349         0.8616       -36.6885        -5.1799              1      0.9638647
      6669.0000        12.4785         0.0578       104.3123        -999.25        63.4387         78.689          0.734         0.7031         40.222         2.2508         0.8991       -37.8063        -6.3017      0.9721065       0.951117
      6669.5000        12.5224         0.0544       100.5521        -999.25        61.4166       75.74075         0.8201         0.7793        38.0469         2.2678         0.9206       -39.0392        -7.5385      0.9093776      0.9370625
      6670.0000        12.5358         0.0549        98.2075        -999.25        60.6124       74.56461         0.8708         0.8278        36.6023         2.2776         1.0073       -39.8665        -8.3698      0.8843533      0.9276159
      6670.5000        12.5052         0.0684        99.0166        -999.25        61.8279       76.32728         0.8874         0.8225        36.7271         2.2757          1.099       -39.4236        -7.9308       0.921857      0.9326046
      6671.0000        12.4581         0.0853       106.5116        -999.25        64.4386       80.12006         0.8875         0.7954        37.9897         2.2428         1.0741       -38.0477        -6.5589              1      0.9481943
      6671.5000        12.4129         0.0836       111.4015        -999.25          68.66       86.25655         0.8748         0.7646        40.2296         2.1966         0.8991         -35.99        -4.5051              1      0.9715329
      6672.0000        12.3795          0.068       112.6339        -999.25         71.775       90.78326         0.8543         0.7491        42.7685         2.1604         0.8271       -34.1637        -2.6828              1      0.9922409
      6672.5000         12.346         0.0636       111.6138        -999.25        72.0508        91.1786         0.8216         0.7355         43.504         2.1577         0.8122        -33.374         -1.897              1              1
      6673.0000        12.3264         0.0614       111.6194        -999.25        72.9413        92.4684         0.7725         0.7133        43.0786         2.1492         0.8205       -33.7955        -2.3225              1      0.9963352
      6673.5000        12.3195         0.0576       114.2146        -999.25        75.2777       95.86206          0.723         0.6865        42.6832         2.1326         0.8101        -35.098        -3.6289              1      0.9814898
      6674.0000        12.3199         0.0521       117.1381        -999.25        76.3075       97.35449         0.6852         0.6609        43.3585         2.1179         0.7508        -35.813        -4.3479              1      0.9733193
      6674.5000        12.3361         0.0477       118.7898        -999.25        74.7017       95.01199         0.6584         0.6393        44.0853          2.119         0.6936       -35.9756        -4.5144              1      0.9714273
      6675.0000        12.3523         0.0412       118.8132        -999.25        73.3141       92.98697         0.6365         0.6234        44.3236         2.1254         0.6747       -36.0529        -4.5956              1      0.9705045
      6675.5000        12.3989         0.0341       119.9636        -999.25        74.8413       95.20332         0.6172         0.6134        44.0627         2.1274         0.6888        -36.408        -4.9547              1      0.9664239
      6676.0000         12.452         0.0272       122.0566        -999.25        77.3224       98.80755         0.6031          0.608        44.7167         2.1329         0.6921        -37.769        -6.3196              1      0.9509136
      6676.5000        12.5066         0.0315        122.781        -999.25         75.931       96.77701         0.5914         0.6083        45.5705         2.1537         0.6749       -39.8167        -8.3713              1      0.9275989
      6677.0000        12.5626         0.0407       122.4474        -999.25        73.2031       92.80174         0.5829         0.6099        46.6213         2.1813         0.6403       -42.6134       -11.1719              1      0.8957739
      6677.5000        12.6051          0.049       120.1791        -999.25        71.5612       90.40668         0.5734         0.6135        46.7686         2.2287         0.6134       -45.5742       -14.1367              1       0.862083
      6678.0000        12.6275         0.0578       116.0909        -999.25         70.912       89.45609         0.5635         0.6185         45.121         2.2538         0.6769       -50.0578       -18.6242              1      0.8110886
      6678.5000        12.6516         0.0485       111.8824        -999.25        71.1921       89.85783         0.5534         0.6184        41.1405         2.2677         0.7887       -53.4442       -22.0146              1      0.7725614
