#------------------------------------------------------------------------------
# Created by    : vladimir.rabinovich
# Created on    : 09/19/2023 17:22:11
#------------------------------------------------------------------------------
~Version Information Section
VERS.           2.0     :   CWLS log ASCII Standard - VERSION 2.0
WRAP.           NO      :   One line per depth step
~Well Information Section
#MNEM       .UNIT                                         VALUE :DESCRIPTION
#------------------------------------------------------------------------------
STRT        .FT                                             714 :START DEPTH
STOP        .FT                                            7955 :STOP DEPTH
STEP        .FT                                             0.5 :STEP      
NULL        .                                           -999.25 :NULL      
COMP        .                                ODECO OIL & GAS CO :COMPANY   
WELL        .                               OCS G04756 ST00BP00 :WELL      
FLD         .                           WEST CAMERON BLOCK 0165 :FIELD     
LOC         .                                                   :LOCATION  
CNTY        .                                      WEST CAMERON :LOCATION  
STAT        .                                         LOUISIANA :STATE     
CTRY        .                                     UNITED STATES :COUNTRY   
SRVC        .                                                   :SERVICE COMPANY
DATE        .                             9/13/2023 11:19:06 AM :LOG DATE  
API         .                                    17700406200000 :API NUMBER
UWI         .                                    17700406200000 :UNIQUE WELL ID
XCOORD      .                                  1451757.14487559 :SURFACE X 
YCOORD      .                                  10673474.8616073 :SURFACE Y 
LAT         .                                        29.4091131 :LATITUDE  
LON         .                                       -93.5927176 :LONGITUDE 
ELEV        .FT                                             113 :ELEVATION VALUE
ELEV_TYPE   .                                                KB :ELEVATION REFERENCE TYPE
~Curve Information Section
#MNEM       .UNIT                                      API CODE :CURVE DESCRIPTION
#------------------------------------------------------------------------------
DEPT        .FT                                                 :DEPTH     
CALI        .IN                                                 :          
CILD        .MMHO                                               :          
DRHO        .G/C3                                               :          
DT          .US/F                                               :          
GR          .GAPI                                               :          
GR_NORM     .GAPI                                               :GammaRay Normalized
ILD         .OHMM                                               :          
NPSS        .%                                                  :Neutron Porosity Sandstone
RFOC        .OHMM                                               :          
RHOB        .G/C3                                               :          
RILD        .OHMM                                               :          
RILM        .OHMM                                               :          
SN          .OHMM                                               :          
SP          .MV                                                 :          
SP_NORM     .MV                                                 :SP Normalized
VSH_GR      .V/V                                                :Volume of Shale from GR
VSH_SP      .V/V                                                :Volume of Shale from SP
~A        DEPTH           CALI           CILD           DRHO             DT             GR        GR_NORM            ILD           NPSS           RFOC           RHOB           RILD           RILM             SN             SP        SP_NORM         VSH_GR         VSH_SP
# ...
      6984.0000        12.2857       1004.082         0.0836        -999.25             89       77.86443        -999.25          44.22         1.0184         2.2353         0.9624         0.9905        -999.25          -20.4        -9.7374      0.9545624      0.8704346
      6984.5000        12.1837       1012.245         0.0852        -999.25           89.6       78.54603        -999.25          43.38         1.0277         2.2431         0.9624         0.9905        -999.25          -22.2       -11.5267      0.9690644       0.836025
      6985.0000        12.0816       1028.571         0.0836        -999.25           88.6       77.41468        -999.25          42.24         1.0277          2.255         0.9624         0.9905        -999.25          -22.2       -11.5159      0.9449932      0.8362327
      6985.5000        12.1224       1044.898         0.0836        -999.25             87       75.60331        -999.25          41.46         1.0184         2.2392         0.9442         0.9624        -999.25          -21.6       -10.9052      0.9064534      0.8479769
      6986.0000        12.3061       1044.898         0.0852        -999.25           86.2       74.69847        -999.25          41.28              1         2.2235         0.9352         0.9442        -999.25          -23.4       -12.6945      0.8872015      0.8135673
      6986.5000        12.5102       1044.898         0.0956        -999.25             85       73.34048        -999.25          40.26         0.9717         2.2069         0.9442         0.9442        -999.25          -25.2       -14.4837      0.8583082      0.7791596
      6987.0000        12.8163       1028.571         0.1076        -999.25           83.6       71.75574        -999.25        38.5102         0.9532         2.2167         0.9442         0.9442        -999.25          -24.3        -13.573      0.8245903      0.7966731
      6987.5000        13.0556       1028.571         0.1196        -999.25           82.6       70.62428        -999.25         37.898         0.9532         2.2343         0.9532         0.9532        -999.25            -21       -10.2623      0.8005167      0.8603404
      6988.0000        13.0556       1028.571         0.1316        -999.25           82.2       70.17282        -999.25        38.7551         1.0092         2.2422         0.9624         0.9532        -999.25          -18.3        -7.5515      0.7909111      0.9124712
      6988.5000             13       1036.735         0.1296        -999.25           81.8       69.72126        -999.25        39.5314         1.0661         2.2423         0.9717         0.9532        -999.25          -18.6        -7.8408      0.7813034      0.9069077
      6989.0000        12.9388       1036.735         0.1216        -999.25           80.6       68.36315        -999.25        40.1771          1.096         2.2346         0.9717         0.9624        -999.25          -18.9        -8.1301      0.7524075      0.9013442
      6989.5000        12.7755       1020.408         0.1136        -999.25        79.2593       66.84572        -999.25          41.42         1.0375         2.2298          0.981         0.9624        -999.25          -19.8        -9.0193      0.7201217      0.8842442
      6990.0000        12.6327       1004.082         0.1176        -999.25        79.4444       67.05717        -999.25        41.6457         0.9905         2.2389         0.9905         0.9717        -999.25          -21.3       -10.5086      0.7246206      0.8556038
      6990.5000         12.551       1004.082         0.1256        -999.25             82        69.9548        -999.25          38.16         0.9615          2.252         0.9892         0.9799        -999.25          -23.1       -12.2979      0.7862722      0.8211942
      6991.0000        12.5102       1036.735         0.1296        -999.25           84.8       73.12948        -999.25          36.72         0.9963         2.2618         0.9963         0.9426        -999.25            -24       -13.1871      0.8538187      0.8040942
      6991.5000         12.449       1077.551         0.1216        -999.25           86.6       75.17089        -999.25          36.78         1.0511         2.2696         0.9502         0.9082        -999.25          -24.6       -13.7764       0.897253      0.7927616
      6992.0000         12.449       1126.531         0.1096        -999.25           87.6       76.30576        -999.25          38.88         1.0787         2.2706            0.9         0.8656        -999.25          -24.9       -14.0657      0.9213991      0.7871981
      6992.5000        12.4694       1167.347         0.0972        -999.25           87.4       76.08094        -999.25          41.28         1.0285         2.2706         0.8569         0.8402        -999.25            -24       -13.1549      0.9166157      0.8047135
      6993.0000        12.6531           1208         0.0852        -999.25           87.2         75.856        -999.25          42.06         0.9826         2.2716         0.8239         0.8239        -999.25            -21       -10.1442      0.9118297      0.8626115
      6993.5000        12.8163           1232         0.0752        -999.25             87       75.63107        -999.25          42.42         0.9404          2.244            0.8         0.8079        -999.25          -18.3        -7.4335      0.9070439      0.9147404
      6994.0000        12.8367           1272         0.0652        -999.25           87.2       75.85952        -999.25          41.64         0.9322          2.211          0.772         0.7929        -999.25          -17.4        -6.5227      0.9119047      0.9322557
      6994.5000        12.7755           1304         0.0632        -999.25           87.2       75.86121        -999.25          40.26         0.9655          2.219         0.7584         0.7789        -999.25          -16.2         -5.312      0.9119407      0.9555385
      6995.0000        12.7143           1304         0.0692        -999.25           86.8       75.40965        -999.25          40.26          0.957          2.238         0.7517         0.7789        -999.25       -14.6875        -3.7888      0.9023329      0.9848308
      6995.5000        12.6531           1312         0.0776        -999.25           86.6       75.18482        -999.25          40.92          0.924         2.2588         0.7517         0.7789        -999.25       -14.0625         -3.153      0.8975494      0.9970577
      6996.0000        12.6122           1320         0.0852        -999.25           86.6       75.18652        -999.25          42.48          0.924         2.2549          0.745         0.7789        -999.25        -14.375        -3.4548      0.8975856      0.9912539
      6996.5000        12.6122           1336         0.0956        -999.25           86.6       75.18824        -999.25          44.22         0.9404          2.249         0.7384          0.772        -999.25            -15        -4.0691      0.8976221      0.9794404
      6997.0000        12.6122           1336         0.1056        -999.25           85.6       74.05687        -999.25          43.98         0.9655          2.245         0.7384          0.772        -999.25            -15        -4.0583      0.8735504      0.9796481
      6997.5000        12.6327           1320         0.1156        -999.25           84.4       72.69876        -999.25          42.72         0.9655          2.239         0.7384         0.7652        -999.25        -14.375        -3.4226      0.8446545      0.9918731
      6998.0000        12.6122           1280         0.1276        -999.25           82.4       70.43414        -999.25          41.16          0.924          2.224         0.7517         0.7859        -999.25         -13.75        -2.7869      0.7964709              1
      6998.5000        12.5306           1224          0.138        -999.25             80       67.71634        -999.25          39.48         0.8739          2.201            0.8         0.8569        -999.25         -13.75        -2.7761      0.7386455              1
