#------------------------------------------------------------------------------
# Created by    : vladimir.rabinovich
# Created on    : 09/19/2023 17:21:57
#------------------------------------------------------------------------------
~Version Information Section
VERS.           2.0     :   CWLS log ASCII Standard - VERSION 2.0
WRAP.           NO      :   One line per depth step
~Well Information Section
#MNEM       .UNIT                                         VALUE :DESCRIPTION
#------------------------------------------------------------------------------
STRT        .FT                                             570 :START DEPTH
STOP        .FT                                           10083 :STOP DEPTH
STEP        .FT                                             0.5 :STEP      
NULL        .                                           -999.25 :NULL      
COMP        .                                BP EXPLORATION INC :COMPANY   
WELL        .                               OCS G10548 ST00BP00 :WELL      
FLD         .                                           WILDCAT :FIELD     
LOC         .                                                   :LOCATION  
CNTY        .                                      WEST CAMERON :LOCATION  
STAT        .                                         LOUISIANA :STATE     
CTRY        .                                     UNITED STATES :COUNTRY   
SRVC        .                                                   :SERVICE COMPANY
DATE        .                             9/13/2023 11:18:09 AM :LOG DATE  
API         .                                    17700408010000 :API NUMBER
UWI         .                                    17700408010000 :UNIQUE WELL ID
XCOORD      .                                  1469734.01149431 :SURFACE X 
YCOORD      .                                  10675810.5973196 :SURFACE Y 
LAT         .                                        29.4157778 :LATITUDE  
LON         .                                        -93.536275 :LONGITUDE 
ELEV        .FT                                              80 :ELEVATION VALUE
ELEV_TYPE   .                                                KB :ELEVATION REFERENCE TYPE
~Curve Information Section
#MNEM       .UNIT                                      API CODE :CURVE DESCRIPTION
#------------------------------------------------------------------------------
DEPT        .FT                                                 :DEPTH     
CALI        .IN                                                 :          
DPHI        .%                                                  :          
GR          .GAPI                                               :          
GR_1        .GAPI                                               :          
GR_NORM     .GAPI                                               :GammaRay Normalized
ILD         .OHMM                                               :          
ILM         .OHMM                                               :          
NPHI        .%                                                  :          
SFL         .OHMM                                               :          
SP          .MV                                                 :          
SP_NORM     .MV                                                 :SP Normalized
VSH_GR      .V/V                                                :Volume of Shale from GR
VSH_SP      .V/V                                                :Volume of Shale from SP
~A        DEPTH           CALI           DPHI             GR           GR_1        GR_NORM            ILD            ILM           NPHI            SFL             SP        SP_NORM         VSH_GR         VSH_SP
# ...
      5016.0000        10.2745         30.282        -999.25        87.4994       80.49373         0.8943          0.896        50.4695         0.9057       -76.4941        -1.9424              1              1
      5016.5000        10.3137        29.1494        -999.25        86.6113       79.48293         0.9108         0.9035        49.7297         0.9295       -76.6841        -2.1351      0.9889986      0.9941261
      5017.0000        10.3651        28.2435        -999.25        86.6073       79.47398         0.9207         0.9092        48.2765         0.9728       -76.8717        -2.3255      0.9888082      0.9858478
      5017.5000        10.4243        27.7104        -999.25         86.979       79.89065         0.9233         0.9131        46.3738         1.0119       -77.0194         -2.476      0.9976733      0.9793044
      5018.0000        10.4546        27.4739        -999.25         87.774        80.7871         0.9174         0.9089        45.1865         1.0322       -76.9779        -2.4372              1      0.9809913
      5018.5000        10.4821         27.507        -999.25        89.1249       82.31348         0.9009         0.9006        45.1689         1.0345       -76.9192        -2.3813              1      0.9834217
      5019.0000        10.4985        27.7476        -999.25        91.2336       84.69846         0.8798         0.8893        48.0889         1.0171       -76.8362        -2.3011              1      0.9869087
      5019.5000        10.5263        28.2604        -999.25        92.6458        86.2943         0.8572         0.8764        50.6548          0.976       -76.7035        -2.1712              1      0.9925565
      5020.0000        10.5638        29.0542        -999.25        92.8735        86.5479         0.8397         0.8619        50.8333         0.9166         -76.62        -2.0905              1      0.9960652
      5020.5000        10.6125          29.66        -999.25        92.0977       85.66438          0.824         0.8464        49.6375         0.8738       -76.7053        -2.1785              1      0.9922391
      5021.0000        10.6438        30.0315        -999.25        90.4396       83.78092         0.8177          0.851        48.5353         0.8527         -76.96         -2.436              1      0.9810435
      5021.5000         10.647        30.0252        -999.25        89.2185        82.3928         0.8727         0.8809        47.3821         0.8724       -77.3735        -2.8523              1      0.9629435
      5022.0000        10.5967        29.6607        -999.25        87.8003       80.78133         0.9122         0.9169        45.3805         0.9042       -77.8892        -3.3707              1      0.9404044
      5022.5000        10.4593        29.1284        -999.25        86.2458       79.01539         0.9395         0.9481        43.6924         0.9406       -79.0042        -4.4885      0.9790508      0.8918043
      5023.0000        10.3181        28.6059        -999.25        85.6469        78.3322         0.9662         0.9758        42.3082         0.9697       -79.9592        -5.4463      0.9645149      0.8501609
      5023.5000        10.2037        28.0297        -999.25        87.0712       79.94176         0.9956         1.0029        41.9556         0.9901       -80.3438        -5.8337      0.9987608      0.8333174
      5024.0000         10.159        27.3871        -999.25        89.1599       82.30418         1.0205         1.0201        42.3386         1.0066       -80.5208        -6.0134              1      0.8255044
      5024.5000        10.2235        26.6691        -999.25        90.4966       83.81448         1.0453         1.0397        42.6512         1.0174       -80.5493        -6.0447              1      0.8241435
      5025.0000        10.3762        26.0081        -999.25        89.0425        82.1622         1.0694         1.0617        42.7036         1.0237       -80.2972        -5.7954              1      0.8349826
      5025.5000        10.6104        25.2054        -999.25        86.9968       79.83966         1.0912         1.0802        42.4661         1.0284       -79.9202        -5.4212      0.9965885      0.8512522
      5026.0000        10.7255        24.4446        -999.25        86.6506       79.44295         1.1106         1.0904        42.0643         1.0361       -79.5651        -5.0688      0.9881478      0.8665739
      5026.5000         10.756         24.601        -999.25        87.8589       80.80762         1.1275         1.1055        41.7266         1.0507       -79.2473        -4.7538              1      0.8802696
      5027.0000        10.7332        25.9369        -999.25        89.9988       83.22806         1.1417          1.119        42.7651         1.0631       -78.9133        -4.4226              1      0.8946696
      5027.5000        10.7706        27.2873        -999.25        90.1316       83.37413         1.1504          1.131         44.541         1.0705       -78.5862        -4.0983              1      0.9087695
      5028.0000         10.798        27.9663        -999.25        88.8177       81.88084         1.1521         1.1366        45.4604         1.0724       -78.2722         -3.787              1      0.9223043
      5028.5000        10.7532        28.1497        -999.25         86.578       79.33835          1.147         1.1357        45.8427         1.0707       -77.9866        -3.5042      0.9859223         0.9346
      5029.0000        10.6887        28.0226        -999.25        89.7367       82.91328         1.1382         1.1289        45.8616         1.0659       -77.7411        -3.2615              1      0.9451522
      5029.5000        10.6395        27.7864        -999.25        92.2374       85.74256         1.1271         1.1177        45.6768         1.0526       -77.4939        -3.0171              1      0.9557782
      5030.0000        10.6013        27.4972        -999.25        93.7382       87.43881         1.1137         1.1069        45.5536         1.0338       -77.2407        -2.7666              1      0.9666696
      5030.5000        10.6118        27.3381        -999.25        94.2554       88.02035         1.0982         1.0964        45.9612         1.0098       -76.9814        -2.5101              1      0.9778218
      5031.0000        10.6571        27.2351        -999.25        92.6832       86.23435         1.0816         1.0854        46.8817         0.9872       -76.7195         -2.251              1       0.989087
      5031.5000        10.7188        27.2391        -999.25        90.7842       84.07805         1.0671         1.0737        48.2734          0.969         -76.55        -2.0843              1      0.9963348
      5032.0000        10.7495         27.545        -999.25        89.6992       82.84415         1.0542         1.0619        49.2417          0.953       -76.4442        -1.9812              1              1
      5032.5000        10.7401        27.9629        -999.25        90.4015       83.63544         1.0418         1.0512        49.3342         0.9391       -76.4502          -1.99              1              1
      5033.0000        10.7257        28.2863        -999.25        90.8988       84.19454         1.0289         1.0429         48.218         0.9317       -76.5225        -2.0651              1      0.9971696
      5033.5000        10.7145        28.4874        -999.25        90.8542       84.13959         1.0164         1.0367        45.8171         0.9305        -76.655        -2.2003              1      0.9912913
      5034.0000        10.7238        28.4225        -999.25        91.1613       84.48305         1.0069          1.034        44.4667         0.9351       -76.8464        -2.3945              1      0.9828478
      5034.5000        10.7819        28.1698        -999.25        91.6672        85.0519         1.0031         1.0318        43.9647         0.9412       -77.0931         -2.644              1          0.972
