#------------------------------------------------------------------------------
# Created by    : vladimir.rabinovich
# Created on    : 09/19/2023 17:20:47
#------------------------------------------------------------------------------
~Version Information Section
VERS.           2.0     :   CWLS log ASCII Standard - VERSION 2.0
WRAP.           NO      :   One line per depth step
~Well Information Section
#MNEM       .UNIT                                         VALUE :DESCRIPTION
#------------------------------------------------------------------------------
STRT        .FT                                            2030 :START DEPTH
STOP        .FT                                            9342 :STOP DEPTH
STEP        .FT                                             0.5 :STEP      
NULL        .                                           -999.25 :NULL      
COMP        .                                      SHELL OIL CO :COMPANY   
WELL        .                               OCS G00950 ST00BP00 :WELL      
FLD         .                           EAST CAMERON BLOCK 0193 :FIELD     
LOC         .                                                   :LOCATION  
CNTY        .                                      EAST CAMERON :LOCATION  
STAT        .                                         LOUISIANA :STATE     
CTRY        .                                     UNITED STATES :COUNTRY   
SRVC        .                                                   :SERVICE COMPANY
DATE        .                             9/13/2023 11:18:15 AM :LOG DATE  
API         .                                    17703004920000 :API NUMBER
UWI         .                                    17703004920000 :UNIQUE WELL ID
XCOORD      .                                  1684363.85071557 :SURFACE X 
YCOORD      .                                  10458597.1936422 :SURFACE Y 
LAT         .                                        28.8191951 :LATITUDE  
LON         .                                       -92.8627139 :LONGITUDE 
ELEV        .FT                                              75 :ELEVATION VALUE
ELEV_TYPE   .                                                KB :ELEVATION REFERENCE TYPE
~Curve Information Section
#MNEM       .UNIT                                      API CODE :CURVE DESCRIPTION
#------------------------------------------------------------------------------
DEPT        .FT                                                 :DEPTH     
ASN         .OHMM                                               :          
CILM        .MMHO                                               :          
ILM         .OHMM                                               :          
LN          .OHMM                                               :          
SP          .MV                                                 :          
SP_NORM     .MV                                                 :SP Normalized
VSH_SP      .V/V                                                :Volume of Shale from SP
~A        DEPTH            ASN           CILM            ILM             LN             SP        SP_NORM         VSH_SP
# ...
      3001.5000         0.6855       1557.955         0.6459        -999.25       -86.4059        -4.4256       0.911488
      3002.0000         0.6626       1586.248         0.6145        -999.25       -85.1715        -3.1966       0.936068
      3002.5000         0.6378       1614.529          0.583        -999.25       -84.0869        -2.1174       0.957652
      3003.0000         0.6113       1659.965         0.5791        -999.25       -84.1599        -2.1959       0.956082
      3003.5000          0.612       1743.029         0.5813        -999.25       -87.9524        -5.9938       0.880124
      3004.0000         0.6364       1851.293         0.5838        -999.25         -97.12       -15.1668       0.696664
      3004.5000         0.6527       2022.912         0.6021        -999.25      -101.1478       -19.2001       0.615998
      3005.0000         0.6691       2107.234         0.6205        -999.25      -104.3151       -22.3728       0.552544
      3005.5000         0.6854        2177.16         0.6389        -999.25      -105.8658       -23.9289       0.521422
      3006.0000          0.692       2239.258         0.6549        -999.25      -107.1798       -25.2483       0.495034
      3006.5000         0.6825       2294.535         0.6564        -999.25      -107.9552       -26.0292       0.479416
      3007.0000         0.6729       2343.449         0.6548        -999.25      -108.7306         -26.81         0.4638
      3007.5000         0.6524       2386.262         0.6342        -999.25      -109.5287       -27.6135        0.44773
      3008.0000         0.6317       2429.078         0.6135        -999.25        -110.34       -28.4302       0.431396
      3008.5000         0.5998       2483.031         0.5929        -999.25      -111.2191       -29.3148       0.413704
      3009.0000         0.5726       2540.805         0.5747        -999.25      -112.2201       -30.3212       0.393576
      3009.5000         0.5684       2607.516         0.5652        -999.25      -113.2207       -31.3272       0.373456
      3010.0000         0.5831       2676.137         0.5558        -999.25      -114.5922       -32.7041       0.345918
      3010.5000         0.6113       2741.383         0.5656        -999.25      -115.9978       -34.1152       0.317696
      3011.0000         0.6399       2806.629          0.579        -999.25      -119.0883       -37.2111       0.255778
      3011.5000          0.641       2857.676         0.5905        -999.25      -123.2494       -41.3776       0.172448
      3012.0000         0.6252        2908.41         0.5947        -999.25      -125.3586       -43.4922       0.130156
      3012.5000         0.6093       2963.465         0.5747        -999.25      -126.9937       -45.1328     0.09734398
      3013.0000         0.5934       3025.629          0.539        -999.25      -128.2361       -46.3806       0.072388
      3013.5000         0.5775       3117.109         0.5033        -999.25      -129.3008       -47.4507     0.05098602
      3014.0000         0.5504       3188.945         0.4694        -999.25       -128.843       -46.9983     0.06003403
      3014.5000          0.517       3149.215         0.4481        -999.25      -125.5864       -43.7472       0.125056
      3015.0000         0.4819       3092.133         0.4268        -999.25        -120.86       -39.0262       0.219476
      3015.5000         0.4635       2963.172         0.4106        -999.25      -115.7944        -33.966        0.32068
      3016.0000         0.4563       2763.477         0.4153        -999.25      -111.4764       -29.6534       0.406932
      3016.5000         0.4508       2446.336           0.42        -999.25      -105.9705        -24.153        0.51694
      3017.0000          0.456       2232.777         0.4246        -999.25        -93.109       -11.2969       0.774062
      3017.5000          0.482       2030.111         0.4392        -999.25       -85.3149        -3.5082       0.929836
      3018.0000         0.5079       1781.098          0.461        -999.25       -83.2217        -1.4204       0.971592
      3018.5000         0.5364       1753.221         0.4828        -999.25       -84.6907        -2.8949       0.942102
      3019.0000         0.5655       1801.256         0.5046        -999.25       -88.3877        -6.5973       0.868054
      3019.5000         0.5931       1859.078         0.5264        -999.25       -95.0748       -13.2898       0.734204
      3020.0000         0.6155       1916.922         0.5482        -999.25      -101.9645       -20.1849       0.596302
      3020.5000         0.6379        2038.48         0.5645        -999.25      -105.6929       -23.9188       0.521624
      3021.0000         0.6581       2162.941         0.5799        -999.25      -107.6022       -25.8335        0.48333
      3021.5000         0.6658       2278.586         0.5953        -999.25      -109.4194       -27.6561       0.446878
      3022.0000         0.6569       2408.266          0.605        -999.25      -111.0967       -29.3388       0.413224
      3022.5000         0.6464       2499.973         0.6062        -999.25      -112.8516       -31.0992       0.378016
      3023.0000         0.6239       2583.441         0.6074        -999.25      -114.8588       -33.1118       0.337764
      3023.5000         0.6014       2652.961         0.6002        -999.25      -116.8069       -35.0653       0.298694
      3024.0000         0.5784       2718.207         0.5931        -999.25      -118.3551       -36.6189       0.267622
      3024.5000          0.554       2766.445         0.5859        -999.25       -119.354       -37.6233       0.247534
      3025.0000         0.5339       2808.395         0.5787        -999.25      -120.1407       -38.4154       0.231692
      3025.5000         0.5329       2837.246         0.5716        -999.25      -120.5017       -38.7818       0.224364
      3026.0000         0.5479       2866.102         0.5644        -999.25      -120.0182       -38.3037       0.233926
      3026.5000         0.5629       2894.957         0.5633        -999.25       -119.467        -37.758        0.24484
      3027.0000         0.5776       2912.395         0.5654        -999.25      -118.5968       -36.8932       0.262136
      3027.5000         0.5923       2902.922         0.5675        -999.25      -117.7159       -36.0177       0.279646
      3028.0000         0.6044       2876.766         0.5697        -999.25      -117.6658        -35.973        0.28054
      3028.5000         0.5775       2864.117          0.568        -999.25       -118.385       -36.6977       0.266046
      3029.0000         0.5329       2870.895         0.5542        -999.25      -119.1899        -37.508        0.24984
      3029.5000         0.5011       2899.535         0.5403        -999.25      -119.9944       -38.3179       0.233642
      3030.0000         0.4873       2932.395         0.5265        -999.25      -120.6322       -38.9611       0.220778
      3030.5000         0.4907       2965.559         0.5169        -999.25      -120.9691       -39.3035        0.21393
      3031.0000         0.4999        2992.32         0.5118        -999.25      -121.3059       -39.6457       0.207086
      3031.5000         0.5103       2939.977         0.5067        -999.25      -121.2935       -39.6387       0.207226
      3032.0000         0.5207       2883.324         0.5016        -999.25      -120.7974        -39.148        0.21704
      3032.5000          0.531       2829.285         0.5099        -999.25      -120.3013       -38.6574       0.226852
      3033.0000         0.5428       2777.246         0.5237        -999.25      -119.3708       -37.7323       0.245354
      3033.5000          0.571       2730.379         0.5375        -999.25      -118.2809       -36.6478       0.267044
      3034.0000         0.5992       2690.648         0.5512        -999.25      -117.1903       -35.5626       0.288748
      3034.5000         0.6154        2658.09         0.5454        -999.25      -116.0914       -34.4692       0.310616
