#------------------------------------------------------------------------------
# Created by    : vladimir.rabinovich
# Created on    : 09/19/2023 17:22:13
#------------------------------------------------------------------------------
~Version Information Section
VERS.           2.0     :   CWLS log ASCII Standard - VERSION 2.0
WRAP.           NO      :   One line per depth step
~Well Information Section
#MNEM       .UNIT                                         VALUE :DESCRIPTION
#------------------------------------------------------------------------------
STRT        .FT                                            4265 :START DEPTH
STOP        .FT                                           12768 :STOP DEPTH
STEP        .FT                                             0.5 :STEP      
NULL        .                                           -999.25 :NULL      
COMP        .                                SHELL OFFSHORE INC :COMPANY   
WELL        .                               OCS G04749 ST00BP02 :WELL      
FLD         .                                           WILDCAT :FIELD     
LOC         .                                                   :LOCATION  
CNTY        .                                      WEST CAMERON :LOCATION  
STAT        .                                         LOUISIANA :STATE     
CTRY        .                                     UNITED STATES :COUNTRY   
SRVC        .                                                   :SERVICE COMPANY
DATE        .                             9/13/2023 11:19:06 AM :LOG DATE  
API         .                                    17700406070000 :API NUMBER
UWI         .                                    17700406070000 :UNIQUE WELL ID
XCOORD      .                                   1486969.7252092 :SURFACE X 
YCOORD      .                                  10728694.6404599 :SURFACE Y 
LAT         .                                        29.5614647 :LATITUDE  
LON         .                                       -93.4828123 :LONGITUDE 
ELEV        .FT                                              98 :ELEVATION VALUE
ELEV_TYPE   .                                                KB :ELEVATION REFERENCE TYPE
~Curve Information Section
#MNEM       .UNIT                                      API CODE :CURVE DESCRIPTION
#------------------------------------------------------------------------------
DEPT        .FT                                                 :DEPTH     
CALI        .IN                                                 :          
DRHO        .G/C3                                               :          
DT          .US/F                                               :          
GR          .GAPI                                               :          
GR_1        .GAPI                                               :          
GR_NORM     .GAPI                                               :GammaRay Normalized
ILD         .OHMM                                               :          
ILM         .OHMM                                               :          
NPHI        .%                                                  :          
RHOB        .G/C3                                               :          
SFL         .OHMM                                               :          
SP          .MV                                                 :          
SP_NORM     .MV                                                 :SP Normalized
VSH_GR      .V/V                                                :Volume of Shale from GR
VSH_SP      .V/V                                                :Volume of Shale from SP
~A        DEPTH           CALI           DRHO             DT             GR           GR_1        GR_NORM            ILD            ILM           NPHI           RHOB            SFL             SP        SP_NORM         VSH_GR         VSH_SP
# ...
     11116.0000        10.7841        -0.0201        99.5278        -999.25        51.5688       61.47482         0.6604         0.7061        27.5986         2.3276         0.7027        -51.409       -18.0695      0.6058471      0.5771184
     11116.5000        10.6481        -0.0229        99.3596        -999.25        46.5939       54.54943         0.6502         0.7179        26.8797         2.3153         0.7133        -53.935        -20.593      0.4584984      0.5107105
     11117.0000        10.3869        -0.0231        99.7599        -999.25         43.719       50.54793         0.6419         0.7304          25.46         2.3149         0.8184       -56.1322       -22.7877      0.3733602      0.4529552
     11117.5000         9.9494        -0.0221       100.4039        -999.25        41.4253       47.35562         0.6349         0.7371         25.157         2.3206         0.9353       -58.0528       -24.7058      0.3054387       0.402479
     11118.0000         9.7971        -0.0202       101.1505        -999.25        41.3565        47.2608          0.628         0.7345        25.1694         2.3278         1.0325       -59.7194       -26.3699      0.3034213      0.3586868
     11118.5000         9.7497        -0.0213       102.0673        -999.25        42.1415       48.35484         0.6215         0.7262        25.1411         2.3304         1.0683       -61.1094       -27.7573      0.3266986      0.3221763
     11119.0000          9.746        -0.0278       102.9133        -999.25        42.6796       49.10513         0.6151         0.7167        24.8321         2.3291         1.0518       -62.0299       -28.6753      0.3426622      0.2980184
     11119.5000         9.7611        -0.0372        103.301        -999.25         41.654       47.67834         0.6084         0.7077        24.5147         2.3197         1.0239       -62.7349       -29.3778      0.3123051      0.2795316
     11120.0000          9.778        -0.0452       103.6381        -999.25        39.9692       45.33363         0.6019         0.7018        24.8351         2.3082         0.9947       -63.2374       -29.8778      0.2624176      0.2663737
     11120.5000         9.7936        -0.0463       103.7283        -999.25        40.5465        46.1385         0.5961         0.6987         25.175         2.3051         1.0013       -63.6385       -30.2763      0.2795426      0.2558868
     11121.0000         9.8069        -0.0447       103.8375        -999.25         41.879        47.9948         0.5921         0.6953        25.3279         2.3072         1.0084       -63.8212       -30.4565      0.3190382      0.2511448
     11121.5000         9.8194         -0.039       103.9873        -999.25        42.5126       48.87791         0.5881          0.692        25.3374         2.3112         1.0158       -63.8412        -30.474      0.3378279      0.2506842
     11122.0000          9.823        -0.0278        104.254        -999.25         42.424       48.75567         0.5844         0.6871        25.3562         2.3131         1.0228       -63.6815       -30.3118      0.3352271      0.2549526
     11122.5000         9.8208         -0.025        104.703        -999.25         42.184       48.42264         0.5808         0.6819        25.5059         2.3124         1.0046       -63.1945       -29.8222      0.3281413      0.2678368
     11123.0000         9.8129        -0.0259       105.0551        -999.25         41.514       47.49081         0.5773          0.676        25.3581         2.3118         0.9842       -62.6477       -29.2729       0.308315      0.2822921
     11123.5000          9.791        -0.0268       105.2661        -999.25        40.3591       45.88399         0.5738         0.6721        24.8426          2.312         0.9572       -62.3531       -28.9758      0.2741275      0.2901105
     11124.0000         9.7642        -0.0262       105.2926        -999.25        40.1922       45.65274         0.5724         0.6714        24.8561         2.3139         0.9416       -62.0668        -28.687      0.2692072      0.2977105
     11124.5000          9.732        -0.0222       104.7673        -999.25        40.9615       46.72491         0.5713          0.671        25.3231         2.3239         0.9442       -61.9484        -28.566      0.2920195      0.3008947
     11125.0000         9.6948        -0.0177       103.8882        -999.25         42.784       49.26328         0.5739         0.6708        25.6999         2.3387         0.9579       -61.8301       -28.4452      0.3460273      0.3040737
     11125.5000          9.667        -0.0173        102.999        -999.25        44.7789       52.04183         0.5773         0.6698        25.9834         2.3485         0.9602       -61.9614        -28.574      0.4051453      0.3006842
     11126.0000         9.6625        -0.0226        102.465        -999.25        45.8395       53.51958         0.5778         0.6683        26.2176         2.3498         0.9565       -62.1457       -28.7558      0.4365867         0.2959
     11126.5000         9.6822        -0.0312       102.4994        -999.25        45.0689       52.44768         0.5755         0.6664        26.4113         2.3336         0.9454       -62.7075        -29.315      0.4137804      0.2811842
     11127.0000         9.6867        -0.0372       102.9264        -999.25         42.934       49.47645         0.5639         0.6608        26.4511         2.3125         0.9435        -63.451        -30.056      0.3505628      0.2616842
     11127.5000         9.6322        -0.0383       103.6843        -999.25        39.7991       45.11295          0.551         0.6492        26.1939          2.268         0.9484       -64.5322       -31.1347      0.2577224      0.2332973
     11128.0000         9.5387        -0.0379        104.399        -999.25        38.5978        43.4414         0.5325         0.6337        26.0446         2.2482         0.9701       -65.5336       -32.1336      0.2221574      0.2070106
     11128.5000         9.4744        -0.0358       104.8087        -999.25        37.8966       42.46627         0.5148         0.6143        26.5052         2.2449         0.9429        -66.464       -33.0614      0.2014099      0.1825947
     11129.0000         9.4177         -0.032       105.0809        -999.25        37.6003       42.05486         0.4998         0.5964        27.1986         2.2498         0.9108       -67.2426       -33.8375      0.1926565       0.162171
     11129.5000         9.3767        -0.0274       104.9441        -999.25        37.3216       41.66794         0.4855         0.5806        27.5501         2.2599         0.8787       -67.8702       -34.4626      0.1844243       0.145721
     11130.0000         9.3427        -0.0195       104.8005        -999.25        36.1491        40.0365         0.4742         0.5696         27.623         2.2697         0.8758       -68.2258       -34.8157      0.1497127      0.1364289
     11130.5000         9.3412        -0.0116       104.4847        -999.25        35.2198       38.74378         0.4639         0.5614        27.5114          2.275         0.8872       -68.5009       -35.0882       0.122208      0.1292579
     11131.0000         9.3439        -0.0079       104.1689        -999.25         35.246       38.78136         0.4567         0.5544        27.3418         2.2733         0.9136       -68.6581       -35.2429      0.1230078      0.1251868
     11131.5000         9.3424        -0.0098       104.3778        -999.25        36.1179       39.99626         0.4509         0.5544        27.0309         2.2642         0.9245       -68.7688       -35.3511      0.1488566      0.1223394
     11132.0000         9.3231        -0.0138       104.6323        -999.25        38.3741       43.13859         0.4491         0.5553        27.0745         2.2614         0.9235       -68.8293       -35.4091      0.2157147      0.1208132
     11132.5000         9.2912        -0.0134       104.7606        -999.25         41.179       47.04486         0.4484         0.5574        27.3192         2.2698         0.9284       -68.8566       -35.4338      0.2988268      0.1201632
