#------------------------------------------------------------------------------
# Created by    : vladimir.rabinovich
# Created on    : 09/19/2023 17:20:47
#------------------------------------------------------------------------------
~Version Information Section
VERS.           2.0     :   CWLS log ASCII Standard - VERSION 2.0
WRAP.           NO      :   One line per depth step
~Well Information Section
#MNEM       .UNIT                                         VALUE :DESCRIPTION
#------------------------------------------------------------------------------
STRT        .FT                                             612 :START DEPTH
STOP        .FT                                            9868 :STOP DEPTH
STEP        .FT                                             0.5 :STEP      
NULL        .                                           -999.25 :NULL      
COMP        .                                      SHELL OIL CO :COMPANY   
WELL        .                               OCS G00950 ST00BP00 :WELL      
FLD         .                                           WILDCAT :FIELD     
LOC         .                                                   :LOCATION  
CNTY        .                                      EAST CAMERON :LOCATION  
STAT        .                                         LOUISIANA :STATE     
CTRY        .                                     UNITED STATES :COUNTRY   
SRVC        .                                                   :SERVICE COMPANY
DATE        .                             9/13/2023 11:18:15 AM :LOG DATE  
API         .                                    17703002450000 :API NUMBER
UWI         .                                    17703002450000 :UNIQUE WELL ID
XCOORD      .                                  1691932.89207312 :SURFACE X 
YCOORD      .                                   10460306.475122 :SURFACE Y 
LAT         .                                        28.8238717 :LATITUDE  
LON         .                                       -92.8390619 :LONGITUDE 
ELEV        .FT                                              75 :ELEVATION VALUE
ELEV_TYPE   .                                                KB :ELEVATION REFERENCE TYPE
~Curve Information Section
#MNEM       .UNIT                                      API CODE :CURVE DESCRIPTION
#------------------------------------------------------------------------------
DEPT        .FT                                                 :DEPTH     
ASN         .OHMM                                               :          
GR          .GAPI                                               :          
GR_NORM     .GAPI                                               :GammaRay Normalized
ILD         .OHMM                                               :          
SP          .MV                                                 :          
SP_NORM     .MV                                                 :SP Normalized
VSH_GR      .V/V                                                :Volume of Shale from GR
VSH_SP      .V/V                                                :Volume of Shale from SP
~A        DEPTH            ASN             GR        GR_NORM            ILD             SP        SP_NORM         VSH_GR         VSH_SP
# ...
      1231.5000         1.1881        93.1787       98.62275         1.2675       -38.9583        -1.2225              1      0.9942949
      1232.0000         1.2444        91.0227       95.89765         1.2979       -38.6899         -0.954              1              1
      1232.5000         1.2586        87.1364        90.9851         1.2914        -38.457        -0.7211              1              1
      1233.0000         1.2333        86.5254       90.21319         1.2646       -38.4848        -0.7489              1              1
      1233.5000         1.1958        86.4988       90.18007         1.2235       -38.5707        -0.8349              1              1
      1234.0000           1.17        87.5873       91.55665         1.1844       -38.6155        -0.8797              1              1
      1234.5000         1.2102        88.9369       93.26331         1.1751       -38.6603        -0.9244              1              1
      1235.0000         1.2508        90.3174       95.00906         1.1575       -38.7356        -0.9997              1              1
      1235.5000         1.2492        89.4968       93.97215         1.1271       -38.8352        -1.0993              1      0.9974539
      1236.0000         1.2405        88.3109       92.47343         1.0989       -38.9728        -1.2369              1      0.9939256
      1236.5000         1.2317        86.1583       89.75275         1.0926       -39.1338        -1.3979              1      0.9897974
      1237.0000         1.2274        83.6755       86.61452         1.1069       -39.3234        -1.5875              1      0.9849359
      1237.5000         1.2326        82.2827       84.85426         1.1248       -39.5262        -1.7903              1      0.9797359
      1238.0000         1.2365        80.6823       82.83153         1.1363       -39.6567        -1.9208              1      0.9763898
      1238.5000         1.2235        78.3914       79.93589         1.1428       -39.7401        -2.0042      0.9986359      0.9742513
      1239.0000         1.2122        78.2758       79.79026         1.1483       -39.7625        -2.0266      0.9955375      0.9736769
      1239.5000         1.2046        79.2603       81.03535         1.1441       -39.6909         -1.955              1      0.9755128
      1240.0000         1.2095        80.6738       82.82281         1.1402       -39.5398        -1.8039              1      0.9793872
      1240.5000         1.2356        81.0515        83.3008         1.1388       -39.3567        -1.6208              1       0.984082
      1241.0000         1.2336        80.1918        82.2146         1.1497       -39.2651        -1.5292              1      0.9864308
      1241.5000         1.2151         80.301       82.35316         1.1659       -39.2049         -1.469              1      0.9879743
      1242.0000         1.2128        80.7261       82.89108         1.1858       -39.1406        -1.4047              1      0.9896231
      1242.5000         1.2286          79.79       81.70817         1.2061       -39.2634        -1.5275              1      0.9864743
      1243.0000         1.2443        77.5913       78.92908         1.2239       -39.1313        -1.3955      0.9772144       0.989859
      1243.5000         1.2611        76.5059       77.55743         1.2345        -39.035        -1.2991      0.9480304      0.9923308
      1244.0000         1.2844        74.8043       75.40678          1.242       -38.9708        -1.2349      0.9022719       0.993977
      1244.5000         1.2845        72.6636       72.70101          1.247       -38.8637        -1.1278      0.8447024      0.9967231
      1245.0000         1.2662        71.0905       70.71281         1.2473       -38.7269         -0.991      0.8024002              1
      1245.5000         1.2435        71.7687       71.57069         1.2487       -38.5949         -0.859      0.8206531              1
      1246.0000         1.2253        72.6118       72.63717         1.2297       -38.5381        -0.8022       0.843344              1
      1246.5000         1.2175         73.494       73.75295         1.1624       -38.5353        -0.7994      0.8670841              1
      1247.0000         1.2096        74.1106       74.53296         1.1445       -38.6183        -0.8825        0.88368              1
      1247.5000         1.2078         74.351       74.83739         1.1346       -38.7311        -0.9952      0.8901572              1
      1248.0000         1.2307        74.0432       74.44877         1.1266       -38.8728        -1.1369      0.8818887      0.9964898
      1248.5000         1.2296        72.6234       72.65437         1.1163       -38.9147        -1.1788      0.8437099      0.9954154
      1249.0000         1.2151        69.9835       69.31752         1.1118       -38.8689         -1.133      0.7727132      0.9965897
      1249.5000         1.2094        68.4366       67.36243           1.12       -38.7233        -0.9874      0.7311156              1
      1250.0000         1.2277         66.797       65.29016         1.1437       -38.6464        -0.9105      0.6870247              1
      1250.5000         1.2422        67.0392       65.59685         1.1578       -38.7855        -1.0496      0.6935499      0.9987282
      1251.0000         1.2559        66.9662        65.5052         1.1611       -38.8385        -1.1026      0.6916001      0.9973692
      1251.5000         1.2718        66.4008       64.79094           1.15       -38.8419         -1.106       0.676403       0.997282
      1252.0000         1.2535        66.0435       64.33974         1.1506       -38.7903        -1.0544      0.6668029      0.9986051
      1252.5000         1.2331        66.0977       64.40875         1.1513       -38.7491        -1.0132      0.6682713      0.9996616
      1253.0000         1.2606        68.4302       67.35801         1.1617       -38.7217        -0.9858      0.7310215              1
      1253.5000          1.293        71.2832       70.96527         1.1839       -38.6755        -0.9396      0.8077717              1
      1254.0000         1.3175          74.03       74.43826         1.2129       -38.6299        -0.8941      0.8816652              1
      1254.5000         1.3299        75.0104        75.6782         1.2342        -38.853        -1.1171      0.9080468      0.9969974
      1255.0000         1.3268        74.4143       74.92511         1.2255       -39.1321        -1.3962      0.8920236       0.989841
      1255.5000         1.3082        74.8846       75.52017         1.2087        -39.324        -1.5882      0.9046845      0.9849179
      1256.0000          1.285        77.7946       79.19962         1.1913       -39.5079         -1.772      0.9829707      0.9802051
      1256.5000         1.2714        80.0399       82.03863         1.1746       -39.5915        -1.8556              1      0.9780616
      1257.0000         1.3016        81.6422       84.06477         1.1593       -39.6453        -1.9095              1      0.9766795
      1257.5000         1.2946         78.547       80.15233         1.1461        -39.455        -1.7192              1       0.981559
      1258.0000         1.2788         74.105       74.53726         1.1359        -39.285        -1.5491      0.8837715      0.9859205
      1258.5000         1.2911        69.1781       68.30919         1.1275       -39.1911        -1.4552      0.7512593      0.9883282
      1259.0000         1.2875         66.171       64.50813         1.1256       -39.1081        -1.3722      0.6703858      0.9904564
      1259.5000         1.2903        65.6533       63.85416         1.1329       -39.0312        -1.2953      0.6564714      0.9924282
      1260.0000         1.2977         65.464       63.61535         1.1477       -38.9907        -1.2548      0.6513904      0.9934667
      1260.5000         1.2889        65.4402       63.58577         1.1654       -38.9614        -1.2255      0.6507611      0.9942179
