#------------------------------------------------------------------------------
# Created by    : vladimir.rabinovich
# Created on    : 09/19/2023 17:22:24
#------------------------------------------------------------------------------
~Version Information Section
VERS.           2.0     :   CWLS log ASCII Standard - VERSION 2.0
WRAP.           NO      :   One line per depth step
~Well Information Section
#MNEM       .UNIT                                         VALUE :DESCRIPTION
#------------------------------------------------------------------------------
STRT        .FT                                             955 :START DEPTH
STOP        .FT                                            8851 :STOP DEPTH
STEP        .FT                                             0.5 :STEP      
NULL        .                                           -999.25 :NULL      
COMP        .                                SHELL OFFSHORE INC :COMPANY   
WELL        .                               OCS G08627 ST00BP00 :WELL      
FLD         .                                           WILDCAT :FIELD     
LOC         .                                                   :LOCATION  
CNTY        .                                 WEST CAMERON WEST :LOCATION  
STAT        .                                         LOUISIANA :STATE     
CTRY        .                                     UNITED STATES :COUNTRY   
SRVC        .                                                   :SERVICE COMPANY
DATE        .                             9/13/2023 11:18:15 AM :LOG DATE  
API         .                                    17701402000000 :API NUMBER
UWI         .                                    17701402000000 :UNIQUE WELL ID
XCOORD      .                                  1405165.89752093 :SURFACE X 
YCOORD      .                                  10654404.2103889 :SURFACE Y 
LAT         .                                        29.3559214 :LATITUDE  
LON         .                                       -93.7387067 :LONGITUDE 
ELEV        .FT                                             100 :ELEVATION VALUE
ELEV_TYPE   .                                                KB :ELEVATION REFERENCE TYPE
~Curve Information Section
#MNEM       .UNIT                                      API CODE :CURVE DESCRIPTION
#------------------------------------------------------------------------------
DEPT        .FT                                                 :DEPTH     
CALX        .IN                                                 :          
DRHO        .G/C3                                               :          
DT          .US/F                                               :          
GR          .GAPI                                               :          
GR_NORM     .GAPI                                               :GammaRay Normalized
ILD         .OHMM                                               :          
ILM         .OHMM                                               :          
LL          .OHMM                                               :          
NPHI        .%                                                  :          
RHOB        .G/C3                                               :          
SP          .MV                                                 :          
SP_NORM     .MV                                                 :SP Normalized
VSH_GR      .V/V                                                :Volume of Shale from GR
VSH_SP      .V/V                                                :Volume of Shale from SP
~A        DEPTH           CALX           DRHO             DT             GR        GR_NORM            ILD            ILM             LL           NPHI           RHOB             SP        SP_NORM         VSH_GR         VSH_SP
# ...
      6229.0000        11.2915         0.0324       113.6403        85.0507       75.45765         1.0595         0.9408         0.9226        41.0244          2.141       -74.6615      -1.437454      0.9033542      0.9801157
      6229.5000         11.283           0.04       113.3906        82.8168       72.93016         1.0927         0.9469         0.9201        41.4034          2.131       -74.7307      -1.506653      0.8495779      0.9769703
      6230.0000         11.274         0.0549       113.5686        82.3845       72.43995         1.1252         0.9652         0.9138        42.0891         2.1248       -74.5935      -1.369453      0.8391479      0.9832067
      6230.5000        11.2886         0.0807       113.5558        82.6472       72.73568         1.1485         0.9967         0.9019        43.0932         2.1183       -74.2449      -1.020859        0.84544      0.9990519
      6231.0000        11.2932         0.1014       113.0037        81.9663       71.96434         1.1649         1.0382         0.8898        44.1473         2.1011       -73.8197     -0.5956573      0.8290285              1
      6231.5000        11.2542         0.1094       111.1534         80.626       70.44735         1.1587         1.0678         0.8839        45.3404         2.0663       -73.6818      -0.457756      0.7967521              1
      6232.0000        11.2018         0.1063       107.7683        78.4266       67.95886         1.1403         1.0831         0.9282        45.9656         2.0417       -73.8654     -0.6413574      0.7438056              1
      6232.5000        11.1919         0.0868       103.9464         75.335       64.46144         1.1174         1.0825         0.9867        45.3224          2.046       -74.1141     -0.8900528      0.6693923              1
      6233.0000        11.2274         0.0742       104.1028        72.4845       61.23667         1.0928         1.0616         1.0361        44.0637         2.0788       -74.4404      -1.216354      0.6007802      0.9901657
      6233.5000        11.3181         0.0686       107.4706        71.1366       59.71108         1.0639         1.0297         1.0022        42.9812         2.1218       -74.7714      -1.547356      0.5683208      0.9751202
      6234.0000        11.3775         0.0861       111.5903        72.4796       61.22844         1.0324         0.9941         0.9087         43.362         2.1632       -74.7504      -1.526352      0.6006051      0.9760749
      6234.5000          11.39         0.1132       115.3726        76.2556        65.4971         1.0008         0.9547         0.8151        45.0657         2.1689       -74.4178      -1.193756      0.6914276      0.9911929
      6235.0000        11.3878         0.1343       117.2202        82.4882       72.54376         0.9669          0.926         0.7774        46.3975         2.1648        -74.281      -1.056953      0.8413566      0.9974112
      6235.5000        11.3777         0.1478       117.9808        86.8599       77.48607         0.9443         0.9093         0.8013         46.626          2.145       -74.3179      -1.093857      0.9465121      0.9957338
      6236.0000        11.3755         0.1411       118.2139        88.5238       79.36631         0.9231         0.9005         0.8403         45.106         2.1398        -74.424      -1.199959      0.9865173      0.9909109
      6236.5000        11.3821         0.1019       118.3066        89.0297       79.93705         0.9048         0.8989         0.8617        43.6487         2.1479       -74.4398      -1.215752      0.9986606      0.9901931
      6237.0000        11.4077          0.071       118.4747        88.8888       79.77637         0.8928         0.8956         0.8574        42.9827         2.1634       -74.3961      -1.172058      0.9952419      0.9921792
      6237.5000         11.438         0.0636       119.2144        87.8986       78.65527         0.8906         0.8915         0.8473        43.8801         2.1786       -74.2847      -1.060654      0.9713888       0.997243
      6238.0000        11.4694           0.07       119.8273         86.818       77.43196         0.8926         0.8896         0.8452        45.2433         2.1895        -74.199     -0.9749527      0.9453609              1
      6238.5000        11.4758         0.1091       119.7135        86.3773       76.93225         0.8969         0.8892         0.8431         46.458         2.1842       -74.1157      -0.891655      0.9347287              1
      6239.0000         11.476         0.1255       119.1089        87.6106       78.32556         0.9014         0.8944         0.8421        46.6476         2.1634        -74.022     -0.7979584      0.9643736              1
      6239.5000        11.4774         0.1332       117.8059        89.9761       80.99918         0.9167         0.9024         0.8426        46.1422         2.1387       -73.8926     -0.6685562              1              1
      6240.0000        11.4817         0.1292       116.1593        92.7134       84.09326         0.9323         0.9132         0.8516        45.7162         2.1357       -73.7778     -0.5537567              1              1
      6240.5000        11.4893         0.1252       114.6603         93.506        84.9882         0.9503         0.9315          0.868        45.3688         2.1478       -73.7096     -0.4855576              1              1
      6241.0000        11.5016         0.1262       112.6897        91.0936       82.25884         0.9738         0.9512         0.9016        45.0776         2.1567       -73.6591     -0.4350586              1              1
      6241.5000        11.5121         0.1337       110.4929        88.5657       79.39888         0.9961          0.971         0.9538        44.8547         2.1516       -73.6757     -0.4516525      0.9872102              1
      6242.0000        11.5161         0.1331       110.4104          88.13       78.90483          1.009         0.9926         0.9766        44.6291         2.1348       -73.9065      -0.682457      0.9766985              1
      6242.5000        11.5046         0.1246       111.2454        89.9417       80.95222          1.018         1.0122         0.9674        44.4022          2.124        -74.082     -0.8579559              1              1
      6243.0000         11.513         0.1059       112.2095        93.0948       84.51649         1.0194         1.0243         0.9433        44.2537         2.1201        -73.296    -0.07195282              1              1
      6243.5000         11.516         0.0917       113.6006        95.3409        87.0551         1.0114         1.0221         0.9321        44.9089         2.1192       -72.9824      0.2416458              1              1
      6244.0000        11.5091          0.075       115.2212        95.0198       86.69064         0.9976         1.0037          0.918        46.6096         2.1209        -73.016       0.208046              1              1
      6244.5000        11.4903         0.0523        117.626        94.0364       85.57725         0.9804         0.9822         0.8934        48.7776         2.1279       -72.9061      0.3179474              1              1
      6245.0000        11.4456         0.0388       120.5098        92.6124       83.96559         0.9621          0.962         0.8471         49.816         2.1427       -72.7386      0.4854431              1              1
      6245.5000        11.4056         0.0299       123.1429        91.2573       82.43187         0.9441         0.9517         0.8276         49.968         2.1559       -72.7711      0.4529419              1              1
      6246.0000        11.3659          0.025       124.2474        90.1074       81.13018         0.9371         0.9424         0.8265        49.2412         2.1718       -72.9598      0.2642441              1              1
      6246.5000         11.329         0.0205       124.4719        90.1285       81.15269         0.9302         0.9377         0.8331        48.1848         2.1928       -73.0601      0.1639481              1              1
