#------------------------------------------------------------------------------
# Created by    : vladimir.rabinovich
# Created on    : 09/19/2023 17:22:04
#------------------------------------------------------------------------------
~Version Information Section
VERS.           2.0     :   CWLS log ASCII Standard - VERSION 2.0
WRAP.           NO      :   One line per depth step
~Well Information Section
#MNEM       .UNIT                                         VALUE :DESCRIPTION
#------------------------------------------------------------------------------
STRT        .FT                                            4308 :START DEPTH
STOP        .FT                                           11086 :STOP DEPTH
STEP        .FT                                             0.5 :STEP      
NULL        .                                           -999.25 :NULL      
COMP        .                                     GULF OIL CORP :COMPANY   
WELL        .                               OCS G01859 ST00BP00 :WELL      
FLD         .                           WEST CAMERON BLOCK 0045 :FIELD     
LOC         .                                                   :LOCATION  
CNTY        .                                      WEST CAMERON :LOCATION  
STAT        .                                         LOUISIANA :STATE     
CTRY        .                                     UNITED STATES :COUNTRY   
SRVC        .                                                   :SERVICE COMPANY
DATE        .                             9/13/2023 11:18:18 AM :LOG DATE  
API         .                                    17700402800000 :API NUMBER
UWI         .                                    17700402800000 :UNIQUE WELL ID
XCOORD      .                                  1464540.60646957 :SURFACE X 
YCOORD      .                                  10776790.0411311 :SURFACE Y 
LAT         .                                        29.6934919 :LATITUDE  
LON         .                                       -93.5541052 :LONGITUDE 
ELEV        .FT                                              79 :ELEVATION VALUE
ELEV_TYPE   .                                                KB :ELEVATION REFERENCE TYPE
~Curve Information Section
#MNEM       .UNIT                                      API CODE :CURVE DESCRIPTION
#------------------------------------------------------------------------------
DEPT        .FT                                                 :DEPTH     
CALI        .IN                                                 :          
DRHO        .G/C3                                               :          
DT          .US/F                                               :          
GR          .GAPI                                               :          
GR_NORM     .GAPI                                               :GammaRay Normalized
ILD         .OHMM                                               :          
NPHI        .%                                                  :          
RHOB        .G/C3                                               :          
SFLU        .OHMM                                               :          
SP          .MV                                                 :          
SP_NORM     .MV                                                 :SP Normalized
VSH_GR      .V/V                                                :Volume of Shale from GR
VSH_SP      .V/V                                                :Volume of Shale from SP
~A        DEPTH           CALI           DRHO             DT             GR        GR_NORM            ILD           NPHI           RHOB           SFLU             SP        SP_NORM         VSH_GR         VSH_SP
      4308.0000        -999.25        -999.25        -999.25        50.3107       83.93362        -999.25        -999.25        -999.25        -999.25        -999.25        -999.25              1        -999.25
      4308.5000        -999.25        -999.25        -999.25        50.4481       85.35708        -999.25        -999.25        -999.25        -999.25        -999.25        -999.25              1        -999.25
      4309.0000        -999.25        -999.25        -999.25        49.9008       85.02852        -999.25        -999.25        -999.25        -999.25        -999.25        -999.25              1        -999.25
      4309.5000        -999.25        -999.25        -999.25        49.4075       78.68531        -999.25        -999.25        -999.25        -999.25        -999.25        -999.25      0.9720279        -999.25
      4310.0000        -999.25        -999.25        -999.25        49.0778       84.36743        -999.25        -999.25        -999.25        -999.25        -999.25        -999.25              1        -999.25
      4310.5000        -999.25        -999.25        -999.25        48.9927       73.09782        -999.25        -999.25        -999.25        -999.25        -999.25        -999.25      0.8531452        -999.25
      4311.0000        -999.25        -999.25        -999.25        49.2161        70.1087        -999.25        -999.25        -999.25        -999.25        -999.25        -999.25      0.7895467        -999.25
      4311.5000        -999.25        -999.25        -999.25        50.6077       68.07065        -999.25        -999.25        -999.25        -999.25        -999.25        -999.25       0.746184        -999.25
      4312.0000        -999.25        -999.25        -999.25        52.0076       66.03261        -999.25        -999.25        -999.25        -999.25        -999.25        -999.25      0.7028214        -999.25
      4312.5000        -999.25        -999.25        -999.25        53.9821       63.99456        -999.25        -999.25        -999.25        -999.25        -999.25        -999.25      0.6594588        -999.25
      4313.0000        11.8294        -0.0193       131.7903        55.1086       61.95652         7.1988        56.6528         2.0613         0.8307       -73.7189       -29.9094      0.6160962      0.3849064
      4313.5000        11.6016        -0.0049       138.4277        56.2285       59.91848         4.3266        52.0724         2.1197          1.104       -73.6919       -29.8824      0.5727335      0.3854809
      4314.0000        11.4227        -0.0015       140.3572        57.1484       57.88043         1.3271        44.8322         2.1791         1.0642       -74.8025        -30.993      0.5293709      0.3618511
      4314.5000        11.5063        -0.0081       135.9512        57.6379       58.26612         0.5433        40.8565         2.2214         1.0067       -75.7526       -31.9431       0.537577      0.3416362
      4315.0000        11.4344        -0.0157       132.2554         57.551       58.05652         0.4644        37.9202         2.2324         0.9725       -75.8623       -32.0528      0.5331174      0.3393022
      4315.5000        11.1366        -0.0197       126.7806        57.8137       58.69015         0.4845        35.9875         2.2342         0.9904       -76.0575        -32.248      0.5465989      0.3351489
      4316.0000        11.1107        -0.0221       124.0643        58.0652       59.29676         0.5096        34.2099         2.2285         1.1563       -78.4116       -34.6021      0.5595056      0.2850617
      4316.5000        11.0318        -0.0226       122.1322        57.9901       59.11563         0.5192         33.355         2.1916         1.4938       -81.3486       -37.5391      0.5556518      0.2225723
      4317.0000        10.9569        -0.0162       118.1814        57.6172       58.21619         0.5103        33.5597         2.1877          1.618       -82.4359       -38.6264      0.5365147      0.1994383
      4317.5000        11.6711        -0.0029       110.8291        57.4268       57.75695         0.4976        33.9385         2.1519         1.4903       -82.7635        -38.954      0.5267437      0.1924681
      4318.0000        12.2873        -0.0022       106.9846        57.6872       58.38504         0.4902        34.6036         2.0915         1.1238       -81.8312       -38.0217      0.5401071      0.2123042
      4318.5000        12.6257        -0.0109       110.3788        58.2871       59.83198         0.4912        36.6108         2.0673         0.8814       -78.3171       -34.5076      0.5708932      0.2870724
      4319.0000        12.2498        -0.0164       120.3782        58.6264       60.65039         0.4953        39.5635         2.0645         0.8581       -76.8646       -33.0551      0.5883061      0.3179766
      4319.5000        11.6479        -0.0077       128.6658        58.4147       60.13975         0.4973        42.1479         2.0938         0.8798       -75.7399       -31.9304      0.5774415      0.3419064
      4320.0000        11.4888          0.015       133.1812        58.4819       60.30186         0.4998        43.4252         2.1582         0.9184       -75.2552       -31.4457      0.5808906      0.3522192
      4320.5000        11.4758         0.0287       132.1787        58.9359       61.39691         0.5053         42.259         2.1393         0.9486       -75.5299       -31.7204      0.6041896      0.3463745
      4321.0000        11.4818         0.0243       130.5669        58.9107       61.33611         0.5124        40.7924         2.1372         0.9662       -77.3066       -33.4971       0.602896      0.3085723
      4321.5000        11.5056         0.0315       129.3311        58.7272       60.89351         0.5226        39.3801         2.1412         0.9652       -78.3945        -34.585       0.593479      0.2854255
      4322.0000        11.5196         0.0148       128.2896        59.1362       61.88004         0.5313        38.4928         2.1212         0.9318       -76.3796       -32.5701       0.614469      0.3282958
      4322.5000        11.5335         0.0024       127.5553        59.8591       63.62365         0.5458        37.9949         2.1214         0.8828       -74.2874       -30.4779      0.6515671      0.3728107
      4323.0000        11.5463        -0.0005       127.0592        60.4938       65.15459         0.5823          38.07         2.1352         0.8302       -72.0024       -28.1929      0.6841401      0.4214277
      4323.5000        11.5503        -0.0042       126.5636        60.7935       65.87744         0.6068         38.721         2.1684         0.7835        -69.343       -25.5335      0.6995201      0.4780106
      4324.0000        11.5212        -0.0088       126.0237        60.8491       66.01154         0.6339        39.7291         2.2307         0.7745       -67.1083       -23.2988      0.7023733      0.5255575
      4324.5000        11.4519         0.0016       125.2864        60.9427       66.23731         0.6718        40.2629         2.2613         0.8443         -66.27       -22.4605      0.7071769      0.5433936
      4325.0000          11.39        -0.0022       124.5869        61.3428       67.20235          0.688        40.1862         2.2639         1.0058       -66.3582       -22.5487      0.7277095       0.541517
      4325.5000        11.3341        -0.0147       123.9338        61.5585       67.72238         0.6848        39.2705         2.2431         1.1572       -67.5073       -23.6978      0.7387741      0.5170681
      4326.0000        11.3746        -0.0134       123.1354        61.9577        68.6838         0.6571        36.1097         2.2274         1.2651       -68.7081       -24.8986      0.7592298      0.4915192
      4326.5000        11.4507        -0.0093       122.3295        62.5714       70.16261         0.6363        35.3527         2.2189         1.1664       -66.6638       -22.8543      0.7906937      0.5350149
