#------------------------------------------------------------------------------
# Created by    : vladimir.rabinovich
# Created on    : 09/19/2023 17:21:58
#------------------------------------------------------------------------------
~Version Information Section
VERS.           2.0     :   CWLS log ASCII Standard - VERSION 2.0
WRAP.           NO      :   One line per depth step
~Well Information Section
#MNEM       .UNIT                                         VALUE :DESCRIPTION
#------------------------------------------------------------------------------
STRT        .FT                                            3382 :START DEPTH
STOP        .FT                                           10910 :STOP DEPTH
STEP        .FT                                             0.5 :STEP      
NULL        .                                           -999.25 :NULL      
COMP        .                               B P EXPLORATION INC :COMPANY   
WELL        .                               OCS G07597 ST00BP00 :WELL      
FLD         .                           WEST CAMERON BLOCK 0045 :FIELD     
LOC         .                                                   :LOCATION  
CNTY        .                                      WEST CAMERON :LOCATION  
STAT        .                                         LOUISIANA :STATE     
CTRY        .                                     UNITED STATES :COUNTRY   
SRVC        .                                                   :SERVICE COMPANY
DATE        .                             9/13/2023 11:18:09 AM :LOG DATE  
API         .                                    17700407640000 :API NUMBER
UWI         .                                    17700407640000 :UNIQUE WELL ID
XCOORD      .                                  1473636.79229916 :SURFACE X 
YCOORD      .                                   10762774.556795 :SURFACE Y 
LAT         .                                        29.6550545 :LATITUDE  
LON         .                                       -93.5252479 :LONGITUDE 
ELEV        .FT                                              90 :ELEVATION VALUE
ELEV_TYPE   .                                                KB :ELEVATION REFERENCE TYPE
~Curve Information Section
#MNEM       .UNIT                                      API CODE :CURVE DESCRIPTION
#------------------------------------------------------------------------------
DEPT        .FT                                                 :DEPTH     
CALI        .IN                                                 :          
DRHO        .G/C3                                               :          
DT          .US/F                                               :          
GR          .GAPI                                               :          
GR_1        .GAPI                                               :          
GR_NORM     .GAPI                                               :GammaRay Normalized
ILD         .OHMM                                               :          
ILM         .OHMM                                               :          
NPHI        .%                                                  :          
RHOB        .G/C3                                               :          
SFL         .OHMM                                               :          
SP          .MV                                                 :          
SP_NORM     .MV                                                 :SP Normalized
VSH_GR      .V/V                                                :Volume of Shale from GR
VSH_SP      .V/V                                                :Volume of Shale from SP
~A        DEPTH           CALI           DRHO             DT             GR           GR_1        GR_NORM            ILD            ILM           NPHI           RHOB            SFL             SP        SP_NORM         VSH_GR         VSH_SP
# ...
      6442.0000        10.9713        -0.0052       113.8813        51.3321        62.0326       66.77316         0.4865         0.5147        40.3118         2.2703         0.6384       -78.7457       -22.7156      0.7185779      0.7261722
      6442.5000        11.0242        -0.0055        114.499        53.0225        61.1991       68.76968         0.4844         0.5016        41.0983         2.2771         0.6468       -77.6881       -21.6617       0.761057      0.7408097
      6443.0000        11.0441        -0.0083       114.7915        52.9248        59.2423       68.65179         0.4796          0.491        41.5612         2.2846         0.6937       -79.5225       -23.4999      0.7585488      0.7152792
      6443.5000        11.0484        -0.0113       114.7064        52.5824        61.4901       68.24468         0.4572         0.4786        41.7569         2.2933          0.697       -81.2805       -25.2616      0.7498869      0.6908111
      6444.0000        11.0489          -0.01       114.2754        51.2672        63.2905       66.68722         0.4319         0.4705        41.6508         2.2924         0.6622       -90.7732        -34.758      0.7167493      0.5589167
      6444.5000        11.0494         -0.004       112.6124         49.047        63.2868       64.05976         0.4371         0.4654        41.4763          2.283         0.6953       -94.6967       -38.6853       0.660846      0.5043709
      6445.0000        11.0553        -0.0025       110.6942        45.4682        61.2657       59.82577         0.4638         0.4881        41.2363         2.2709         0.7788       -93.5354       -37.5277       0.570761      0.5204486
      6445.5000        11.0777        -0.0088        109.118        41.3225        56.5266       54.92159         0.4908         0.5111        40.9016         2.2326         0.8512       -91.2689       -35.2649      0.4664169      0.5518764
      6446.0000        11.1052        -0.0221       107.4081           38.3        55.1626       51.34538         0.5101         0.5263        40.2064         2.2102         0.9023       -90.8126       -34.8124      0.3903273      0.5581611
      6446.5000        11.1347        -0.0208       105.7401        38.5579        53.1779       51.64808         0.5122         0.5355        39.3495         2.2126          0.868       -85.7484       -29.7519      0.3967676      0.6284459
      6447.0000          11.18        -0.0179       104.7024        42.9858        58.9998       56.88133         0.5056         0.5396        38.7386         2.2388         0.8197       -77.8066       -21.8138      0.5081134      0.7386972
      6447.5000        11.2454        -0.0153       105.0413        51.1323        63.9027       66.51161         0.5009         0.5403        38.3634         2.2661         0.8133        -75.584        -19.595       0.713013      0.7695139
      6448.0000        11.2679        -0.0117       106.7909        55.4806        67.8065       71.65073         0.4976         0.5356        38.2884         2.3089         0.8326       -81.3929       -25.4076       0.822356      0.6887833
      6448.5000        11.2437              0       109.0065        54.9546        68.9578       71.02655         0.4899         0.5325        38.4876         2.3416         0.8388       -85.9246        -29.943      0.8090755      0.6257917
      6449.0000        11.2274         0.0123       111.5244        52.2961        67.1179       67.88073          0.477         0.5241        38.7009          2.327         0.8219        -86.718       -30.7402      0.7421432      0.6147195
      6449.5000        11.2335         0.0195       113.9061        47.9106        63.4081       62.69302         0.4557         0.5089        39.0166         2.3052         0.7723         -86.92       -30.9459      0.6317664      0.6118625
      6450.0000        11.3189         0.0206       115.3522        43.3354        58.8713       57.28086         0.4352         0.4966        39.5859         2.2971         0.7203       -82.4618       -26.4914      0.5166141      0.6737306
      6450.5000        11.4115         0.0225       116.0057        41.9675        59.1356       55.66108         0.4423          0.498        40.5426         2.2829         0.6959       -79.1053       -23.1387      0.4821506      0.7202958
      6451.0000        11.4545         0.0261       115.9194        42.9108        62.3605       56.77419         0.4613         0.5046        41.0369         2.2802         0.6834       -82.4668       -26.5039      0.5058338      0.6735569
      6451.5000        11.4056          0.031       116.1118        49.2143        65.5491       64.22519         0.4731         0.5091        42.0583         2.2947         0.6727       -67.1627       -11.2035      0.6643657      0.8860625
      6452.0000        11.3338          0.035       118.3175        54.2841        69.6615       70.21754         0.4553         0.4967        43.1596         2.2974         0.6559       -65.4819        -9.5265      0.7918625      0.9093542
      6452.5000        11.1706         0.0368       119.1211          58.21        71.2397       74.85721         0.4273         0.4703        43.9645         2.2896         0.5471       -66.3236       -10.3719      0.8905789      0.8976125
      6453.0000        11.1484         0.0368       119.7958        60.7486        70.4604       77.85664         0.3951         0.4399        44.5652         2.2905         0.5275       -77.3971       -21.4492      0.9543967      0.7437611
      6453.5000         11.127         0.0355       120.1539        61.1669        69.0323       78.34888         0.3657          0.401        44.8174         2.2896         0.5235       -78.7139       -22.7697      0.9648697      0.7254208
      6454.0000        11.1028         0.0341       120.1776         59.114        68.1619       75.91925         0.3258         0.3544        44.6962         2.2715         0.5067       -78.5681       -22.6276      0.9131755      0.7273945
      6454.5000         11.104         0.0331       120.4971        54.0543        60.3383       69.93423         0.3077         0.3182        44.0815         2.2236          0.457        -78.145       -22.2082      0.7858348      0.7332194
      6455.0000        11.1182         0.0172       121.6322        47.6309        56.4441       62.33687         0.3008         0.3058        42.9661         2.1997         0.4223       -77.3722       -21.4392      0.6241888         0.7439
      6455.5000        11.1343          0.012       123.4946         43.936        52.5717        57.9656         0.3121         0.3254        42.6635         2.1553         0.4233       -75.0596       -19.1303      0.5311831      0.7759681
      6456.0000         11.147         0.0113       125.6631        43.7213        52.4287       57.70948         0.3494         0.3699        42.9854         2.1552         0.4962       -63.1444        -7.2188      0.5257336      0.9414055
      6456.5000         11.158         0.0169       125.8949        45.3857        56.1046       59.67513         0.3954         0.4196        44.0128         2.1682         0.5701       -63.5902        -7.6684       0.567556      0.9351611
      6457.0000        11.1516          0.024        123.958        53.0353        59.7272       68.71776         0.4163         0.4528        44.6947         2.2115         0.5865       -65.0874        -9.1693      0.7599523      0.9143153
      6457.5000        11.1311           0.03        120.875         62.016        66.7979       79.33442         0.4332          0.467        44.5601         2.2506         0.7251       -66.3098       -10.3955      0.9858387      0.8972847
      6458.0000        11.0904         0.0364        119.377        67.9598        72.2367       87.06619         0.4391         0.4682         44.173          2.291         0.7218       -67.5574       -11.6468              1      0.8799056
      6458.5000         11.056         0.0429       118.5665        67.8212        74.7511        86.8782         0.4327         0.4627        43.7128         2.3126         0.6631        -75.509       -19.6021              1      0.7694153
