#------------------------------------------------------------------------------
# Created by    : vladimir.rabinovich
# Created on    : 09/19/2023 17:20:47
#------------------------------------------------------------------------------
~Version Information Section
VERS.           2.0     :   CWLS log ASCII Standard - VERSION 2.0
WRAP.           NO      :   One line per depth step
~Well Information Section
#MNEM       .UNIT                                         VALUE :DESCRIPTION
#------------------------------------------------------------------------------
STRT        .FT                                            2030 :START DEPTH
STOP        .FT                                            9342 :STOP DEPTH
STEP        .FT                                             0.5 :STEP      
NULL        .                                           -999.25 :NULL      
COMP        .                                      SHELL OIL CO :COMPANY   
WELL        .                               OCS G00950 ST00BP00 :WELL      
FLD         .                           EAST CAMERON BLOCK 0193 :FIELD     
LOC         .                                                   :LOCATION  
CNTY        .                                      EAST CAMERON :LOCATION  
STAT        .                                         LOUISIANA :STATE     
CTRY        .                                     UNITED STATES :COUNTRY   
SRVC        .                                                   :SERVICE COMPANY
DATE        .                             9/13/2023 11:18:15 AM :LOG DATE  
API         .                                    17703004920000 :API NUMBER
UWI         .                                    17703004920000 :UNIQUE WELL ID
XCOORD      .                                  1684363.85071557 :SURFACE X 
YCOORD      .                                  10458597.1936422 :SURFACE Y 
LAT         .                                        28.8191951 :LATITUDE  
LON         .                                       -92.8627139 :LONGITUDE 
ELEV        .FT                                              75 :ELEVATION VALUE
ELEV_TYPE   .                                                KB :ELEVATION REFERENCE TYPE
~Curve Information Section
#MNEM       .UNIT                                      API CODE :CURVE DESCRIPTION
#------------------------------------------------------------------------------
DEPT        .FT                                                 :DEPTH     
ASN         .OHMM                                               :          
CILM        .MMHO                                               :          
ILM         .OHMM                                               :          
LN          .OHMM                                               :          
SP          .MV                                                 :          
SP_NORM     .MV                                                 :SP Normalized
VSH_SP      .V/V                                                :Volume of Shale from SP
~A        DEPTH            ASN           CILM            ILM             LN             SP        SP_NORM         VSH_SP
# ...
      3973.0000          0.416       3645.375         0.3314        -999.25      -123.7556       -50.8584      0.2053375
      3973.5000         0.4264        3644.52         0.3342        -999.25      -123.7092        -50.812      0.2060625
      3974.0000         0.4145       3742.391         0.3369        -999.25      -125.3781       -52.4809      0.1799859
      3974.5000         0.4027       3798.141         0.3397        -999.25      -127.0469       -54.1497      0.1539109
      3975.0000         0.3908       3853.891         0.3425        -999.25      -128.6599       -55.7627      0.1287078
      3975.5000         0.3818       3911.895         0.3258        -999.25      -130.2393       -57.3421      0.1040297
      3976.0000         0.3735       3952.953         0.3101        -999.25      -131.8196       -58.9224     0.07933748
      3976.5000         0.3652       3978.906         0.3097        -999.25      -132.8743       -59.9771     0.06285781
      3977.0000         0.3604       3963.301         0.3094        -999.25      -133.5339       -60.6367     0.05255157
      3977.5000         0.3583       4004.965         0.3104        -999.25      -134.1934       -61.2962     0.04224688
      3978.0000          0.362       4047.398         0.3116        -999.25      -134.8528       -61.9556     0.03194374
      3978.5000         0.3674       4069.547         0.3145        -999.25      -134.8574       -61.9602     0.03187186
      3979.0000         0.3728       4086.395         0.3189        -999.25      -134.8149       -61.9177     0.03253591
      3979.5000         0.3783       4092.121         0.3233        -999.25      -134.7725       -61.8753     0.03319842
      3980.0000         0.3764       4097.844         0.3277        -999.25        -134.73       -61.8328     0.03386247
      3980.5000         0.3729        4103.57         0.3322        -999.25      -134.8623       -61.9651     0.03179532
      3981.0000         0.3695       4106.219         0.3366        -999.25      -135.1702        -62.273     0.02698439
      3981.5000          0.366       4107.578          0.341        -999.25       -135.478       -62.5808     0.02217501
      3982.0000         0.3625       4108.938         0.3454        -999.25      -135.7859       -62.8887     0.01736408
      3982.5000         0.3605       4110.297         0.3499        -999.25      -136.0937       -63.1965     0.01255471
      3983.0000         0.3586       4111.594         0.3535        -999.25      -136.4016       -63.5044    0.007743776
      3983.5000         0.3567       4112.891         0.3561        -999.25      -136.4949       -63.5977    0.006285965
      3984.0000         0.3632       4114.188         0.3588        -999.25      -136.2825       -63.3853    0.009604692
      3984.5000         0.3727        4113.32         0.3614        -999.25      -136.0701       -63.1729     0.01292342
      3985.0000         0.3822       4107.313         0.3641        -999.25      -135.8577       -62.9605     0.01624221
      3985.5000         0.3918       4101.305         0.3667        -999.25      -135.6453       -62.7481     0.01956093
      3986.0000         0.4013       4094.883         0.3693        -999.25      -135.7988       -62.9016      0.0171625
      3986.5000         0.4081       4074.711          0.372        -999.25       -136.095       -63.1978     0.01253438
      3987.0000         0.4143       4054.531         0.3746        -999.25      -136.3911       -63.4939    0.007907808
      3987.5000         0.4206       4037.602         0.3773        -999.25      -136.6943       -63.7971    0.003170311
      3988.0000         0.4268       4020.996         0.3839        -999.25      -137.0278       -64.1306              0
      3988.5000         0.4331       4000.816         0.3916        -999.25      -137.3611       -64.4639              0
      3989.0000         0.4398       3984.066         0.3994        -999.25      -137.6387       -64.7415              0
      3989.5000         0.4465       3970.418         0.4072        -999.25      -136.7444       -63.8472    0.002387524
      3990.0000         0.4531       3866.625         0.4149        -999.25      -135.8499       -62.9527     0.01636404
      3990.5000         0.4563       3870.203         0.4227        -999.25      -134.9556       -62.0584     0.03033751
      3991.0000         0.4496       3882.703         0.4304        -999.25      -134.1152        -61.218     0.04346877
      3991.5000          0.443       3895.211         0.4382        -999.25      -133.5332        -60.636     0.05256248
      3992.0000         0.4364       3911.625          0.446        -999.25      -134.3469       -61.4497     0.03984845
      3992.5000         0.4298       3936.328         0.4326        -999.25      -135.1611       -62.2639     0.02712655
      3993.0000         0.4119       3961.055         0.4156        -999.25      -135.6365       -62.7393     0.01969844
      3993.5000         0.3873       3980.402         0.3986        -999.25      -136.0457       -63.1485     0.01330471
      3994.0000         0.3652       3967.305         0.3816        -999.25      -136.4548       -63.5576    0.006912529
      3994.5000         0.3453       4185.359         0.3654        -999.25      -136.8643       -63.9671   0.0005140901
      3995.0000         0.3305       4233.008         0.3496        -999.25       -137.085       -64.1878              0
      3995.5000          0.324       4257.398         0.3337        -999.25      -137.1514       -64.2542              0
      3996.0000         0.3176       4273.664         0.3179        -999.25      -136.9866       -64.0894              0
      3996.5000         0.3111       4287.477         0.3021        -999.25      -136.7454       -63.8482    0.002371848
      3997.0000         0.3046       4293.469         0.2862        -999.25      -136.5042        -63.607    0.006140649
      3997.5000         0.3019       4299.453         0.2772        -999.25      -136.4568       -63.5596    0.006881237
      3998.0000         0.3005       4305.438         0.2777        -999.25      -136.6218       -63.7246    0.004303098
      3998.5000         0.2991       4303.016         0.2782        -999.25      -136.8367       -63.9395   0.0009453297
      3999.0000         0.2977       4279.188         0.2788        -999.25      -137.5166       -64.6194              0
      3999.5000         0.3088       4255.359         0.2793        -999.25       -138.197       -65.2998              0
      4000.0000         0.3205       4231.539         0.2798        -999.25      -138.8772         -65.98              0
      4000.5000         0.3322       4207.711         0.2804        -999.25      -139.5571       -66.6599              0
      4001.0000         0.3396        4180.07         0.2809        -999.25      -139.5259       -66.6287              0
      4001.5000         0.3452       4148.305         0.2824        -999.25        -139.04       -66.1428              0
      4002.0000         0.3507       4116.555         0.2861        -999.25       -138.554       -65.6568              0
      4002.5000         0.3563       4084.793         0.2898        -999.25      -138.0452        -65.148              0
      4003.0000         0.3603       4052.754         0.2934        -999.25      -137.4868       -64.5896              0
      4003.5000         0.3584       4021.863         0.2971        -999.25      -136.9277       -64.0305              0
      4004.0000         0.3565       4006.059         0.3008        -999.25      -136.3689       -63.4717    0.008254707
      4004.5000         0.3546       3990.254         0.3045        -999.25      -136.2344       -63.3372     0.01035625
      4005.0000         0.3527       3980.531         0.3082        -999.25      -136.4104       -63.5132    0.007606268
      4005.5000         0.3472       3996.598         0.3119        -999.25      -136.5864       -63.6892    0.004856229
      4006.0000         0.3412       4012.648         0.3109        -999.25      -136.7622        -63.865    0.002109349
