#------------------------------------------------------------------------------
# Created by    : vladimir.rabinovich
# Created on    : 09/19/2023 17:22:25
#------------------------------------------------------------------------------
~Version Information Section
VERS.           2.0     :   CWLS log ASCII Standard - VERSION 2.0
WRAP.           NO      :   One line per depth step
~Well Information Section
#MNEM       .UNIT                                         VALUE :DESCRIPTION
#------------------------------------------------------------------------------
STRT        .FT                                            2996 :START DEPTH
STOP        .FT                                            8909 :STOP DEPTH
STEP        .FT                                             0.5 :STEP      
NULL        .                                           -999.25 :NULL      
COMP        .                             PHILLIPS PETROLEUM CO :COMPANY   
WELL        .                                OCS 00299 ST00BP00 :WELL      
FLD         .                           WEST CAMERON BLOCK 0045 :FIELD     
LOC         .                                                   :LOCATION  
CNTY        .                                      WEST CAMERON :LOCATION  
STAT        .                                         LOUISIANA :STATE     
CTRY        .                                     UNITED STATES :COUNTRY   
SRVC        .                                                   :SERVICE COMPANY
DATE        .                             9/13/2023 11:18:09 AM :LOG DATE  
API         .                                    17700407290000 :API NUMBER
UWI         .                                    17700407290000 :UNIQUE WELL ID
XCOORD      .                                  1446390.31791034 :SURFACE X 
YCOORD      .                                  10761453.0604348 :SURFACE Y 
LAT         .                                        29.6510516 :LATITUDE  
LON         .                                       -93.6110308 :LONGITUDE 
ELEV        .FT                                              99 :ELEVATION VALUE
ELEV_TYPE   .                                                KB :ELEVATION REFERENCE TYPE
~Curve Information Section
#MNEM       .UNIT                                      API CODE :CURVE DESCRIPTION
#------------------------------------------------------------------------------
DEPT        .FT                                                 :DEPTH     
CALX        .IN                                                 :          
CDL         .%                                                  :          
CILD        .MMHO                                               :          
CNS         .%                                                  :          
DRHO        .G/C3                                               :          
GR_NORM     .GAPI                                               :GammaRay Normalized
RILD        .OHMM                                               :          
RILM        .OHMM                                               :          
RLL         .OHMM                                               :          
SP          .MV                                                 :          
SP_NORM     .MV                                                 :SP Normalized
TENS        .LB                                                 :          
VSH_GR      .V/V                                                :Volume of Shale from GR
VSH_SP      .V/V                                                :Volume of Shale from SP
~A        DEPTH           CALX            CDL           CILD            CNS           DRHO        GR_NORM           RILD           RILM            RLL             SP        SP_NORM           TENS         VSH_GR         VSH_SP
# ...
      3428.0000          14.44         28.102           1520        45.9412         0.0853       90.85366         0.6607         0.7063         0.6671         0.7143         2.6191           1580              1              1
      3428.5000          14.48        29.0756       1519.748          50.04         0.0706       94.54511         0.6674         0.7063         0.6424          1.133         3.0378       1578.698              1              1
      3429.0000          14.58        29.0048       1551.594        52.5294          0.054       94.25735         0.6616         0.7064         0.6253         1.2567         3.1615       1556.349              1              1
      3429.5000          14.68        27.4228       1583.796        51.8235         0.0401       91.97996          0.644         0.6746         0.6746         1.1742          3.079       1554.037              1              1
      3430.0000          14.68        27.1803       1649.085          50.16         0.0431       89.98682         0.6217         0.6448          0.748         0.8921         2.7969       1551.702              1              1
      3430.5000          14.68          29.04        1695.79        49.1368          0.051       89.41482         0.5943          0.611         0.5664         0.4013         2.3061       1549.558              1              1
      3431.0000           14.7        30.7647       1774.429        50.3819          0.058       90.26398         0.5664          0.583            0.6        -0.1012         1.8036       1546.713              1              1
      3431.5000          14.72          33.06       1870.405         53.166           0.06       93.38696         0.5451          0.561          0.561        -0.7052         1.1996       1564.036              1              1
      3432.0000        16.0392          34.56       1950.747        56.1218          0.059       89.97266         0.5196         0.5347         0.5196        -1.7035         0.2013       1541.108              1              1
      3432.5000         16.098             37           2050          57.54          0.056       84.28454         0.4954         0.5246         0.5451           -2.9        -0.9952           1540              1              1
      3433.0000          15.42        38.6471       2166.667        56.7059         0.0422       77.17523         0.4642         0.5196         0.7555             -4        -2.0952           1500      0.9398986              1
      3433.5000          14.88          39.36       2266.667          53.46         0.0392       70.21899          0.439         0.5196         0.7483           -4.7        -2.7952           1560      0.7918935              1
      3434.0000        16.0196          39.42           2400        49.5882         0.0333       62.01658          0.419         0.5146         0.7067           -4.9        -2.9952           1640       0.617374              1
      3434.5000        16.0588        37.4706       2556.863        47.2941         0.0382        56.9843            0.4            0.5            0.8        -5.6122        -3.7074           1580      0.5103043         0.8821
      3435.0000        16.6078        37.5294       2745.098        46.1765         0.0451       52.14884         0.3748         0.4685         1.0094        -6.8367        -4.9319           1520      0.4074222      0.6780167
      3435.5000          17.88          40.86       2933.333        46.0588          0.051       45.60802          0.348          0.439         0.9624        -7.6531        -5.7483           1520      0.2682557        0.54195
      3436.0000          19.06        60.1176       3105.882        49.4118         0.0451       40.58868         0.3261         0.4229         0.8524        -7.8571        -5.9523           1540      0.1614614        0.50795
      3436.5000          19.34        61.2353           3216          53.34         0.0118       38.07723         0.3085            0.4         0.7412        -7.7551        -5.8503           1540      0.1080261        0.52495
      3437.0000          19.26           63.6           3248        59.7647         -0.019       38.35237         0.3028         0.3854         0.6874        -7.1429        -5.2381           1540      0.1138802      0.6269833
      3437.5000        18.3137          64.08           3296        62.7059         -0.034       42.80727            0.3         0.3854         0.6451        -6.5306        -4.6258           1580      0.2086653      0.7290333
      3438.0000        16.9412        61.3529           3264          64.62         -0.027       47.01147         0.3056            0.4         0.6222        -5.5102        -3.6054           1580      0.2981164         0.8991
      3438.5000          15.58        55.4706       3184.314        61.5294         0.0059       52.69253         0.3113         0.4152         0.6165        -4.8997        -2.9949           1580        0.41899              1
      3439.0000           15.6        44.3277        3074.51        56.1765         0.0304       56.09975         0.3261          0.439         0.6393        -4.6975        -2.7927           1580       0.491484              1
      3439.5000          15.78        40.8947       2933.333          51.18         0.0382       57.51737         0.3416         0.4599         0.6751        -4.8987        -2.9939           1580      0.5216462              1
      3440.0000        16.0392        41.5931       2792.157        47.9401         0.0402       54.67153         0.3679         0.4773         0.7412        -5.6013        -3.6965           1560      0.4610964      0.8839167
      3440.5000        16.8824        42.2941       2633.398        49.5294         0.0471       48.97372         0.3854          0.496         0.8298           -6.6        -4.6952       1558.846      0.3398665      0.7174667
      3441.0000        18.2293        43.1765       2488.194          53.52         0.0629       44.44609            0.4         0.5162         0.8542           -7.1        -5.1952       1556.573      0.2435338      0.6341333
      3441.5000         19.375           46.5       2389.617          57.48         0.0678       45.28316         0.4196         0.5172         0.8311           -7.4        -5.4952       1554.277      0.2613439      0.5841333
      3442.0000        19.4518           52.8       2319.999        60.0532         0.0471       46.12038         0.4405         0.5425            0.8           -7.6        -5.6952       1551.956       0.279157         0.5508
      3442.5000          18.82          57.06       2204.082        63.2941         0.0265       46.39439         0.4672         0.5733         0.8079           -7.6        -5.6952       1571.429       0.284987         0.5508
      3443.0000        17.0392        54.2941       2089.796        63.2353         0.0029       45.83362         0.4952         0.6058         0.8239           -7.7        -5.7952        1551.02      0.2730558      0.5341334
      3443.5000        15.9608          53.16        1975.51        59.8235          0.002       45.26716         0.5139         0.6357         0.8485           -7.6        -5.6952       1530.612      0.2610035         0.5508
      3444.0000        17.2353          41.88       1877.551        48.2941         0.0225       44.69516         0.5378         0.6735         1.3074           -7.7        -5.7952       1530.612      0.2488332      0.5341334
      3444.5000        19.3529        27.7347       1779.592        43.9412          0.052       45.54431         0.5733         0.6933         1.5874           -7.8        -5.8952        1551.02      0.2669002      0.5174667
      3445.0000        19.4314        27.6122       1681.633          39.96         0.0735       44.68807            0.6         0.7254         1.2142           -7.8        -5.8952        1551.02      0.2486824      0.5174667
      3445.5000         19.451          33.06       1616.327          40.08         0.0873       43.83185         0.6176         0.7384         0.9174           -8.1        -6.1952       1571.429      0.2304649      0.4674667
