#------------------------------------------------------------------------------
# Created by    : vladimir.rabinovich
# Created on    : 09/19/2023 17:20:47
#------------------------------------------------------------------------------
~Version Information Section
VERS.           2.0     :   CWLS log ASCII Standard - VERSION 2.0
WRAP.           NO      :   One line per depth step
~Well Information Section
#MNEM       .UNIT                                         VALUE :DESCRIPTION
#------------------------------------------------------------------------------
STRT        .FT                                            2030 :START DEPTH
STOP        .FT                                            9342 :STOP DEPTH
STEP        .FT                                             0.5 :STEP      
NULL        .                                           -999.25 :NULL      
COMP        .                                      SHELL OIL CO :COMPANY   
WELL        .                               OCS G00950 ST00BP00 :WELL      
FLD         .                           EAST CAMERON BLOCK 0193 :FIELD     
LOC         .                                                   :LOCATION  
CNTY        .                                      EAST CAMERON :LOCATION  
STAT        .                                         LOUISIANA :STATE     
CTRY        .                                     UNITED STATES :COUNTRY   
SRVC        .                                                   :SERVICE COMPANY
DATE        .                             9/13/2023 11:18:15 AM :LOG DATE  
API         .                                    17703004920000 :API NUMBER
UWI         .                                    17703004920000 :UNIQUE WELL ID
XCOORD      .                                  1684363.85071557 :SURFACE X 
YCOORD      .                                  10458597.1936422 :SURFACE Y 
LAT         .                                        28.8191951 :LATITUDE  
LON         .                                       -92.8627139 :LONGITUDE 
ELEV        .FT                                              75 :ELEVATION VALUE
ELEV_TYPE   .                                                KB :ELEVATION REFERENCE TYPE
~Curve Information Section
#MNEM       .UNIT                                      API CODE :CURVE DESCRIPTION
#------------------------------------------------------------------------------
DEPT        .FT                                                 :DEPTH     
ASN         .OHMM                                               :          
CILM        .MMHO                                               :          
ILM         .OHMM                                               :          
LN          .OHMM                                               :          
SP          .MV                                                 :          
SP_NORM     .MV                                                 :SP Normalized
VSH_SP      .V/V                                                :Volume of Shale from SP
~A        DEPTH            ASN           CILM            ILM             LN             SP        SP_NORM         VSH_SP
# ...
      5916.0000         0.4979       1688.314         0.7378        -999.25       -84.0475       -11.4164      0.8615235
      5916.5000         0.5098       1640.969         0.7504        -999.25       -83.2305       -10.5862      0.8737323
      5917.0000         0.5217       1616.477          0.763        -999.25       -82.4135        -9.7559      0.8859426
      5917.5000         0.5337       1624.854         0.7672        -999.25        -81.767        -9.0962      0.8956441
      5918.0000         0.5456       1633.232         0.7669        -999.25       -81.4624        -8.7784      0.9003177
      5918.5000         0.5507        1641.57         0.7669        -999.25       -81.1582         -8.461      0.9049853
      5919.0000         0.5545        1649.42         0.7678        -999.25       -80.8536        -8.1432      0.9096588
      5919.5000         0.5583        1657.27         0.7687        -999.25        -80.549        -7.8254      0.9143323
      5920.0000         0.5621       1665.119         0.7696        -999.25       -80.2444        -7.5075      0.9190074
      5920.5000         0.5659       1672.969         0.7704        -999.25       -79.8397        -7.0896       0.925153
      5921.0000         0.5697       1680.813         0.7713        -999.25       -79.4227        -6.6594      0.9314794
      5921.5000         0.5735       1688.664         0.7722        -999.25       -79.0052        -6.2287      0.9378132
      5922.0000         0.5773       1696.514         0.7729        -999.25       -78.5883        -5.7986      0.9441382
      5922.5000         0.5811       1699.283         0.7737        -999.25       -78.1709         -5.368      0.9504706
      5923.0000         0.5827       1701.051         0.7745        -999.25         -77.88        -5.0638      0.9549441
      5923.5000         0.5834       1702.816         0.7753        -999.25       -77.6677        -4.8383      0.9582603
      5924.0000         0.5841       1704.582         0.7761        -999.25       -77.7363        -4.8937      0.9574456
      5924.5000         0.5848       1708.658         0.7769        -999.25       -77.9846        -5.1288      0.9539883
      5925.0000         0.5855       1715.234         0.7777        -999.25        -78.233         -5.364      0.9505294
      5925.5000         0.5862       1721.809         0.7785        -999.25       -78.4329        -5.5507      0.9477838
      5926.0000         0.5869       1728.344         0.7793        -999.25       -78.0543        -5.1588      0.9535471
      5926.5000         0.5876       1734.656           0.78        -999.25       -77.6758        -4.8945      0.9574338
      5927.0000         0.5886       1740.961           0.78        -999.25       -77.3253        -4.6774      0.9606265
      5927.5000         0.5923        1736.66         0.7801        -999.25       -77.0598        -4.5454      0.9625676
      5928.0000          0.596       1724.947         0.7802        -999.25       -76.7944        -4.4134      0.9645088
      5928.5000         0.5998       1713.234         0.7803        -999.25       -76.4581        -4.2105      0.9674926
      5929.0000         0.6035       1698.984         0.7803        -999.25       -75.8794        -3.7653      0.9740397
      5929.5000         0.6072       1682.678         0.7804        -999.25        -75.301        -3.3203      0.9805838
      5930.0000         0.6108       1666.305         0.7805        -999.25        -74.751        -2.9037      0.9867103
      5930.5000         0.6137       1649.549         0.7805        -999.25       -74.3538        -2.6399      0.9905897
      5931.0000         0.6167       1633.221         0.7806        -999.25       -74.0957        -2.5153       0.992422
      5931.5000         0.6196       1624.068         0.7818        -999.25       -74.7201        -3.2731      0.9812779
      5932.0000         0.6225       1614.977          0.785        -999.25       -75.3445        -4.0309      0.9701338
      5932.5000         0.6254       1607.498         0.7882        -999.25       -76.1058        -4.9256      0.9569765
      5933.0000         0.6284        1600.02         0.7915        -999.25       -77.0446        -5.9979      0.9412073
      5933.5000         0.6313       1592.539         0.7947        -999.25       -77.9833          -7.07      0.9254411
      5934.0000         0.6327       1583.506          0.798        -999.25       -78.5313        -7.7514      0.9154206
      5934.5000         0.6335       1574.129         0.8012        -999.25       -78.9381        -8.2917       0.907475
      5935.0000         0.6343       1565.672         0.8045        -999.25       -78.2504        -7.7374      0.9156265
      5935.5000          0.635       1557.215         0.8077        -999.25       -77.6073        -7.2277       0.923122
      5936.0000         0.6358       1563.229         0.8109        -999.25       -77.0374        -6.7912      0.9295412
      5936.5000         0.6366       1569.367         0.8137        -999.25        -76.467        -6.3543      0.9359662
      5937.0000         0.6374        1575.51         0.8139        -999.25       -75.8967        -5.9174      0.9423912
      5937.5000         0.6381       1585.223         0.8141        -999.25       -75.3268        -5.4809      0.9488103
      5938.0000         0.6353       1596.869         0.8142        -999.25       -74.7565        -5.0441      0.9552338
      5938.5000         0.6321       1608.504         0.8144        -999.25       -74.2524        -4.6734      0.9606853
      5939.0000         0.6288       1620.137         0.8146        -999.25       -73.9427        -4.4971      0.9632779
      5939.5000         0.6255       1631.771         0.8147        -999.25       -73.6335        -4.3213      0.9658632
      5940.0000         0.6223       1637.443         0.8149        -999.25       -73.3239        -4.1452      0.9684529
      5940.5000         0.6191       1641.486         0.8128        -999.25       -73.0145        -3.9692      0.9710412
      5941.0000         0.6192       1641.891         0.8067        -999.25       -72.7048        -3.7929      0.9736338
      5941.5000         0.6194       1629.459         0.8006        -999.25        -72.334        -3.5555       0.977125
      5942.0000         0.6195       1617.037         0.7946        -999.25       -72.4138        -3.7688      0.9739882
      5942.5000         0.6199       1605.898         0.7885        -999.25       -72.9769        -4.4653      0.9637456
      5943.0000         0.6287       1595.668         0.7825        -999.25       -73.5397        -5.1615      0.9535074
      5943.5000         0.6375       1585.426         0.7764        -999.25       -74.0183        -5.7736      0.9445059
      5944.0000         0.6451       1575.195         0.7704        -999.25       -74.4861        -6.3748      0.9356647
      5944.5000         0.6424       1565.285         0.7669        -999.25       -74.9537        -6.9758      0.9268265
      5945.0000         0.6396       1557.322          0.764        -999.25        -75.421        -7.5765      0.9179927
      5945.5000         0.6366       1549.359          0.761        -999.25       -75.4133        -7.7023      0.9161426
      5946.0000         0.6323       1541.408          0.758        -999.25       -75.2904        -7.7128      0.9159882
      5946.5000         0.6281       1533.447         0.7551        -999.25       -75.1675        -7.7233      0.9158338
      5947.0000         0.6261       1527.615         0.7521        -999.25       -75.4734        -8.1627      0.9093721
      5947.5000         0.6315       1523.834         0.7498        -999.25        -75.882        -8.7047      0.9014015
      5948.0000         0.6369       1520.053         0.7539        -999.25       -76.2904        -9.2465      0.8934338
      5948.5000         0.6375       1516.271          0.758        -999.25        -76.699        -9.7885      0.8854632
      5949.0000         0.6381       1512.488         0.7621        -999.25       -77.0692       -10.2922      0.8780559
