#------------------------------------------------------------------------------
# Created by    : vladimir.rabinovich
# Created on    : 09/19/2023 17:21:14
#------------------------------------------------------------------------------
~Version Information Section
VERS.           2.0     :   CWLS log ASCII Standard - VERSION 2.0
WRAP.           NO      :   One line per depth step
~Well Information Section
#MNEM       .UNIT                                         VALUE :DESCRIPTION
#------------------------------------------------------------------------------
STRT        .FT                                            2600 :START DEPTH
STOP        .FT                                          9205.5 :STOP DEPTH
STEP        .FT                                             0.5 :STEP      
NULL        .                                           -999.25 :NULL      
COMP        .                              MCMORAN OIL & GAS CO :COMPANY   
WELL        .                                OCS 00757 ST00BP00 :WELL      
FLD         .                           WEST CAMERON BLOCK 0118 :FIELD     
LOC         .                                                   :LOCATION  
CNTY        .                                      WEST CAMERON :LOCATION  
STAT        .                                         LOUISIANA :STATE     
CTRY        .                                     UNITED STATES :COUNTRY   
SRVC        .                                                   :SERVICE COMPANY
DATE        .                             9/13/2023 11:18:49 AM :LOG DATE  
API         .                                    17700410700000 :API NUMBER
UWI         .                                    17700410700000 :UNIQUE WELL ID
XCOORD      .                                  1436864.54905534 :SURFACE X 
YCOORD      .                                  10703419.9985863 :SURFACE Y 
LAT         .                                        29.4912718 :LATITUDE  
LON         .                                       -93.6400205 :LONGITUDE 
ELEV        .FT                                             118 :ELEVATION VALUE
ELEV_TYPE   .                                                KB :ELEVATION REFERENCE TYPE
~Curve Information Section
#MNEM       .UNIT                                      API CODE :CURVE DESCRIPTION
#------------------------------------------------------------------------------
DEPT        .FT                                                 :DEPTH     
CAL         .IN                                                 :          
CNC         .%                                                  :          
DT24        .US/F                                               :          
GR          .GAPI                                               :          
GR_NORM     .GAPI                                               :GammaRay Normalized
M0C6        .MMHO                                               :          
M2R1        .OHMM                                               :          
M2R2        .OHMM                                               :          
M2R3        .OHMM                                               :          
M2R6        .OHMM                                               :          
M2R9        .OHMM                                               :          
M2RX        .OHMM                                               :          
PORZ        .%                                                  :          
RWAZ        .OHMM                                               :          
SP          .MV                                                 :          
SP_NORM     .MV                                                 :SP Normalized
TTEN        .LB/F                                               :          
VSH_GR      .V/V                                                :Volume of Shale from GR
VSH_SP      .V/V                                                :Volume of Shale from SP
ZCOR        .G/CC                                               :          
~A        DEPTH            CAL            CNC           DT24             GR        GR_NORM           M0C6           M2R1           M2R2           M2R3           M2R6           M2R9           M2RX           PORZ           RWAZ             SP        SP_NORM           TTEN         VSH_GR         VSH_SP           ZCOR
# ...
      4810.0000        -999.25        -999.25        123.794         75.328       72.62279       1031.092          0.814          0.887          0.934           0.96          0.972          0.987        -999.25        -999.25         -2.831        -0.9262       2400.672       0.843038              1        -999.25
      4810.5000        -999.25        -999.25        124.429         74.266        71.4227       1038.022          0.798           0.87          0.916          0.942          0.954          0.968        -999.25        -999.25         -2.637        -0.7322       2402.021      0.8175042              1        -999.25
      4811.0000        -999.25        -999.25        124.252         75.705       73.05319       1044.079          0.789          0.861          0.905          0.931          0.944          0.957        -999.25        -999.25         -2.746        -0.8412       2401.726      0.8521956              1        -999.25
      4811.5000        -999.25        -999.25        123.671         77.928       75.57085       1049.102          0.788          0.859          0.904           0.93          0.943          0.955        -999.25        -999.25         -2.815        -0.9102       2397.534      0.9057629              1        -999.25
      4812.0000        -999.25        -999.25        123.052         77.304       74.86657       1053.229          0.794          0.867          0.912          0.939          0.951          0.963        -999.25        -999.25         -2.618        -0.7132       2397.023      0.8907781              1        -999.25
      4812.5000        -999.25        -999.25        122.701         75.952       73.33839       1056.839          0.804          0.877          0.923          0.951          0.964          0.975        -999.25        -999.25         -2.291        -0.3862       2402.566      0.8582636              1        -999.25
      4813.0000        -999.25        -999.25        122.597         76.321        73.7578       1060.452          0.808          0.883          0.929          0.957           0.97          0.981        -999.25        -999.25         -2.166        -0.2612       2405.766      0.8671873              1        -999.25
      4813.5000        -999.25        -999.25        122.647         76.158       73.57526       1064.587          0.805          0.881          0.928          0.956          0.969          0.979        -999.25        -999.25         -2.348        -0.4432       2403.353      0.8633033              1        -999.25
      4814.0000        -999.25        -999.25         123.17         74.375        71.5592       1069.644            0.8          0.877          0.924          0.952          0.965          0.975        -999.25        -999.25         -2.574        -0.6692        2401.52      0.8204085              1        -999.25
      4814.5000        -999.25        -999.25         123.86         72.093       68.97849       1075.806          0.792           0.87          0.918          0.946          0.958          0.968        -999.25        -999.25         -2.531        -0.6262        2404.13      0.7654998              1        -999.25
      4815.0000        -999.25        -999.25        124.614         71.785       68.63184       1083.004          0.778          0.856          0.905          0.932          0.944          0.953        -999.25        -999.25         -2.205        -0.3002       2408.775      0.7581244              1        -999.25
      4815.5000        -999.25        -999.25        125.358         75.714       73.08024       1090.916          0.762          0.839          0.888          0.914          0.926          0.935        -999.25        -999.25         -1.894         0.0108       2411.306       0.852771              1        -999.25
      4816.0000        -999.25        -999.25        125.823         80.662       78.68199       1099.038           0.75          0.826          0.875          0.901          0.913           0.92        -999.25        -999.25         -1.845         0.0598       2408.301      0.9719573              1        -999.25
      4816.5000        -999.25        -999.25        126.387         80.558       78.56621        1106.79           0.74          0.815          0.863          0.889            0.9          0.907        -999.25        -999.25         -1.955        -0.0502       2402.693      0.9694938              1        -999.25
      4817.0000        -999.25        -999.25         126.98         77.589        75.2079       1113.627          0.728          0.802          0.849          0.874          0.885          0.892        -999.25        -999.25         -1.891         0.0138       2401.614      0.8980405              1        -999.25
      4817.5000        -999.25        -999.25        127.317         77.298       74.88049       1119.176          0.721          0.793          0.839          0.864          0.875          0.881        -999.25        -999.25         -1.574         0.3308        2406.34      0.8910743              1        -999.25
      4818.0000        -999.25        -999.25         127.14         78.567       76.31847       1123.278          0.723          0.795          0.841          0.866          0.877          0.883        -999.25        -999.25         -1.297         0.6078        2414.22      0.9216695              1        -999.25
      4818.5000        -999.25        -999.25        126.686         77.928       75.59722       1125.994           0.73          0.804          0.851          0.876          0.887          0.893        -999.25        -999.25         -1.311         0.5938         2420.4      0.9063239              1        -999.25
      4819.0000        -999.25        -999.25        126.356         75.899       73.30285       1127.513          0.736          0.811          0.859          0.884          0.895          0.901        -999.25        -999.25         -1.503         0.4018       2419.334      0.8575074              1        -999.25
      4819.5000        -999.25        -999.25        126.217         75.273        72.5962       1128.032          0.739          0.817          0.866          0.892          0.902          0.908        -999.25        -999.25         -1.557         0.3478       2411.691      0.8424723              1        -999.25
      4820.0000        -999.25        -999.25        126.771         77.117       74.68504       1127.583           0.74           0.82           0.87          0.896          0.906          0.913        -999.25        -999.25         -1.347         0.5578       2406.537      0.8869156              1        -999.25
      4820.5000        -999.25        -999.25        127.576          80.33       78.32311        1125.95          0.733          0.814          0.864          0.891            0.9          0.907        -999.25        -999.25         -1.073         0.8318       2409.452      0.9643216              1        -999.25
      4821.0000        -999.25        -999.25        128.214         82.055       80.27728       1122.615          0.721          0.801          0.851          0.877          0.886          0.893        -999.25        -999.25         -1.079         0.8258       2414.582              1              1        -999.25
      4821.5000        -999.25        -999.25        129.343         81.513       79.66579       1116.821          0.714          0.792          0.841          0.866          0.875          0.883        -999.25        -999.25         -1.331         0.5738       2415.954      0.9928892              1        -999.25
      4822.0000        -999.25        -999.25        130.722         80.588       78.62076       1107.746          0.715           0.79          0.838          0.863          0.872          0.881        -999.25        -999.25         -1.462         0.4428       2416.821      0.9706544              1        -999.25
      4822.5000        -999.25        -999.25        131.702         81.388       79.52807       1094.765          0.718           0.79          0.836           0.86          0.869          0.878        -999.25        -999.25         -1.442         0.4628       2420.336      0.9899589              1        -999.25
