#------------------------------------------------------------------------------
# Created by    : vladimir.rabinovich
# Created on    : 09/19/2023 17:22:07
#------------------------------------------------------------------------------
~Version Information Section
VERS.           2.0     :   CWLS log ASCII Standard - VERSION 2.0
WRAP.           NO      :   One line per depth step
~Well Information Section
#MNEM       .UNIT                                         VALUE :DESCRIPTION
#------------------------------------------------------------------------------
STRT        .FT                                            4421 :START DEPTH
STOP        .FT                                           11895 :STOP DEPTH
STEP        .FT                                             0.5 :STEP      
NULL        .                                           -999.25 :NULL      
COMP        .                MURPHY EXPLORATION & PRODUCTION CO :COMPANY   
WELL        .                               OCS G02828 ST00BP00 :WELL      
FLD         .                           WEST CAMERON BLOCK 0116 :FIELD     
LOC         .                                                   :LOCATION  
CNTY        .                                      WEST CAMERON :LOCATION  
STAT        .                                         LOUISIANA :STATE     
CTRY        .                                     UNITED STATES :COUNTRY   
SRVC        .                                                   :SERVICE COMPANY
DATE        .                             9/13/2023 11:18:31 AM :LOG DATE  
API         .                                    17700404120000 :API NUMBER
UWI         .                                    17700404120000 :UNIQUE WELL ID
XCOORD      .                                  1472413.58592246 :SURFACE X 
YCOORD      .                                  10706677.6123634 :SURFACE Y 
LAT         .                                         29.500724 :LATITUDE  
LON         .                                        -93.528296 :LONGITUDE 
ELEV        .FT                                              75 :ELEVATION VALUE
ELEV_TYPE   .                                                KB :ELEVATION REFERENCE TYPE
~Curve Information Section
#MNEM       .UNIT                                      API CODE :CURVE DESCRIPTION
#------------------------------------------------------------------------------
DEPT        .FT                                                 :DEPTH     
CALI        .IN                                                 :          
DRHO        .G/C3                                               :          
DT          .US/F                                               :          
GR          .GAPI                                               :          
GR_1        .GAPI                                               :          
GR_NORM     .GAPI                                               :GammaRay Normalized
ILD         .OHMM                                               :          
NPHI        .%                                                  :          
RHOB        .G/C3                                               :          
SFL         .OHMM                                               :          
SP          .MV                                                 :          
SP_NORM     .MV                                                 :SP Normalized
VSH_GR      .V/V                                                :Volume of Shale from GR
VSH_SP      .V/V                                                :Volume of Shale from SP
~A        DEPTH           CALI           DRHO             DT             GR           GR_1        GR_NORM            ILD           NPHI           RHOB            SFL             SP        SP_NORM         VSH_GR         VSH_SP
# ...
      6473.0000        14.9074         0.0053       113.3928        60.9705        -999.25       63.41978         0.7096        32.8146         2.2785         1.0115       -74.4602       -23.0316      0.6472294      0.6661651
      6473.5000        14.8791        -0.0002       108.6321        60.0739        -999.25        62.3166         0.6954         32.422         2.2672          0.998       -78.6565       -27.2279      0.6237574      0.5995572
      6474.0000        14.7607        -0.0042        97.0767        58.5918        -999.25       60.49348         0.6817        32.1763         2.2596         1.0185       -83.1395       -31.7109      0.5849677      0.5283984
      6474.5000        14.4723        -0.0041        94.1117        56.4779        -999.25       57.89352         0.6686        31.9098         2.2619         1.1121       -87.6189       -36.1903      0.5296494      0.4572968
      6475.0000        14.1836         0.0023        94.3008        54.4378        -999.25        55.3843         0.6571        31.2297         2.2737         1.2018       -92.1019       -40.6733      0.4762618      0.3861381
      6475.5000        13.8951         0.0114        98.2239        52.9016        -999.25       53.49467         0.6434        30.4172         2.2834         1.2297       -94.6229       -43.1943      0.4360567      0.3461222
      6476.0000        13.6066         0.0164       100.1399        51.9565        -999.25       52.33185         0.6361        30.5762         2.2632         1.1675       -95.2813       -43.8527      0.4113159      0.3356715
      6476.5000        13.3329         0.0179        99.9409        51.3475        -999.25       51.58229         0.6755        31.4542         2.2551         1.0508       -92.6499       -41.2213      0.3953678      0.3774397
      6477.0000        13.1569         0.0212        95.0034        52.1887        -999.25       52.61588         0.7032         32.086         2.2666          0.984       -88.2111       -36.7825      0.4173592      0.4478968
      6477.5000        13.1433         0.0273        91.2031        54.7598        -999.25       55.77654         0.7081         32.417         2.2967         0.9412       -80.8484       -29.4198      0.4846072      0.5647651
      6478.0000        13.1533         0.0292        89.5554        57.2989        -999.25       58.89785         0.7056         32.576         2.3319         1.0102       -73.6107       -22.1821      0.5510181      0.6796492
      6478.5000        13.2551         0.0129        91.4856        60.3885        -999.25       62.69604         0.7065        32.8599          2.341         1.0388       -67.1675       -15.7389      0.6318308      0.7819222
      6479.0000        13.7399         0.0044       100.2701         63.144        -999.25       66.08345         0.6982        33.4619         2.3337         1.0583       -63.7602       -12.3316      0.7039032      0.8360063
      6479.5000        14.3233         0.0024       109.0645         65.973        -999.25        69.5612          0.687        33.7975         2.3065         1.0539       -62.1163       -10.6877       0.777898         0.8621
      6480.0000        14.8049         0.0184        117.849        67.5585        -999.25       71.50999           0.68        34.1033           2.28         0.9373       -60.1101        -8.6815      0.8193614      0.8939444
      6480.5000        14.9461         0.0299        126.609        70.2672        -999.25       74.83984         0.6729        34.7292         2.2622          0.738       -47.4112         4.0174      0.8902093              1
      6481.0000        14.9618         0.0266       129.6353        72.2728        -999.25       77.30515          0.678        36.4197         2.2377         0.5903       -31.2001        20.2285      0.9426628              1
      6481.5000        14.8361          0.025       126.7981         74.957        -999.25       80.60488          0.693        38.5364           2.25          0.536       -24.2829        27.1457              1              1
      6482.0000        14.6633         0.0418       121.9956        76.1602        -999.25       82.08347          0.704         40.653          2.283         0.5896       -25.5145        25.9141              1              1
      6482.5000        14.5364         0.0509       112.5037        72.3785        -999.25       77.43279         0.7131        42.7711         2.3031         0.7184       -36.0693        15.3593      0.9453784              1
      6483.0000        14.5023          0.042       102.7463        70.0287        -999.25       74.54276         0.7259        43.3396         2.3114         0.8774        -47.926         3.5026      0.8838885              1
      6483.5000        14.5089         0.0241        99.5701        67.3151        -999.25       71.20541         0.7505        41.7363         2.3151         1.0181       -58.4221        -6.9935      0.8128812      0.9207381
      6484.0000        14.5292         0.0111        102.196        64.9998        -999.25       68.35782          0.786          38.61         2.3242         1.1451       -60.7656         -9.337       0.752294      0.8835397
      6484.5000        14.5338         0.0042        108.691         63.391        -999.25       66.37891         0.8247        35.9517         2.3341         1.1666       -61.5977       -10.1691      0.7101895      0.8703318
      6485.0000        14.5242         0.0111       115.9918        62.7706        -999.25       65.61534         0.8569        35.1314          2.339         1.0937       -63.7216        -12.293      0.6939434       0.836619
      6485.5000        14.5314         0.0096       116.5427        63.1495        -999.25       66.08049          0.872        34.8753         2.3398         1.0383       -67.3624       -15.9338      0.7038402      0.7788286
      6486.0000        14.5489         0.0034       115.2599         63.308        -999.25       66.27464         0.8526        36.2755         2.3164         0.9874       -71.1099       -19.6813      0.7079712      0.7193444
      6486.5000         14.529        -0.0014       110.7152        62.2247        -999.25       64.94189         0.8247        37.9653         2.3068         0.9948       -74.6202       -23.1916      0.6796148      0.6636254
      6487.0000        14.2717        -0.0028       108.6997        60.7892        -999.25       63.17609         0.7957        37.8423         2.3012         1.0455       -75.6665       -24.2379      0.6420444      0.6470175
      6487.5000        13.9643         0.0007       107.8878        60.1237        -999.25       62.35705          0.774        36.8422         2.3007         1.0848       -76.4287       -25.0001      0.6246181       0.634919
      6488.0000        13.8268         0.0064       106.5736        59.7015        -999.25       61.83718         0.7587        35.6216         2.3046          1.124       -76.8535       -25.4249      0.6135571      0.6281762
      6488.5000        13.6237         0.0128       104.4733        60.0266        -999.25       62.23619         0.7577        36.0161         2.3126         1.1403       -76.2025       -24.7739      0.6220465      0.6385095
      6489.0000        13.4957         0.0196       102.4246        60.5041        -999.25       62.82258         0.7687        36.0004         2.3269          1.114       -75.1958       -23.7672       0.634523      0.6544889
      6489.5000        13.4072          0.027       100.7823         61.341        -999.25       63.85087         0.7738        35.4232         2.3435         1.0472       -74.1082       -22.6796      0.6564015      0.6717524
      6490.0000        13.3563         0.0323       100.0981        62.3008        -999.25        65.0303         0.7802        34.1442         2.3602         0.9738        -72.559       -21.1304      0.6814957      0.6963429
      6490.5000        13.4069         0.0334       101.5334        63.8617        -999.25       66.94883         0.7928         33.523         2.3691         0.9561       -69.9459       -18.5173      0.7223155      0.7378206
