#------------------------------------------------------------------------------
# Created by    : vladimir.rabinovich
# Created on    : 09/19/2023 17:20:47
#------------------------------------------------------------------------------
~Version Information Section
VERS.           2.0     :   CWLS log ASCII Standard - VERSION 2.0
WRAP.           NO      :   One line per depth step
~Well Information Section
#MNEM       .UNIT                                         VALUE :DESCRIPTION
#------------------------------------------------------------------------------
STRT        .FT                                             612 :START DEPTH
STOP        .FT                                            9868 :STOP DEPTH
STEP        .FT                                             0.5 :STEP      
NULL        .                                           -999.25 :NULL      
COMP        .                                      SHELL OIL CO :COMPANY   
WELL        .                               OCS G00950 ST00BP00 :WELL      
FLD         .                                           WILDCAT :FIELD     
LOC         .                                                   :LOCATION  
CNTY        .                                      EAST CAMERON :LOCATION  
STAT        .                                         LOUISIANA :STATE     
CTRY        .                                     UNITED STATES :COUNTRY   
SRVC        .                                                   :SERVICE COMPANY
DATE        .                             9/13/2023 11:18:15 AM :LOG DATE  
API         .                                    17703002450000 :API NUMBER
UWI         .                                    17703002450000 :UNIQUE WELL ID
XCOORD      .                                  1691932.89207312 :SURFACE X 
YCOORD      .                                   10460306.475122 :SURFACE Y 
LAT         .                                        28.8238717 :LATITUDE  
LON         .                                       -92.8390619 :LONGITUDE 
ELEV        .FT                                              75 :ELEVATION VALUE
ELEV_TYPE   .                                                KB :ELEVATION REFERENCE TYPE
~Curve Information Section
#MNEM       .UNIT                                      API CODE :CURVE DESCRIPTION
#------------------------------------------------------------------------------
DEPT        .FT                                                 :DEPTH     
ASN         .OHMM                                               :          
GR          .GAPI                                               :          
GR_NORM     .GAPI                                               :GammaRay Normalized
ILD         .OHMM                                               :          
SP          .MV                                                 :          
SP_NORM     .MV                                                 :SP Normalized
VSH_GR      .V/V                                                :Volume of Shale from GR
VSH_SP      .V/V                                                :Volume of Shale from SP
~A        DEPTH            ASN             GR        GR_NORM            ILD             SP        SP_NORM         VSH_GR         VSH_SP
       612.0000        -999.25        35.2277       73.50226        -999.25        -999.25        -999.25      0.8617502        -999.25
       612.5000        -999.25        37.1573       75.94167        -999.25        -999.25        -999.25      0.9136525        -999.25
       613.0000        -999.25        35.9514       74.41716        -999.25        -999.25        -999.25      0.8812162        -999.25
       613.5000        -999.25         34.324        72.3598        -999.25        -999.25        -999.25      0.8374426        -999.25
       614.0000        -999.25        33.6199       71.46968        -999.25        -999.25        -999.25      0.8185039        -999.25
       614.5000        -999.25        34.0276        71.9851        -999.25        -999.25        -999.25      0.8294702        -999.25
       615.0000        -999.25        34.3679       72.41531        -999.25        -999.25        -999.25      0.8386237        -999.25
       615.5000        -999.25        32.9948       70.67943        -999.25        -999.25        -999.25        0.80169        -999.25
       616.0000        -999.25        31.2129       69.08641        -999.25        -999.25        -999.25       0.767796        -999.25
       616.5000        -999.25        -999.25       69.57022        -999.25        -999.25        -999.25      0.7780898        -999.25
       617.0000        -999.25        -999.25       70.05391        -999.25        -999.25        -999.25       0.788381        -999.25
       617.5000        -999.25        -999.25       70.53773        -999.25        -999.25        -999.25      0.7986751        -999.25
       618.0000         1.1576        -999.25       71.02141        -999.25       -25.9055         -3.264      0.8089661      0.9419487
       618.5000         0.7821        -999.25       71.50521        -999.25       -27.3675         -4.726      0.8192598      0.9044616
       619.0000         0.3196        -999.25       71.98889        -999.25       -30.8348        -5.8973      0.8295509      0.8744282
       619.5000         0.4129        31.9713       72.47269        -999.25       -32.8878         -5.476      0.8398446      0.8852308
       620.0000         0.5451        32.5337       72.95639        -999.25        -34.858        -4.9718       0.850136       0.898159
       620.5000         0.5951        33.1933       70.93039        -999.25       -35.6122        -3.2517      0.8070295      0.9422641
       621.0000         0.6258        33.9884       71.93553        -999.25        -35.945        -1.1101      0.8284156      0.9971769
       621.5000         0.6606        35.4904       73.83437        -999.25       -36.1457         1.1636      0.8688163              1
       622.0000         0.6907        38.0688       77.09397         0.7084       -36.3508         1.3851      0.9381696              1
       622.5000           0.72        39.9285       79.44501         0.7514       -36.6968         1.0391      0.9881917              1
       623.0000         0.7457        40.9251        80.7049          0.787       -36.7469          0.989              1              1
       623.5000         0.7687        39.5613       78.98079         0.8172       -36.6789         1.0569      0.9783146              1
       624.0000          0.787        38.2626       77.33897         0.8318       -36.2797         1.4562      0.9433824              1
       624.5000         0.7918         37.287       76.10563         0.8357       -36.2258         1.5101       0.917141              1
       625.0000         0.7915        37.9443       76.93658         0.8337       -36.4724         1.2635       0.934821              1
       625.5000          0.789        38.7542       77.96046         0.8285       -37.1804         0.5555      0.9566055              1
       626.0000         0.7909        36.8654       75.57264         0.8217       -37.9985        -0.2626      0.9058008              1
       626.5000         0.7937        35.0205       73.24031         0.8205       -38.7998        -1.0639      0.8561768      0.9983615
       627.0000         0.7894        31.7995       71.02141         0.8266       -39.3735        -1.6376      0.8089661      0.9836513
       627.5000          0.782        -999.25       70.37641         0.8574       -39.5728        -1.8369      0.7952428       0.978541
       628.0000         0.7751        -999.25       69.73142         0.8684       -39.6392        -1.9033      0.7815197      0.9768385
       628.5000          0.771        30.3219       69.08641          0.881        -39.742        -2.0061       0.767796      0.9742026
       629.0000           0.77        31.5908        68.9045         0.8909       -39.8621        -2.1262      0.7639256      0.9711231
       629.5000         0.7717        31.5654       68.87239         0.8955       -40.0231        -2.2873      0.7632424      0.9669923
       630.0000         0.7724        30.9611       69.08641         0.8966       -40.1295        -2.3937       0.767796      0.9642641
       630.5000         0.7754        -999.25       69.08641         0.9002       -40.0866        -2.3507       0.767796      0.9653667
       631.0000         0.7876        -999.25       69.08641          0.905       -39.4957        -1.7598       0.767796      0.9805179
       631.5000         0.7962        -999.25       69.08641         0.9184       -40.0064        -2.2705       0.767796      0.9674231
       632.0000         0.8006        -999.25       69.08641         0.9275       -40.3112        -2.5753       0.767796      0.9596077
       632.5000         0.8078        30.1258       69.08641         0.9373       -40.3763        -2.6404       0.767796      0.9579385
       633.0000         0.8163        30.1827       67.12439         0.9759       -40.2472        -2.5113      0.7260509      0.9612487
       633.5000         0.8178        30.0946       67.01302         1.0033       -40.0047        -2.2688      0.7236812      0.9674667
       634.0000         0.8204        30.5246       67.55661         1.0304       -39.6839         -1.948       0.735247      0.9756923
       634.5000         0.8264        30.6243       67.68266         1.0507       -39.6727        -1.9368       0.737929      0.9759795
       635.0000         0.8379        30.5429       67.57974         1.0589       -39.5516        -1.8158      0.7357392       0.979082
       635.5000         0.8359        31.1252       68.31589          1.043       -39.1324        -1.3965      0.7514018      0.9898334
       636.0000         0.8303        33.3664       71.14921         1.0104       -39.4735        -1.7376      0.8116853      0.9810872
       636.5000          0.831        35.6059       73.98038         0.9815       -39.7225        -1.9866      0.8719231      0.9747025
       637.0000          0.836          37.76       76.70358         0.9808       -39.9448         -2.209      0.9298635          0.969
       637.5000         0.8459        36.8031       75.49387         0.9992       -40.0695        -2.3336       0.904125      0.9658051
       638.0000         0.8509        35.6638       74.05357         1.0138       -40.1479         -2.412      0.8734803      0.9637949
       638.5000         0.8498        34.5701       72.67092         0.9921       -40.1963        -2.4604      0.8440621      0.9625539
       639.0000         0.8497        33.4712       71.28171         0.9567       -40.2354        -2.4995      0.8145044      0.9615513
       639.5000         0.8533        33.3892       71.17804         0.9243        -40.263        -2.5271      0.8122987      0.9608436
       640.0000         0.8547        33.7613       71.64845         0.8802       -40.2842        -2.5483      0.8223075         0.9603
       640.5000         0.8552        34.0023       71.95312         0.8357       -39.9965        -2.2606      0.8287897      0.9676769
       641.0000         0.8632        34.1222       72.10469         0.8084       -39.8049         -2.069      0.8320147      0.9725897
