#------------------------------------------------------------------------------
# Created by    : vladimir.rabinovich
# Created on    : 09/19/2023 17:21:57
#------------------------------------------------------------------------------
~Version Information Section
VERS.           2.0     :   CWLS log ASCII Standard - VERSION 2.0
WRAP.           NO      :   One line per depth step
~Well Information Section
#MNEM       .UNIT                                         VALUE :DESCRIPTION
#------------------------------------------------------------------------------
STRT        .FT                                             570 :START DEPTH
STOP        .FT                                           10083 :STOP DEPTH
STEP        .FT                                             0.5 :STEP      
NULL        .                                           -999.25 :NULL      
COMP        .                                BP EXPLORATION INC :COMPANY   
WELL        .                               OCS G10548 ST00BP00 :WELL      
FLD         .                                           WILDCAT :FIELD     
LOC         .                                                   :LOCATION  
CNTY        .                                      WEST CAMERON :LOCATION  
STAT        .                                         LOUISIANA :STATE     
CTRY        .                                     UNITED STATES :COUNTRY   
SRVC        .                                                   :SERVICE COMPANY
DATE        .                             9/13/2023 11:18:09 AM :LOG DATE  
API         .                                    17700408010000 :API NUMBER
UWI         .                                    17700408010000 :UNIQUE WELL ID
XCOORD      .                                  1469734.01149431 :SURFACE X 
YCOORD      .                                  10675810.5973196 :SURFACE Y 
LAT         .                                        29.4157778 :LATITUDE  
LON         .                                        -93.536275 :LONGITUDE 
ELEV        .FT                                              80 :ELEVATION VALUE
ELEV_TYPE   .                                                KB :ELEVATION REFERENCE TYPE
~Curve Information Section
#MNEM       .UNIT                                      API CODE :CURVE DESCRIPTION
#------------------------------------------------------------------------------
DEPT        .FT                                                 :DEPTH     
CALI        .IN                                                 :          
DPHI        .%                                                  :          
GR          .GAPI                                               :          
GR_1        .GAPI                                               :          
GR_NORM     .GAPI                                               :GammaRay Normalized
ILD         .OHMM                                               :          
ILM         .OHMM                                               :          
NPHI        .%                                                  :          
SFL         .OHMM                                               :          
SP          .MV                                                 :          
SP_NORM     .MV                                                 :SP Normalized
VSH_GR      .V/V                                                :Volume of Shale from GR
VSH_SP      .V/V                                                :Volume of Shale from SP
~A        DEPTH           CALI           DPHI             GR           GR_1        GR_NORM            ILD            ILM           NPHI            SFL             SP        SP_NORM         VSH_GR         VSH_SP
# ...
      1235.0000        -999.25        -999.25        53.2148        -999.25       73.63519         0.6581         0.7218        -999.25         0.7521      -111.5406       -10.5882      0.8645784      0.5228778
      1235.5000        -999.25        -999.25        52.3058        -999.25       72.55576         0.6304         0.7045        -999.25         0.7725      -111.9458       -10.9934      0.8416118      0.5003667
      1236.0000        -999.25        -999.25        51.0897        -999.25       71.11341         0.6092         0.6883        -999.25         0.7925      -112.1333       -11.1809      0.8109236        0.48995
      1236.5000        -999.25        -999.25        49.4146        -999.25        69.1289         0.5981          0.676        -999.25         0.7817      -112.2726       -11.3202      0.7686999      0.4822111
      1237.0000        -999.25        -999.25          48.21        -999.25       67.70013         0.5913         0.6677        -999.25         0.7491      -112.2681       -11.3157      0.7383007      0.4824611
      1237.5000        -999.25        -999.25        48.3738        -999.25       67.88797         0.5894         0.6636        -999.25         0.7187      -112.2437       -11.2913      0.7422972      0.4838167
      1238.0000        -999.25        -999.25        48.9545        -999.25       68.56846          0.595         0.6666        -999.25          0.697      -112.0745       -11.1221      0.7567757      0.4932167
      1238.5000        -999.25        -999.25        47.8906        -999.25        67.3059         0.6051         0.6786        -999.25          0.697      -111.8888       -10.9364      0.7299128      0.5035333
      1239.0000        -999.25        -999.25        46.1006        -999.25       65.18566         0.6216         0.6969        -999.25         0.7044      -111.6522       -10.6998      0.6848013      0.5166778
      1239.5000        -999.25        -999.25        45.1466        -999.25       64.05295         0.6473         0.7194        -999.25         0.7204      -111.2319       -10.2795       0.660701      0.5400278
      1240.0000        -999.25        -999.25        44.7996        -999.25       63.63733         0.6814         0.7487        -999.25         0.7473      -110.6401        -9.6877      0.6518582      0.5729055
      1240.5000        -999.25        -999.25        47.6425        -999.25       66.99036         0.7218         0.7771        -999.25         0.7794      -109.7725        -8.8201      0.7231991      0.6211056
      1241.0000        -999.25        -999.25        49.4063        -999.25       69.06843         0.7624         0.8042        -999.25          0.807      -108.7766        -7.8242      0.7674134      0.6764333
      1241.5000        -999.25        -999.25        51.0813        -999.25       71.04169         0.7982         0.8311        -999.25         0.8344      -108.1382        -7.1858      0.8093978         0.7119
      1242.0000        -999.25        -999.25        56.7782        -999.25       77.76628         0.8285         0.8548        -999.25         0.8613      -107.9269        -6.9745      0.9524741      0.7236389
      1242.5000        -999.25        -999.25        60.3264        -999.25       81.95241         0.8526         0.8727        -999.25          0.886      -107.8562        -6.9038              1      0.7275667
      1243.0000        -999.25        -999.25         61.218        -999.25       83.00019         0.8722         0.8877        -999.25          0.905      -107.7805        -6.8281              1      0.7317722
      1243.5000        -999.25        -999.25        58.0728        -999.25       79.27882         0.8841         0.8999        -999.25          0.917      -107.6219        -6.6695      0.9846558      0.7405834
      1244.0000        -999.25        -999.25        53.9465        -999.25       74.39848         0.8911         0.9109        -999.25          0.927      -107.2189        -6.2665      0.8808188      0.7629722
      1244.5000        -999.25        -999.25        51.3082        -999.25       71.27596         0.8959         0.9193        -999.25          0.934      -106.6617        -5.7093      0.8143822      0.7939278
      1245.0000        -999.25        -999.25        50.4616        -999.25       70.27012         0.8971         0.9239        -999.25         0.9347      -105.9139        -4.9615      0.7929813      0.8354722
      1245.5000        -999.25        -999.25        50.2533        -999.25       70.01849         0.8976          0.928        -999.25         0.9354      -105.1088        -4.1564      0.7876275         0.8802
      1246.0000        -999.25        -999.25        49.7095        -999.25       69.37038         0.8991         0.9297        -999.25         0.9366      -104.6368        -3.6844       0.773838      0.9064222
      1246.5000        -999.25        -999.25        50.2393        -999.25       69.99072         0.9039         0.9326        -999.25         0.9411      -104.3617        -3.4093      0.7870367      0.9217055
      1247.0000        -999.25        -999.25        56.8055        -999.25       77.74229         0.9096         0.9367        -999.25          0.946      -104.2485        -3.2961      0.9519637      0.9279944
      1247.5000        -999.25        -999.25        62.5936        -999.25       84.57462         0.9174         0.9404        -999.25         0.9514      -104.2271        -3.2747              1      0.9291834
      1248.0000        -999.25        -999.25        64.3856        -999.25       86.68612         0.9253         0.9423        -999.25         0.9606      -104.3085        -3.3561              1      0.9246611
      1248.5000        -999.25        -999.25        64.3218        -999.25       86.60506         0.9277         0.9421        -999.25         0.9677      -104.4609        -3.5085              1      0.9161944
      1249.0000        -999.25        -999.25        63.8316        -999.25        86.0204         0.9279         0.9381        -999.25         0.9701      -104.6626        -3.7102              1      0.9049889
      1249.5000        -999.25        -999.25        63.5108        -999.25       85.63574         0.9213         0.9276        -999.25         0.9686      -104.9771        -4.0247              1      0.8875167
      1250.0000        -999.25        -999.25        63.3785        -999.25       85.47378         0.9021          0.908        -999.25         0.9593      -105.2916        -4.3392              1      0.8700445
      1250.5000        -999.25        -999.25        60.6727        -999.25       82.27162         0.8775          0.886        -999.25          0.944      -105.6039        -4.6515              1      0.8526945
      1251.0000        -999.25        -999.25        57.9346        -999.25        79.0312         0.8547         0.8607        -999.25         0.9176      -105.8226        -4.8702      0.9793872      0.8405445
      1251.5000        -999.25        -999.25        55.7286        -999.25       76.41949          0.834         0.8363        -999.25         0.8809      -106.0043        -5.0519       0.923819        0.83045
      1252.0000        -999.25        -999.25        55.4863        -999.25       76.12757         0.8164          0.817        -999.25         0.8475      -106.0293        -5.0769      0.9176079      0.8290611
      1252.5000        -999.25        -999.25        57.8856        -999.25       78.95652         0.8014         0.8055        -999.25         0.8235      -106.0249        -5.0725      0.9777983      0.8293055
      1253.0000        -999.25        -999.25        62.7287        -999.25       84.67245         0.7988         0.8022        -999.25          0.815       -105.983        -5.0306              1      0.8316333
      1253.5000        -999.25        -999.25        66.5084        -999.25       89.13206         0.7994         0.8045        -999.25          0.818      -105.8318        -4.8794              1      0.8400334
