#------------------------------------------------------------------------------
# Created by    : vladimir.rabinovich
# Created on    : 09/19/2023 17:20:47
#------------------------------------------------------------------------------
~Version Information Section
VERS.           2.0     :   CWLS log ASCII Standard - VERSION 2.0
WRAP.           NO      :   One line per depth step
~Well Information Section
#MNEM       .UNIT                                         VALUE :DESCRIPTION
#------------------------------------------------------------------------------
STRT        .FT                                             612 :START DEPTH
STOP        .FT                                            9868 :STOP DEPTH
STEP        .FT                                             0.5 :STEP      
NULL        .                                           -999.25 :NULL      
COMP        .                                      SHELL OIL CO :COMPANY   
WELL        .                               OCS G00950 ST00BP00 :WELL      
FLD         .                                           WILDCAT :FIELD     
LOC         .                                                   :LOCATION  
CNTY        .                                      EAST CAMERON :LOCATION  
STAT        .                                         LOUISIANA :STATE     
CTRY        .                                     UNITED STATES :COUNTRY   
SRVC        .                                                   :SERVICE COMPANY
DATE        .                             9/13/2023 11:18:15 AM :LOG DATE  
API         .                                    17703002450000 :API NUMBER
UWI         .                                    17703002450000 :UNIQUE WELL ID
XCOORD      .                                  1691932.89207312 :SURFACE X 
YCOORD      .                                   10460306.475122 :SURFACE Y 
LAT         .                                        28.8238717 :LATITUDE  
LON         .                                       -92.8390619 :LONGITUDE 
ELEV        .FT                                              75 :ELEVATION VALUE
ELEV_TYPE   .                                                KB :ELEVATION REFERENCE TYPE
~Curve Information Section
#MNEM       .UNIT                                      API CODE :CURVE DESCRIPTION
#------------------------------------------------------------------------------
DEPT        .FT                                                 :DEPTH     
ASN         .OHMM                                               :          
GR          .GAPI                                               :          
GR_NORM     .GAPI                                               :GammaRay Normalized
ILD         .OHMM                                               :          
SP          .MV                                                 :          
SP_NORM     .MV                                                 :SP Normalized
VSH_GR      .V/V                                                :Volume of Shale from GR
VSH_SP      .V/V                                                :Volume of Shale from SP
~A        DEPTH            ASN             GR        GR_NORM            ILD             SP        SP_NORM         VSH_GR         VSH_SP
# ...
      5538.5000         0.6944        -999.25        -999.25         0.2951       -70.3721       -30.6486        -999.25      0.4609345
      5539.0000         0.6859        -999.25        -999.25         0.2806       -75.1549       -35.4351        -999.25      0.3739073
      5539.5000          0.679        -999.25        -999.25         0.2774       -77.5254       -37.8093        -999.25        0.33074
      5540.0000          0.682        -999.25        -999.25         0.2813        -79.212       -39.4996        -999.25      0.3000073
      5540.5000         0.6779        -999.25        -999.25         0.2921       -80.5612       -40.8525        -999.25      0.2754091
      5541.0000         0.6769        -999.25        -999.25         0.3054       -81.8351       -42.1301        -999.25        0.25218
      5541.5000         0.6787        -999.25        -999.25         0.3207       -80.2089       -40.5076        -999.25        0.28168
      5542.0000         0.6895        -999.25        -999.25         0.3398       -77.7274       -38.0298        -999.25      0.3267309
      5542.5000         0.6948        -999.25        -999.25         0.3585       -75.1598       -35.4659        -999.25      0.3733473
      5543.0000         0.6976        -999.25        -999.25         0.3765       -73.0629       -33.3727        -999.25      0.4114055
      5543.5000          0.704        -999.25        -999.25         0.3862       -72.1493       -32.4628        -999.25      0.4279491
      5544.0000          0.692        -999.25        -999.25         0.3951       -72.5743       -32.8915        -999.25      0.4201546
      5544.5000         0.6649        -999.25        -999.25         0.3608        -73.467       -33.7879        -999.25      0.4038564
      5545.0000           0.64        -999.25        -999.25         0.3239       -74.8186       -35.1432        -999.25      0.3792146
      5545.5000         0.6185        -999.25        -999.25         0.2979       -76.8207        -37.149        -999.25      0.3427455
      5546.0000         0.5981        -999.25        -999.25         0.2735       -79.6174       -39.9494        -999.25       0.291829
      5546.5000         0.5706        -999.25        -999.25         0.2514       -83.9247       -44.2604        -999.25      0.2134473
      5547.0000         0.5417        -999.25        -999.25          0.231       -86.7166        -47.056        -999.25      0.1626182
      5547.5000         0.5129        -999.25        -999.25         0.2129       -88.4857       -48.8288        -999.25      0.1303854
      5548.0000         0.4834        -999.25        -999.25         0.2022        -89.517       -49.8637        -999.25      0.1115691
      5548.5000         0.4607        -999.25        -999.25         0.1927       -90.2637       -50.6141        -999.25     0.09792543
      5549.0000          0.451        -999.25        -999.25         0.1888       -90.3658       -50.7199        -999.25     0.09600185
      5549.5000          0.472        -999.25        -999.25         0.1924       -89.7388       -50.0966        -999.25      0.1073346
      5550.0000         0.5016        -999.25        -999.25         0.2115       -87.6554       -48.0169        -999.25      0.1451473
      5550.5000         0.5391        -999.25        -999.25         0.2418        -83.353       -43.7182        -999.25      0.2233054
      5551.0000         0.5687        -999.25        -999.25         0.2823       -79.1738       -39.5427        -999.25      0.2992236
      5551.5000         0.5933        -999.25        -999.25         0.3298       -75.3348       -35.7074        -999.25      0.3689563
      5552.0000          0.612        -999.25        -999.25         0.3751        -70.653       -31.0293        -999.25      0.4540127
      5552.5000           0.63        -999.25        -999.25         0.4165        -64.818        -25.198        -999.25      0.5600364
      5553.0000         0.6476        -999.25        -999.25         0.4473       -60.5082       -20.8919        -999.25      0.6383291
      5553.5000         0.6644        -999.25        -999.25         0.4654       -58.0774       -18.4648        -999.25      0.6824582
      5554.0000         0.6821        -999.25        -999.25         0.4768       -56.2552       -16.6463        -999.25      0.7155218
      5554.5000         0.6954        -999.25        -999.25         0.4816       -54.3159       -14.7107        -999.25      0.7507145
      5555.0000          0.697        -999.25        -999.25         0.4833       -52.2609       -12.6594        -999.25      0.7880109
      5555.5000          0.687        -999.25        -999.25         0.4815       -50.3708        -10.773        -999.25      0.8223091
      5556.0000         0.6801        -999.25        -999.25         0.4796       -48.3109        -8.7168        -999.25      0.8596945
      5556.5000         0.6889        -999.25        -999.25         0.4778       -46.8238        -7.2334        -999.25      0.8866655
      5557.0000         0.6908        -999.25        -999.25          0.476       -45.6324        -6.0457        -999.25        0.90826
      5557.5000          0.692        -999.25        -999.25         0.4741       -44.7767        -5.1937        -999.25      0.9237509
      5558.0000         0.6937        -999.25        -999.25         0.4723       -44.2552        -4.6759        -999.25      0.9331654
      5558.5000         0.6874        -999.25        -999.25         0.4705       -44.3603        -4.7847        -999.25      0.9311873
      5559.0000         0.6874        -999.25        -999.25         0.4686       -45.2394        -5.6674        -999.25      0.9151382
      5559.5000         0.6897        -999.25        -999.25         0.4668       -47.0591        -7.4908        -999.25      0.8819855
      5560.0000         0.7066        -999.25        -999.25          0.465       -48.7896         -9.225        -999.25      0.8504545
      5560.5000         0.7127        -999.25        -999.25         0.4631       -49.1708        -9.6099        -999.25      0.8434563
      5561.0000         0.7061        -999.25        -999.25         0.4613       -45.9305        -6.3733        -999.25      0.9023036
      5561.5000         0.6952        -999.25        -999.25         0.4595       -43.9408        -4.3873        -999.25      0.9384127
      5562.0000         0.6984        -999.25        -999.25         0.4576       -43.0198          -3.47        -999.25      0.9550909
      5562.5000         0.7012        -999.25        -999.25         0.4558       -42.4716        -2.9255        -999.25      0.9649909
      5563.0000         0.7026        -999.25        -999.25          0.454       -42.2474         -2.705        -999.25          0.969
      5563.5000         0.7016        -999.25        -999.25         0.4521       -42.3893        -2.8506        -999.25      0.9663527
      5564.0000         0.6933        -999.25        -999.25          0.449       -43.6931        -4.1581        -999.25        0.94258
      5564.5000          0.686        -999.25        -999.25         0.4475       -44.7416        -5.2103        -999.25      0.9234491
      5565.0000         0.6873        -999.25        -999.25         0.4538       -45.0609        -5.5333        -999.25      0.9175764
      5565.5000         0.6876        -999.25        -999.25         0.4612       -45.1803        -5.6564        -999.25      0.9153382
      5566.0000         0.6765        -999.25        -999.25         0.4596       -45.4575        -5.9373        -999.25      0.9102309
      5566.5000         0.6668        -999.25        -999.25          0.459       -46.0618        -6.5453        -999.25      0.8991764
      5567.0000         0.6766        -999.25        -999.25         0.4638       -46.1092        -6.5964        -999.25      0.8982473
      5567.5000         0.6876        -999.25        -999.25         0.4721       -45.8797        -6.3706        -999.25      0.9023528
