#------------------------------------------------------------------------------
# Created by    : vladimir.rabinovich
# Created on    : 09/19/2023 17:22:07
#------------------------------------------------------------------------------
~Version Information Section
VERS.           2.0     :   CWLS log ASCII Standard - VERSION 2.0
WRAP.           NO      :   One line per depth step
~Well Information Section
#MNEM       .UNIT                                         VALUE :DESCRIPTION
#------------------------------------------------------------------------------
STRT        .FT                                            4421 :START DEPTH
STOP        .FT                                           11895 :STOP DEPTH
STEP        .FT                                             0.5 :STEP      
NULL        .                                           -999.25 :NULL      
COMP        .                MURPHY EXPLORATION & PRODUCTION CO :COMPANY   
WELL        .                               OCS G02828 ST00BP00 :WELL      
FLD         .                           WEST CAMERON BLOCK 0116 :FIELD     
LOC         .                                                   :LOCATION  
CNTY        .                                      WEST CAMERON :LOCATION  
STAT        .                                         LOUISIANA :STATE     
CTRY        .                                     UNITED STATES :COUNTRY   
SRVC        .                                                   :SERVICE COMPANY
DATE        .                             9/13/2023 11:18:31 AM :LOG DATE  
API         .                                    17700404120000 :API NUMBER
UWI         .                                    17700404120000 :UNIQUE WELL ID
XCOORD      .                                  1472413.58592246 :SURFACE X 
YCOORD      .                                  10706677.6123634 :SURFACE Y 
LAT         .                                         29.500724 :LATITUDE  
LON         .                                        -93.528296 :LONGITUDE 
ELEV        .FT                                              75 :ELEVATION VALUE
ELEV_TYPE   .                                                KB :ELEVATION REFERENCE TYPE
~Curve Information Section
#MNEM       .UNIT                                      API CODE :CURVE DESCRIPTION
#------------------------------------------------------------------------------
DEPT        .FT                                                 :DEPTH     
CALI        .IN                                                 :          
DRHO        .G/C3                                               :          
DT          .US/F                                               :          
GR          .GAPI                                               :          
GR_1        .GAPI                                               :          
GR_NORM     .GAPI                                               :GammaRay Normalized
ILD         .OHMM                                               :          
NPHI        .%                                                  :          
RHOB        .G/C3                                               :          
SFL         .OHMM                                               :          
SP          .MV                                                 :          
SP_NORM     .MV                                                 :SP Normalized
VSH_GR      .V/V                                                :Volume of Shale from GR
VSH_SP      .V/V                                                :Volume of Shale from SP
~A        DEPTH           CALI           DRHO             DT             GR           GR_1        GR_NORM            ILD           NPHI           RHOB            SFL             SP        SP_NORM         VSH_GR         VSH_SP
# ...
      9911.0000        10.0868         0.0031        88.4469        53.5909        -999.25        50.1587          0.572        30.8997         2.2324         0.6174       -64.0876       -18.5314      0.3650787      0.7912928
      9911.5000        10.0554         0.0061        83.5887        55.1202        -999.25       52.04825         0.6597         30.264         2.2153         0.8406       -68.5087       -22.9364       0.405282      0.7388524
      9912.0000        10.0824         0.0195        80.1963        56.8582        -999.25       54.19567         0.7329        30.0136         2.1932         1.2675        -74.412       -28.8237      0.4509716      0.6687655
      9912.5000        10.1407         0.0342        85.7408        56.5071        -999.25       53.76079         0.8089        32.3667          2.214         1.8428       -78.1382       -32.5339       0.441719      0.6245964
      9913.0000        10.2181         0.0301        91.9863        55.9131        -999.25       53.02554         0.8738        34.3502         2.2281         1.6671       -76.9707       -31.3504      0.4260754      0.6386857
      9913.5000        10.3083        -0.0016        97.2808        55.9647        -999.25       53.08846          0.903        34.4354         2.2095         1.3076       -75.1957       -29.5594      0.4274141      0.6600071
      9914.0000        10.4103        -0.0015        97.2513        59.1239        -999.25       56.99279         0.9205         31.691         2.2735         1.0394       -74.2412       -28.5889      0.5104848      0.6715607
      9914.5000        10.5142         0.0187        92.2903        61.3651        -999.25       59.76222          0.926        28.7007         2.2892         0.9852       -74.8892       -29.2209      0.5694089      0.6640369
      9915.0000        10.3342         0.0387        86.1036        62.0327        -999.25       60.58659         0.9204        28.4828         2.2966         1.0184       -76.8937       -31.2094      0.5869488      0.6403643
      9915.5000        10.2295         0.0399        81.6694        61.4509        -999.25       59.86655         0.9142         28.834         2.3041         1.1505        -79.313       -33.6127      0.5716288      0.6117536
      9916.0000        10.3128         0.0108        89.1135        58.3801        -999.25       56.06964         0.9046        32.4527         2.2363         1.4392       -80.3969       -34.6805      0.4908435      0.5990416
      9916.5000        10.6904         0.0077       100.1536        57.6081        -999.25       55.11448         0.8895        33.1736         2.2244         1.5648       -79.8582       -34.1258      0.4705209      0.6056452
      9917.0000        10.9135         0.0321       107.2422        57.7333        -999.25       55.26838         0.8381        32.6512          2.266         1.5549       -79.3542       -33.6058      0.4737953      0.6118357
      9917.5000        10.9841         0.0503       102.3008        59.1779        -999.25       57.05311         0.7594        30.5826         2.3255           1.39       -81.4606       -35.6962      0.5117683        0.58695
      9918.0000        11.1263         0.0701        96.0258        60.2641        -999.25       58.39493         0.6697        28.8948         2.3536         1.1111       -89.1407       -43.3603      0.5403177      0.4957107
      9918.5000        10.4693         0.0533         93.965        60.8974        -999.25       59.17679         0.5905        31.1042         2.3153         0.9506       -97.0411       -51.2447       0.556953      0.4018488
      9919.0000        10.2941         0.0252        94.4326        61.2718        -999.25       59.63873         0.5208        33.8663         2.2758         0.9159      -104.9269       -59.1145      0.5667815      0.3081607
      9919.5000        10.6174        -0.0092        99.0897         61.257        -999.25       59.61958          0.478        35.2785         2.2521         0.8737      -110.3271       -64.4987      0.5663739      0.2440631
      9920.0000        11.1293        -0.0158       100.5923        58.8981        -999.25       56.70267          0.465        35.7816         2.2085         0.6939      -105.2499       -59.4055      0.5043121      0.3046964
      9920.5000         10.881        -0.0201        96.3788        56.2028        -999.25       53.37006         0.4617        34.5154         2.2048         0.5195        -96.351       -50.4906      0.4334055      0.4108262
      9921.0000        10.8232        -0.0183        83.3682        54.6784        -999.25       51.48482         0.4471        32.3786         2.2312         0.4829       -96.0867       -50.2102      0.3932941      0.4141643
      9921.5000         11.011         0.0054        67.7985        54.3442        -999.25       51.07072         0.4192        30.9946         2.2635         0.6276       -99.7137       -53.8212      0.3844834      0.3711762
      9922.0000        10.9402         0.0064        54.9741        54.5679        -999.25       51.34638          0.417        31.0005         2.2888         1.1116      -104.8828       -58.9743      0.3903486      0.3098298
      9922.5000        10.0758          0.002        71.0731        55.4037        -999.25       52.37867         0.4291        33.1936         2.2847         1.5226      -110.0518       -64.1273      0.4123122      0.2484846
      9923.0000        10.0556        -0.0019        88.9371        55.2921        -999.25       52.23973         0.4393        34.1158         2.2695         1.4276      -114.0901       -68.1496      0.4093561         0.2006
      9923.5000        10.2733         0.0018       106.5461        54.1138        -999.25       50.78233         0.4486        32.4379         2.2696         1.1396      -115.5485        -69.592      0.3783474      0.1834285
      9924.0000        10.1676         0.0029       169.6091        52.7195        -999.25        49.0578         0.4555        30.7782         2.2542          0.803       -113.723       -67.7505      0.3416553      0.2053511
      9924.5000        10.0257        -0.0038       174.7859        52.1193        -999.25       48.31501         0.4402        30.0477         2.2022         0.5715      -106.0576       -60.0691      0.3258513      0.2967964
      9925.0000        10.0264        -0.0089       144.4702        54.0671        -999.25       50.72189         0.4212        30.0255         2.1961         0.4877        -98.326       -52.3215      0.3770614      0.3890298
      9925.5000        10.0325        -0.0018       133.9106        56.6937        -999.25       53.96772         0.4055        30.1297         2.1916         0.5261       -98.0911       -52.0706      0.4461217      0.3920167
      9926.0000        10.0102         0.0173       126.7239        59.6664        -999.25       57.64151         0.3967        30.0517         2.2066         0.6774      -105.3234       -59.2868      0.5242875      0.3061095
      9926.5000         9.9808         0.0259       117.8998        59.9867        -999.25       58.03658         0.3976        31.7088         2.2044          0.722      -114.4866        -68.434      0.5326933      0.1972143
      9927.0000         9.9748         0.0156       105.8402        59.1386        -999.25       56.98722         0.4147        35.1022         2.1861         0.5856      -120.9846        -74.916      0.5103665      0.1200476
      9927.5000        10.0063        -0.0041         96.467         54.455        -999.25        51.1968         0.4383        36.9189         2.1779         0.5092      -118.5249       -72.4403      0.3871661      0.1495202
      9928.0000        10.2007        -0.0208        86.3094        50.4047        -999.25       46.18923         0.4056        38.2696         2.1703         0.5178      -109.2441       -63.1435      0.2806219      0.2601964
      9928.5000        11.3865        -0.0209        76.5834         48.382        -999.25       43.68792         0.3655        35.3185         2.1945         0.8923      -104.9232       -58.8066      0.2274025      0.3118262
