#------------------------------------------------------------------------------
# Created by    : vladimir.rabinovich
# Created on    : 09/19/2023 17:20:14
#------------------------------------------------------------------------------
~Version Information Section
VERS.           2.0     :   CWLS log ASCII Standard - VERSION 2.0
WRAP.           NO      :   One line per depth step
~Well Information Section
#MNEM       .UNIT                                         VALUE :DESCRIPTION
#------------------------------------------------------------------------------
STRT        .FT                                             920 :START DEPTH
STOP        .FT                                            7860 :STOP DEPTH
STEP        .FT                                             0.5 :STEP      
NULL        .                                           -999.25 :NULL      
COMP        .                               ARCO OIL & GAS CORP :COMPANY   
WELL        .                               OCS G10568 ST00BP00 :WELL      
FLD         .                                           WILDCAT :FIELD     
LOC         .                                                   :LOCATION  
CNTY        .                                 WEST CAMERON WEST :LOCATION  
STAT        .                                         LOUISIANA :STATE     
CTRY        .                                     UNITED STATES :COUNTRY   
SRVC        .                                                   :SERVICE COMPANY
DATE        .                             9/13/2023 11:18:15 AM :LOG DATE  
API         .                                    17701402460000 :API NUMBER
UWI         .                                    17701402460000 :UNIQUE WELL ID
XCOORD      .                                  1443937.81344993 :SURFACE X 
YCOORD      .                                  10680295.6485051 :SURFACE Y 
LAT         .                                        29.4277648 :LATITUDE  
LON         .                                       -93.6173961 :LONGITUDE 
ELEV        .FT                                             100 :ELEVATION VALUE
ELEV_TYPE   .                                                KB :ELEVATION REFERENCE TYPE
~Curve Information Section
#MNEM       .UNIT                                      API CODE :CURVE DESCRIPTION
#------------------------------------------------------------------------------
DEPT        .FT                                                 :DEPTH     
ASFL        .OHMM                                               :          
CALI        .IN                                                 :          
DPHI        .%                                                  :          
DRHO        .G/CC                                               :          
DT          .US/F                                               :          
GR          .GAPI                                               :          
GR_1        .GAPI                                               :          
GR_NORM     .GAPI                                               :GammaRay Normalized
ILD         .OHMM                                               :          
ILM         .OHMM                                               :          
NPHI        .%                                                  :          
RFOC        .OHMM                                               :          
SP          .MV                                                 :          
SP_NORM     .MV                                                 :SP Normalized
VSH_GR      .V/V                                                :Volume of Shale from GR
VSH_SP      .V/V                                                :Volume of Shale from SP
~A        DEPTH           ASFL           CALI           DPHI           DRHO             DT             GR           GR_1        GR_NORM            ILD            ILM           NPHI           RFOC             SP        SP_NORM         VSH_GR         VSH_SP
# ...
      7848.0000        -999.25        13.5491        62.5143         0.0363       100.1262        -999.25        70.4988       78.33664         0.7164          0.752        43.4608         0.9569       -50.8475      -6.132668      0.9646093       0.920355
      7848.5000        -999.25        13.8863        63.7965         0.0504       100.1208        -999.25        70.1823       78.02013         0.7203         0.7725        44.2266         0.9739       -50.6575      -5.938065      0.9578752      0.9228823
      7849.0000        -999.25        14.1283        64.4236         0.0593       100.1154        -999.25        71.0676       78.90543         0.7247         0.7846        44.3534         0.9873       -50.2965       -5.57246      0.9767113      0.9276304
      7849.5000        -999.25        14.3066        65.0397         0.0523         100.11        -999.25        72.3199       80.15774         0.7442         0.7747        44.2987         0.9965       -49.5687      -4.840054              1      0.9371421
      7850.0000        -999.25        14.3772        65.9413          0.037       100.1045        -999.25        73.4132       81.25104         0.7486         0.7644        44.0262         0.9936       -48.4882      -3.754951              1      0.9512344
      7850.5000        -999.25        13.8768        66.9817         0.0247       100.0991        -999.25        73.7404       81.57824         0.7495         0.7566        43.2455         0.9793       -47.5544      -2.816547              1      0.9634215
      7851.0000        -999.25        13.4427        67.9504         0.0128       100.0936        -999.25         73.198       81.03584         0.7499         0.7512        42.6574         0.9649       -46.9805      -2.238041              1      0.9709345
      7851.5000        -999.25        13.3761        68.8231         0.0062       100.0883        -999.25        71.4626       79.30044          0.749         0.7467        42.6533         0.9606        -46.872      -2.124939      0.9851157      0.9724034
      7852.0000        -999.25        13.3583        69.4073         0.0012       100.0828        -999.25         1.3906       9.228437         0.7453         0.7428        42.5934          0.958       -46.9722      -2.220531              0      0.9711619
      7852.5000        -999.25        13.2862        69.4473        -0.0025       100.0774        -999.25        -999.25        -999.25         0.7425         0.7407        42.1934         0.9577       -46.9006      -2.144329        -999.25      0.9721516
      7853.0000        -999.25        13.1391        67.2235        -0.0052       100.0719        -999.25        -999.25        -999.25         0.7408         0.7408        42.8882         0.9591       -46.8815      -2.120621        -999.25      0.9724595
      7853.5000        -999.25        12.8986        61.5488        -0.0054       100.0665        -999.25        -999.25        -999.25         0.7401          0.741        43.6697         0.9565       -46.9466      -2.181118        -999.25      0.9716738
      7854.0000        -999.25        12.5779        58.4432         0.0042        100.061        -999.25        -999.25        -999.25         0.7394         0.7423        42.5498         0.9592       -46.9728      -2.202713        -999.25      0.9713933
      7854.5000        -999.25        12.1702        56.7944         0.0217       100.0557        -999.25        -999.25        -999.25         0.7388         0.7436        41.6716         0.9655       -46.9707      -2.196007        -999.25      0.9714804
      7855.0000        -999.25        11.8578        55.3313         0.0427       100.0502        -999.25        -999.25        -999.25         0.7387         0.7444        41.4758         0.9769       -46.9038      -2.124504        -999.25       0.972409
      7855.5000        -999.25         11.605        55.9708         0.0385       100.0448        -999.25        -999.25        -999.25         0.7389         0.7445           42.4         0.9853       -46.8251      -2.041199        -999.25       0.973491
      7856.0000        -999.25        11.3751        57.9066         0.0121       100.0393        -999.25        -999.25        -999.25          0.739         0.7446        43.3702         0.9908       -46.7657      -1.977196        -999.25      0.9743221
      7856.5000        -999.25        10.8017        59.2996        -0.0045       100.0341        -999.25        -999.25        -999.25         0.7356         0.7434        44.4122         0.9893       -46.7165      -1.923389        -999.25      0.9750209
      7857.0000        -999.25         9.9252        60.0912        -0.0135       100.0303        -999.25        -999.25        -999.25         0.7351         0.7422        45.8551         0.9846       -46.6637      -1.865986        -999.25      0.9757664
      7857.5000        -999.25         9.2426        60.0546        -0.0163        -999.25        -999.25        -999.25        -999.25        -999.25        -999.25        46.9969        -999.25        -999.25        -999.25        -999.25        -999.25
      7858.0000        -999.25         8.4146        58.0065        -0.0137        -999.25        -999.25        -999.25        -999.25        -999.25        -999.25        48.0951        -999.25        -999.25        -999.25        -999.25        -999.25
      7858.5000        -999.25         7.2199        55.2112        -0.0063        -999.25        -999.25        -999.25        -999.25        -999.25        -999.25        47.4478        -999.25        -999.25        -999.25        -999.25        -999.25
      7859.0000        -999.25         6.4372        51.8513         0.0111        -999.25        -999.25        -999.25        -999.25        -999.25        -999.25         0.1134        -999.25        -999.25        -999.25        -999.25        -999.25
      7859.5000        -999.25         6.0038        50.0387         0.0313        -999.25        -999.25          0.478       8.315837        -999.25        -999.25          0.115        -999.25        -999.25        -999.25              0        -999.25
      7860.0000        -999.25         6.0011        47.9407         0.0446        -999.25        -999.25         0.5649       8.402738        -999.25        -999.25          0.127        -999.25        -999.25        -999.25              0        -999.25
