#------------------------------------------------------------------------------
# Created by    : vladimir.rabinovich
# Created on    : 09/19/2023 17:20:47
#------------------------------------------------------------------------------
~Version Information Section
VERS.           2.0     :   CWLS log ASCII Standard - VERSION 2.0
WRAP.           NO      :   One line per depth step
~Well Information Section
#MNEM       .UNIT                                         VALUE :DESCRIPTION
#------------------------------------------------------------------------------
STRT        .FT                                             612 :START DEPTH
STOP        .FT                                            9868 :STOP DEPTH
STEP        .FT                                             0.5 :STEP      
NULL        .                                           -999.25 :NULL      
COMP        .                                      SHELL OIL CO :COMPANY   
WELL        .                               OCS G00950 ST00BP00 :WELL      
FLD         .                                           WILDCAT :FIELD     
LOC         .                                                   :LOCATION  
CNTY        .                                      EAST CAMERON :LOCATION  
STAT        .                                         LOUISIANA :STATE     
CTRY        .                                     UNITED STATES :COUNTRY   
SRVC        .                                                   :SERVICE COMPANY
DATE        .                             9/13/2023 11:18:15 AM :LOG DATE  
API         .                                    17703002450000 :API NUMBER
UWI         .                                    17703002450000 :UNIQUE WELL ID
XCOORD      .                                  1691932.89207312 :SURFACE X 
YCOORD      .                                   10460306.475122 :SURFACE Y 
LAT         .                                        28.8238717 :LATITUDE  
LON         .                                       -92.8390619 :LONGITUDE 
ELEV        .FT                                              75 :ELEVATION VALUE
ELEV_TYPE   .                                                KB :ELEVATION REFERENCE TYPE
~Curve Information Section
#MNEM       .UNIT                                      API CODE :CURVE DESCRIPTION
#------------------------------------------------------------------------------
DEPT        .FT                                                 :DEPTH     
ASN         .OHMM                                               :          
GR          .GAPI                                               :          
GR_NORM     .GAPI                                               :GammaRay Normalized
ILD         .OHMM                                               :          
SP          .MV                                                 :          
SP_NORM     .MV                                                 :SP Normalized
VSH_GR      .V/V                                                :Volume of Shale from GR
VSH_SP      .V/V                                                :Volume of Shale from SP
~A        DEPTH            ASN             GR        GR_NORM            ILD             SP        SP_NORM         VSH_GR         VSH_SP
# ...
      3680.0000         0.7954        -999.25        -999.25         0.3808       -71.5668       -26.2838        -999.25      0.3516974
      3680.5000         0.7933        -999.25        -999.25         0.3932       -70.9385       -25.6555        -999.25      0.3678077
      3681.0000         0.8016        -999.25        -999.25         0.4063       -70.0988       -24.8158        -999.25      0.3893385
      3681.5000         0.8161        -999.25        -999.25         0.4201       -68.6532       -23.3702        -999.25      0.4264052
      3682.0000         0.8284        -999.25        -999.25          0.431       -66.5378       -21.2548        -999.25      0.4806461
      3682.5000         0.8376        -999.25        -999.25         0.4418       -65.2573       -19.9743        -999.25      0.5134795
      3683.0000         0.8395        -999.25        -999.25         0.4594       -64.7582       -19.4752        -999.25      0.5262769
      3683.5000         0.8384        -999.25        -999.25         0.4719       -64.6128       -19.3298        -999.25      0.5300052
      3684.0000         0.8401        -999.25        -999.25         0.4762       -64.1464       -18.8634        -999.25      0.5419641
      3684.5000         0.8447        -999.25        -999.25          0.474       -63.6067       -18.3237        -999.25      0.5558026
      3685.0000         0.8522        -999.25        -999.25         0.4639       -63.4273       -18.1443        -999.25      0.5604026
      3685.5000         0.8648        -999.25        -999.25         0.4439       -63.7038       -18.4208        -999.25      0.5533128
      3686.0000         0.8396        -999.25        -999.25         0.4173       -64.2471       -18.9641        -999.25       0.539382
      3686.5000         0.8101        -999.25        -999.25         0.4029       -65.0081       -19.7251        -999.25      0.5198693
      3687.0000         0.7846        -999.25        -999.25         0.3917       -66.3754       -21.0924        -999.25      0.4848103
      3687.5000         0.7462        -999.25        -999.25         0.3702       -68.3627       -23.0797        -999.25      0.4338538
      3688.0000          0.737        -999.25        -999.25         0.3561       -71.0715       -25.7885        -999.25      0.3643974
      3688.5000         0.7219        -999.25        -999.25         0.3489       -73.7877       -28.5047        -999.25      0.2947513
      3689.0000         0.7072        -999.25        -999.25         0.3417       -75.3662       -30.0832        -999.25      0.2542769
      3689.5000          0.695        -999.25        -999.25         0.3386       -75.8019       -30.5189        -999.25      0.2431051
      3690.0000         0.6978        -999.25        -999.25         0.3376       -76.1438       -30.8608        -999.25      0.2343385
      3690.5000         0.7022        -999.25        -999.25         0.3378       -75.2714       -29.9884        -999.25      0.2567077
      3691.0000         0.7008        -999.25        -999.25         0.3406       -74.5228       -29.2398        -999.25      0.2759026
      3691.5000         0.6951        -999.25        -999.25         0.3557       -74.0493       -28.7663        -999.25      0.2880436
      3692.0000          0.688        -999.25        -999.25         0.3645       -73.6987       -28.4157        -999.25      0.2970333
      3692.5000         0.6822        -999.25        -999.25         0.3705        -73.606        -28.323        -999.25      0.2994103
      3693.0000         0.6854        -999.25        -999.25         0.3708       -73.7797       -28.4967        -999.25      0.2949564
      3693.5000         0.6886        -999.25        -999.25         0.3662       -74.8103       -29.5273        -999.25      0.2685308
      3694.0000         0.6873        -999.25        -999.25         0.3583       -77.1171       -31.8341        -999.25       0.209382
      3694.5000         0.6713        -999.25        -999.25         0.3476       -79.1956       -33.9126        -999.25      0.1560871
      3695.0000         0.6348        -999.25        -999.25         0.3365       -80.3733       -35.0903        -999.25      0.1258897
      3695.5000         0.5856        -999.25        -999.25         0.3262       -81.2654       -35.9824        -999.25      0.1030154
      3696.0000          0.551        -999.25        -999.25         0.3156       -82.1304       -36.8474        -999.25     0.08083588
      3696.5000         0.5441        -999.25        -999.25         0.3067       -82.7932       -37.5102        -999.25     0.06384102
      3697.0000         0.5457        -999.25        -999.25         0.3005       -82.5603       -37.2773        -999.25     0.06981277
      3697.5000         0.5459        -999.25        -999.25         0.2939       -82.1033       -36.8203        -999.25     0.08153074
      3698.0000         0.5512        -999.25        -999.25         0.2907       -81.4341       -36.1511        -999.25     0.09868974
      3698.5000         0.5391        -999.25        -999.25          0.291        -81.316        -36.033        -999.25      0.1017179
      3699.0000         0.5268        -999.25        -999.25         0.2868       -81.3787       -36.0957        -999.25      0.1001103
      3699.5000          0.515        -999.25        -999.25         0.2824       -81.4714       -36.1884        -999.25     0.09773333
      3700.0000         0.5099        -999.25        -999.25         0.2782       -81.5778       -36.2948        -999.25     0.09500513
      3700.5000         0.5223        -999.25        -999.25          0.273        -81.772        -36.489        -999.25     0.09002568
      3701.0000         0.5267        -999.25        -999.25         0.2672       -82.0419       -36.7589        -999.25     0.08310514
      3701.5000         0.5219        -999.25        -999.25         0.2598       -82.2621       -36.9791        -999.25     0.07745899
      3702.0000         0.5298        -999.25        -999.25         0.2516       -82.3898       -37.1068        -999.25     0.07418461
      3702.5000         0.5261        -999.25        -999.25          0.243       -82.4419       -37.1589        -999.25     0.07284869
      3703.0000          0.517        -999.25        -999.25         0.2344       -82.3051       -37.0221        -999.25     0.07635645
      3703.5000         0.5073        -999.25        -999.25         0.2272       -82.1162       -36.8332        -999.25     0.08120004
      3704.0000         0.4968        -999.25        -999.25         0.2203       -81.9087       -36.6257        -999.25     0.08652046
      3704.5000         0.4867        -999.25        -999.25         0.2166       -82.1227       -36.8397        -999.25     0.08103336
      3705.0000         0.4779        -999.25        -999.25         0.2133       -82.4935       -37.2105        -999.25     0.07152567
      3705.5000          0.474        -999.25        -999.25         0.2116       -82.8104       -37.5274        -999.25     0.06339998
      3706.0000         0.4722        -999.25        -999.25         0.2107        -83.094        -37.811        -999.25     0.05612819
      3706.5000         0.4706        -999.25        -999.25         0.2112       -83.3704       -38.0874        -999.25     0.04904106
      3707.0000         0.4708        -999.25        -999.25          0.214       -83.5055       -38.2225        -999.25     0.04557693
      3707.5000         0.4712        -999.25        -999.25         0.2171       -83.5414       -38.2584        -999.25     0.04465641
      3708.0000         0.4716        -999.25        -999.25         0.2201       -83.5568       -38.2738        -999.25     0.04426154
      3708.5000         0.4733        -999.25        -999.25         0.2243       -83.6068       -38.3238        -999.25     0.04297951
      3709.0000         0.4735        -999.25        -999.25         0.2207       -83.7286       -38.4456        -999.25     0.03985645
