#------------------------------------------------------------------------------
# Created by    : vladimir.rabinovich
# Created on    : 09/19/2023 17:21:07
#------------------------------------------------------------------------------
~Version Information Section
VERS.           2.0     :   CWLS log ASCII Standard - VERSION 2.0
WRAP.           NO      :   One line per depth step
~Well Information Section
#MNEM       .UNIT                                         VALUE :DESCRIPTION
#------------------------------------------------------------------------------
STRT        .FT                                            3895 :START DEPTH
STOP        .FT                                         10595.5 :STOP DEPTH
STEP        .FT                                             0.5 :STEP      
NULL        .                                           -999.25 :NULL      
COMP        .                               TALOS PETROLEUM LLC :COMPANY   
WELL        .                                OCS 00300 ST00BP00 :WELL      
FLD         .                           WEST CAMERON BLOCK 0045 :FIELD     
LOC         .                                                   :LOCATION  
CNTY        .                                      WEST CAMERON :LOCATION  
STAT        .                                         LOUISIANA :STATE     
CTRY        .                                     UNITED STATES :COUNTRY   
SRVC        .                                                   :SERVICE COMPANY
DATE        .                             9/13/2023 11:18:36 AM :LOG DATE  
API         .                                    17700410070000 :API NUMBER
UWI         .                                    17700410070000 :UNIQUE WELL ID
XCOORD      .                                  1453771.49108141 :SURFACE X 
YCOORD      .                                  10773222.7644816 :SURFACE Y 
LAT         .                                        29.6835328 :LATITUDE  
LON         .                                       -93.5879752 :LONGITUDE 
ELEV        .FT                                             100 :ELEVATION VALUE
ELEV_TYPE   .                                                KB :ELEVATION REFERENCE TYPE
~Curve Information Section
#MNEM       .UNIT                                      API CODE :CURVE DESCRIPTION
#------------------------------------------------------------------------------
DEPT        .FT                                                 :DEPTH     
ATR         .OHMM                                               :          
CATR        .MMHO                                               :          
DCAL        .IN                                                 :          
DRHB        .G/C3                                               :          
GR          .GAPI                                               :          
GR_NORM     .GAPI                                               :GammaRay Normalized
PSR         .OHMM                                               :          
RHOB        .G/C3                                               :          
ROP5        .F/HR                                               :          
TNPH        .%                                                  :          
VSH_GR      .V/V                                                :Volume of Shale from GR
~A        DEPTH            ATR           CATR           DCAL           DRHB             GR        GR_NORM            PSR           RHOB           ROP5           TNPH         VSH_GR
# ...
      4412.5000           0.37       2702.699           0.39           0.07          55.12       48.39494           0.35           2.14         178.25             38       0.327552
      4413.0000           0.37       2702.699           0.41           0.09          54.12       47.41409           0.35           2.16         178.25             37      0.3066827
      4413.5000           0.37       2702.699           0.52           0.11          52.99       46.30759           0.35           2.18         178.25             35      0.2831402
      4414.0000           0.37       2702.699           0.57           0.11          52.87       46.17706           0.35           2.17       181.8198             37      0.2803631
      4414.5000            0.4           2500           0.64           0.11          52.75       46.04653           0.52           2.18       181.8198             37      0.2775858
      4415.0000            0.4           2500           0.68           0.11           54.4        47.6264           0.52           2.15       181.8198             37         0.3112
      4415.5000           0.35       2857.141           0.73            0.1          56.05        49.2063           0.33           2.13       181.8198             38      0.3448149
      4416.0000           0.35       2857.141           0.86           0.09          56.15       49.28837           0.33           2.02       305.0898             38      0.3465611
      4416.5000           0.35       2857.141           0.99           0.08           54.6       47.77606           0.33           1.96         211.75             40      0.3143842
      4417.0000           0.39       2564.102           1.19           0.13          50.61       43.90599           0.31           1.95         211.75             40      0.2320423
      4417.5000           0.39       2564.102           1.29           0.16          48.17       41.53372           0.31           1.96         211.75             42      0.1815685
      4418.0000           0.39       2564.102           1.58           0.16          46.15       39.56726           0.31           1.93       204.5398             43       0.139729
      4418.5000           0.56       1785.713           1.69           0.14          46.59       39.97784           0.72           1.94            200             46      0.1484646
      4419.0000           0.56       1785.713           1.63           0.13          50.02       43.27763           0.72           1.98            200             45      0.2186729
      4419.5000           0.56       1785.713            1.3           0.16        53.0099       46.15218           0.72            2.1       181.8398             45      0.2798335
      4420.0000           0.63       1587.301           1.06           0.16          59.67       52.57334           0.54           2.17       173.0798             41       0.416454
      4420.5000           0.63       1587.301           0.89           0.16          63.66       56.41422           0.54           2.23       141.1099             40       0.498175
      4421.0000           0.63       1587.301           0.82           0.15          70.85       63.34733           0.61           2.24       122.4399             38      0.6456878
      4421.5000           0.63       1587.301           0.67           0.13        72.4199       64.84986           0.61           2.21       157.8999             38      0.6776566
      4422.0000           0.56       1785.713           0.55           0.14          72.25       64.67101            0.6           2.23       156.5098             37      0.6738513
      4422.5000           0.56       1785.713           0.47           0.15        68.4199       60.95548            0.6           2.25       147.5398             36      0.5947974
      4423.0000            0.5           2000           0.51           0.14           67.6       60.14874           0.49           2.27       142.8499             35      0.5776328
      4423.5000            0.5           2000           0.56           0.13        68.1599       60.67515           0.49           2.25       142.8499             34      0.5888329
      4424.0000           0.46        2173.91           0.58           0.12        71.2799       63.67551           0.43           2.23       142.8499             33      0.6526705
      4424.5000           0.46        2173.91           0.54           0.13        73.2799       65.59349           0.43           2.21       142.8499             32      0.6934785
      4425.0000           0.45       2222.219           0.48           0.13          73.97       66.24572            0.5           2.22         149.99             32      0.7073557
      4425.5000           0.45       2222.219           0.39           0.13        72.3099       64.62701            0.5           2.21       174.7598             33      0.6729152
      4426.0000           0.45       2222.219           0.36           0.13          72.22       64.52567            0.5            2.2         249.98             34       0.670759
      4426.5000           0.37       2702.699           0.32           0.11        76.9399       69.07195           0.41            2.2         249.98             35      0.7674884
      4427.0000           0.37       2702.699           0.31            0.1          81.48       73.44446           0.41            2.2         249.98             36      0.8605204
      4427.5000           0.29       3448.273           0.31           0.09           84.5       76.34805           0.29           2.19       290.3096             37      0.9222988
      4428.0000           0.29       3448.273           0.28           0.09          79.72       71.71464           0.29           2.18       290.3096             39      0.8237157
      4428.5000           0.29       3448.273           0.25           0.08        74.1299       62.35788           0.28           2.15       290.3096             41      0.6246358
      4429.0000           0.29       3448.273           0.22           0.06        70.3199       58.95153           0.28           2.13       346.3896             44      0.5521601
      4429.5000            0.3       3333.332           0.22           0.05          70.85        59.4102           0.29            2.1       346.1299             44      0.5619191
      4430.0000            0.3       3333.332           0.34           0.06        74.2699       62.44226           0.29           2.11       346.1299             45      0.6264312
      4430.5000           0.34       2941.176           0.43           0.06        75.1799       63.23928           0.33           2.14       346.1299             45       0.643389
      4431.0000           0.34       2941.176            0.5           0.07        76.5599       64.45486           0.33           2.17       346.1299             46      0.6692523
      4431.5000           0.37       2702.699           0.42           0.08        76.2999       64.20989           0.37           2.18       367.3398             47      0.6640403
      4432.0000           0.38       2631.578           0.34           0.09        76.3899       64.27665           0.37           2.17       367.3398             47      0.6654606
      4432.5000            0.4           2500           0.23           0.09        76.7599       64.59262           0.39           2.17       374.9497             48      0.6721834
      4433.0000           0.42       2380.949           0.22           0.08        77.1299       64.90872           0.41           2.18       374.9497             45       0.678909
      4433.5000           0.45       2222.219           0.21           0.08        79.6399       67.13066           0.42           2.19       374.9497             42      0.7261842
      4434.0000           0.47       2127.656           0.21           0.07          83.72        70.7507           0.43           2.19       359.9897             40      0.8032064
      4434.5000           0.53       1886.791           0.21           0.07        87.8099       74.37951           0.54            2.2       359.9897             40      0.8804151
