#------------------------------------------------------------------------------
# Created by    : vladimir.rabinovich
# Created on    : 09/19/2023 17:21:14
#------------------------------------------------------------------------------
~Version Information Section
VERS.           2.0     :   CWLS log ASCII Standard - VERSION 2.0
WRAP.           NO      :   One line per depth step
~Well Information Section
#MNEM       .UNIT                                         VALUE :DESCRIPTION
#------------------------------------------------------------------------------
STRT        .FT                                            2600 :START DEPTH
STOP        .FT                                          9205.5 :STOP DEPTH
STEP        .FT                                             0.5 :STEP      
NULL        .                                           -999.25 :NULL      
COMP        .                              MCMORAN OIL & GAS CO :COMPANY   
WELL        .                                OCS 00757 ST00BP00 :WELL      
FLD         .                           WEST CAMERON BLOCK 0118 :FIELD     
LOC         .                                                   :LOCATION  
CNTY        .                                      WEST CAMERON :LOCATION  
STAT        .                                         LOUISIANA :STATE     
CTRY        .                                     UNITED STATES :COUNTRY   
SRVC        .                                                   :SERVICE COMPANY
DATE        .                             9/13/2023 11:18:49 AM :LOG DATE  
API         .                                    17700410700000 :API NUMBER
UWI         .                                    17700410700000 :UNIQUE WELL ID
XCOORD      .                                  1436864.54905534 :SURFACE X 
YCOORD      .                                  10703419.9985863 :SURFACE Y 
LAT         .                                        29.4912718 :LATITUDE  
LON         .                                       -93.6400205 :LONGITUDE 
ELEV        .FT                                             118 :ELEVATION VALUE
ELEV_TYPE   .                                                KB :ELEVATION REFERENCE TYPE
~Curve Information Section
#MNEM       .UNIT                                      API CODE :CURVE DESCRIPTION
#------------------------------------------------------------------------------
DEPT        .FT                                                 :DEPTH     
CAL         .IN                                                 :          
CNC         .%                                                  :          
DT24        .US/F                                               :          
GR          .GAPI                                               :          
GR_NORM     .GAPI                                               :GammaRay Normalized
M0C6        .MMHO                                               :          
M2R1        .OHMM                                               :          
M2R2        .OHMM                                               :          
M2R3        .OHMM                                               :          
M2R6        .OHMM                                               :          
M2R9        .OHMM                                               :          
M2RX        .OHMM                                               :          
PORZ        .%                                                  :          
RWAZ        .OHMM                                               :          
SP          .MV                                                 :          
SP_NORM     .MV                                                 :SP Normalized
TTEN        .LB/F                                               :          
VSH_GR      .V/V                                                :Volume of Shale from GR
VSH_SP      .V/V                                                :Volume of Shale from SP
ZCOR        .G/CC                                               :          
~A        DEPTH            CAL            CNC           DT24             GR        GR_NORM           M0C6           M2R1           M2R2           M2R3           M2R6           M2R9           M2RX           PORZ           RWAZ             SP        SP_NORM           TTEN         VSH_GR         VSH_SP           ZCOR
# ...
      9178.0000          9.745        -999.25        -999.25        -999.25        -999.25       1304.634          0.692          0.745          0.768          0.771          0.769          0.769         11.011          0.011          0.666        -1.2388       3780.667        -999.25      0.9823028          0.094
      9178.5000          9.617        -999.25        -999.25        -999.25        -999.25        1305.63          0.704          0.749          0.769          0.773          0.771          0.772         11.854          0.013          0.897        -1.0078       3773.188        -999.25      0.9856029          0.087
      9179.0000          9.536        -999.25        -999.25        -999.25        -999.25       1306.692          0.711          0.748          0.765           0.77          0.768           0.77         12.819          0.015          1.206        -0.6988       3767.218        -999.25      0.9900171          0.077
      9179.5000          9.505        -999.25        -999.25        -999.25        -999.25       1307.601          0.713          0.745          0.759          0.765          0.764          0.766         14.215          0.019          1.485        -0.4198       3759.075        -999.25      0.9940029          0.064
      9180.0000          9.485        -999.25        -999.25        -999.25        -999.25       1308.202          0.714          0.742          0.756          0.763          0.762          0.765         15.764          0.023          1.599        -0.3058        3752.48        -999.25      0.9956315          0.056
      9180.5000          9.424        -999.25        -999.25        -999.25        -999.25       1308.449          0.716          0.743          0.756          0.763          0.763          0.766         16.993          0.027          1.565        -0.3398       3749.903        -999.25      0.9951457          0.058
      9181.0000          9.324        -999.25        -999.25        -999.25        -999.25       1308.398          0.717          0.743          0.757          0.764          0.764          0.768          18.08          0.031          1.496        -0.4088       3748.223        -999.25        0.99416          0.064
      9181.5000          9.199        -999.25        -999.25        -999.25        -999.25       1308.167          0.717          0.744          0.757          0.765          0.765           0.77         19.206          0.036          1.448        -0.4568       3739.338        -999.25      0.9934743          0.072
      9182.0000          9.019        -999.25        -999.25        -999.25        -999.25       1307.889          0.717          0.743          0.757          0.765          0.766           0.77         20.686          0.042          1.469        -0.4358       3724.597        -999.25      0.9937743           0.07
      9182.5000          8.739        -999.25        -999.25        -999.25        -999.25       1307.668          0.717          0.743          0.757          0.765          0.766          0.771         23.125          0.053          1.623        -0.2818       3728.717        -999.25      0.9959743           0.04
      9183.0000          8.364        -999.25        -999.25        -999.25        -999.25       1307.557          0.717          0.743          0.757          0.766          0.767          0.771         26.035          0.069          1.794        -0.1108       3787.102        -999.25      0.9984171         -0.001
      9183.5000          7.991        -999.25        -999.25        -999.25        -999.25        1307.56          0.717          0.744          0.757          0.766          0.767          0.772         27.773          0.079          1.804        -0.1008       3889.686        -999.25        0.99856          -0.03
      9184.0000          7.743        -999.25        -999.25        -999.25        -999.25        1307.65          0.717          0.743          0.756          0.765          0.767          0.771         27.901           0.08          1.704        -0.2008       3971.672        -999.25      0.9971314         -0.042
      9184.5000           7.64        -999.25        -999.25        -999.25        -999.25       1307.784          0.717          0.743          0.756          0.765          0.766          0.771          27.53          0.078          1.673        -0.2318       3986.553        -999.25      0.9966885          -0.04
      9185.0000          7.602        -999.25        -999.25        -999.25        -999.25       1307.922          0.717          0.743          0.756          0.765          0.766           0.77         27.513          0.077          1.793        -0.1118       3951.136        -999.25      0.9984028          -0.03
      9185.5000          7.579        -999.25        -999.25        -999.25        -999.25       1308.044          0.716          0.743          0.756          0.764          0.765           0.77         27.834          0.079           1.93         0.0252        3905.28        -999.25              1         -0.024
      9186.0000          7.568        -999.25        -999.25        -999.25        -999.25       1308.142          0.716          0.743          0.756          0.764          0.765           0.77         28.233          0.082          1.824        -0.0808       3868.657        -999.25      0.9988457         -0.033
      9186.5000          7.569        -999.25        -999.25        -999.25        -999.25        1308.22          0.716          0.743          0.756          0.764          0.765           0.77         28.648          0.084          1.583        -0.3218        3835.04        -999.25      0.9954029          -0.05
      9187.0000          7.573        -999.25        -999.25        -999.25        -999.25       1308.289          0.717          0.743          0.756          0.765          0.765          0.769         29.079          0.087          1.619        -0.2858       3788.039        -999.25      0.9959171         -0.058
      9187.5000          7.579        -999.25        -999.25        -999.25        -999.25       1308.352          0.717          0.743          0.756          0.764          0.765          0.769         29.264          0.088          1.924         0.0192       3721.221        -999.25              1         -0.059
      9188.0000          7.587        -999.25        -999.25        -999.25        -999.25       1308.409          0.717          0.743          0.756          0.764          0.765          0.769          28.97          0.086          2.165         0.2602       3639.607        -999.25              1          -0.06
      9188.5000          7.591        -999.25        -999.25        -999.25        -999.25       1308.446          0.717          0.743          0.756          0.764          0.764          0.768         28.429          0.083          2.204         0.2992       3552.524        -999.25              1         -0.063
      9189.0000          7.588        -999.25        -999.25        -999.25        -999.25       1308.454          0.717          0.743          0.755          0.763          0.764          0.768         28.117          0.081          2.155         0.2502       3469.065        -999.25              1         -0.065
      9189.5000          7.585        -999.25        -999.25        -999.25        -999.25       1308.423          0.717          0.743          0.756          0.764          0.764          0.768         27.955           0.08          2.128         0.2232        3389.15        -999.25              1         -0.064
      9190.0000          7.584        -999.25        -999.25        -999.25        -999.25       1308.354          0.717          0.743          0.756          0.764          0.765          0.769          27.83          0.079          2.235         0.3302        3308.26        -999.25              1          -0.06
      9190.5000          7.582        -999.25        -999.25        -999.25        -999.25        -999.25        -999.25        -999.25        -999.25        -999.25        -999.25        -999.25         27.709        -999.25          2.339         0.4342       3228.294        -999.25              1         -0.062
