#------------------------------------------------------------------------------
# Created by    : vladimir.rabinovich
# Created on    : 09/19/2023 17:20:43
#------------------------------------------------------------------------------
~Version Information Section
VERS.           2.0     :   CWLS log ASCII Standard - VERSION 2.0
WRAP.           NO      :   One line per depth step
~Well Information Section
#MNEM       .UNIT                                         VALUE :DESCRIPTION
#------------------------------------------------------------------------------
STRT        .FT                                            2986 :START DEPTH
STOP        .FT                                           10006 :STOP DEPTH
STEP        .FT                                             0.5 :STEP      
NULL        .                                           -999.25 :NULL      
COMP        .                                        CONOCO INC :COMPANY   
WELL        .                                OCS 00764 ST00BP00 :WELL      
FLD         .                           WEST CAMERON BLOCK 0192 :FIELD     
LOC         .                                                   :LOCATION  
CNTY        .                                      WEST CAMERON :LOCATION  
STAT        .                                         LOUISIANA :STATE     
CTRY        .                                     UNITED STATES :COUNTRY   
SRVC        .                                                   :SERVICE COMPANY
DATE        .                             9/13/2023 11:18:18 AM :LOG DATE  
API         .                                    17700003670000 :API NUMBER
UWI         .                                    17700003670000 :UNIQUE WELL ID
XCOORD      .                                  1596137.97932418 :SURFACE X 
YCOORD      .                                  10614860.5046116 :SURFACE Y 
LAT         .                                         29.249106 :LATITUDE  
LON         .                                        -93.138896 :LONGITUDE 
ELEV        .FT                                              84 :ELEVATION VALUE
ELEV_TYPE   .                                                KB :ELEVATION REFERENCE TYPE
~Curve Information Section
#MNEM       .UNIT                                      API CODE :CURVE DESCRIPTION
#------------------------------------------------------------------------------
DEPT        .FT                                                 :DEPTH     
ASN         .OHMM                                               :          
CALI        .IN                                                 :          
CALI_1      .IN                                                 :          
DRHO        .G/C3                                               :          
DT          .US/F                                               :          
GR          .GAPI                                               :          
ILD         .OHMM                                               :          
RHOB        .G/C3                                               :          
SP          .MV                                                 :          
SP_NORM     .MV                                                 :SP Normalized
VSH_SP      .V/V                                                :Volume of Shale from SP
~A        DEPTH            ASN           CALI         CALI_1           DRHO             DT             GR            ILD           RHOB             SP        SP_NORM         VSH_SP
# ...
      4651.0000         0.7275        10.9909        14.3675         0.0118       142.0396        73.2892         0.5855         2.1677       -49.1298      -2.975956      0.8902247
      4651.5000         0.7189             11        14.2071         0.0063       142.4185        74.3408          0.578         2.1627       -49.0585      -2.904655      0.8941858
      4652.0000         0.7082        11.0143        13.8751        -0.0022       141.7996        75.9424         0.5737         2.1573       -48.8337      -2.679855      0.9066747
      4652.5000         0.6968        11.0259        13.5139        -0.0009        140.563        76.2268         0.5695          2.157       -48.3842      -2.230358      0.9316468
      4653.0000         0.6866        11.0358        14.1504         0.0104       139.4055        73.9452         0.5652         2.1648       -47.9141      -1.760258      0.9577634
      4653.5000          0.678        11.0409        14.3655         0.0131        139.312        73.8684          0.561         2.1681       -47.3879      -1.234058      0.9869968
      4654.0000         0.6708        11.0526        14.5281         0.0094       140.5789        77.0909         0.5571         2.1664       -46.9296     -0.7757568              1
      4654.5000         0.6645        10.9843        14.7019         0.0057       142.4185        77.7616         0.5577         2.1586       -46.5609     -0.4070587              1
      4655.0000         0.6571        10.9838        14.6637         0.0052       144.0063        77.6748         0.5604         2.1516       -46.2879     -0.1340561              1
      4655.5000         0.6465        11.0222        14.1243         0.0098       145.1091        77.2864          0.556         2.1526       -45.9833      0.1705437              1
      4656.0000         0.6345        11.0343        13.9176         0.0259       145.7998        76.7205         0.5533         2.1628       -45.6563      0.4975433              1
      4656.5000         0.6235        11.0337        13.6935         0.0355       146.9314        76.1953         0.5536         2.1638       -45.3087      0.8451424              1
      4657.0000         0.6122        11.0173        13.4724         0.0414       149.2659        75.7888          0.552         2.1604       -44.9339       1.219944              1
      4657.5000         0.6087        10.9899        13.3564         0.0383       151.1716        74.5358         0.5474         2.1586       -44.4975       1.656342              1
      4658.0000         0.6065        10.9664        13.4878         0.0321       152.2874        75.3911         0.5273         2.1541       -44.0589       2.094944              1
      4658.5000         0.6055        10.9411        13.4524         0.0257       152.8379        76.0068          0.505         2.1552       -43.8287       2.325142              1
      4659.0000         0.6046         10.926         13.315         0.0263       153.2305        75.3759         0.4967         2.1621       -43.6698       2.484043              1
      4659.5000         0.6046        10.9116        13.2365         0.0342        153.907        74.9459         0.5077         2.1722       -43.6064       2.547443              1
      4660.0000         0.6068        10.8996        13.3373         0.0328       153.8469        74.5629         0.5173         2.1831       -43.5345       2.619343              1
      4660.5000         0.6144        10.8904        13.3128         0.0181       153.2761          74.05          0.525         2.1892       -43.4092       2.744644              1
      4661.0000         0.6253        10.8855        13.5404          0.017       151.5696        73.8135         0.5416         2.2012       -43.3154       2.838444              1
      4661.5000         0.6418         10.885        13.6637         0.0188       149.4709        73.8386         0.5585         2.2093       -43.3234       2.830444              1
      4662.0000         0.6601        10.8868        13.4623         0.0212       146.3186        74.0767         0.5744         2.2211       -43.5064       2.647442              1
      4662.5000         0.6794         10.891        13.6792         0.0245       144.1426        74.3286         0.5887         2.2323       -43.7127       2.441143              1
      4663.0000         0.6972        10.8984        13.7971         0.0299       142.8274        74.5977         0.6049         2.2369       -43.9217       2.232143              1
      4663.5000          0.709        10.9115        13.5918         0.0327       141.5356        74.8643         0.6247         2.2386       -44.1646       1.989243              1
      4664.0000         0.7189        10.9242        13.3816         0.0248       141.5798         75.558         0.6333         2.2397       -44.4702       1.683643              1
      4664.5000          0.727        10.9307        13.0871         0.0188       142.6396        75.9928         0.6373         2.2398         -44.75       1.403843              1
      4665.0000         0.7315        10.9127        12.9717         0.0135       142.7961        75.4708         0.6353         2.2342       -45.0295       1.124344              1
      4665.5000         0.7348        10.8879        13.4688         0.0057       143.8049        74.9735         0.6323         2.2281        -45.317      0.8368416              1
      4666.0000         0.7371        10.8565        13.5442         0.0135       145.1538        74.5631         0.6291         2.2295       -45.6172       0.536644              1
      4666.5000         0.7394        10.8299        13.3134         0.0144       145.5652        74.3405         0.6208         2.2345       -45.9636      0.1902428              1
      4667.0000         0.7418        10.8092        13.5729         0.0149       146.6079         75.713         0.6085         2.2373        -46.461     -0.3071556              1
      4667.5000         0.7436        10.7957        13.6691         0.0149       146.0681        76.6116         0.6005         2.2371       -47.1431     -0.9892578              1
      4668.0000         0.7441        10.7943        13.7277         0.0151       144.8745        76.8715         0.5944         2.2325       -47.7361      -1.582256      0.9676524
      4668.5000          0.739        10.7975         13.801         0.0182       144.6877        77.7003         0.5909         2.2245       -47.8199      -1.666058      0.9629968
      4669.0000          0.734         10.805         13.905         0.0275       145.6003        79.7358         0.5879          2.225       -47.6327      -1.478859      0.9733967
      4669.5000          0.729        10.8125        13.8671         0.0335       146.9512        79.6324         0.5925         2.2317       -47.4633      -1.309456       0.982808
      4670.0000         0.7276        10.8199        13.5121         0.0236       147.5811        78.5281         0.6052         2.2384       -47.3904      -1.236557       0.986858
      4670.5000         0.7377         10.839         13.291         0.0154       147.5159        77.4891         0.6202         2.2433       -47.4726      -1.318756      0.9822913
      4671.0000         0.7505        10.8765        13.2014         0.0105       147.0688        76.9581         0.6425         2.2333       -47.6022      -1.448357      0.9750913
      4671.5000          0.761        10.9131        13.1713         0.0143       145.4639          78.03         0.6629         2.2219       -47.7608      -1.606956      0.9662802
      4672.0000         0.7599        10.9413        13.1865         0.0263       143.8982        79.7476         0.6613         2.2213       -47.8672      -1.713356      0.9603691
      4672.5000         0.7544        10.9542         13.247         0.0267       142.7375        80.4807         0.6597         2.2153       -47.9201      -1.766258      0.9574301
      4673.0000         0.7451        10.9684        13.3056         0.0173       143.2051        80.3699         0.6536         2.2043       -47.7867      -1.632858      0.9648412
