#------------------------------------------------------------------------------
# Created by    : vladimir.rabinovich
# Created on    : 09/19/2023 17:21:58
#------------------------------------------------------------------------------
~Version Information Section
VERS.           2.0     :   CWLS log ASCII Standard - VERSION 2.0
WRAP.           NO      :   One line per depth step
~Well Information Section
#MNEM       .UNIT                                         VALUE :DESCRIPTION
#------------------------------------------------------------------------------
STRT        .FT                                            3382 :START DEPTH
STOP        .FT                                           10910 :STOP DEPTH
STEP        .FT                                             0.5 :STEP      
NULL        .                                           -999.25 :NULL      
COMP        .                               B P EXPLORATION INC :COMPANY   
WELL        .                               OCS G07597 ST00BP00 :WELL      
FLD         .                           WEST CAMERON BLOCK 0045 :FIELD     
LOC         .                                                   :LOCATION  
CNTY        .                                      WEST CAMERON :LOCATION  
STAT        .                                         LOUISIANA :STATE     
CTRY        .                                     UNITED STATES :COUNTRY   
SRVC        .                                                   :SERVICE COMPANY
DATE        .                             9/13/2023 11:18:09 AM :LOG DATE  
API         .                                    17700407640000 :API NUMBER
UWI         .                                    17700407640000 :UNIQUE WELL ID
XCOORD      .                                  1473636.79229916 :SURFACE X 
YCOORD      .                                   10762774.556795 :SURFACE Y 
LAT         .                                        29.6550545 :LATITUDE  
LON         .                                       -93.5252479 :LONGITUDE 
ELEV        .FT                                              90 :ELEVATION VALUE
ELEV_TYPE   .                                                KB :ELEVATION REFERENCE TYPE
~Curve Information Section
#MNEM       .UNIT                                      API CODE :CURVE DESCRIPTION
#------------------------------------------------------------------------------
DEPT        .FT                                                 :DEPTH     
CALI        .IN                                                 :          
DRHO        .G/C3                                               :          
DT          .US/F                                               :          
GR          .GAPI                                               :          
GR_1        .GAPI                                               :          
GR_NORM     .GAPI                                               :GammaRay Normalized
ILD         .OHMM                                               :          
ILM         .OHMM                                               :          
NPHI        .%                                                  :          
RHOB        .G/C3                                               :          
SFL         .OHMM                                               :          
SP          .MV                                                 :          
SP_NORM     .MV                                                 :SP Normalized
VSH_GR      .V/V                                                :Volume of Shale from GR
VSH_SP      .V/V                                                :Volume of Shale from SP
~A        DEPTH           CALI           DRHO             DT             GR           GR_1        GR_NORM            ILD            ILM           NPHI           RHOB            SFL             SP        SP_NORM         VSH_GR         VSH_SP
# ...
      5949.0000         11.604        -0.0184       117.3883        55.0765        66.4269       72.47662         0.3903         0.4245        40.3337         2.1533         0.6222       -85.6595         -24.66       0.839928      0.6991667
      5949.5000        11.6376        -0.0187        117.207        57.9529        67.7726       76.56547         0.4095         0.4597        40.9073         2.1859         0.6308       -82.1204       -21.1319      0.9269248      0.7481681
      5950.0000        11.6731        -0.0173       116.5242        58.5366        69.0651       77.39043          0.421         0.4687        41.3775         2.2086         0.6487       -74.8281       -13.8506      0.9444773      0.8492972
      5950.5000        11.6639        -0.0101        115.864          58.51        68.0018       77.34661         0.4213         0.4695        41.7865         2.2222         0.6867       -74.3855       -13.4189      0.9435449       0.855293
      5951.0000        11.6708        -0.0084        115.809        57.3299        70.4399       75.66064         0.4213         0.4703        41.6885         2.2267         0.7362       -82.2994       -21.3438      0.9076731       0.745225
      5951.5000        11.7375        -0.0073       116.0331        56.5234        74.1158       74.50651         0.4226          0.472        41.3276         2.2266         0.7194       -81.6826        -20.738      0.8831172      0.7536389
      5952.0000        11.7885         -0.007       116.6155        56.7927        74.5959       74.88392          0.439         0.4781        41.3354         2.2181         0.6671       -71.2473       -10.3137      0.8911472      0.8984208
      5952.5000         11.794        -0.0065       117.5747        57.3578        73.8806       75.68242         0.4633         0.4909          41.98         2.2132         0.6381       -70.8743        -9.9516      0.9081365        0.90345
      5953.0000        11.7788        -0.0042       119.0836        57.9069        77.6487       76.45813         0.4877         0.5098        42.8815         2.2249         0.6447       -64.6608        -3.7491      0.9246411      0.9895958
      5953.5000        11.7522         0.0024       120.8923        58.9067        78.9072       77.87546         0.5048         0.5293        44.6165         2.2463         0.6602       -61.7808        -0.8801       0.954797              1
      5954.0000        11.7033           0.02       121.7745        60.2709        78.1216       79.81156         0.5157         0.5407        46.8467         2.2724         0.6737       -61.1156        -0.2259      0.9959907              1
      5954.5000        11.6515         0.0278       122.0522        60.9897        78.4186       80.82884         0.5223         0.5387        48.2487         2.2783         0.6645       -61.0467        -0.1679              1              1
      5955.0000        11.6297         0.0313       121.8838        61.1122        77.6342       80.99727          0.527         0.5347        48.5798         2.2796         0.6468       -61.0431        -0.1753              1              1
      5955.5000        11.6063         0.0342       121.3927        62.8836        76.0399       83.51302         0.5313         0.5445        48.3899           2.28         0.6404       -61.0147        -0.1579              1              1
      5956.0000        11.5813         0.0356       121.1222        64.2794        74.2444       85.49423         0.5287         0.5474        48.2795         2.2777         0.6699       -60.8761        -0.0303              1              1
      5956.5000        11.5584         0.0368       121.4537         63.672        75.5488       84.62358         0.5222         0.5372        48.5007         2.2775         0.6745       -60.2474         0.5874              1              1
      5957.0000          11.54         0.0382       121.9865        60.1677        76.7491       79.62891          0.516         0.5277        48.8333         2.2806           0.66       -59.1992         1.6247      0.9921044              1
      5957.5000        11.5453         0.0378         122.13        57.2578        78.4459       75.48041         0.5082         0.5266        49.0101         2.2809         0.6417       -57.9357         2.8772      0.9038385              1
      5958.0000        11.5807         0.0322        121.476        54.7781        78.4987       71.94435         0.4979         0.5314         48.035         2.2782         0.6203       -59.7363         1.0656      0.8286032              1
      5958.5000        11.6291         0.0266       120.7147        53.1403        82.5759        69.6068          0.494         0.5343        46.3192         2.2695         0.6256       -67.4016        -6.6107      0.7788681      0.9498514
      5959.0000        11.6815         0.0226       120.2521        52.3453        78.8829       68.46907         0.4965         0.5351        45.7535         2.2638         0.6316       -66.4441        -5.6642      0.7546611      0.9629972
      5959.5000        11.7209         0.0204       120.1528        52.5789        75.6434       68.79565         0.5085         0.5365        45.6155         2.2603         0.6426       -64.0515        -3.2825      0.7616097      0.9960764
      5960.0000         11.746         0.0206       120.6444        54.6288        77.6511       71.70789         0.5101         0.5389        45.6268         2.2587          0.655       -62.6824        -1.9244      0.8235722              1
      5960.5000         11.763         0.0238       121.0378        57.3995        76.4775       75.64626         0.5035         0.5388        45.5713         2.2719         0.6608        -62.324         -1.577      0.9073673              1
      5961.0000        11.7843         0.0218       120.6185        58.9453        74.8475       77.84087         0.4901          0.526        45.4445           2.28         0.6684       -64.5116        -3.7756       0.954061      0.9892278
      5961.5000        11.8208         0.0178        119.819        59.4744        74.7283       78.58811         0.4746         0.5042        45.1396         2.2782         0.6811       -77.9171        -17.192      0.9699599      0.8028889
      5962.0000        11.8487         0.0091        118.426        57.8472          70.76       76.26566         0.4598         0.4843        44.2623         2.2656         0.6951       -80.4192       -19.7051       0.920546      0.7679847
      5962.5000        11.8426        -0.0147       116.9628        56.0465        66.5796       73.69623         0.4578         0.4769        42.9657         2.2413         0.7453       -85.8523       -25.1492      0.8658772      0.6923722
      5963.0000        11.8127        -0.0271       115.6969        53.3405        65.8146       69.83798         0.4653         0.4816        41.9471         2.2218         0.7694        -84.533       -23.8409      0.7837868       0.710543
      5963.5000        11.7696        -0.0341        114.642         51.224         65.229       66.81897         0.4773         0.4924         40.772         2.2088         0.8441       -81.8593       -21.1782      0.7195526       0.747525
      5964.0000        11.7496        -0.0361       113.6636        49.7845        63.9343       64.76374         0.4893         0.5039        40.0034         2.2128         0.8535       -78.9021       -18.2319      0.6758243      0.7884458
      5964.5000        11.7686         -0.035       113.3496        49.2953        66.6476       64.06134         0.4901         0.5122         39.916         2.2313         0.8344       -77.8773       -17.2181      0.6608796      0.8025264
      5965.0000        11.7931        -0.0296       114.5062        49.9506        67.6254       64.98824         0.4832         0.5184        39.9385         2.2503         0.7948       -80.2377       -19.5895      0.6806009      0.7695903
      5965.5000         11.802        -0.0235       116.5593        51.7985        68.0217       67.61292         0.4766         0.5205        40.0549         2.2618         0.8024       -81.7131       -21.0759       0.736445      0.7489458
