#------------------------------------------------------------------------------
# Created by    : vladimir.rabinovich
# Created on    : 09/19/2023 17:20:14
#------------------------------------------------------------------------------
~Version Information Section
VERS.           2.0     :   CWLS log ASCII Standard - VERSION 2.0
WRAP.           NO      :   One line per depth step
~Well Information Section
#MNEM       .UNIT                                         VALUE :DESCRIPTION
#------------------------------------------------------------------------------
STRT        .FT                                             920 :START DEPTH
STOP        .FT                                            7860 :STOP DEPTH
STEP        .FT                                             0.5 :STEP      
NULL        .                                           -999.25 :NULL      
COMP        .                               ARCO OIL & GAS CORP :COMPANY   
WELL        .                               OCS G10568 ST00BP00 :WELL      
FLD         .                                           WILDCAT :FIELD     
LOC         .                                                   :LOCATION  
CNTY        .                                 WEST CAMERON WEST :LOCATION  
STAT        .                                         LOUISIANA :STATE     
CTRY        .                                     UNITED STATES :COUNTRY   
SRVC        .                                                   :SERVICE COMPANY
DATE        .                             9/13/2023 11:18:15 AM :LOG DATE  
API         .                                    17701402460000 :API NUMBER
UWI         .                                    17701402460000 :UNIQUE WELL ID
XCOORD      .                                  1443937.81344993 :SURFACE X 
YCOORD      .                                  10680295.6485051 :SURFACE Y 
LAT         .                                        29.4277648 :LATITUDE  
LON         .                                       -93.6173961 :LONGITUDE 
ELEV        .FT                                             100 :ELEVATION VALUE
ELEV_TYPE   .                                                KB :ELEVATION REFERENCE TYPE
~Curve Information Section
#MNEM       .UNIT                                      API CODE :CURVE DESCRIPTION
#------------------------------------------------------------------------------
DEPT        .FT                                                 :DEPTH     
ASFL        .OHMM                                               :          
CALI        .IN                                                 :          
DPHI        .%                                                  :          
DRHO        .G/CC                                               :          
DT          .US/F                                               :          
GR          .GAPI                                               :          
GR_1        .GAPI                                               :          
GR_NORM     .GAPI                                               :GammaRay Normalized
ILD         .OHMM                                               :          
ILM         .OHMM                                               :          
NPHI        .%                                                  :          
RFOC        .OHMM                                               :          
SP          .MV                                                 :          
SP_NORM     .MV                                                 :SP Normalized
VSH_GR      .V/V                                                :Volume of Shale from GR
VSH_SP      .V/V                                                :Volume of Shale from SP
~A        DEPTH           ASFL           CALI           DPHI           DRHO             DT             GR           GR_1        GR_NORM            ILD            ILM           NPHI           RFOC             SP        SP_NORM         VSH_GR         VSH_SP
# ...
      3272.0000          1.003        -999.25        -999.25        -999.25       127.6704        40.7344        -999.25       43.10615         0.6123        -999.25        -999.25        -999.25       -58.2113      -13.20177      0.2150244      0.6063945
      3272.5000         0.9701        -999.25        -999.25        -999.25       130.9417        40.1874        -999.25       42.02909         0.5765        -999.25        -999.25        -999.25       -58.4629      -13.46645      0.1921084      0.5978563
      3273.0000         0.9372        -999.25        -999.25        -999.25       134.2126        40.3608        -999.25       42.33822         0.5499        -999.25        -999.25        -999.25       -56.4601      -11.47674      0.1986855      0.6620407
      3273.5000         0.9414        -999.25        -999.25        -999.25       137.4839        40.3272        -999.25       42.24903         0.5475        -999.25        -999.25        -999.25        -52.872      -7.901726      0.1967879      0.7773637
      3274.0000         0.9602        -999.25        -999.25        -999.25       140.7551        40.6293        -999.25        42.8058         0.5633        -999.25        -999.25        -999.25       -48.7628      -3.805603       0.208634      0.9094967
      3274.5000         0.9748        -999.25        -999.25        -999.25       141.1873          42.88        -999.25       47.11201         0.5802        -999.25        -999.25        -999.25       -47.8404       -2.89629      0.3002556      0.9388294
      3275.0000         0.9898        -999.25        -999.25        -999.25       139.5249        44.7855        -999.25       50.75401         0.6005        -999.25        -999.25        -999.25       -47.4341      -2.503075      0.3777449      0.9515137
      3275.5000         1.0027        -999.25        -999.25        -999.25       138.2969        45.9215        -999.25       52.91535         0.6209        -999.25        -999.25        -999.25       -47.1476      -2.229652      0.4237309      0.9603338
      3276.0000         1.0123        -999.25        -999.25        -999.25       137.4463        46.0729        -999.25       53.18214         0.6412        -999.25        -999.25        -999.25        -46.861      -1.956139      0.4294071      0.9691568
      3276.5000           1.02        -999.25        -999.25        -999.25       136.7446        46.1812        -999.25       53.36599         0.6615        -999.25        -999.25        -999.25        -46.462      -1.570225       0.433319      0.9816056
      3277.0000         1.0235        -999.25        -999.25        -999.25        136.095        47.7822        -999.25       56.42208          0.675        -999.25        -999.25        -999.25       -45.9197      -1.041004      0.4983422      0.9986773
      3277.5000         1.0245        -999.25        -999.25        -999.25       135.4768        50.6904        -999.25       61.99345         0.6866        -999.25        -999.25        -999.25       -45.4534     -0.5877876      0.6168819              1
      3278.0000         1.0252        -999.25        -999.25        -999.25       135.4419        53.1677        -999.25       66.73569         0.6983        -999.25        -999.25        -999.25        -45.187     -0.3344727      0.7177808              1
      3278.5000          1.026        -999.25        -999.25        -999.25       135.8582        54.9671        -999.25       70.17353         0.7057        -999.25        -999.25        -999.25       -44.9207    -0.08125305      0.7909262              1
      3279.0000         1.0267        -999.25        -999.25        -999.25       136.4116        56.1386        -999.25       72.40318         0.7032        -999.25        -999.25        -999.25        -45.135     -0.3086357      0.8383656              1
      3279.5000         1.0279        -999.25        -999.25        -999.25       137.0857        56.8243        -999.25       73.69805         0.7008        -999.25        -999.25        -999.25       -45.3874     -0.5741234       0.865916              1
      3280.0000         1.0292        -999.25        -999.25        -999.25       138.0117        57.2006        -999.25       74.39762         0.6983        -999.25        -999.25        -999.25       -45.6398     -0.8607826      0.8808004              1
      3280.5000         1.0305        -999.25        -999.25        -999.25       138.6943        56.9105        -999.25       73.81488         0.6948        -999.25        -999.25        -999.25       -45.8922       -1.15868      0.8684017      0.9948813
      3281.0000         1.0318        -999.25        -999.25        -999.25       139.3252        58.0757        -999.25       76.03241         0.6896        -999.25        -999.25        -999.25        -46.108      -1.419983      0.9155832      0.9864522
      3281.5000         1.0331        -999.25        -999.25        -999.25       139.9558        59.2594        -999.25       78.28554         0.6844        -999.25        -999.25        -999.25       -46.1799       -1.53738      0.9635221      0.9826652
      3282.0000         1.0349        -999.25        -999.25        -999.25       140.5249        59.9818        -999.25       79.65103         0.6792        -999.25        -999.25        -999.25       -46.1641      -1.567081      0.9925751       0.981707
      3282.5000         1.0367        -999.25        -999.25        -999.25       141.0735        60.5253        -999.25       80.67229          0.674        -999.25        -999.25        -999.25       -46.0023      -1.450779              1      0.9854587
      3283.0000         1.0385        -999.25        -999.25        -999.25       141.6216        60.9196        -999.25       81.40646         0.6688        -999.25        -999.25        -999.25       -45.8405       -1.33448              1      0.9892103
      3283.5000         1.0403        -999.25        -999.25        -999.25       142.1479         61.165        -999.25       81.85413         0.6676        -999.25        -999.25        -999.25       -45.7281      -1.267578              1      0.9913685
      3284.0000         1.0421        -999.25        -999.25        -999.25       142.5957        61.3295        -999.25        82.1461         0.6721        -999.25        -999.25        -999.25       -45.6768       -1.26178              1      0.9915555
      3284.5000         1.0449        -999.25        -999.25        -999.25       143.0435         61.478        -999.25       82.40733         0.6766        -999.25        -999.25        -999.25       -45.8315      -1.461979              1      0.9850975
      3285.0000         1.0476        -999.25        -999.25        -999.25       142.5332         61.738        -999.25       82.88308         0.6811        -999.25        -999.25        -999.25       -45.9862      -1.662178              1      0.9786394
      3285.5000         1.0519        -999.25        -999.25        -999.25       141.7358        62.2308        -999.25       83.80681         0.6856        -999.25        -999.25        -999.25       -46.1057      -1.827179              1      0.9733168
      3286.0000         1.0564        -999.25        -999.25        -999.25       141.0466        64.0399        -999.25        87.2633         0.6901        -999.25        -999.25        -999.25       -46.2102       -1.97718              1       0.968478
      3286.5000         1.0612        -999.25        -999.25        -999.25       140.3882        66.3723        -999.25        91.7267         0.6946        -999.25        -999.25        -999.25       -46.3147      -2.127178              1      0.9636394
      3287.0000         1.0665        -999.25        -999.25        -999.25       140.3555        67.7316        -999.25       94.31773         0.6992        -999.25        -999.25        -999.25       -46.4192       -2.27718              1      0.9588007
      3287.5000         1.0719        -999.25        -999.25        -999.25        140.468        65.8529        -999.25       90.67825         0.7041        -999.25        -999.25        -999.25       -46.4641      -2.367577              1      0.9558846
