#------------------------------------------------------------------------------
# Created by    : vladimir.rabinovich
# Created on    : 09/19/2023 17:21:58
#------------------------------------------------------------------------------
~Version Information Section
VERS.           2.0     :   CWLS log ASCII Standard - VERSION 2.0
WRAP.           NO      :   One line per depth step
~Well Information Section
#MNEM       .UNIT                                         VALUE :DESCRIPTION
#------------------------------------------------------------------------------
STRT        .FT                                            3382 :START DEPTH
STOP        .FT                                           10910 :STOP DEPTH
STEP        .FT                                             0.5 :STEP      
NULL        .                                           -999.25 :NULL      
COMP        .                               B P EXPLORATION INC :COMPANY   
WELL        .                               OCS G07597 ST00BP00 :WELL      
FLD         .                           WEST CAMERON BLOCK 0045 :FIELD     
LOC         .                                                   :LOCATION  
CNTY        .                                      WEST CAMERON :LOCATION  
STAT        .                                         LOUISIANA :STATE     
CTRY        .                                     UNITED STATES :COUNTRY   
SRVC        .                                                   :SERVICE COMPANY
DATE        .                             9/13/2023 11:18:09 AM :LOG DATE  
API         .                                    17700407640000 :API NUMBER
UWI         .                                    17700407640000 :UNIQUE WELL ID
XCOORD      .                                  1473636.79229916 :SURFACE X 
YCOORD      .                                   10762774.556795 :SURFACE Y 
LAT         .                                        29.6550545 :LATITUDE  
LON         .                                       -93.5252479 :LONGITUDE 
ELEV        .FT                                              90 :ELEVATION VALUE
ELEV_TYPE   .                                                KB :ELEVATION REFERENCE TYPE
~Curve Information Section
#MNEM       .UNIT                                      API CODE :CURVE DESCRIPTION
#------------------------------------------------------------------------------
DEPT        .FT                                                 :DEPTH     
CALI        .IN                                                 :          
DRHO        .G/C3                                               :          
DT          .US/F                                               :          
GR          .GAPI                                               :          
GR_1        .GAPI                                               :          
GR_NORM     .GAPI                                               :GammaRay Normalized
ILD         .OHMM                                               :          
ILM         .OHMM                                               :          
NPHI        .%                                                  :          
RHOB        .G/C3                                               :          
SFL         .OHMM                                               :          
SP          .MV                                                 :          
SP_NORM     .MV                                                 :SP Normalized
VSH_GR      .V/V                                                :Volume of Shale from GR
VSH_SP      .V/V                                                :Volume of Shale from SP
~A        DEPTH           CALI           DRHO             DT             GR           GR_1        GR_NORM            ILD            ILM           NPHI           RHOB            SFL             SP        SP_NORM         VSH_GR         VSH_SP
# ...
     10403.0000         7.3587        -0.1342       111.0365         59.764        58.4417       61.92983         0.5128         0.5129        34.1218         2.2383         0.7052       -78.2997       -42.1092      0.6155283        0.39832
     10403.5000         7.3203        -0.1328       111.7622        59.6195        56.5659       61.73661         0.4882         0.4933        34.3138         2.1891         0.7324       -79.3209       -43.1304      0.6114174      0.3826092
     10404.0000         7.3124        -0.1125       111.1544         58.829        55.0204       60.70329         0.4781         0.4845        34.1752         2.1441          0.763       -80.1578       -43.9673      0.5894317      0.3697338
     10404.5000         7.3166        -0.1004       109.5751        57.1848        54.7191       58.56007         0.4775         0.4814        33.7968         2.1241         0.7768       -88.1112       -51.9207      0.5438313      0.2473738
     10405.0000         7.3298        -0.0957        108.714        53.7487        56.2838       54.08678         0.4754         0.4763        33.2294         2.1278         0.7446       -89.7085        -53.518       0.448655         0.2228
     10405.5000         7.3259        -0.0974       108.4957        48.1253        57.6638       46.76956         0.4702          0.468        32.7309         2.1417         0.6972       -88.9825        -52.792      0.2929693      0.2339692
     10406.0000         7.3147        -0.0968       108.6947        45.4512        58.1331       43.28708          0.455          0.456        32.1577         2.1601         0.7661       -92.0536       -55.8631      0.2188739      0.1867216
     10406.5000         7.3064        -0.0936         108.86        43.6104        58.2421       40.88822         0.4306         0.4371        31.8063         2.1709         0.8788        -95.401       -59.2105      0.1678344      0.1352231
     10407.0000         7.2991        -0.0905        108.408        42.3224        56.3489       39.20801         0.4136         0.4186        31.6432         2.1599         0.8959       -97.2887       -61.0982      0.1320854      0.1061815
     10407.5000         7.2897        -0.0886       107.8704         41.037        51.7584       37.53133         0.3995         0.4043        31.5389          2.141         0.8619        -98.042       -61.8515     0.09641136     0.09459229
     10408.0000         7.2799        -0.0879       107.4938         40.033        49.9694       36.22041         0.3851         0.3924         31.481         2.1297         0.8057       -97.1018       -60.9113     0.06851935      0.1090569
     10408.5000         7.2724        -0.0924       107.3326         41.101        48.7856       37.60376         0.3709         0.3807        31.4519         2.1176         0.7913       -97.2395        -61.049     0.09795242      0.1069385
     10409.0000         7.2673        -0.1011       107.5605        44.8712        48.4098       42.50054         0.3585         0.3702        31.6167         2.1112         0.7734       -98.4585        -62.268      0.2021392      0.0881846
     10409.5000         7.2618        -0.1123        107.874        49.1576        48.2021       48.06865         0.3511         0.3606        32.1079         2.1091          0.749        -99.175       -62.9845      0.3206096     0.07716153
     10410.0000         7.2525        -0.1208       109.1281        49.5214        46.8593       48.53623         0.3464         0.3579        32.5142         2.1044         0.6711       -99.5338       -63.3433       0.330558     0.07164154
     10410.5000         7.2014        -0.1288       110.4641         44.709        45.7634       42.27353         0.3447         0.3574         32.919         2.0968         0.6366       -99.9105         -63.72       0.197309     0.06584614
     10411.0000          7.191        -0.1421       111.2711        42.4871        45.2282       39.37901         0.3451         0.3586        32.9988          2.093         0.6169       -98.9796       -62.7891      0.1357236     0.08016768
     10411.5000         7.1851         -0.146       110.8663        40.5356        46.2179       36.83622          0.354         0.3664        32.6862          2.099         0.6323        -93.833       -57.6425     0.08162162      0.1593461
     10412.0000         7.1774        -0.1461       109.4932        41.9415        48.5518       38.65892         0.3734         0.3838        32.3737         2.1064         0.6358       -90.5789       -54.3884      0.1204026      0.2094092
     10412.5000         7.1732        -0.1537       108.0553        48.8725        52.0236       47.66557         0.4024         0.4055        32.2164         2.1084         0.6181       -82.8024       -46.6119      0.3120333      0.3290477
     10413.0000         7.1946        -0.1595       106.6622        57.3666         55.129       58.70481         0.4256         0.4361        32.2657         2.1206         0.5495       -80.9185        -44.728      0.5469108      0.3580308
     10413.5000         7.2471        -0.1588       105.2418        59.9203        58.6538       62.01981         0.4329           0.47        33.4263         2.1925         0.4734       -69.5402       -33.3497      0.6174428      0.5330815
     10414.0000         7.3222        -0.1571       103.7593        61.3335        61.2914       63.85201         0.4522         0.5118        33.6015         2.2334         0.4746       -62.9754       -26.7849      0.6564257      0.6340784
     10414.5000         7.3778        -0.1579       102.3662        58.6447        62.9285       60.35039         0.5187         0.5593        32.4439         2.2812         0.6494       -66.0403       -29.8498      0.5819232      0.5869262
     10415.0000         7.4053        -0.1296       101.1879        54.4025         64.281       54.82911         0.5798         0.6029        31.2287         2.3054         0.9079       -71.0369       -34.8464       0.464449      0.5100554
     10415.5000         7.3846        -0.1193       101.0388        53.4493        61.2673       53.58423         0.5994         0.6231        30.2712         2.2975         1.0979       -70.1989       -34.0084      0.4379623      0.5229477
     10416.0000         7.3564        -0.1149       101.2878        54.4664        62.8055        54.9014         0.6125          0.634        29.6255         2.2767         0.7288       -61.6949       -25.5044      0.4659873      0.6537784
     10416.5000         7.3756        -0.0979       100.4615        57.3273        63.2986       58.61586         0.6173         0.6538        29.2929         2.3162         0.6472       -58.6619       -22.4714      0.5450183        0.70044
     10417.0000         7.4531         -0.069        99.4744        59.3648        64.2521        61.2598         0.6488         0.6842         29.433         2.3268         0.7521       -56.3566       -20.1661      0.6012724      0.7359062
     10417.5000         7.5337         -0.054        99.1545        59.4606        67.8638       61.37891         0.6824         0.7031        29.8217         2.3512         0.8059       -52.4634       -16.2729      0.6038065      0.7958015
     10418.0000         7.5764        -0.0474        99.4086        58.9875        68.9138       60.75843         0.6997         0.7067        30.3254         2.3678         0.8161       -50.1519       -13.9614      0.5906049      0.8313631
     10418.5000          7.625         -0.029        99.9276        58.6207         68.082       60.27603         0.6974         0.6954        30.5724         2.3763         0.8071       -49.7128       -13.5223       0.580341      0.8381185
     10419.0000         7.6866        -0.0199        100.762        59.8588        68.7028       61.88055         0.6723         0.6767         30.814         2.3654         0.7873       -49.0078       -12.8173      0.6144797      0.8489646
     10419.5000         7.7437        -0.0286       103.9331        61.9922        70.4532       64.64919         0.6054         0.6368        31.5435         2.3539         0.6973       -45.5128        -9.3223      0.6733871      0.9027339
