#------------------------------------------------------------------------------
# Created by    : vladimir.rabinovich
# Created on    : 09/19/2023 17:20:14
#------------------------------------------------------------------------------
~Version Information Section
VERS.           2.0     :   CWLS log ASCII Standard - VERSION 2.0
WRAP.           NO      :   One line per depth step
~Well Information Section
#MNEM       .UNIT                                         VALUE :DESCRIPTION
#------------------------------------------------------------------------------
STRT        .FT                                             920 :START DEPTH
STOP        .FT                                            7860 :STOP DEPTH
STEP        .FT                                             0.5 :STEP      
NULL        .                                           -999.25 :NULL      
COMP        .                               ARCO OIL & GAS CORP :COMPANY   
WELL        .                               OCS G10568 ST00BP00 :WELL      
FLD         .                                           WILDCAT :FIELD     
LOC         .                                                   :LOCATION  
CNTY        .                                 WEST CAMERON WEST :LOCATION  
STAT        .                                         LOUISIANA :STATE     
CTRY        .                                     UNITED STATES :COUNTRY   
SRVC        .                                                   :SERVICE COMPANY
DATE        .                             9/13/2023 11:18:15 AM :LOG DATE  
API         .                                    17701402460000 :API NUMBER
UWI         .                                    17701402460000 :UNIQUE WELL ID
XCOORD      .                                  1443937.81344993 :SURFACE X 
YCOORD      .                                  10680295.6485051 :SURFACE Y 
LAT         .                                        29.4277648 :LATITUDE  
LON         .                                       -93.6173961 :LONGITUDE 
ELEV        .FT                                             100 :ELEVATION VALUE
ELEV_TYPE   .                                                KB :ELEVATION REFERENCE TYPE
~Curve Information Section
#MNEM       .UNIT                                      API CODE :CURVE DESCRIPTION
#------------------------------------------------------------------------------
DEPT        .FT                                                 :DEPTH     
ASFL        .OHMM                                               :          
CALI        .IN                                                 :          
DPHI        .%                                                  :          
DRHO        .G/CC                                               :          
DT          .US/F                                               :          
GR          .GAPI                                               :          
GR_1        .GAPI                                               :          
GR_NORM     .GAPI                                               :GammaRay Normalized
ILD         .OHMM                                               :          
ILM         .OHMM                                               :          
NPHI        .%                                                  :          
RFOC        .OHMM                                               :          
SP          .MV                                                 :          
SP_NORM     .MV                                                 :SP Normalized
VSH_GR      .V/V                                                :Volume of Shale from GR
VSH_SP      .V/V                                                :Volume of Shale from SP
~A        DEPTH           ASFL           CALI           DPHI           DRHO             DT             GR           GR_1        GR_NORM            ILD            ILM           NPHI           RFOC             SP        SP_NORM         VSH_GR         VSH_SP
# ...
      6472.0000        -999.25        13.9772        18.5435         0.0868        107.037        111.918       103.3638       83.48297         0.9477         0.9657        34.1218         1.1577       -46.6333      -1.824558              1      0.9763044
      6472.5000        -999.25        13.9211        18.4947         0.0883       106.7507       111.7285       103.3276       83.44495         0.9438         0.9626        34.4686         1.1642       -46.2759      -1.467159              1       0.980946
      6473.0000        -999.25        13.8738         18.495         0.0898       106.8239       109.2487       102.7551       82.83617         0.9406          0.952        34.5231         1.1739       -45.8833      -1.074558              1      0.9860447
      6473.5000        -999.25        13.8348        18.6614         0.0916       107.2041       106.4985       102.4668       82.52985          0.939         0.9466        34.1265         1.1735       -45.4749     -0.6661568              1      0.9913486
      6474.0000        -999.25        13.8053         19.112         0.0917       107.8475        107.047       102.8253        82.9119          0.938          0.944        33.7518         1.1594       -45.1372     -0.3284569              1      0.9957343
      6474.5000        -999.25        13.7843        19.5182         0.0859       108.7003         110.46       103.3735       83.49584         0.9427         0.9437         33.758         1.1392       -44.8784    -0.06965637              1      0.9990954
      6475.0000        -999.25        13.7971        19.7698         0.0761       109.3158       113.1234       103.8843       84.03999          0.947         0.9447        34.6153          1.116        -44.794      0.0147438              1              1
      6475.5000        -999.25        13.9203        19.7791         0.0668       108.9031       110.9257       103.9478       84.10809         0.9479         0.9456        35.1874         1.1124       -44.8831    -0.07435608              1      0.9990343
      6476.0000        -999.25        14.0812        19.7707         0.0601       107.7773       108.7772       102.1606       82.20652         0.9488         0.9465        35.0173         1.1368       -45.2355     -0.4267578              1      0.9944577
      6476.5000        -999.25        14.2215        19.7323         0.0587       106.6295       107.8104        99.1672       79.02124         0.9458          0.946        34.5771         1.1724       -45.7162     -0.9074593      0.9791753      0.9882148
      6477.0000        -999.25        14.1683         19.956         0.0602       105.6553       106.8812        96.7648       76.46495         0.9418          0.941        34.2875         1.2004       -46.2042      -1.395458      0.9247862      0.9818771
      6477.5000        -999.25        14.0932        20.4565         0.0597       105.2692       106.0695        95.4589       75.07563         0.9317         0.9361         34.218         1.2179       -46.7435      -1.934757      0.8952262      0.9748733
      6478.0000        -999.25        14.0236        21.2464         0.0577       107.0481       105.7853         95.296       74.90277         0.9173         0.9255         34.449         1.1874       -47.0319      -2.223156      0.8915483      0.9711279
      6478.5000        -999.25        13.9703        21.7913         0.0549        110.849       106.8931        96.2013       75.86678         0.9006         0.9132        35.1395         1.1211       -46.9846      -2.175858      0.9120591      0.9717421
      6479.0000        -999.25        13.9504        22.1797         0.0526       112.9003       108.3057        97.6002       77.35609         0.8818         0.8967        36.0182          1.077        -46.787      -1.978256      0.9437467      0.9743084
      6479.5000        -999.25        13.9536        21.9385         0.0518       113.9038       109.6313        98.8386       78.67461          0.863           0.88        36.8043          1.067       -46.5965      -1.787758      0.9718001      0.9767824
      6480.0000        -999.25        13.9843        21.5752         0.0522       113.9259       110.5518        99.2295       79.09113         0.8444         0.8631        37.2797         1.0877       -46.4377      -1.628956      0.9806624      0.9788447
      6480.5000        -999.25        14.0193        21.3896         0.0532       113.3196       109.8524        99.2096       79.07047         0.8256         0.8463        37.2963         1.0802       -46.3463      -1.537556      0.9802226      0.9800317
      6481.0000        -999.25        14.0598        21.3783         0.0547       112.5656       108.6746        99.1912       79.05139         0.8072         0.8305        37.3957         1.0685       -46.2389      -1.430157      0.9798169      0.9814265
      6481.5000        -999.25        14.1124        21.4931         0.0569       112.1854       107.9047        99.1057       78.96091         0.7893         0.8144          37.52         1.0679       -46.0641      -1.255356      0.9778916      0.9836967
      6482.0000        -999.25        14.0738        21.6515         0.0591       112.9055        107.772        98.3054       78.10968         0.7717         0.7978        37.6862         1.0683       -45.6097     -0.8009567      0.9597805       0.989598
      6482.5000        -999.25        14.0305        21.7947         0.0612       114.1638        109.077        97.5043       77.25761         0.7546          0.785        37.3869         1.0621       -45.1191     -0.3103561      0.9416513      0.9959694
      6483.0000        -999.25        14.0141        21.9156         0.0633       115.1595       110.7096        97.2479       76.98524         0.7361         0.7751        36.7263         1.0473       -44.6815       0.127243      0.9358563              1
      6483.5000        -999.25        14.0168        21.9533         0.0656       115.9038       110.9374        98.5569        78.3789         0.7136         0.7653        36.2328         1.0233       -44.2708       0.537941      0.9655085              1
      6484.0000        -999.25        14.0518        21.9778         0.0678       116.6252       110.5433       102.2252       82.28348         0.7022         0.7558         36.541         1.0031       -43.9146      0.8941422              1              1
      6484.5000        -999.25         14.127        21.9781         0.0701       117.4312       111.1505       104.4496       84.65136          0.691         0.7479        37.1688         0.9955       -43.9167      0.8920441              1              1
      6485.0000        -999.25          14.22        22.0543         0.0716       118.0538       112.2831       105.5032       85.77319         0.6793         0.7401        37.6595         0.9956       -44.0886      0.7201424              1              1
      6485.5000        -999.25        14.3065        22.1332         0.0721       118.5151       112.3346       105.6008       85.87757         0.6708         0.7332        37.8825         0.9955       -44.2156      0.5931435              1              1
      6486.0000        -999.25        14.2163        22.1968         0.0712       118.6826       112.8254       105.4279       85.69407         0.6654         0.7266        37.8807         0.9945       -44.2054       0.603344              1              1
      6486.5000        -999.25        14.0937        22.1385         0.0678       118.5894       114.7825       104.7362       84.95842         0.6632         0.7224        37.8174         0.9921       -44.1002      0.7085419              1              1
      6487.0000        -999.25        14.0151        22.0809         0.0648       118.4077        116.714       103.4108       83.54835         0.6626         0.7198        37.9797         0.9885       -44.0096      0.7991409              1              1
      6487.5000        -999.25        13.9895        22.0586          0.062       118.2092       118.0073        102.097       82.15062         0.6684         0.7224        38.4016         0.9864       -43.9313      0.8774414              1              1
