#------------------------------------------------------------------------------
# Created by    : vladimir.rabinovich
# Created on    : 09/19/2023 17:21:07
#------------------------------------------------------------------------------
~Version Information Section
VERS.           2.0     :   CWLS log ASCII Standard - VERSION 2.0
WRAP.           NO      :   One line per depth step
~Well Information Section
#MNEM       .UNIT                                         VALUE :DESCRIPTION
#------------------------------------------------------------------------------
STRT        .FT                                            3895 :START DEPTH
STOP        .FT                                         10595.5 :STOP DEPTH
STEP        .FT                                             0.5 :STEP      
NULL        .                                           -999.25 :NULL      
COMP        .                               TALOS PETROLEUM LLC :COMPANY   
WELL        .                                OCS 00300 ST00BP00 :WELL      
FLD         .                           WEST CAMERON BLOCK 0045 :FIELD     
LOC         .                                                   :LOCATION  
CNTY        .                                      WEST CAMERON :LOCATION  
STAT        .                                         LOUISIANA :STATE     
CTRY        .                                     UNITED STATES :COUNTRY   
SRVC        .                                                   :SERVICE COMPANY
DATE        .                             9/13/2023 11:18:36 AM :LOG DATE  
API         .                                    17700410070000 :API NUMBER
UWI         .                                    17700410070000 :UNIQUE WELL ID
XCOORD      .                                  1453771.49108141 :SURFACE X 
YCOORD      .                                  10773222.7644816 :SURFACE Y 
LAT         .                                        29.6835328 :LATITUDE  
LON         .                                       -93.5879752 :LONGITUDE 
ELEV        .FT                                             100 :ELEVATION VALUE
ELEV_TYPE   .                                                KB :ELEVATION REFERENCE TYPE
~Curve Information Section
#MNEM       .UNIT                                      API CODE :CURVE DESCRIPTION
#------------------------------------------------------------------------------
DEPT        .FT                                                 :DEPTH     
ATR         .OHMM                                               :          
CATR        .MMHO                                               :          
DCAL        .IN                                                 :          
DRHB        .G/C3                                               :          
GR          .GAPI                                               :          
GR_NORM     .GAPI                                               :GammaRay Normalized
PSR         .OHMM                                               :          
RHOB        .G/C3                                               :          
ROP5        .F/HR                                               :          
TNPH        .%                                                  :          
VSH_GR      .V/V                                                :Volume of Shale from GR
~A        DEPTH            ATR           CATR           DCAL           DRHB             GR        GR_NORM            PSR           RHOB           ROP5           TNPH         VSH_GR
# ...
      6617.5000           0.37       2702.699           0.69           0.12        74.3099       60.46808           0.42           2.23       127.6899             41      0.5844273
      6618.0000           0.39       2564.102           0.54           0.13          77.87       63.97734           0.44           2.23         103.47             44      0.6590924
      6618.5000           0.36       2777.777           0.41           0.13        76.6499       62.77327           0.37           2.23       102.2899             45      0.6334738
      6619.0000           0.31       3225.805           0.43            0.1        72.3799       58.56191            0.3           2.21          91.85             44      0.5438705
      6619.5000           0.27       3703.703            0.5           0.07        69.4099       55.63232           0.27           2.17          81.09             43      0.4815388
      6620.0000           0.27       3703.703           0.61           0.05          72.34       58.52047           0.26           2.17        65.9399             43      0.5429887
      6620.5000           0.35       2857.141           0.66           0.07        77.1299       63.24226           0.34           2.19        65.9399             47      0.6434523
      6621.0000           0.39       2564.102           0.63           0.08          80.09       66.15988           0.44           2.21          59.41             46      0.7055294
      6621.5000           0.36       2777.777           0.59           0.09        77.6699       63.77262           0.39           2.23          59.41             45      0.6547365
      6622.0000           0.34       2941.176           0.56           0.09        78.7599       64.84637           0.34           2.25          58.83             44      0.6775824
      6622.5000           0.39       2564.102           0.53           0.09        81.6299       67.67511           0.45           2.29          46.16             45      0.7377683
      6623.0000            0.4           2500           0.44            0.1          81.74       67.78262            0.5           2.31          48.52             45      0.7400557
      6623.5000           0.38       2631.578           0.33            0.1        74.3199       60.46523           0.49           2.28             45             44      0.5843665
      6624.0000           0.28       3571.426           0.24           0.09        64.5299       50.81106            0.3           2.23          40.72             44      0.3789587
      6624.5000           0.22       4545.453            0.2           0.07          60.18       46.52092           0.23           2.18           38.3             47      0.2876792
      6625.0000           0.22       4545.453            0.2           0.06          59.87       46.21416           0.22           2.15          35.71             44      0.2811524
      6625.5000           0.22       4545.453           0.24           0.06          62.56       48.86555           0.21           2.14          38.05             39       0.337565
      6626.0000           0.22       4545.453           0.31           0.04           63.2       49.49557           0.21           2.13          39.56             37      0.3509695
      6626.5000           0.21       4761.898           0.36           0.03          64.09       50.37201           0.22           2.12          39.74             38      0.3696173
      6627.0000           0.22       4545.453           0.39           0.02        65.9099       52.16541           0.22           2.15          45.23             41      0.4077746
      6627.5000           0.29       3448.273            0.4           0.03        70.1499       56.34502            0.3           2.19        62.0699             42      0.4967026
      6628.0000           0.34       2941.176           0.41           0.05          70.33       56.52161           0.41           2.25        73.7799             38      0.5004597
      6628.5000           0.38       2631.578            0.4           0.06        66.2699       52.51723           0.51           2.27        73.7799             35      0.4152602
      6629.0000           0.35       2857.141           0.35           0.07          58.53       44.88446           0.46           2.27        86.1399             34      0.2528609
      6629.5000           0.29       3448.273            0.3           0.06          53.55       39.97308           0.34           2.22       102.2899             36      0.1483635
      6630.0000           0.24       4166.664           0.29           0.06          50.34        36.8069           0.28           2.19         110.45             36     0.08099779
      6630.5000           0.22       4545.453           0.25           0.07          48.16       34.65638           0.26           2.18         110.45             35      0.0352422
      6631.0000           0.21       4761.898           0.19           0.06        49.1899       35.67071           0.25           2.18       111.8199             33     0.05682365
      6631.5000            0.2           5000            0.1           0.05           50.8       37.25728           0.25           2.19         111.12             32     0.09058047
      6632.0000            0.2           5000           0.08           0.04          51.97       38.40995           0.25           2.19       110.4299             32      0.1151052
      6632.5000            0.2           5000           0.11           0.03          48.67       35.15501           0.24            2.2       107.7899             33      0.0458512
      6633.0000           0.21       4761.898           0.07           0.02          44.08       30.62812           0.27            2.2       105.8899             35              0
      6633.5000           0.22       4545.453           0.07           0.02           41.5       28.08314           0.27           2.21       105.8899             33              0
      6634.0000           0.22       4545.453           0.17           0.03          41.11       27.69747           0.28           2.22       123.3099             30              0
      6634.5000           0.23        4347.82           0.21           0.05           43.5       30.05299           0.28           2.23       140.6499             29              0
      6635.0000           0.24       4166.664           0.24           0.05          47.85       34.34116           0.28           2.23       140.6499             31     0.02853523
      6635.5000            0.3       3333.332           0.34           0.05          59.25       45.58068            0.3           2.22       202.3198             33       0.267674
      6636.0000           0.36       2777.777           0.49           0.08        69.2899       55.47901            0.4           2.23         206.98             33      0.4782768
      6636.5000           0.39       2564.102           0.61            0.1        73.7899       59.91504           0.48           2.24         206.98             33      0.5726604
      6637.0000           0.36       2777.777           0.59            0.1        71.1399       57.30115            0.4           2.25       222.3499             34      0.5170458
      6637.5000           0.31       3225.805           0.46           0.07          63.11       49.38247           0.35           2.23       159.3499             35      0.3485633
      6638.0000           0.27       3703.703           0.29           0.05          56.61       42.97222           0.31           2.22       141.7798             35      0.2121749
      6638.5000           0.22       4545.453           0.23           0.03          48.61       35.08303           0.26            2.2       134.3699             35      0.0443198
      6639.0000           0.21       4761.898           0.24           0.03          46.72       33.21842           0.26           2.19       120.0199             34    0.004647275
      6639.5000            0.2           5000           0.26           0.03           44.9        31.4229           0.26           2.19         120.83             34              0
