#------------------------------------------------------------------------------
# Created by    : vladimir.rabinovich
# Created on    : 09/19/2023 17:21:14
#------------------------------------------------------------------------------
~Version Information Section
VERS.           2.0     :   CWLS log ASCII Standard - VERSION 2.0
WRAP.           NO      :   One line per depth step
~Well Information Section
#MNEM       .UNIT                                         VALUE :DESCRIPTION
#------------------------------------------------------------------------------
STRT        .FT                                            3520 :START DEPTH
STOP        .FT                                            8510 :STOP DEPTH
STEP        .FT                                             0.5 :STEP      
NULL        .                                           -999.25 :NULL      
COMP        .                      SPINNAKER EXPLORATION CO LLC :COMPANY   
WELL        .                               OCS G21537 ST00BP00 :WELL      
FLD         .                                           WILDCAT :FIELD     
LOC         .                                                   :LOCATION  
CNTY        .                                      WEST CAMERON :LOCATION  
STAT        .                                         LOUISIANA :STATE     
CTRY        .                                     UNITED STATES :COUNTRY   
SRVC        .                                                   :SERVICE COMPANY
DATE        .                             9/13/2023 11:18:49 AM :LOG DATE  
API         .                                    17700410830000 :API NUMBER
UWI         .                                    17700410830000 :UNIQUE WELL ID
XCOORD      .                                   1446389.6294369 :SURFACE X 
YCOORD      .                                  10699667.6074025 :SURFACE Y 
LAT         .                                        29.4810902 :LATITUDE  
LON         .                                       -93.6100108 :LONGITUDE 
ELEV        .FT                                              91 :ELEVATION VALUE
ELEV_TYPE   .                                                KB :ELEVATION REFERENCE TYPE
~Curve Information Section
#MNEM       .UNIT                                      API CODE :CURVE DESCRIPTION
#------------------------------------------------------------------------------
DEPT        .FT                                                 :DEPTH     
CAL         .IN                                                 :          
CNC         .%                                                  :          
GR          .GAPI                                               :          
GR_NORM     .GAPI                                               :GammaRay Normalized
M0C6        .MMHO                                               :          
M2R1        .OHMM                                               :          
M2R2        .OHMM                                               :          
M2R3        .OHMM                                               :          
M2R6        .OHMM                                               :          
M2R9        .OHMM                                               :          
M2RX        .OHMM                                               :          
PORZ        .%                                                  :          
SP          .MV                                                 :          
SP_NORM     .MV                                                 :SP Normalized
TEN         .LB/F                                               :          
VSH_GR      .V/V                                                :Volume of Shale from GR
VSH_SP      .V/V                                                :Volume of Shale from SP
ZCOR        .G/CC                                               :          
~A        DEPTH            CAL            CNC             GR        GR_NORM           M0C6           M2R1           M2R2           M2R3           M2R6           M2R9           M2RX           PORZ             SP        SP_NORM            TEN         VSH_GR         VSH_SP           ZCOR
# ...
      4514.0000         11.132         51.138        110.532        87.1294       1082.787           0.68           0.79          0.858          0.889          0.909          0.936         27.727         -5.019        -3.1142        589.925              1       0.953575          0.036
      4514.5000         11.141         54.599        112.012        88.6086       1095.502          0.643          0.751          0.817          0.847          0.865           0.89         28.216         -4.493        -2.5882        584.524              1      0.9754916           0.04
      4515.0000         11.156         55.864        115.808       91.47607       1107.292           0.64           0.75          0.815          0.844          0.862          0.886         28.035          -3.81        -1.9052        592.733              1              1          0.052
      4515.5000          11.17         59.067        119.203       95.16374       1116.594          0.643          0.754          0.816          0.844          0.862          0.885         27.669         -3.081        -1.1762        595.848              1              1          0.064
      4516.0000         11.177         59.427         120.83       96.93045       1122.037          0.644           0.75          0.809          0.835          0.853          0.875         27.309         -2.813        -0.9082        583.829              1              1          0.066
      4516.5000         11.187         53.947        120.569        96.6458        1122.84          0.651          0.751          0.804           0.83          0.846          0.869         27.041         -3.228        -1.3232        580.499              1              1          0.059
      4517.0000         11.207         48.746         117.43       93.23441       1118.682          0.671          0.763          0.812          0.836          0.852          0.875         26.851         -3.949        -2.0442        598.106              1      0.9981583          0.055
      4517.5000         11.228         46.632        112.794       88.19658       1109.908          0.704          0.784          0.829          0.853          0.868          0.891          26.64         -4.615        -2.7102         609.13              1      0.9704083          0.057
      4518.0000         11.237         45.219        108.012       83.00013        1097.25          0.752          0.819           0.86          0.883          0.898          0.922         26.318         -5.407        -3.5022        598.893              1      0.9374083          0.054
      4518.5000         11.235         42.759        101.934       76.39561       1081.885          0.822          0.878          0.915          0.938          0.953           0.98         25.853         -6.684        -4.7792        587.266      0.9233109         0.8842          0.041
      4519.0000         11.235         39.937         95.827        69.7596       1065.111          0.892          0.938          0.973          0.996          1.011           1.04         25.386         -8.148        -6.2432        584.669      0.7821191         0.8232          0.029
      4519.5000         11.238         38.453          94.48       68.29515       1048.294          0.923          0.965          0.997          1.019          1.033          1.064          25.14          -9.11        -7.2052        589.054      0.7509606      0.7831166          0.024
      4520.0000         11.239         38.832         97.376       71.44057       1032.575          0.931          0.975          1.005          1.027           1.04          1.072         25.051         -9.601        -7.6962         601.95      0.8178846      0.7626584          0.019
      4520.5000         11.239         40.107         100.48       74.81199       1018.788          0.941          0.987          1.018          1.039          1.051          1.085         24.927        -10.168        -8.2632        608.921      0.8896168      0.7390333          0.012
      4521.0000         11.238         40.417        102.357       76.85031       1007.369          0.937          0.986          1.018          1.039          1.051          1.086           24.8        -10.714        -8.8092        609.194      0.9329854      0.7162833          0.013
      4521.5000         11.238         40.944        102.649       77.16657        998.429          0.922          0.975           1.01          1.031          1.043          1.079         24.815        -10.901        -8.9962        617.386      0.9397143      0.7084917          0.018
      4522.0000         11.245         42.331         101.11       75.49353        991.879          0.911          0.973          1.013          1.035          1.047          1.085         24.909        -10.809        -8.9042        614.762      0.9041176       0.712325          0.014
      4522.5000         11.276         43.795         99.215       73.43369        987.605            0.9           0.98          1.027          1.051          1.064          1.102         24.866        -10.424        -8.5192        601.972      0.8602914      0.7283667          0.008
      4523.0000         11.337         44.001         98.269       72.40492        985.421          0.877          0.981          1.036          1.063          1.077          1.116         24.706          -9.56        -7.6552        602.755      0.8384026      0.7643667           0.02
      4523.5000         11.403         42.683          99.01       73.20901         985.23          0.836          0.963          1.027          1.056          1.071           1.11         24.715         -8.217        -6.3122        599.137       0.855511       0.820325          0.043
      4524.0000         11.445         40.281        101.858       76.30229        986.841          0.787          0.929              1          1.031          1.046          1.084          24.87          -6.56        -4.6552        592.269      0.9213254      0.8893667          0.058
      4524.5000         11.462         38.842        105.034       79.75193        989.824          0.747          0.893          0.969          1.002          1.018          1.053         24.831         -4.991        -3.0862        622.508      0.9947219      0.9547417           0.06
      4525.0000         11.467         40.258         105.95       80.74615        993.341          0.727          0.868          0.946           0.98          0.997           1.03         24.569         -4.068        -2.1632        655.138              1         0.9932          0.058
      4525.5000         11.468         43.905        106.029         80.831        996.119          0.722          0.852           0.93          0.965          0.981          1.013         24.395         -3.896        -1.9912        639.431              1              1          0.051
      4526.0000         11.469          47.47        108.101       83.08118        996.579           0.72          0.838          0.913          0.947          0.963          0.993         24.503         -4.076        -2.1712        611.116              1      0.9928666          0.039
      4526.5000         11.469          49.17         111.64       86.92519        993.143          0.719          0.824          0.894          0.927          0.942           0.97          24.74         -4.127        -2.2222        605.866              1      0.9907417          0.033
      4527.0000         11.469         48.214        113.507       88.95265        984.654          0.724           0.82          0.884          0.916           0.93          0.956         24.824         -3.974        -2.0692        607.563              1      0.9971167          0.035
      4527.5000         11.469         43.793        111.309       86.56362        970.742          0.747          0.838          0.899           0.93          0.944          0.969         24.579         -4.137        -2.2322        609.072              1       0.990325          0.039
