#------------------------------------------------------------------------------
# Created by    : vladimir.rabinovich
# Created on    : 09/19/2023 17:22:13
#------------------------------------------------------------------------------
~Version Information Section
VERS.           2.0     :   CWLS log ASCII Standard - VERSION 2.0
WRAP.           NO      :   One line per depth step
~Well Information Section
#MNEM       .UNIT                                         VALUE :DESCRIPTION
#------------------------------------------------------------------------------
STRT        .FT                                            4265 :START DEPTH
STOP        .FT                                           12768 :STOP DEPTH
STEP        .FT                                             0.5 :STEP      
NULL        .                                           -999.25 :NULL      
COMP        .                                SHELL OFFSHORE INC :COMPANY   
WELL        .                               OCS G04749 ST00BP02 :WELL      
FLD         .                                           WILDCAT :FIELD     
LOC         .                                                   :LOCATION  
CNTY        .                                      WEST CAMERON :LOCATION  
STAT        .                                         LOUISIANA :STATE     
CTRY        .                                     UNITED STATES :COUNTRY   
SRVC        .                                                   :SERVICE COMPANY
DATE        .                             9/13/2023 11:19:06 AM :LOG DATE  
API         .                                    17700406070000 :API NUMBER
UWI         .                                    17700406070000 :UNIQUE WELL ID
XCOORD      .                                   1486969.7252092 :SURFACE X 
YCOORD      .                                  10728694.6404599 :SURFACE Y 
LAT         .                                        29.5614647 :LATITUDE  
LON         .                                       -93.4828123 :LONGITUDE 
ELEV        .FT                                              98 :ELEVATION VALUE
ELEV_TYPE   .                                                KB :ELEVATION REFERENCE TYPE
~Curve Information Section
#MNEM       .UNIT                                      API CODE :CURVE DESCRIPTION
#------------------------------------------------------------------------------
DEPT        .FT                                                 :DEPTH     
CALI        .IN                                                 :          
DRHO        .G/C3                                               :          
DT          .US/F                                               :          
GR          .GAPI                                               :          
GR_1        .GAPI                                               :          
GR_NORM     .GAPI                                               :GammaRay Normalized
ILD         .OHMM                                               :          
ILM         .OHMM                                               :          
NPHI        .%                                                  :          
RHOB        .G/C3                                               :          
SFL         .OHMM                                               :          
SP          .MV                                                 :          
SP_NORM     .MV                                                 :SP Normalized
VSH_GR      .V/V                                                :Volume of Shale from GR
VSH_SP      .V/V                                                :Volume of Shale from SP
~A        DEPTH           CALI           DRHO             DT             GR           GR_1        GR_NORM            ILD            ILM           NPHI           RHOB            SFL             SP        SP_NORM         VSH_GR         VSH_SP
# ...
      8855.0000        12.3633         0.0311        92.2949        -999.25        25.2357       32.46935         0.2159         0.2793        34.5515         2.1437         1.2317      -131.3364       -95.7233              0              0
      8855.5000        12.3589         0.0218        92.3893        -999.25        25.3266       32.59071         0.2091         0.2668        35.3415         2.1363         1.1491       -131.613       -96.0116              0              0
      8856.0000        12.3545         0.0168        92.4601        -999.25        25.1837       32.41834         0.2025         0.2555        34.1794         2.1423         1.0922      -131.6968       -96.1071              0              0
      8856.5000        12.3727         0.0149        92.5779        -999.25        24.8729        32.0349         0.1977         0.2533        32.3629          2.152         1.0374      -131.7021       -96.1241              0              0
      8857.0000         12.409         0.0153        92.7117        -999.25        25.7235       33.11073         0.1952         0.2419        30.8445         2.1597         0.9848      -131.5918       -96.0255     0.00235586              0
      8857.5000        12.4663         0.0177        92.8636        -999.25        27.0446       34.77768         0.1945         0.2351        29.6222          2.165         0.9325      -131.2461       -95.6915     0.03782305              0
      8858.0000        12.5323         0.0207        93.1068        -999.25        28.5934        36.7306          0.194         0.2333        30.0537         2.1684         0.8884      -130.6501       -95.1072     0.07937451              0
      8858.5000        12.5846         0.0232        93.3822        -999.25        28.4333       36.53662         0.1942         0.2338        31.4003         2.1705         0.8515      -129.8416       -94.3104     0.07524718    0.007415033
      8859.0000        12.6275         0.0255         93.741        -999.25        26.9733       34.70947         0.1944         0.2365        32.3809         2.1691          0.823      -128.8887       -93.3691     0.03637168     0.01753653
      8859.5000        12.6577         0.0269        93.8843        -999.25        26.0901       33.60701         0.1951         0.2402         32.933         2.1687         0.8086      -127.3948       -91.8869     0.01291502     0.03347417
      8860.0000        12.6764         0.0281        93.9106        -999.25        25.3873       32.73105         0.1965          0.242        33.1634         2.1715         0.8243      -125.8461       -90.3499              0     0.05000108
      8860.5000        12.6786         0.0297        94.0497        -999.25        25.0217       32.27889         0.1979         0.2414        32.3192         2.1713         0.8374      -125.5397       -90.0552              0     0.05316991
      8861.0000        12.6825         0.0299        94.2661        -999.25        24.3512       31.44365         0.1988         0.2397        31.1202         2.1593         0.8056      -125.8168        -90.344              0      0.0500645
      8861.5000        12.6951         0.0266        94.5735        -999.25        24.0217       31.03671         0.1996         0.2417        30.4311         2.1389          0.782      -126.5402       -91.0791              0      0.0421602
      8862.0000        12.7076         0.0217        94.6786        -999.25        23.9809       30.99261         0.1997         0.2493        30.3188         2.1116         0.7813      -127.5093       -92.0599              0     0.03161399
      8862.5000        12.7362         0.0243        94.6378        -999.25        24.4531       31.59303         0.1993         0.2544         30.947          2.097         0.7943      -128.2444       -92.8067              0     0.02358385
      8863.0000         12.779         0.0194        94.5499        -999.25        24.7502       31.97334         0.1983          0.256        32.1821         2.0864         0.7959      -128.1709       -92.7449              0     0.02424835
      8863.5000        12.8218         0.0083        94.9071        -999.25         24.916        32.1888         0.1983         0.2568        33.1717         2.0781         0.7878      -126.2504        -90.836              0     0.04477421
      8864.0000        12.8309        -0.0044        95.3885        -999.25        25.9662       33.51541         0.2092         0.2593        34.1809         2.0823         0.7546      -123.4972       -88.0945     0.01096612     0.07425271
      8864.5000        12.8296        -0.0099        95.6332        -999.25        27.3098       35.21051          0.221         0.2681        32.7575         2.1139         0.7315      -120.3376       -84.9466     0.04703221      0.1081011
      8865.0000        12.7833        -0.0038        95.5983        -999.25        28.8911       37.20438         0.2324         0.2845        31.2949         2.1471         0.7354      -117.0138       -81.6345     0.08945498      0.1437151
      8865.5000        12.7388         0.0125        95.4412        -999.25        31.5158       40.50916         0.2431         0.3025        30.5651          2.196          0.776      -114.6652       -79.2976      0.1597693       0.168843
      8866.0000         12.698         0.0294         95.228        -999.25        33.9102       43.52446         0.2515         0.3212        30.4593         2.2133         0.8599      -114.0936       -78.7377      0.2239248      0.1748634
      8866.5000        12.6572         0.0411        94.8658        -999.25         35.459        45.4775         0.2568         0.3327        31.2452          2.211         1.0103      -114.7411       -79.3969      0.2654788      0.1677753
      8867.0000        12.6463         0.0487        95.0411        -999.25        33.4599       42.97303         0.2606         0.3338         32.265         2.1842         1.0398      -115.5186       -80.1861      0.2121922      0.1592893
      8867.5000        12.6391         0.0373        96.0201        -999.25        31.9111       41.03419         0.2586         0.3278        32.9164         2.1703         0.9835      -116.0515       -80.7306      0.1709403      0.1534344
      8868.0000        12.6619         0.0274        96.5785        -999.25        30.6019       39.39651         0.2455         0.3177         32.527         2.1614         0.9516      -116.0868       -80.7776      0.1360959       0.152929
      8868.5000        12.7035         0.0243        96.8734        -999.25        30.0302       38.68541         0.2253         0.3027        33.2305          2.154         0.9415      -115.5459       -80.2484      0.1209662      0.1586194
      8869.0000        12.8256          0.026        97.0437        -999.25        30.2266       38.93919         0.2112         0.2871        35.7037         2.1503         0.9106      -114.0631       -78.7773      0.1263658      0.1744377
      8869.5000        12.9386         0.0309        97.3717        -999.25        32.0512       41.23874         0.2062         0.2728        36.9705         2.1501          0.865      -110.6896       -75.4155      0.1752923      0.2105861
      8870.0000        13.0354         0.0391        97.6322        -999.25        36.9603       47.41358         0.2201         0.2727         35.523         2.1839         0.8233      -105.2262       -69.9638      0.3066719      0.2692065
      8870.5000        13.0688         0.0513        97.5839        -999.25        44.6365       57.06494         0.2496         0.2954        32.3448         2.2234         0.8302       -97.8022       -62.5515      0.5120199      0.3489086
      8871.0000        12.9021          0.065        96.6887        -999.25        51.0468       65.12572          0.277         0.3431        30.6638         2.2666          0.914       -92.5479       -57.3089       0.683526      0.4052806
      8871.5000        12.7185         0.0721        95.9575        -999.25        52.4429       66.88692         0.2973         0.3924        32.0676         2.2838         1.0658        -87.577       -52.3497      0.7209982      0.4586054
