#------------------------------------------------------------------------------
# Created by    : vladimir.rabinovich
# Created on    : 09/19/2023 17:20:43
#------------------------------------------------------------------------------
~Version Information Section
VERS.           2.0     :   CWLS log ASCII Standard - VERSION 2.0
WRAP.           NO      :   One line per depth step
~Well Information Section
#MNEM       .UNIT                                         VALUE :DESCRIPTION
#------------------------------------------------------------------------------
STRT        .FT                                            2986 :START DEPTH
STOP        .FT                                           10006 :STOP DEPTH
STEP        .FT                                             0.5 :STEP      
NULL        .                                           -999.25 :NULL      
COMP        .                                        CONOCO INC :COMPANY   
WELL        .                                OCS 00764 ST00BP00 :WELL      
FLD         .                           WEST CAMERON BLOCK 0192 :FIELD     
LOC         .                                                   :LOCATION  
CNTY        .                                      WEST CAMERON :LOCATION  
STAT        .                                         LOUISIANA :STATE     
CTRY        .                                     UNITED STATES :COUNTRY   
SRVC        .                                                   :SERVICE COMPANY
DATE        .                             9/13/2023 11:18:18 AM :LOG DATE  
API         .                                    17700003670000 :API NUMBER
UWI         .                                    17700003670000 :UNIQUE WELL ID
XCOORD      .                                  1596137.97932418 :SURFACE X 
YCOORD      .                                  10614860.5046116 :SURFACE Y 
LAT         .                                         29.249106 :LATITUDE  
LON         .                                        -93.138896 :LONGITUDE 
ELEV        .FT                                              84 :ELEVATION VALUE
ELEV_TYPE   .                                                KB :ELEVATION REFERENCE TYPE
~Curve Information Section
#MNEM       .UNIT                                      API CODE :CURVE DESCRIPTION
#------------------------------------------------------------------------------
DEPT        .FT                                                 :DEPTH     
ASN         .OHMM                                               :          
CALI        .IN                                                 :          
CALI_1      .IN                                                 :          
DRHO        .G/C3                                               :          
DT          .US/F                                               :          
GR          .GAPI                                               :          
ILD         .OHMM                                               :          
RHOB        .G/C3                                               :          
SP          .MV                                                 :          
SP_NORM     .MV                                                 :SP Normalized
VSH_SP      .V/V                                                :Volume of Shale from SP
~A        DEPTH            ASN           CALI         CALI_1           DRHO             DT             GR            ILD           RHOB             SP        SP_NORM         VSH_SP
# ...
      4943.5000         0.3451        10.6512        10.7049         0.0138       133.0962         46.642         0.2414         2.1578       -63.3099      -18.73626     0.01465246
      4944.0000         0.3485        10.6833        10.7646         0.0043        132.385        48.0328         0.2542         2.1771       -63.0404      -18.47533     0.02914853
      4944.5000          0.355        10.7736         10.873         0.0074       129.8069        52.2888         0.2815         2.2204       -62.6786      -18.12209      0.0487726
      4945.0000         0.3653        10.7099        11.0775         0.0119       127.5536         57.793         0.3196         2.2281       -62.0107      -17.46276     0.08540217
      4945.5000         0.3813        10.6462        11.3267         0.0128       125.5728        61.8089         0.3577         2.2232       -60.0743      -15.53493      0.1925038
      4946.0000         0.4104        10.5825        11.4225         0.0102       123.7738        66.4232         0.3978         2.2169       -57.5743       -13.0435      0.3309167
      4946.5000         0.4511        10.5737        11.0733         0.0071         125.17        68.8771         0.4379         2.2088       -55.2356      -10.71337      0.4603685
      4947.0000         0.4899        10.5912         10.989         0.0079       127.9747        70.5139         0.4755            2.2       -53.8066      -9.292934      0.5392814
      4947.5000         0.5319        10.6326        10.9861         0.0129       130.1826        69.6143         0.5121         2.2009       -53.2128      -8.707703      0.5717943
      4948.0000         0.5837        10.6675        11.0001         0.0145       132.3931        68.2894         0.5395         2.2039       -53.0241      -8.527573      0.5818015
      4948.5000         0.6253        10.6583        11.0166         0.0104       134.6011        69.0217          0.555         2.2012       -52.9538      -8.465839      0.5852311
      4949.0000         0.6515        10.6335        11.0351         0.0065       134.9585        70.4379         0.5706         2.1988       -52.8983      -8.418907      0.5878385
      4949.5000         0.6677        10.6093        11.0561          0.003       135.0083        70.2021         0.5676         2.1957       -52.8495      -8.378677      0.5900735
      4950.0000         0.6812        10.6157        11.0977         0.0048       134.9224        71.5298          0.562         2.1997       -52.7675      -8.305248      0.5941529
      4950.5000         0.6949        10.6396         11.148         0.0083       134.6216        74.8192          0.561          2.215       -52.6115      -8.157814      0.6023437
      4951.0000         0.7049        10.6785         11.202         0.0086       134.2688        76.4207         0.5611         2.2248        -52.238      -7.792881      0.6226177
      4951.5000         0.7126        10.7252        11.2596         0.0051       133.9443         75.839         0.5613         2.2255       -51.7054      -7.268848      0.6517307
      4952.0000         0.7193        10.7453        11.3282         0.0033       133.6931        74.6697         0.5615         2.2229       -51.2304      -6.802418      0.6776435
      4952.5000         0.7226        10.7412         11.411         0.0112        133.561         75.243         0.5616         2.2324       -50.6457      -6.226284      0.7096509
      4953.0000         0.7209        10.7274        11.5066         0.0318       133.5918        74.6165         0.5577         2.2525       -49.9081      -5.497253      0.7501526
      4953.5000         0.7111        10.7196        11.6391         0.0361       133.7041        72.5889         0.5514         2.2535        -49.228      -4.825726      0.7874597
      4954.0000         0.6961        10.7441        12.0204         0.0335        133.979        72.1909         0.5463         2.2394       -48.4516      -4.057892      0.8301171
      4954.5000          0.682         10.799         12.439         0.0345        134.623        72.3922         0.5425         2.2173       -47.7444      -3.359261        0.86893
      4955.0000         0.6712         10.886        12.7874         0.0367       140.2129        73.7838         0.5427          2.204        -46.819      -2.442429      0.9198651
      4955.5000         0.6616        10.9729        12.9331         0.0405       144.9089        74.8916         0.5401         2.1986       -46.0652      -1.697197      0.9612668
      4956.0000         0.6517        11.0599         12.516          0.036       153.2888        73.9983         0.5376         2.1932       -45.5149      -1.155464      0.9913631
      4956.5000          0.648        11.1157        12.4011         0.0218        155.875        71.6016         0.5356         2.1848       -45.2917     -0.9408302              1
      4957.0000          0.646        11.0236        12.3543         0.0291       157.2668        70.3181         0.5409         2.1874       -45.1145     -0.7722015              1
      4957.5000          0.647        10.9462        12.1211          0.035       156.3525        71.5613         0.5479         2.1865       -44.9481     -0.6143723              1
      4958.0000         0.6499        10.8747        11.9523         0.0192       155.5281        72.5111         0.5553         2.1753       -44.7947     -0.4695396              1
      4958.5000         0.6546        10.8056        11.9064         0.0167        154.626        71.9973         0.5631          2.179       -44.6595      -0.342907              1
      4959.0000         0.6627        10.7625        11.9036         0.0259       152.8811         73.142          0.571          2.189       -44.4498     -0.1417732              1
      4959.5000          0.673         10.772        11.9615         0.0205       151.2356        75.7012         0.5831         2.1912       -44.2162     0.08325577              1
      4960.0000         0.6848        10.8105         12.162           0.01       149.9241        77.1283         0.5956          2.184       -44.0294      0.2614899              1
      4960.5000         0.6956        10.8436        12.2441         0.0035       145.3398        77.1544         0.6082         2.1786        -44.366     -0.0836792              1
      4961.0000         0.7045        10.8314        12.2599          0.003       143.9861        77.8159         0.6209         2.1747       -44.7156     -0.4418488              1
      4961.5000         0.7121        10.8027        12.2693         0.0157       142.7942        76.6481         0.6306         2.1914        -44.752     -0.4868164              1
      4962.0000         0.7188        10.7644        12.2816          0.023       142.6748        75.0968          0.625         2.2044       -44.4946     -0.2379837              1
      4962.5000         0.7239        10.7299        12.3109         0.0185       141.7332        74.6375         0.6203          2.208       -44.2266     0.02144623              1
      4963.0000         0.7288        10.7361        12.3432         0.0142       140.9229        74.3817         0.6223         2.2007       -44.1898      0.0496788              1
      4963.5000          0.733        10.7379        12.2999          0.016       140.2134        74.5726         0.6242         2.1942       -44.3528     -0.1218872              1
      4964.0000          0.737        10.7287        12.1913         0.0213       140.3618        75.2932         0.6265         2.2093       -44.3232     -0.1008568              1
      4964.5000         0.7353        10.7068        12.0759         0.0259       140.3606        75.3163         0.6289         2.2251       -44.2235   -0.009723663              1
      4965.0000         0.7335        10.6889        11.9785         0.0329       139.9729        75.9138          0.631          2.231       -44.0486      0.1566048              1
      4965.5000         0.7317        10.6887        11.9349         0.0416       139.5149        76.3667         0.6331         2.2333       -43.8639       0.332737              1
