#------------------------------------------------------------------------------
# Created by    : vladimir.rabinovich
# Created on    : 09/19/2023 17:22:32
#------------------------------------------------------------------------------
~Version Information Section
VERS.           2.0     :   CWLS log ASCII Standard - VERSION 2.0
WRAP.           NO      :   One line per depth step
~Well Information Section
#MNEM       .UNIT                                         VALUE :DESCRIPTION
#------------------------------------------------------------------------------
STRT        .FT                                            2450 :START DEPTH
STOP        .FT                                            9560 :STOP DEPTH
STEP        .FT                                             0.5 :STEP      
NULL        .                                           -999.25 :NULL      
COMP        .                               TALOS PETROLEUM LLC :COMPANY   
WELL        .                                OCS 00301 ST00BP00 :WELL      
FLD         .                           WEST CAMERON BLOCK 0045 :FIELD     
LOC         .                                                   :LOCATION  
CNTY        .                                      WEST CAMERON :LOCATION  
STAT        .                                         LOUISIANA :STATE     
CTRY        .                                     UNITED STATES :COUNTRY   
SRVC        .                                                   :SERVICE COMPANY
DATE        .                             9/13/2023 11:18:49 AM :LOG DATE  
API         .                                    17700410870000 :API NUMBER
UWI         .                                    17700410870000 :UNIQUE WELL ID
XCOORD      .                                  1447194.98921956 :SURFACE X 
YCOORD      .                                  10757079.9124673 :SURFACE Y 
LAT         .                                        29.6390336 :LATITUDE  
LON         .                                       -93.6084245 :LONGITUDE 
ELEV        .FT                                              96 :ELEVATION VALUE
ELEV_TYPE   .                                                KB :ELEVATION REFERENCE TYPE
~Curve Information Section
#MNEM       .UNIT                                      API CODE :CURVE DESCRIPTION
#------------------------------------------------------------------------------
DEPT        .FT                                                 :DEPTH     
CNC         .%                                                  :          
DCAL        .IN                                                 :          
GR          .GAPI                                               :          
GR_NORM     .GAPI                                               :GammaRay Normalized
M0C6        .MMHO                                               :          
M2R1        .OHMM                                               :          
M2R2        .OHMM                                               :          
M2R3        .OHMM                                               :          
M2R6        .OHMM                                               :          
M2R9        .OHMM                                               :          
M2RX        .OHMM                                               :          
SP          .MV                                                 :          
SP_NORM     .MV                                                 :SP Normalized
TEN         .LB/F                                               :          
VSH_GR      .V/V                                                :Volume of Shale from GR
VSH_SP      .V/V                                                :Volume of Shale from SP
ZCOR        .G/CC                                               :          
ZDEN        .G/CC                                               :          
~A        DEPTH            CNC           DCAL             GR        GR_NORM           M0C6           M2R1           M2R2           M2R3           M2R6           M2R9           M2RX             SP        SP_NORM            TEN         VSH_GR         VSH_SP           ZCOR           ZDEN
# ...
      6706.0000          47.08          2.129         93.698        89.3022       1553.552          0.596          0.609          0.623          0.639          0.643          0.642        -11.568        -2.0442         -29.02              1      0.9992984          0.063          2.259
      6706.5000         47.695          2.124         94.416        90.0096       1566.962          0.566          0.584          0.601          0.615          0.619          0.618         -11.51        -1.9862         -6.515              1              1          0.075          2.265
      6707.0000         46.401          2.125         95.737          91.32       1577.116          0.544          0.568          0.587            0.6          0.604          0.603        -11.448        -1.9242        -10.301              1              1          0.086          2.263
      6707.5000         44.734          2.127         95.822        91.3944       1583.124          0.537          0.564          0.584          0.596            0.6          0.599        -11.749        -2.2252        -44.964              1      0.9964254          0.077          2.251
      6708.0000         44.386          2.117         94.714        90.2758       1584.445          0.543          0.572          0.592          0.604          0.607          0.606        -12.203        -2.6792        -75.038              1      0.9892191          0.067          2.248
      6708.5000         45.132          2.085         95.277        90.8283        1580.86          0.555          0.584          0.604          0.615          0.617          0.617        -12.263        -2.7392        -75.721              1      0.9882666          0.071          2.256
      6709.0000         46.368          2.039         97.547        93.0877       1572.491          0.565          0.592           0.61           0.62          0.622          0.622        -11.876        -2.3522        -60.146              1      0.9944095          0.071          2.262
      6709.5000         46.934          2.004         98.772        94.3021       1559.815          0.574          0.598          0.614          0.624          0.625          0.625        -11.533        -2.0092        -63.085              1       0.999854          0.081          2.292
      6710.0000         47.302          1.989         98.466        93.9855       1543.714          0.592          0.614          0.629          0.639          0.639          0.639        -11.501        -1.9772        -91.816              1              1          0.074          2.307
      6710.5000         48.677          1.986         98.447         93.956        1525.46          0.619           0.64          0.656          0.666          0.665          0.666        -11.629        -2.1052       -114.928              1      0.9983302          0.096          2.341
      6711.0000         50.081          1.991         98.464        93.9624         1506.6           0.64          0.662          0.679           0.69          0.688          0.688        -11.729        -2.2052       -110.823              1      0.9967428          0.084          2.325
      6711.5000         50.095          2.001         97.306        92.7938        1488.75          0.647          0.669          0.686          0.697          0.695          0.695        -11.831        -2.3072        -99.868              1      0.9951238          0.069           2.31
      6712.0000          49.85          2.009         95.848        91.3252       1473.361          0.644          0.666          0.683          0.695          0.692          0.693        -11.942        -2.4182        -96.471              1      0.9933619          0.076          2.301
      6712.5000         49.665          2.008          95.34        90.8066       1461.514          0.647          0.668          0.685          0.697          0.694          0.695        -11.989        -2.4652        -94.773              1      0.9926159          0.083          2.307
      6713.0000         49.047          1.998         95.713        91.1691       1453.804          0.661           0.68          0.697           0.71          0.707          0.708        -12.012        -2.4882        -89.783              1      0.9922508          0.068          2.296
      6713.5000         48.937          1.992         95.359        90.8045         1450.3          0.676          0.694           0.71          0.723          0.721          0.722        -12.121        -2.6037        -79.919              1      0.9904175          0.058          2.289
      6714.0000         48.712              2         94.794        90.2289       1450.603           0.68          0.696          0.712          0.725          0.724          0.724        -12.285        -2.7806        -65.946              1      0.9876095          0.058          2.286
      6714.5000          47.82          2.016         95.655        91.0793       1453.928           0.67          0.684            0.7          0.713          0.713          0.713        -12.277        -2.7854        -54.694              1      0.9875333          0.069          2.303
      6715.0000         48.231          2.029         97.204        92.6178       1459.264          0.652          0.669          0.684          0.698          0.698          0.699        -12.094        -2.6153        -54.405              1      0.9902334          0.067          2.297
      6715.5000         50.082          2.033         96.632        92.0352       1465.485          0.636          0.656          0.673          0.686          0.687          0.688        -12.032        -2.5661        -61.543              1      0.9910143           0.05           2.27
      6716.0000         51.653           2.03         94.323        89.7156        1471.53          0.621          0.646          0.664          0.677          0.679          0.679        -12.176         -2.723         -70.72              1      0.9885238           0.05          2.268
      6716.5000         52.207          2.019         93.813         89.195       1476.507          0.603          0.633          0.652          0.665          0.667          0.667        -12.246        -2.8059        -73.044              1      0.9872079           0.06          2.259
      6717.0000         51.432          2.004         96.134        91.5054       1479.844          0.584          0.618          0.638           0.65          0.652          0.652        -12.035        -2.6077        -65.272              1      0.9903539          0.054          2.244
      6717.5000         49.952          1.993         98.233        93.5938       1481.345          0.576          0.614          0.633          0.644          0.647          0.647         -11.69        -2.2756        -57.268              1      0.9956254          0.062          2.275
      6718.0000         48.892          1.989         98.627        93.9773       1481.235          0.586          0.628          0.645          0.657          0.659          0.659        -11.561        -2.1594        -58.234              1      0.9974698          0.051          2.276
      6718.5000         48.332          1.987         97.692        93.0317       1480.098           0.61          0.653           0.67          0.681          0.683          0.683         -11.83        -2.4413        -66.895              1      0.9929953          0.034          2.252
      6719.0000         48.714          1.989         95.782        91.1111       1478.751          0.635          0.677          0.693          0.704          0.707          0.706         -12.15        -2.7741        -86.346              1      0.9877127          0.075           2.29
      6719.5000         50.939          1.998         94.268        89.5865       1478.049          0.646          0.684          0.701          0.712          0.714          0.714        -12.145         -2.782       -117.918              1      0.9875873          0.099          2.318
