#------------------------------------------------------------------------------
# Created by    : vladimir.rabinovich
# Created on    : 09/19/2023 17:20:44
#------------------------------------------------------------------------------
~Version Information Section
VERS.           2.0     :   CWLS log ASCII Standard - VERSION 2.0
WRAP.           NO      :   One line per depth step
~Well Information Section
#MNEM       .UNIT                                         VALUE :DESCRIPTION
#------------------------------------------------------------------------------
STRT        .FT                                             194 :START DEPTH
STOP        .FT                                           14521 :STOP DEPTH
STEP        .FT                                             0.5 :STEP      
NULL        .                                           -999.25 :NULL      
COMP        .                             MAGNOLIA PETROLEUM CO :COMPANY   
WELL        .                                OCS 00043 ST00BP00 :WELL      
FLD         .                          EUGENE ISLAND BLOCK 0089 :FIELD     
LOC         .                                                   :LOCATION  
CNTY        .                                     EUGENE ISLAND :LOCATION  
STAT        .                                         LOUISIANA :STATE     
CTRY        .                                     UNITED STATES :COUNTRY   
SRVC        .                                                   :SERVICE COMPANY
DATE        .                             9/13/2023 11:18:42 AM :LOG DATE  
API         .                                    17709003920000 :API NUMBER
UWI         .                                    17709003920000 :UNIQUE WELL ID
XCOORD      .                                  2056408.80151155 :SURFACE X 
YCOORD      .                                  10562022.8372996 :SURFACE Y 
LAT         .                                        29.0974849 :LATITUDE  
LON         .                                       -91.6970667 :LONGITUDE 
ELEV        .FT                                              50 :ELEVATION VALUE
ELEV_TYPE   .                                                KB :ELEVATION REFERENCE TYPE
~Curve Information Section
#MNEM       .UNIT                                      API CODE :CURVE DESCRIPTION
#------------------------------------------------------------------------------
DEPT        .FT                                                 :DEPTH     
ASN         .OHMM                                               :          
LAT         .OHMM                                               :          
LN          .OHMM                                               :          
SP          .MV                                                 :          
SP_NORM     .MV                                                 :SP Normalized
VSH_SP      .V/V                                                :Volume of Shale from SP
~A        DEPTH            ASN            LAT             LN             SP        SP_NORM         VSH_SP
# ...
      9732.0000         0.8344         0.2718         0.8227       -71.1802      -14.21081      0.6447297
      9732.5000         0.8315         0.3037         0.8271        -69.853      -12.88523      0.6778691
      9733.0000         0.8394         0.3356         0.8315       -68.5038      -11.53767      0.7115583
      9733.5000         0.8625         0.3676         0.8359       -67.7167      -10.75219      0.7311953
      9734.0000         0.8801         0.3996         0.8403       -66.9294      -9.966518       0.750837
      9734.5000         0.8977         0.4315         0.8447       -66.1423      -9.181049      0.7704738
      9735.0000         0.9065         0.4564         0.8491       -65.6801      -8.720474      0.7819881
      9735.5000         0.9124         0.4761         0.8535       -65.2654      -8.307407      0.7923148
      9736.0000         0.9183         0.4958         0.8579       -64.8502      -7.893826      0.8026544
      9736.5000         0.9232         0.5154         0.8623       -64.7177      -7.762955      0.8059261
      9737.0000         0.9256         0.5351         0.8667       -64.5938      -7.640686      0.8089828
      9737.5000          0.928         0.5548         0.8711       -64.4679      -7.516415      0.8120896
      9738.0000         0.9304         0.5745         0.8755       -64.3269      -7.377033      0.8155742
      9738.5000          0.934         0.5896         0.8799        -64.186      -7.237762      0.8190559
      9739.0000         0.9389         0.6009         0.8843       -64.0453      -7.098694      0.8225327
      9739.5000          0.944         0.6121         0.8887       -63.7277      -6.782719      0.8304321
      9740.0000          0.954         0.6234         0.8927       -63.3845      -6.441143      0.8389714
      9740.5000         0.9639         0.6346         0.8945        -63.509      -6.567272      0.8358182
      9741.0000         0.9761         0.6459         0.8963       -63.7424      -6.802303      0.8299424
      9741.5000         0.9867         0.6571         0.8981       -63.9186      -6.980125      0.8254969
      9742.0000         0.9697         0.6684         0.8999       -64.0826       -7.14576       0.821356
      9742.5000         0.9548         0.6797         0.9018       -64.1134      -7.178185      0.8205454
      9743.0000         0.9415         0.6856         0.9036       -63.9732      -7.039612      0.8240097
      9743.5000          0.942         0.6895         0.9054       -63.8327      -6.900734      0.8274816
      9744.0000         0.9523         0.6934         0.9072       -63.6924      -6.762066      0.8309484
      9744.5000         0.9608         0.6973          0.909       -63.5522      -6.623489      0.8344128
      9745.0000          0.949         0.7012         0.9108       -63.4114      -6.484318      0.8378921
      9745.5000         0.9296         0.7051         0.9122       -63.2703      -6.344845      0.8413789
      9746.0000         0.9359          0.709         0.9115       -63.1295      -6.205673      0.8448582
      9746.5000         0.9519         0.7095         0.9108       -63.1991      -6.276901      0.8430775
      9747.0000         0.9667          0.707         0.9101       -63.2885      -6.367928      0.8408018
      9747.5000         0.9811         0.7045         0.9094        -63.378      -6.459053      0.8385237
      9748.0000          0.999         0.7019         0.9087       -63.5591      -6.641781      0.8339555
      9748.5000         0.9983         0.6994          0.908       -63.9444      -7.028709      0.8242823
      9749.0000         0.9908         0.6969         0.9073       -64.3291      -7.415035      0.8146241
      9749.5000         0.9816         0.6943         0.9066       -64.6727      -7.760262      0.8059934
      9750.0000         0.9725         0.6895         0.9059       -64.8136      -7.902786      0.8024303
      9750.5000         0.9632         0.6805         0.9052       -64.9541      -8.044918      0.7988771
      9751.0000         0.9543         0.6715         0.9045       -64.9547      -8.047138      0.7988216
      9751.5000         0.9657         0.6625         0.9038       -64.7244      -7.818474      0.8045381
      9752.0000         0.9739         0.6535         0.9039        -64.494      -7.589703      0.8102574
      9752.5000         0.9767         0.6445         0.9041       -64.3623      -7.459621      0.8135095
      9753.0000         0.9715         0.6369         0.9044       -64.4519       -7.55085      0.8112288
      9753.5000         0.9718         0.6316         0.9046       -64.5414      -7.641975      0.8089506
      9754.0000         0.9738         0.6263         0.9048       -64.6257      -7.727909      0.8068023
      9754.5000         0.9822          0.621         0.9051       -64.6667      -7.770535      0.8057367
      9755.0000         0.9882         0.6329         0.9053       -64.7078      -7.813263      0.8046684
      9755.5000         0.9899         0.6449         0.9056       -64.7489      -7.855988      0.8036003
      9756.0000         0.9915         0.6569         0.9058       -64.7899      -7.898617      0.8025346
      9756.5000         0.9906          0.669          0.906       -64.6417      -7.752041       0.806199
      9757.0000         0.9889          0.681         0.9059        -64.407      -7.518967      0.8120258
      9757.5000         0.9871         0.6991         0.9058       -64.1722      -7.285801       0.817855
      9758.0000         0.9854         0.7174         0.9057       -63.9372      -7.052422      0.8236895
      9758.5000          0.984         0.7356         0.9055       -63.7025      -6.819351      0.8295162
      9759.0000         0.9839         0.7539         0.9054       -63.5256      -6.644077      0.8338981
      9759.5000         0.9839         0.7721         0.9053       -63.3926      -6.512707      0.8371823
      9760.0000         0.9839         0.7903         0.9052       -63.2598      -6.381531      0.8404617
      9760.5000         0.9839          0.799          0.905       -63.1268       -6.25016       0.843746
      9761.0000         0.9838         0.8045         0.9051        -62.994      -6.118984      0.8470254
      9761.5000         0.9838           0.81         0.9058        -62.861      -5.987614      0.8503097
      9762.0000         0.9838         0.8155         0.9064       -62.7485       -5.87674      0.8530815
      9762.5000         0.9852          0.821         0.9071       -62.6594      -5.789268      0.8552683
      9763.0000         0.9889         0.8266         0.9078       -62.5703      -5.701797      0.8574551
      9763.5000         0.9926         0.8271         0.9084       -62.4811       -5.61422      0.8596445
      9764.0000         0.9963         0.8186         0.9091        -62.392      -5.526749      0.8618313
      9764.5000         1.0018           0.81         0.9098       -62.3027      -5.439075      0.8640231
      9765.0000         1.0074         0.8014         0.9104       -62.2136      -5.351604      0.8662099
      9765.5000         1.0044         0.7929         0.9107        -62.097      -5.236629      0.8690842
      9766.0000         0.9967         0.7843         0.9096       -61.9349      -5.076157      0.8730961
      9766.5000         0.9852         0.7758         0.9085       -61.7731      -4.915985      0.8771003
      9767.0000         0.9749         0.7672         0.9075       -61.6109      -4.755413      0.8811147
      9767.5000         0.9652         0.7622         0.9064       -61.4488      -4.594936      0.8851266
      9768.0000          0.957         0.7625         0.9053       -61.2869      -4.434666      0.8891333
      9768.5000         0.9488         0.7629         0.9043       -61.1262      -4.275597      0.8931101
      9769.0000           0.94         0.7632         0.9032       -60.9886      -4.139622      0.8965095
      9769.5000         0.9339         0.7635         0.9004       -60.8512      -4.003849      0.8999038
