#------------------------------------------------------------------------------
# Created by    : vladimir.rabinovich
# Created on    : 09/19/2023 17:22:13
#------------------------------------------------------------------------------
~Version Information Section
VERS.           2.0     :   CWLS log ASCII Standard - VERSION 2.0
WRAP.           NO      :   One line per depth step
~Well Information Section
#MNEM       .UNIT                                         VALUE :DESCRIPTION
#------------------------------------------------------------------------------
STRT        .FT                                            4265 :START DEPTH
STOP        .FT                                           12768 :STOP DEPTH
STEP        .FT                                             0.5 :STEP      
NULL        .                                           -999.25 :NULL      
COMP        .                                SHELL OFFSHORE INC :COMPANY   
WELL        .                               OCS G04749 ST00BP02 :WELL      
FLD         .                                           WILDCAT :FIELD     
LOC         .                                                   :LOCATION  
CNTY        .                                      WEST CAMERON :LOCATION  
STAT        .                                         LOUISIANA :STATE     
CTRY        .                                     UNITED STATES :COUNTRY   
SRVC        .                                                   :SERVICE COMPANY
DATE        .                             9/13/2023 11:19:06 AM :LOG DATE  
API         .                                    17700406070000 :API NUMBER
UWI         .                                    17700406070000 :UNIQUE WELL ID
XCOORD      .                                   1486969.7252092 :SURFACE X 
YCOORD      .                                  10728694.6404599 :SURFACE Y 
LAT         .                                        29.5614647 :LATITUDE  
LON         .                                       -93.4828123 :LONGITUDE 
ELEV        .FT                                              98 :ELEVATION VALUE
ELEV_TYPE   .                                                KB :ELEVATION REFERENCE TYPE
~Curve Information Section
#MNEM       .UNIT                                      API CODE :CURVE DESCRIPTION
#------------------------------------------------------------------------------
DEPT        .FT                                                 :DEPTH     
CALI        .IN                                                 :          
DRHO        .G/C3                                               :          
DT          .US/F                                               :          
GR          .GAPI                                               :          
GR_1        .GAPI                                               :          
GR_NORM     .GAPI                                               :GammaRay Normalized
ILD         .OHMM                                               :          
ILM         .OHMM                                               :          
NPHI        .%                                                  :          
RHOB        .G/C3                                               :          
SFL         .OHMM                                               :          
SP          .MV                                                 :          
SP_NORM     .MV                                                 :SP Normalized
VSH_GR      .V/V                                                :Volume of Shale from GR
VSH_SP      .V/V                                                :Volume of Shale from SP
~A        DEPTH           CALI           DRHO             DT             GR           GR_1        GR_NORM            ILD            ILM           NPHI           RHOB            SFL             SP        SP_NORM         VSH_GR         VSH_SP
# ...
      4486.0000        -999.25        -999.25        -999.25        -999.25        37.5496       73.17373        -999.25        -999.25        57.5105        -999.25        -999.25        -999.25        -999.25      0.8547602        -999.25
      4486.5000        -999.25        -999.25        -999.25        -999.25        37.8214         73.367        -999.25        -999.25        54.4722        -999.25        -999.25        -999.25        -999.25      0.8588723        -999.25
      4487.0000        -999.25        -999.25        -999.25        -999.25        38.1559       73.61253        -999.25        -999.25        52.3937        -999.25        -999.25        -999.25        -999.25      0.8640965        -999.25
      4487.5000        -999.25        -999.25        -999.25        -999.25        39.1212         74.384        -999.25        -999.25        52.5173        -999.25        -999.25        -999.25        -999.25      0.8805107        -999.25
      4488.0000        -999.25        -999.25        -999.25        -999.25         38.992       74.24284        -999.25        -999.25        53.0613        -999.25        -999.25        -999.25        -999.25      0.8775073        -999.25
      4488.5000        -999.25        -999.25        -999.25        -999.25        38.3547       73.67815        -999.25        -999.25        51.9451        -999.25        -999.25        -999.25        -999.25      0.8654926        -999.25
      4489.0000        -999.25        -999.25        -999.25        -999.25        38.5021       73.76769        -999.25        -999.25        50.4915        -999.25        -999.25        -999.25        -999.25      0.8673977        -999.25
      4489.5000        -999.25        -999.25        -999.25        -999.25        39.5594       74.61587        -999.25        -999.25        49.8311        -999.25        -999.25        -999.25        -999.25       0.885444        -999.25
      4490.0000        -999.25        -999.25        -999.25        -999.25        40.8152       75.62954        -999.25        -999.25        50.7795        -999.25        -999.25        -999.25        -999.25      0.9070114        -999.25
      4490.5000        -999.25        -999.25        -999.25        -999.25        41.5456       76.20515        -999.25        -999.25        52.8196        -999.25        -999.25        -999.25        -999.25      0.9192586        -999.25
      4491.0000        -999.25        -999.25        -999.25        -999.25        38.9989       74.04851        -999.25        -999.25        54.3621        -999.25        -999.25        -999.25        -999.25      0.8733725        -999.25
      4491.5000        -999.25        -999.25        -999.25        -999.25         35.637       71.21218        -999.25        -999.25        59.6818        -999.25        -999.25        -999.25        -999.25      0.8130251        -999.25
      4492.0000        -999.25        -999.25        -999.25        -999.25        35.4261       74.18478        -999.25        -999.25         60.681        -999.25        -999.25        -999.25        -999.25       0.876272        -999.25
      4492.5000        -999.25        -999.25        -999.25        -999.25        40.3921       75.81522        -999.25        -999.25        60.7167        -999.25        -999.25        -999.25        -999.25       0.910962        -999.25
      4493.0000        -999.25        -999.25        -999.25        -999.25        46.8885       77.44566        -999.25        -999.25        60.1242        -999.25        -999.25        -999.25        -999.25      0.9456522        -999.25
      4493.5000        -999.25        -999.25        -999.25        -999.25        53.5748       79.07609        -999.25        -999.25        59.2898        -999.25        -999.25        -999.25        -999.25      0.9803423        -999.25
      4494.0000        -999.25        -999.25        -999.25        -999.25        56.3936       78.58696        -999.25        -999.25        58.0963        -999.25        -999.25        -999.25        -999.25      0.9699353        -999.25
      4494.5000        -999.25        -999.25        -999.25        -999.25        57.2747       78.09782        -999.25        -999.25        55.8723        -999.25        -999.25        -999.25        -999.25      0.9595281        -999.25
      4495.0000        -999.25        -999.25        -999.25        -999.25        54.3788        77.6087        -999.25        -999.25        55.0256        -999.25        -999.25        -999.25        -999.25      0.9491212        -999.25
      4495.5000        -999.25        -999.25        -999.25        -999.25        49.7398       77.11956        -999.25        -999.25        55.5375        -999.25        -999.25        -999.25        -999.25       0.938714        -999.25
      4496.0000        -999.25        -999.25        -999.25        -999.25        44.0123       76.63043        -999.25        -999.25        56.9059        -999.25        -999.25        -999.25        -999.25      0.9283071        -999.25
      4496.5000        -999.25        -999.25        -999.25        -999.25        42.5056       76.63043        -999.25        -999.25        59.3433        -999.25        -999.25        -999.25        -999.25      0.9283071        -999.25
      4497.0000        19.8079        -0.0334       147.6909        -999.25        43.6644       76.63043         0.4671         0.5126        62.8165         1.4746         0.8442       -52.5771       -16.3866      0.9283071      0.6859878
      4497.5000        19.2522        -0.0128       145.3789        -999.25        50.0529       77.28261         0.5025         0.5354        64.5264         1.5247         0.8792       -51.2524       -15.0619      0.9421831      0.7130225
      4498.0000        18.1744         0.0049       143.5764        -999.25        54.8116       77.93478         0.5604         0.5662        60.1114          1.721         0.9912       -50.0074       -13.8169      0.9560592      0.7384306
      4498.5000        16.3586         0.0231       142.4004        -999.25        58.7692       78.58695         0.6116         0.6021        57.7518         1.8188         1.1058       -48.9672       -12.7767      0.9699352      0.7596592
      4499.0000        16.2265         0.0343       142.4316        -999.25        61.4311       79.23913         0.6105         0.6364         55.006         1.8561         1.1018       -48.4562       -12.2657      0.9838113      0.7700877
      4499.5000        15.9872         0.0337       143.8403        -999.25        64.5248        79.8913         0.5999         0.6511        51.2062         1.9516         0.9733       -48.3536       -12.1631      0.9976873      0.7721816
      4500.0000         15.559         0.0387       146.2488        -999.25        70.9961       78.53261         0.5868         0.6338         50.055          1.997         0.8735       -48.5965        -12.406      0.9687789      0.7672245
      4500.5000        15.3096         0.0444       147.4036        -999.25        77.9847       77.17391         0.5723         0.6072        50.0614         1.9971         0.8124       -48.5847       -12.3942      0.9398705      0.7674653
      4501.0000        15.5757         0.0499       147.8774        -999.25        79.4677       75.81522         0.5567         0.6011        50.6528          2.033         0.7613       -48.2725        -12.082       0.910962      0.7738367
      4501.5000        15.4673         0.0548        147.925        -999.25         77.863       76.63043         0.5458         0.5938        51.5297         2.0327         0.7203       -47.9625        -11.772      0.9283071      0.7801633
      4502.0000        15.0455         0.0582        147.261        -999.25        76.7599       77.44565         0.5409         0.5798        52.1169         2.0364         0.7096       -47.7546       -11.5641      0.9456521      0.7844061
      4502.5000        14.4719         0.0598       145.8081        -999.25        76.5226       78.26087         0.5415         0.5631        52.4819         2.0534         0.6954       -47.7396       -11.5491      0.9629973      0.7847123
