#------------------------------------------------------------------------------
# Created by    : vladimir.rabinovich
# Created on    : 09/19/2023 17:20:44
#------------------------------------------------------------------------------
~Version Information Section
VERS.           2.0     :   CWLS log ASCII Standard - VERSION 2.0
WRAP.           NO      :   One line per depth step
~Well Information Section
#MNEM       .UNIT                                         VALUE :DESCRIPTION
#------------------------------------------------------------------------------
STRT        .FT                                             194 :START DEPTH
STOP        .FT                                           14521 :STOP DEPTH
STEP        .FT                                             0.5 :STEP      
NULL        .                                           -999.25 :NULL      
COMP        .                             MAGNOLIA PETROLEUM CO :COMPANY   
WELL        .                                OCS 00043 ST00BP00 :WELL      
FLD         .                          EUGENE ISLAND BLOCK 0089 :FIELD     
LOC         .                                                   :LOCATION  
CNTY        .                                     EUGENE ISLAND :LOCATION  
STAT        .                                         LOUISIANA :STATE     
CTRY        .                                     UNITED STATES :COUNTRY   
SRVC        .                                                   :SERVICE COMPANY
DATE        .                             9/13/2023 11:18:42 AM :LOG DATE  
API         .                                    17709003920000 :API NUMBER
UWI         .                                    17709003920000 :UNIQUE WELL ID
XCOORD      .                                  2056408.80151155 :SURFACE X 
YCOORD      .                                  10562022.8372996 :SURFACE Y 
LAT         .                                        29.0974849 :LATITUDE  
LON         .                                       -91.6970667 :LONGITUDE 
ELEV        .FT                                              50 :ELEVATION VALUE
ELEV_TYPE   .                                                KB :ELEVATION REFERENCE TYPE
~Curve Information Section
#MNEM       .UNIT                                      API CODE :CURVE DESCRIPTION
#------------------------------------------------------------------------------
DEPT        .FT                                                 :DEPTH     
ASN         .OHMM                                               :          
LAT         .OHMM                                               :          
LN          .OHMM                                               :          
SP          .MV                                                 :          
SP_NORM     .MV                                                 :SP Normalized
VSH_SP      .V/V                                                :Volume of Shale from SP
~A        DEPTH            ASN            LAT             LN             SP        SP_NORM         VSH_SP
# ...
      8782.0000         0.7426         0.2932         0.5307       -71.5776      -11.51664      0.7120839
      8782.5000         0.7491         0.2967         0.5318       -71.0609      -11.00157      0.7249607
      8783.0000         0.7607         0.3002         0.5329       -69.0238      -8.966103      0.7758474
      8783.5000          0.773         0.3037         0.5339       -66.8729       -6.81683      0.8295792
      8784.0000         0.7819         0.3072          0.535       -65.6157      -5.561253      0.8609687
      8784.5000         0.7819         0.3107         0.5361       -65.1991      -5.146278       0.871343
      8785.0000         0.7656         0.3142         0.5372       -65.4733      -5.422104      0.8644474
      8785.5000         0.7553         0.3177         0.5383       -65.9189      -5.869335      0.8532666
      8786.0000          0.741         0.3212         0.5405       -66.4183      -6.370358       0.840741
      8786.5000         0.7316         0.3247         0.5441       -67.4584      -7.412086      0.8146979
      8787.0000         0.7266         0.3285         0.5478       -69.0659      -9.021217      0.7744696
      8787.5000         0.7217         0.3332         0.5514        -69.873      -9.829945      0.7542514
      8788.0000         0.7167         0.3379         0.5551       -68.8685      -8.827072      0.7793232
      8788.5000         0.7153         0.3426         0.5588       -67.9229      -7.883095      0.8029226
      8789.0000          0.714         0.3474         0.5624       -67.1035      -7.065327      0.8233668
      8789.5000         0.7126         0.3521         0.5661       -68.4916      -8.455051      0.7886237
      8790.0000         0.7127         0.3568         0.5698       -71.4053      -11.37038      0.7157406
      8790.5000         0.7196         0.3615         0.5734       -73.8577       -13.8244        0.65439
      8791.0000         0.7265         0.3663         0.5782       -74.6537      -14.62204      0.6344491
      8791.5000         0.7389           0.37          0.583       -73.5095      -13.47946      0.6630136
      8792.0000         0.7519         0.3725         0.5878       -72.6414      -12.61299      0.6846752
      8792.5000         0.7592         0.3749         0.5926       -71.7932      -11.76641      0.7058398
      8793.0000          0.763         0.3774         0.5974       -70.9451      -10.91994      0.7270015
      8793.5000         0.7662         0.3798         0.6022       -69.8176      -9.794067      0.7551483
      8794.0000         0.7667         0.3823          0.607       -68.6135      -8.591599        0.78521
      8794.5000         0.7672         0.3847         0.6118       -67.6024      -7.582127      0.8104469
      8795.0000         0.7704         0.3872         0.6166        -66.619      -6.600353      0.8349912
      8795.5000         0.7787         0.3896         0.6214       -65.7189      -5.701881       0.857453
      8796.0000         0.7871         0.3921         0.6263       -64.9771        -4.9617      0.8759575
      8796.5000         0.7954         0.3945         0.6317       -64.2343      -4.220531      0.8944867
      8797.0000         0.8043          0.397         0.6372       -63.5347      -3.522556      0.9119361
      8797.5000          0.814         0.3994         0.6426       -62.8884      -2.877888      0.9280528
      8798.0000         0.8237         0.4019         0.6481       -62.6414      -2.632511      0.9341872
      8798.5000         0.8333         0.4062         0.6536        -62.696       -2.68874      0.9327815
      8799.0000         0.8453         0.4117          0.659       -62.7506      -2.744968      0.9313758
      8799.5000         0.8575         0.4172         0.6645        -63.196      -3.191994      0.9202002
      8800.0000         0.8703         0.4227         0.6699       -63.6561      -3.653725      0.9086569
      8800.5000         0.8839         0.4281         0.6754       -64.1157      -4.114948      0.8971263
      8801.0000         0.8832         0.4336         0.6808       -64.5835      -4.584381      0.8853905
      8801.5000         0.8675         0.4391         0.6843       -65.0592      -5.061699      0.8734576
      8802.0000         0.8497         0.4446         0.6874       -65.5348      -5.538929      0.8615268
      8802.5000         0.8388         0.4501         0.6906        -66.011      -6.016758      0.8495811
      8803.0000         0.8297         0.4555         0.6937       -66.3812      -6.388588      0.8402853
      8803.5000         0.8236         0.4603         0.6968       -66.6624       -6.67141      0.8332148
      8804.0000         0.8214         0.4651         0.6999       -66.9434      -6.954037      0.8261491
      8804.5000         0.8191         0.4699          0.703       -67.2244      -7.236671      0.8190832
      8805.0000         0.8169         0.4747         0.7061       -67.2705      -7.284393      0.8178902
      8805.5000         0.8146         0.4795         0.7092       -67.2411      -7.256618      0.8185846
      8806.0000         0.8136         0.4843         0.7123       -67.2115      -7.228649      0.8192838
      8806.5000         0.8131          0.489         0.7155       -67.1528      -7.171577      0.8207105
      8807.0000         0.8127         0.4938          0.717       -66.8873        -6.9077      0.8273075
      8807.5000         0.8123         0.4986         0.7186       -66.6212       -6.64323      0.8339192
      8808.0000         0.8119         0.5033         0.7201       -66.3552      -6.378857      0.8405286
      8808.5000         0.8114         0.5062         0.7216       -66.0897      -6.114983      0.8471254
      8809.0000          0.811          0.509         0.7232       -65.8236       -5.85051      0.8537372
      8809.5000         0.8109         0.5119         0.7247       -65.5575       -5.58604       0.860349
      8810.0000         0.8112         0.5147         0.7263        -65.292      -5.322166      0.8669459
      8810.5000         0.8115         0.5175         0.7278       -65.0193      -5.051094      0.8737227
      8811.0000         0.8118         0.5204         0.7294       -64.7449      -4.778324      0.8805419
      8811.5000         0.8121         0.5232         0.7309       -64.4705      -4.505543      0.8873614
      8812.0000         0.8125         0.5261         0.7326        -64.196      -4.232674      0.8941832
      8812.5000         0.8132         0.5289         0.7344       -63.9217      -3.959999          0.901
      8813.0000         0.8154         0.5318         0.7363         -63.74       -3.77993      0.9055017
      8813.5000         0.8176         0.5341         0.7381       -63.6607      -3.702255      0.9074436
      8814.0000         0.8199         0.5357           0.74       -63.5813      -3.624481      0.9093879
      8814.5000         0.8221         0.5372         0.7418       -63.5019      -3.546707      0.9113323
      8815.0000         0.8243         0.5388         0.7437       -63.4225      -3.468937      0.9132766
      8815.5000         0.8265         0.5403         0.7455       -63.3431      -3.391167      0.9152209
      8816.0000         0.8288         0.5419         0.7473       -63.2701       -3.31979      0.9170052
      8816.5000         0.8308         0.5434         0.7492       -63.2227      -3.274017      0.9181496
      8817.0000         0.8325          0.545          0.751       -63.1752      -3.228146      0.9192964
      8817.5000         0.8342         0.5465         0.7517       -63.1278      -3.182373      0.9204407
      8818.0000         0.8358         0.5481         0.7521       -63.0804      -3.136597      0.9215851
      8818.5000         0.8375         0.5497         0.7526        -63.033      -3.090828      0.9227293
      8819.0000         0.8392         0.5512         0.7531       -63.1254      -3.184853      0.9203787
      8819.5000         0.8409         0.5528         0.7536        -63.225      -3.286079       0.917848
