#------------------------------------------------------------------------------
# Created by    : vladimir.rabinovich
# Created on    : 09/19/2023 17:22:04
#------------------------------------------------------------------------------
~Version Information Section
VERS.           2.0     :   CWLS log ASCII Standard - VERSION 2.0
WRAP.           NO      :   One line per depth step
~Well Information Section
#MNEM       .UNIT                                         VALUE :DESCRIPTION
#------------------------------------------------------------------------------
STRT        .FT                                            4308 :START DEPTH
STOP        .FT                                           11086 :STOP DEPTH
STEP        .FT                                             0.5 :STEP      
NULL        .                                           -999.25 :NULL      
COMP        .                                     GULF OIL CORP :COMPANY   
WELL        .                               OCS G01859 ST00BP00 :WELL      
FLD         .                           WEST CAMERON BLOCK 0045 :FIELD     
LOC         .                                                   :LOCATION  
CNTY        .                                      WEST CAMERON :LOCATION  
STAT        .                                         LOUISIANA :STATE     
CTRY        .                                     UNITED STATES :COUNTRY   
SRVC        .                                                   :SERVICE COMPANY
DATE        .                             9/13/2023 11:18:18 AM :LOG DATE  
API         .                                    17700402800000 :API NUMBER
UWI         .                                    17700402800000 :UNIQUE WELL ID
XCOORD      .                                  1464540.60646957 :SURFACE X 
YCOORD      .                                  10776790.0411311 :SURFACE Y 
LAT         .                                        29.6934919 :LATITUDE  
LON         .                                       -93.5541052 :LONGITUDE 
ELEV        .FT                                              79 :ELEVATION VALUE
ELEV_TYPE   .                                                KB :ELEVATION REFERENCE TYPE
~Curve Information Section
#MNEM       .UNIT                                      API CODE :CURVE DESCRIPTION
#------------------------------------------------------------------------------
DEPT        .FT                                                 :DEPTH     
CALI        .IN                                                 :          
DRHO        .G/C3                                               :          
DT          .US/F                                               :          
GR          .GAPI                                               :          
GR_NORM     .GAPI                                               :GammaRay Normalized
ILD         .OHMM                                               :          
NPHI        .%                                                  :          
RHOB        .G/C3                                               :          
SFLU        .OHMM                                               :          
SP          .MV                                                 :          
SP_NORM     .MV                                                 :SP Normalized
VSH_GR      .V/V                                                :Volume of Shale from GR
VSH_SP      .V/V                                                :Volume of Shale from SP
~A        DEPTH           CALI           DRHO             DT             GR        GR_NORM            ILD           NPHI           RHOB           SFLU             SP        SP_NORM         VSH_GR         VSH_SP
# ...
      6569.0000        21.3976        -0.0621       108.8425        46.0572       33.41967         0.3587        57.9066         1.5471         0.8334      -113.7255       -68.3296     0.00892907     0.02420873
      6569.5000         21.399        -0.0584       103.5988        45.7217       32.73278         0.3598        57.4879         1.5632          0.836      -113.3652       -67.9716              0     0.02939705
      6570.0000         21.404        -0.0498        99.8802        45.3658       32.00401         0.3599        57.1495         1.5789          0.834      -112.8102        -67.419              0     0.03740581
      6570.5000        21.4091        -0.0596       103.6486        44.9968       31.24846         0.3602        56.8665         1.5495         0.8272      -112.2786       -66.8898              0     0.04507535
      6571.0000        21.4099        -0.0702       107.9005        44.6807       30.60125         0.3607        56.0432         1.5295         0.8308      -112.0153       -66.6288              0     0.04885798
      6571.5000        21.4102        -0.0804        114.702        44.4025       30.03131         0.3612        55.0369         1.5234         0.8299      -111.9529       -66.5688              0     0.04972751
      6572.0000        21.4071        -0.0922       117.6879        44.2994       29.81932         0.3621        55.7529         1.5185         0.8286      -111.1487       -65.7669              0     0.06134929
      6572.5000        21.4037        -0.0974       117.9794        44.1964       29.60773          0.363        56.1337          1.522         0.8259      -110.4818       -65.1024              0     0.07097968
      6573.0000         21.396        -0.0911       114.2209        44.2134       29.64126         0.3638        56.1016         1.5316           0.82      -110.6219       -65.2449              0     0.06891444
      6573.5000        21.3882        -0.0888       106.7789        44.2539       29.72283         0.3646        55.8661         1.5344         0.7989      -110.9082       -65.5335              0     0.06473187
      6574.0000        21.3829        -0.0912       104.9148        44.3874       29.99471         0.3654        55.0607         1.5345         0.7763      -111.2632       -65.8909              0     0.05955218
      6574.5000        21.3838        -0.0919       107.6512        44.5504        30.3267         0.3663        54.4191         1.5376         0.7532      -111.6256       -66.2557              0     0.05426523
      6575.0000        21.3954        -0.0979       114.7843        44.7727       30.77991         0.3669        54.9885         1.5339          0.734      -111.9785       -66.6109              0     0.04911738
      6575.5000        21.3954        -0.1054       124.1504        44.9952       31.23353         0.3676        55.9063         1.5419         0.7463      -112.3159       -66.9507              0     0.04419277
      6576.0000        21.3922        -0.1114       130.1819        45.2178       31.68756         0.3682        55.7232          1.564         0.7685       -112.616       -67.2531              0     0.03981018
      6576.5000        21.3828        -0.1144        132.365        45.3747       32.00708         0.3674        55.2014         1.5842         0.7673      -112.9441       -67.5836              0     0.03502025
      6577.0000        21.3734        -0.1123       125.8751         45.503       32.26813         0.3667        54.5449         1.6045         0.7549      -113.4937       -68.1356              0     0.02702033
      6577.5000        21.3676        -0.0986       115.0884        45.6868       32.64285         0.3654        53.9216         1.6398         0.7393      -113.4965       -68.1407              0     0.02694636
      6578.0000        21.3697        -0.0784       110.9286        46.1859        33.6619         0.3636        54.4698          1.715         0.7249       -113.001       -67.6476     0.01408305     0.03409278
      6578.5000        21.3825        -0.0503       116.7233        47.0753       35.47883         0.3617        55.0555         1.8403         0.7302      -112.0797       -66.7286     0.05274111      0.0474116
      6579.0000        21.3828        -0.0371       124.1903        48.3983       38.18237         0.3597        54.2569         1.9051         0.7185      -111.1697        -65.821      0.1102632     0.06056523
      6579.5000         21.281        -0.0206       133.0728        50.1063       41.67273         0.3577        52.9454         1.9284         0.7256      -110.5232       -65.1769      0.1845262     0.06989996
      6580.0000        19.4986        -0.0108       141.2378        51.5886        44.7017         0.3558         49.989         2.0022         0.7763      -109.9817       -64.6377      0.2489724     0.07771445
      6580.5000        14.6637         0.0091       145.8386        52.4792       46.52129         0.3545        43.0536         2.0615         0.8867      -109.5537       -64.2121       0.287687     0.08388265
      6581.0000        14.2645         0.0205       144.5076         52.326       46.20688         0.3531        38.0816         2.0757         0.9304      -109.7051       -64.3658      0.2809974     0.08165509
      6581.5000        13.7449         0.0279        136.293        51.6505       42.32795         0.3467        34.2291         2.0495          0.875      -110.0719        -64.735      0.1984671     0.07630434
      6582.0000        13.5566         0.0267       124.3198        51.0275       40.99889         0.3404         33.327         2.0199         0.7834      -109.9799       -64.6454      0.1701892     0.07760289
      6582.5000        13.5207         0.0094       109.4407        50.8824       40.68859         0.3354        34.6206         1.9823         0.7424       -109.507       -64.1748       0.163587     0.08442323
      6583.0000        13.4923        -0.0211       106.0774        50.6479       40.18754         0.3309        35.5629         1.9128         0.7477      -109.3756       -64.0458      0.1529264     0.08629277
      6583.5000        13.6578        -0.0469       107.1478        50.2607       39.36125          0.329        35.9935         1.8779         0.7871      -109.4147       -64.0872      0.1353458     0.08569281
      6584.0000        13.9813        -0.0516       108.1771        49.9788       38.75919         0.3274        36.4784         1.8442         0.8077      -109.5776       -64.2525      0.1225359     0.08329707
      6584.5000        14.3019        -0.0317       104.6505        50.1019       39.02027         0.3261        39.0879         1.8449         0.7735      -109.9009       -64.5782      0.1280908      0.0785768
      6585.0000        14.4219        -0.0087        104.124        50.4758       39.81585         0.3249        41.3596         1.9552         0.7327       -110.317       -64.9966      0.1450181     0.07251308
      6585.5000         13.941         0.0123       109.4856        50.7958       40.49679         0.3246        41.1749          2.027         0.7064      -110.7134       -65.3954      0.1595062     0.06673332
      6586.0000        12.7847         0.0283       116.0304        50.9256       40.77214         0.3245        38.6324         2.0458         0.6848      -110.8956         -65.58      0.1653646     0.06405795
      6586.5000         12.584          0.034       121.0051        50.6041       40.08567         0.3254        36.5379         2.0153         0.6915      -110.9329       -65.6196      0.1507589     0.06348408
      6587.0000        12.7417         0.0285       117.9346        49.9271       38.64176         0.3263        36.2506          1.978         0.7571      -110.9515       -65.6406      0.1200374     0.06317968
      6587.5000         12.795         0.0339       112.9648        49.1727       37.03266         0.3269        37.6261         1.9794         0.8212      -111.0546        -65.746     0.08580123     0.06165214
