#------------------------------------------------------------------------------
# Created by    : vladimir.rabinovich
# Created on    : 09/19/2023 17:20:14
#------------------------------------------------------------------------------
~Version Information Section
VERS.           2.0     :   CWLS log ASCII Standard - VERSION 2.0
WRAP.           NO      :   One line per depth step
~Well Information Section
#MNEM       .UNIT                                         VALUE :DESCRIPTION
#------------------------------------------------------------------------------
STRT        .FT                                             920 :START DEPTH
STOP        .FT                                            7860 :STOP DEPTH
STEP        .FT                                             0.5 :STEP      
NULL        .                                           -999.25 :NULL      
COMP        .                               ARCO OIL & GAS CORP :COMPANY   
WELL        .                               OCS G10568 ST00BP00 :WELL      
FLD         .                                           WILDCAT :FIELD     
LOC         .                                                   :LOCATION  
CNTY        .                                 WEST CAMERON WEST :LOCATION  
STAT        .                                         LOUISIANA :STATE     
CTRY        .                                     UNITED STATES :COUNTRY   
SRVC        .                                                   :SERVICE COMPANY
DATE        .                             9/13/2023 11:18:15 AM :LOG DATE  
API         .                                    17701402460000 :API NUMBER
UWI         .                                    17701402460000 :UNIQUE WELL ID
XCOORD      .                                  1443937.81344993 :SURFACE X 
YCOORD      .                                  10680295.6485051 :SURFACE Y 
LAT         .                                        29.4277648 :LATITUDE  
LON         .                                       -93.6173961 :LONGITUDE 
ELEV        .FT                                             100 :ELEVATION VALUE
ELEV_TYPE   .                                                KB :ELEVATION REFERENCE TYPE
~Curve Information Section
#MNEM       .UNIT                                      API CODE :CURVE DESCRIPTION
#------------------------------------------------------------------------------
DEPT        .FT                                                 :DEPTH     
ASFL        .OHMM                                               :          
CALI        .IN                                                 :          
DPHI        .%                                                  :          
DRHO        .G/CC                                               :          
DT          .US/F                                               :          
GR          .GAPI                                               :          
GR_1        .GAPI                                               :          
GR_NORM     .GAPI                                               :GammaRay Normalized
ILD         .OHMM                                               :          
ILM         .OHMM                                               :          
NPHI        .%                                                  :          
RFOC        .OHMM                                               :          
SP          .MV                                                 :          
SP_NORM     .MV                                                 :SP Normalized
VSH_GR      .V/V                                                :Volume of Shale from GR
VSH_SP      .V/V                                                :Volume of Shale from SP
~A        DEPTH           ASFL           CALI           DPHI           DRHO             DT             GR           GR_1        GR_NORM            ILD            ILM           NPHI           RFOC             SP        SP_NORM         VSH_GR         VSH_SP
# ...
      2360.0000         0.9816        -999.25        -999.25        -999.25       141.4297        66.5597        -999.25       78.12756         0.8284        -999.25        -999.25        -999.25       -34.4233      0.3441048      0.9601608              1
      2360.5000         0.9819        -999.25        -999.25        -999.25       139.0076        67.4557        -999.25       79.23435         0.8161        -999.25        -999.25        -999.25       -34.3366      0.4356346      0.9837096              1
      2361.0000         0.9803        -999.25        -999.25        -999.25       138.8684        68.7953        -999.25        80.8895         0.8039        -999.25        -999.25        -999.25       -34.2499      0.5271645              1              1
      2361.5000         0.9786        -999.25        -999.25        -999.25       139.3918        69.9121        -999.25       82.26922         0.7917        -999.25        -999.25        -999.25       -34.1632      0.6186943              1              1
      2362.0000         0.9766        -999.25        -999.25        -999.25       140.0613        70.8973        -999.25       83.48627         0.7754        -999.25        -999.25        -999.25       -34.1149      0.6718254              1              1
      2362.5000         0.9743        -999.25        -999.25        -999.25       140.9846        71.8164        -999.25        84.6216         0.7589        -999.25        -999.25        -999.25       -34.0736      0.7179489              1              1
      2363.0000          0.972        -999.25        -999.25        -999.25       142.1863        72.7029        -999.25       85.71666          0.741        -999.25        -999.25        -999.25       -34.0323        0.76408              1              1
      2363.5000         0.9697        -999.25        -999.25        -999.25       146.1379        73.5492        -999.25       86.76202         0.7119        -999.25        -999.25        -999.25       -33.9982       0.803009              1              1
      2364.0000         0.9695        -999.25        -999.25        -999.25       147.9033        74.0793        -999.25       87.41651         0.6827        -999.25        -999.25        -999.25       -34.0588      0.7472382              1              1
      2364.5000         0.9697        -999.25        -999.25        -999.25       149.0005        72.6769        -999.25       85.68217         0.6535        -999.25        -999.25        -999.25       -34.1194      0.6914635              1              1
      2365.0000         0.9699        -999.25        -999.25        -999.25       149.8684        69.5199        -999.25       81.77892         0.6243        -999.25        -999.25        -999.25       -34.6409      0.1747932              1              1
      2365.5000         0.9703        -999.25        -999.25        -999.25       148.6284        66.2399        -999.25       77.72361         0.5951        -999.25        -999.25        -999.25       -40.2546      -5.434078      0.9515662      0.8569652
      2366.0000         0.9709        -999.25        -999.25        -999.25       146.6135        63.7548        -999.25       74.65092         0.5657        -999.25        -999.25        -999.25        -43.224      -8.398647      0.8861897      0.7613339
      2366.5000         0.9714        -999.25        -999.25        -999.25       144.4028        62.0118        -999.25       72.49554         0.5358        -999.25        -999.25        -999.25       -45.7012      -10.87102      0.8403307      0.6815799
      2367.0000         0.9706        -999.25        -999.25        -999.25       141.9387        57.8884        -999.25       67.39771          0.506        -999.25        -999.25        -999.25       -46.5192      -11.68419      0.7318661      0.6553486
      2367.5000         0.9698        -999.25        -999.25        -999.25       140.2737        52.1338        -999.25       60.28347         0.4783        -999.25        -999.25        -999.25       -47.0724      -12.23256      0.5804993      0.6376593
      2368.0000         0.9645        -999.25        -999.25        -999.25       138.9387        46.8168        -999.25       53.71016         0.4588        -999.25        -999.25        -999.25       -47.5313      -12.68663      0.4406417      0.6230118
      2368.5000         0.9498        -999.25        -999.25        -999.25       139.4475        48.1456        -999.25       55.35195         0.4394        -999.25        -999.25        -999.25       -47.9842       -13.1347      0.4755734      0.6085579
      2369.0000          0.942        -999.25        -999.25        -999.25       140.7346        48.9669        -999.25        56.3664         0.4199        -999.25        -999.25        -999.25       -48.4373      -13.58298      0.4971575      0.5940974
      2369.5000         0.9316        -999.25        -999.25        -999.25       144.8967        49.6829        -999.25       57.25068         0.4258        -999.25        -999.25        -999.25       -49.2737      -14.41455       0.515972      0.5672725
      2370.0000         0.9206        -999.25        -999.25        -999.25        147.999        50.3565        -999.25       58.08256         0.4421        -999.25        -999.25        -999.25        -49.696      -14.83202      0.5336715      0.5538058
      2370.5000          0.914        -999.25        -999.25        -999.25       149.4851        51.1341        -999.25         59.043         0.4584        -999.25        -999.25        -999.25         -47.02      -12.15119      0.5541063      0.6402841
      2371.0000         0.9074        -999.25        -999.25        -999.25       150.4697        51.9949        -999.25       60.10628         0.4747        -999.25        -999.25        -999.25       -43.5449      -8.671265      0.5767293      0.7525399
      2371.5000         0.9011        -999.25        -999.25        -999.25        146.248        53.1275        -999.25       61.50553         0.5001        -999.25        -999.25        -999.25       -41.7966      -6.918137      0.6065007      0.8090923
      2372.0000         0.9115        -999.25        -999.25        -999.25       143.1643        56.9564        -999.25       66.23779         0.5365        -999.25        -999.25        -999.25       -39.6663      -4.783009      0.7071871      0.8779675
      2372.5000         0.9244        -999.25        -999.25        -999.25       141.3958        61.0493        -999.25       71.29638         0.5728        -999.25        -999.25        -999.25       -38.8084      -3.920277      0.8148166      0.9057975
      2373.0000         0.9374        -999.25        -999.25        -999.25       140.0083        62.3945        -999.25       72.95844         0.6092        -999.25        -999.25        -999.25       -38.4166      -3.523651      0.8501795      0.9185919
      2373.5000         0.9463        -999.25        -999.25        -999.25       140.3154        64.0358        -999.25       74.98651         0.6456        -999.25        -999.25        -999.25       -38.1091      -3.211323        0.89333       0.928667
      2374.0000         0.9549        -999.25        -999.25        -999.25       141.0718        65.3036        -999.25        76.5529          0.682        -999.25        -999.25        -999.25       -37.8016      -2.898994      0.9266575      0.9387421
      2374.5000         0.9612        -999.25        -999.25        -999.25       142.3906        66.3918        -999.25       77.89729         0.7085        -999.25        -999.25        -999.25       -37.4502      -2.542763      0.9552615      0.9502335
      2375.0000         0.9644        -999.25        -999.25        -999.25       143.6843        67.1151        -999.25        78.7906         0.7319        -999.25        -999.25        -999.25       -37.0216      -2.109337       0.974268      0.9642149
      2375.5000         0.9643        -999.25        -999.25        -999.25       145.0342        67.8322        -999.25       79.67625         0.7554        -999.25        -999.25        -999.25        -36.593      -1.675907      0.9931116      0.9781966
