#------------------------------------------------------------------------------
# Created by    : vladimir.rabinovich
# Created on    : 09/19/2023 17:22:32
#------------------------------------------------------------------------------
~Version Information Section
VERS.           2.0     :   CWLS log ASCII Standard - VERSION 2.0
WRAP.           NO      :   One line per depth step
~Well Information Section
#MNEM       .UNIT                                         VALUE :DESCRIPTION
#------------------------------------------------------------------------------
STRT        .FT                                            2450 :START DEPTH
STOP        .FT                                            9560 :STOP DEPTH
STEP        .FT                                             0.5 :STEP      
NULL        .                                           -999.25 :NULL      
COMP        .                               TALOS PETROLEUM LLC :COMPANY   
WELL        .                                OCS 00301 ST00BP00 :WELL      
FLD         .                           WEST CAMERON BLOCK 0045 :FIELD     
LOC         .                                                   :LOCATION  
CNTY        .                                      WEST CAMERON :LOCATION  
STAT        .                                         LOUISIANA :STATE     
CTRY        .                                     UNITED STATES :COUNTRY   
SRVC        .                                                   :SERVICE COMPANY
DATE        .                             9/13/2023 11:18:49 AM :LOG DATE  
API         .                                    17700410870000 :API NUMBER
UWI         .                                    17700410870000 :UNIQUE WELL ID
XCOORD      .                                  1447194.98921956 :SURFACE X 
YCOORD      .                                  10757079.9124673 :SURFACE Y 
LAT         .                                        29.6390336 :LATITUDE  
LON         .                                       -93.6084245 :LONGITUDE 
ELEV        .FT                                              96 :ELEVATION VALUE
ELEV_TYPE   .                                                KB :ELEVATION REFERENCE TYPE
~Curve Information Section
#MNEM       .UNIT                                      API CODE :CURVE DESCRIPTION
#------------------------------------------------------------------------------
DEPT        .FT                                                 :DEPTH     
CNC         .%                                                  :          
DCAL        .IN                                                 :          
GR          .GAPI                                               :          
GR_NORM     .GAPI                                               :GammaRay Normalized
M0C6        .MMHO                                               :          
M2R1        .OHMM                                               :          
M2R2        .OHMM                                               :          
M2R3        .OHMM                                               :          
M2R6        .OHMM                                               :          
M2R9        .OHMM                                               :          
M2RX        .OHMM                                               :          
SP          .MV                                                 :          
SP_NORM     .MV                                                 :SP Normalized
TEN         .LB/F                                               :          
VSH_GR      .V/V                                                :Volume of Shale from GR
VSH_SP      .V/V                                                :Volume of Shale from SP
ZCOR        .G/CC                                               :          
ZDEN        .G/CC                                               :          
~A        DEPTH            CNC           DCAL             GR        GR_NORM           M0C6           M2R1           M2R2           M2R3           M2R6           M2R9           M2RX             SP        SP_NORM            TEN         VSH_GR         VSH_SP           ZCOR           ZDEN
# ...
      4340.0000        -999.25          3.237         83.294       88.94489       2656.135          0.604          0.494           0.43           0.39          0.373          0.373        -14.042       -15.9468         -7.433              1      0.6900711        -999.25        -999.25
      4340.5000        -999.25          2.347         74.475       79.15541       2650.299          0.593          0.494          0.432          0.393          0.376          0.377        -10.837       -12.7418          7.788        0.98203      0.7612934        -999.25        -999.25
      4341.0000        -999.25          2.054         58.782        61.7355       2670.306          0.614          0.505          0.441          0.401          0.383          0.384         -13.46       -15.3648          9.317      0.6113936      0.7030044        -999.25        -999.25
      4341.5000        -999.25          2.358          46.97       48.62367       2713.181          0.635          0.506          0.439          0.399          0.382          0.382        -21.526       -23.4308         -4.088      0.3324185        0.52376        -999.25        -999.25
      4342.0000        -999.25           2.86         42.393       43.54301        2770.69          0.608          0.471          0.408          0.372          0.357          0.357        -30.706       -32.6108        -25.441      0.2243193        0.31976        -999.25        -999.25
      4342.5000        -999.25          3.274         41.958       43.06014       2831.164          0.542          0.415          0.361          0.332           0.32          0.319        -36.582       -38.4868        -34.762      0.2140456      0.1891822        -999.25        -999.25
      4343.0000        -999.25          3.716         43.169        44.4044       2882.525          0.493          0.375          0.328          0.302          0.292          0.291        -38.596       -40.5008        -23.957      0.2426468      0.1444266        -999.25        -999.25
      4343.5000        -999.25          4.283           44.3       45.65986       2915.232           0.49          0.368           0.32          0.295          0.285          0.283        -38.231       -40.1358        -16.904      0.2693587      0.1525378        -999.25        -999.25
      4344.0000        -999.25           4.92         43.445       44.71077       2924.401          0.534          0.393          0.337          0.308          0.296          0.294        -36.573       -38.4778        -29.599      0.2491654      0.1893823        -999.25        -999.25
      4344.5000        -999.25          5.426         41.687       42.75932        2910.45          0.606          0.438          0.368          0.334          0.319          0.316         -34.75       -36.6548        -46.874      0.2076451      0.2298933        -999.25        -999.25
      4345.0000        -999.25          5.702         40.363       41.28962       2878.076          0.665           0.48          0.398          0.358           0.34          0.335        -33.559       -35.4638        -52.821      0.1763749        0.25636        -999.25        -999.25
      4345.5000        -999.25          6.033         39.649       40.49705        2834.18          0.682          0.501          0.414           0.37           0.35          0.345        -32.811       -34.7158        -47.765      0.1595117      0.2729822        -999.25        -999.25
      4346.0000        -999.25          6.657         38.543       39.26934       2785.379          0.662          0.503          0.417          0.373          0.351          0.346        -32.025       -33.9298        -38.633      0.1333902      0.2904489        -999.25        -999.25
      4346.5000        -999.25          7.331          37.29       37.87846       2736.066          0.638          0.498          0.417          0.373           0.35          0.345        -31.283       -33.1878        -33.706       0.103797      0.3069378        -999.25        -999.25
      4347.0000        -999.25          7.783         36.466       36.96378       2687.417          0.625          0.497          0.419          0.375          0.352          0.346        -30.818       -32.7228         -26.65     0.08433573      0.3172711        -999.25        -999.25
      4347.5000        -999.25          8.097         36.692       37.21465       2637.607           0.62          0.499          0.422          0.379          0.355           0.35        -30.583       -32.4878         -9.192     0.08967339      0.3224933        -999.25        -999.25
      4348.0000        -999.25          8.312         36.983       37.53768       2582.924          0.616          0.499          0.425          0.382          0.359          0.354        -30.332       -32.2368         -6.093     0.09654634      0.3280711        -999.25        -999.25
      4348.5000        -999.25           8.17         37.951        38.6122         2519.4          0.612          0.499          0.427          0.386          0.364           0.36         -29.88       -31.7848        -30.333      0.1194085      0.3381156        -999.25        -999.25
      4349.0000        -999.25            7.5         42.196       43.32433       2444.457          0.619          0.505          0.436          0.396          0.374          0.371        -29.037       -30.9418        -52.623      0.2196666      0.3568489        -999.25        -999.25
      4349.5000        -999.25          6.125         52.406       54.65787       2358.123          0.644          0.525          0.456          0.417          0.394          0.392        -27.459       -29.3638        -54.403      0.4608058      0.3919156        -999.25        -999.25
      4350.0000        -999.25          4.067          66.96       70.81343       2263.565          0.683          0.557          0.488          0.448          0.424          0.423         -24.28       -26.1848        -42.489      0.8045411        0.46256        -999.25        -999.25
      4350.5000        -999.25          2.074         81.153       86.56827       2166.901          0.722          0.594          0.525          0.485           0.46          0.461        -18.531       -20.4358        -21.907              1      0.5903155        -999.25        -999.25
      4351.0000        -999.25          0.987         91.175       97.69312        2076.31           0.75          0.627          0.562          0.522          0.497            0.5         -10.95       -12.8548         -6.942              1      0.7587822        -999.25        -999.25
      4351.5000        -999.25          0.705         95.082       102.0301       2001.009           0.77          0.658          0.598          0.557          0.532          0.538          -4.29        -6.1948        -12.814              1      0.9067822        -999.25        -999.25
      4352.0000        -999.25          0.661         93.357       100.1152       1949.754           0.79          0.687          0.631          0.589          0.563          0.571         -0.513        -2.4178        -31.023              1      0.9907156        -999.25        -999.25
      4352.5000        -999.25          0.651         90.159       96.56532       1929.939          0.802          0.701          0.647          0.604          0.579          0.589          0.781        -1.1238        -39.737              1              1        -999.25        -999.25
      4353.0000        -999.25          0.694         87.615       93.74138       1946.294          0.799          0.696          0.641          0.596          0.574          0.583          0.284        -1.6208        -32.257              1              1        -999.25        -999.25
      4353.5000        -999.25          0.837         82.517       88.08237       2000.512            0.8          0.682          0.623          0.576          0.556          0.564         -2.483        -4.3878        -22.337              1      0.9469378        -999.25        -999.25
