#------------------------------------------------------------------------------
# Created by    : vladimir.rabinovich
# Created on    : 09/19/2023 17:20:42
#------------------------------------------------------------------------------
~Version Information Section
VERS.           2.0     :   CWLS log ASCII Standard - VERSION 2.0
WRAP.           NO      :   One line per depth step
~Well Information Section
#MNEM       .UNIT                                         VALUE :DESCRIPTION
#------------------------------------------------------------------------------
STRT        .FT                                            1866 :START DEPTH
STOP        .FT                                            8637 :STOP DEPTH
STEP        .FT                                             0.5 :STEP      
NULL        .                                           -999.25 :NULL      
COMP        .                           GENERAL AMERICAN OIL CO :COMPANY   
WELL        .                               OCS G01862 ST00BP00 :WELL      
FLD         .                           WEST CAMERON BLOCK 0045 :FIELD     
LOC         .                                                   :LOCATION  
CNTY        .                                      WEST CAMERON :LOCATION  
STAT        .                                         LOUISIANA :STATE     
CTRY        .                                     UNITED STATES :COUNTRY   
SRVC        .                                                   :SERVICE COMPANY
DATE        .                             9/13/2023 11:18:18 AM :LOG DATE  
API         .                                    17700004060000 :API NUMBER
UWI         .                                    17700004060000 :UNIQUE WELL ID
XCOORD      .                                  1439968.94212662 :SURFACE X 
YCOORD      .                                  10754878.8884152 :SURFACE Y 
LAT         .                                        29.6328727 :LATITUDE  
LON         .                                       -93.6311393 :LONGITUDE 
ELEV        .FT                                              51 :ELEVATION VALUE
ELEV_TYPE   .                                                KB :ELEVATION REFERENCE TYPE
~Curve Information Section
#MNEM       .UNIT                                      API CODE :CURVE DESCRIPTION
#------------------------------------------------------------------------------
DEPT        .FT                                                 :DEPTH     
ASN         .OHMM                                               :          
CALI        .IN                                                 :          
DRHO        .G/C3                                               :          
DT          .US/F                                               :          
GR          .GAPI                                               :          
GR_NORM     .GAPI                                               :GammaRay Normalized
ILD         .OHMM                                               :          
RHOB        .G/C3                                               :          
SP          .MV                                                 :          
SP_NORM     .MV                                                 :SP Normalized
VSH_GR      .V/V                                                :Volume of Shale from GR
VSH_SP      .V/V                                                :Volume of Shale from SP
~A        DEPTH            ASN           CALI           DRHO             DT             GR        GR_NORM            ILD           RHOB             SP        SP_NORM         VSH_GR         VSH_SP
# ...
      3075.5000         0.9187        15.9413        -999.25       131.2974        -999.25        -999.25         0.3996        -999.25       -85.6105       -39.0436        -999.25      0.1768089
      3076.0000         0.8537        15.9413        -999.25       116.3413        -999.25        -999.25          0.357        -999.25       -87.2937       -40.7209        -999.25      0.1395355
      3076.5000         0.8112        15.9413        -999.25       110.5427        -999.25        -999.25         0.3249        -999.25       -88.3193       -41.7405        -999.25      0.1168777
      3077.0000         0.7825        15.9414        -999.25        115.924        -999.25        -999.25         0.3014        -999.25       -89.2432       -42.6584        -999.25     0.09647997
      3077.5000         0.7546        15.9414        -999.25       124.0032        -999.25        -999.25         0.2852        -999.25       -90.2291       -43.6383        -999.25      0.0747044
      3078.0000         0.7246        15.9414        -999.25       132.0825        -999.25        -999.25          0.278        -999.25       -91.1603       -44.5635        -999.25     0.05414446
      3078.5000         0.7029        15.9414        -999.25       148.5889        -999.25        -999.25         0.2843        -999.25        -90.906       -44.3032        -999.25     0.05992889
      3079.0000         0.6847        15.9414        -999.25       133.8601        -999.25        -999.25         0.2966        -999.25       -89.9749       -43.3661        -999.25     0.08075333
      3079.5000          0.674        15.9415        -999.25       138.2761        -999.25        -999.25         0.3143        -999.25       -88.9373       -42.3226        -999.25      0.1039422
      3080.0000         0.6631        15.9415        -999.25       141.1355        -999.25        -999.25         0.3419        -999.25       -87.5271       -40.9064        -999.25      0.1354134
      3080.5000         0.6768        15.9415        -999.25       136.1306        -999.25        -999.25         0.3999        -999.25       -86.0284       -39.4017        -999.25      0.1688511
      3081.0000         0.6859        15.9415        -999.25       135.1433        -999.25        -999.25         0.4579        -999.25       -84.3868       -37.7541        -999.25      0.2054644
      3081.5000         0.6981        15.9415        -999.25       135.0046        -999.25        -999.25         0.5228        -999.25       -81.8131       -35.1744        -999.25      0.2627911
      3082.0000         0.7259        15.9415        -999.25       138.4102        -999.25        -999.25         0.6442        -999.25       -75.5546       -28.9099        -999.25      0.4020022
      3082.5000         0.7811        15.9416        -999.25       143.0435        -999.25        -999.25         0.7379        -999.25         -67.12       -20.4694        -999.25      0.5895689
      3083.0000         0.8554        15.9416        -999.25       141.6226        -999.25        -999.25          0.803        -999.25       -60.6345       -13.9779        -999.25      0.7338244
      3083.5000         0.9144        15.9416        -999.25       136.9941        -999.25        -999.25         0.8378        -999.25       -57.8208       -11.1582        -999.25      0.7964844
      3084.0000         0.9449        15.9416        -999.25       133.2676        -999.25        -999.25         0.8421        -999.25       -56.9693       -10.3007        -999.25        0.81554
      3084.5000         0.9375        15.9417        -999.25       124.1224        -999.25        -999.25         0.8266        -999.25       -57.1689       -10.4943        -999.25      0.8112378
      3085.0000         0.8866        15.9417        -999.25        107.785        -999.25        -999.25         0.7999        -999.25       -56.5842        -9.9036        -999.25      0.8243644
      3085.5000         0.8321        15.9417        -999.25        91.4576        -999.25        -999.25         0.7292        -999.25       -55.5221        -8.8355        -999.25         0.8481
      3086.0000         0.7735        15.9417        -999.25        87.0229        -999.25        -999.25         0.6631        -999.25       -55.5885         -8.896        -999.25      0.8467556
      3086.5000         0.7403        15.9417        -999.25       108.2124        -999.25        -999.25         0.5796        -999.25       -56.5238        -9.8253        -999.25      0.8261045
      3087.0000         0.7249        15.9417        -999.25        106.754        -999.25        -999.25         0.5016        -999.25       -59.2041       -12.4996        -999.25      0.7666755
      3087.5000         0.7376        15.9418        -999.25       105.0448        -999.25        -999.25         0.4319        -999.25       -63.2737       -16.5632        -999.25      0.6763734
      3088.0000         0.7612        15.9418        -999.25       112.9874        -999.25        -999.25         0.3899        -999.25       -68.3049       -21.5884        -999.25      0.5647022
      3088.5000         0.7684        15.9418        -999.25       119.6257        -999.25        -999.25          0.335        -999.25       -74.9381       -28.2156        -999.25      0.4174311
      3089.0000         0.7451        15.9418        -999.25       121.6282        -999.25        -999.25         0.2982        -999.25       -81.3387       -34.6102        -999.25      0.2753289
      3089.5000         0.7153        15.9418        -999.25       129.2378        -999.25        -999.25         0.2819        -999.25       -86.5176       -39.7832        -999.25      0.1603733
      3090.0000         0.6799        15.9419        -999.25       132.8501        -999.25        -999.25         0.2828        -999.25       -89.7493       -43.0089        -999.25     0.08869112
      3090.5000         0.6476        15.9419        -999.25       138.0537        -999.25        -999.25         0.2757        -999.25       -91.2728       -44.5264        -999.25     0.05496886
      3091.0000         0.6183        15.9419        -999.25       136.3936        -999.25        -999.25         0.2624        -999.25       -92.2649       -45.5125        -999.25     0.03305554
      3091.5000         0.5985        15.9419        -999.25       136.4016        -999.25        -999.25         0.2476        -999.25       -92.6857       -45.9273        -999.25     0.02383779
      3092.0000         0.5812        15.9419        -999.25       139.0051        -999.25        -999.25         0.2648        -999.25       -92.8002       -46.0358        -999.25     0.02142665
      3092.5000         0.5694         15.942        -999.25       140.5642        -999.25        -999.25         0.2852        -999.25       -92.4578       -45.6875        -999.25     0.02916667
      3093.0000         0.5643         15.942        -999.25       144.8523        -999.25        -999.25         0.3106        -999.25       -91.4796       -44.7033        -999.25     0.05103777
      3093.5000         0.5613         15.942        -999.25       150.4277        -999.25        -999.25         0.3454        -999.25       -89.8776       -43.0953        -999.25     0.08677114
      3094.0000         0.5683         15.942        -999.25       150.3096        -999.25        -999.25         0.3812        -999.25       -88.2063        -41.418        -999.25      0.1240445
      3094.5000         0.5687        15.9318        -999.25       149.4092        -999.25        -999.25         0.4077        -999.25       -85.2921       -38.4978        -999.25      0.1889378
      3095.0000         0.5617        15.9274        -999.25       154.2263        -999.25        -999.25         0.4359        -999.25       -81.2096       -34.4093        -999.25      0.2797933
      3095.5000         0.5535        15.9285        -999.25       157.6536        -999.25        -999.25         0.4662        -999.25       -76.3223       -29.5161        -999.25      0.3885311
