#------------------------------------------------------------------------------
# Created by    : vladimir.rabinovich
# Created on    : 09/19/2023 17:20:14
#------------------------------------------------------------------------------
~Version Information Section
VERS.           2.0     :   CWLS log ASCII Standard - VERSION 2.0
WRAP.           NO      :   One line per depth step
~Well Information Section
#MNEM       .UNIT                                         VALUE :DESCRIPTION
#------------------------------------------------------------------------------
STRT        .FT                                             920 :START DEPTH
STOP        .FT                                            7860 :STOP DEPTH
STEP        .FT                                             0.5 :STEP      
NULL        .                                           -999.25 :NULL      
COMP        .                               ARCO OIL & GAS CORP :COMPANY   
WELL        .                               OCS G10568 ST00BP00 :WELL      
FLD         .                                           WILDCAT :FIELD     
LOC         .                                                   :LOCATION  
CNTY        .                                 WEST CAMERON WEST :LOCATION  
STAT        .                                         LOUISIANA :STATE     
CTRY        .                                     UNITED STATES :COUNTRY   
SRVC        .                                                   :SERVICE COMPANY
DATE        .                             9/13/2023 11:18:15 AM :LOG DATE  
API         .                                    17701402460000 :API NUMBER
UWI         .                                    17701402460000 :UNIQUE WELL ID
XCOORD      .                                  1443937.81344993 :SURFACE X 
YCOORD      .                                  10680295.6485051 :SURFACE Y 
LAT         .                                        29.4277648 :LATITUDE  
LON         .                                       -93.6173961 :LONGITUDE 
ELEV        .FT                                             100 :ELEVATION VALUE
ELEV_TYPE   .                                                KB :ELEVATION REFERENCE TYPE
~Curve Information Section
#MNEM       .UNIT                                      API CODE :CURVE DESCRIPTION
#------------------------------------------------------------------------------
DEPT        .FT                                                 :DEPTH     
ASFL        .OHMM                                               :          
CALI        .IN                                                 :          
DPHI        .%                                                  :          
DRHO        .G/CC                                               :          
DT          .US/F                                               :          
GR          .GAPI                                               :          
GR_1        .GAPI                                               :          
GR_NORM     .GAPI                                               :GammaRay Normalized
ILD         .OHMM                                               :          
ILM         .OHMM                                               :          
NPHI        .%                                                  :          
RFOC        .OHMM                                               :          
SP          .MV                                                 :          
SP_NORM     .MV                                                 :SP Normalized
VSH_GR      .V/V                                                :Volume of Shale from GR
VSH_SP      .V/V                                                :Volume of Shale from SP
~A        DEPTH           ASFL           CALI           DPHI           DRHO             DT             GR           GR_1        GR_NORM            ILD            ILM           NPHI           RFOC             SP        SP_NORM         VSH_GR         VSH_SP
# ...
      1448.0000         1.5615        -999.25        -999.25        -999.25       124.9993        -999.25        -999.25       49.87046         1.0291        -999.25        -999.25        -999.25       -60.8448      -18.44856       0.358946      0.0816548
      1448.5000         1.4251        -999.25        -999.25        -999.25        157.825        -999.25        -999.25       44.80434         0.9817        -999.25        -999.25        -999.25       -60.9941      -18.62189      0.2511561     0.07253205
      1449.0000         1.4137        -999.25        -999.25        -999.25       158.8486        -999.25        -999.25       42.92263         0.9278        -999.25        -999.25        -999.25       -61.1434      -18.79522      0.2111199     0.06340931
      1449.5000         1.3942        -999.25        -999.25        -999.25       160.4529        -999.25        -999.25       41.04093         0.8709        -999.25        -999.25        -999.25       -61.2927      -18.96856      0.1710837     0.05428635
      1450.0000          1.374        -999.25        -999.25        -999.25       161.3992        -999.25        -999.25       39.15924         0.7958        -999.25        -999.25        -999.25       -61.2652      -18.96509      0.1310476     0.05446886
      1450.5000         1.3568        -999.25        -999.25        -999.25       161.5254        -999.25        -999.25       37.27753         0.7059        -999.25        -999.25        -999.25       -61.2059      -18.92982     0.09101129     0.05632521
      1451.0000         1.3452        -999.25        -999.25        -999.25       161.2524        -999.25        -999.25       35.39583         0.6663        -999.25        -999.25        -999.25       -61.1467      -18.89466     0.05097507     0.05817594
      1451.5000         1.3324        -999.25        -999.25        -999.25       160.8315        -999.25        -999.25       33.51413          0.634        -999.25        -999.25        -999.25       -61.0874      -18.85938     0.01093885     0.06003249
      1452.0000         1.3147        -999.25        -999.25        -999.25       160.4648        -999.25        -999.25       31.63243         0.6311        -999.25        -999.25        -999.25       -60.9819      -18.77792              0     0.06432021
      1452.5000         1.3035        -999.25        -999.25        -999.25       160.6147        -999.25        -999.25        30.6192         0.6308        -999.25        -999.25        -999.25       -60.8657      -18.68575              0      0.0691711
      1453.0000         1.2941        -999.25        -999.25        -999.25       160.7649        -999.25        -999.25       29.60598         0.6306        -999.25        -999.25        -999.25       -60.7495      -18.59358              0       0.074022
      1453.5000         1.2875        -999.25        -999.25        -999.25       160.9539        -999.25        -999.25       28.59275         0.6347        -999.25        -999.25        -999.25       -60.6333      -18.50142              0     0.07887288
      1454.0000          1.283        -999.25        -999.25        -999.25       161.2563        -999.25        -999.25       28.59275         0.6388        -999.25        -999.25        -999.25        -60.517      -18.40915              0     0.08372919
      1454.5000          1.284        -999.25        -999.25        -999.25       161.5588        -999.25        -999.25       28.59275         0.6429        -999.25        -999.25        -999.25       -60.4471      -18.36328              0     0.08614309
      1455.0000          1.285        -999.25        -999.25        -999.25        161.071        -999.25        -999.25       28.59275         0.6469        -999.25        -999.25        -999.25       -60.5941      -18.53431              0     0.07714161
      1455.5000          1.286        -999.25        -999.25        -999.25       160.4077        -999.25        -999.25       28.59275         0.6503        -999.25        -999.25        -999.25       -60.7411      -18.70534              0     0.06813993
      1456.0000         1.2869        -999.25        -999.25        -999.25       159.5513        -999.25        -999.25       28.59275         0.6538        -999.25        -999.25        -999.25       -60.8622      -18.85048              0      0.0605013
      1456.5000         1.2874        -999.25        -999.25        -999.25       159.2278        -999.25        -999.25       28.59275         0.6572        -999.25        -999.25        -999.25       -60.9609      -18.97321              0     0.05404181
      1457.0000         1.2879        -999.25        -999.25        -999.25       159.5735        -999.25        -999.25       28.59275         0.6606        -999.25        -999.25        -999.25       -61.0596      -19.09594              0     0.04758212
      1457.5000         1.2883        -999.25        -999.25        -999.25       159.9067        -999.25        -999.25       28.39011         0.6572        -999.25        -999.25        -999.25       -61.1583      -19.21867              0     0.04112264
      1458.0000         1.2811        -999.25        -999.25        -999.25       159.6516        -999.25        -999.25       28.18746         0.6522        -999.25        -999.25        -999.25       -61.2133       -19.2977              0     0.03696301
      1458.5000         1.2693        -999.25        -999.25        -999.25       157.8364        -999.25        -999.25       27.98482         0.6471        -999.25        -999.25        -999.25       -61.2339      -19.34233              0     0.03461416
      1459.0000         1.2576        -999.25        -999.25        -999.25       156.9507        30.7713        -999.25       27.78217         0.6421        -999.25        -999.25        -999.25       -61.2486      -19.38107              0     0.03257551
      1459.5000         1.2487        -999.25        -999.25        -999.25        156.145        32.1708        -999.25       27.57952         0.6383        -999.25        -999.25        -999.25       -61.2161       -19.3726              0     0.03302122
      1460.0000         1.2399        -999.25        -999.25        -999.25       156.9446        33.1965        -999.25       27.57952         0.6366        -999.25        -999.25        -999.25       -61.1836      -19.36413              0     0.03346674
      1460.5000         1.2326        -999.25        -999.25        -999.25        159.752        34.0336        -999.25       27.57952         0.6348        -999.25        -999.25        -999.25       -61.1511      -19.35566              0     0.03391246
      1461.0000         1.2291        -999.25        -999.25        -999.25       161.6033        34.3207        -999.25       27.57952         0.6549        -999.25        -999.25        -999.25       -61.1186      -19.34719              0     0.03435817
      1461.5000         1.2459        -999.25        -999.25        -999.25       162.5955        33.6216        -999.25       29.60598         0.7008        -999.25        -999.25        -999.25       -61.0597      -19.31232              0     0.03619345
      1462.0000         1.2611        -999.25        -999.25        -999.25       161.4399        32.9205        -999.25       31.63243         0.7499        -999.25        -999.25        -999.25       -60.9632      -19.23986              0     0.04000754
      1462.5000         1.2746        -999.25        -999.25        -999.25       159.4924        32.0171        -999.25       33.65887         0.7991        -999.25        -999.25        -999.25       -60.8668      -19.16749     0.01401861     0.04381642
      1463.0000          1.287        -999.25        -999.25        -999.25       156.6838        30.6767        -999.25       35.68532         0.8369        -999.25        -999.25        -999.25       -60.7685      -19.09322     0.05713451     0.04772507
      1463.5000         1.2986        -999.25        -999.25        -999.25       155.0374        -999.25        -999.25       37.71177         0.8572        -999.25        -999.25        -999.25       -60.6227      -18.97145      0.1002505     0.05413397
