#------------------------------------------------------------------------------
# Created by    : vladimir.rabinovich
# Created on    : 09/19/2023 17:21:07
#------------------------------------------------------------------------------
~Version Information Section
VERS.           2.0     :   CWLS log ASCII Standard - VERSION 2.0
WRAP.           NO      :   One line per depth step
~Well Information Section
#MNEM       .UNIT                                         VALUE :DESCRIPTION
#------------------------------------------------------------------------------
STRT        .FT                                            3895 :START DEPTH
STOP        .FT                                         10595.5 :STOP DEPTH
STEP        .FT                                             0.5 :STEP      
NULL        .                                           -999.25 :NULL      
COMP        .                               TALOS PETROLEUM LLC :COMPANY   
WELL        .                                OCS 00300 ST00BP00 :WELL      
FLD         .                           WEST CAMERON BLOCK 0045 :FIELD     
LOC         .                                                   :LOCATION  
CNTY        .                                      WEST CAMERON :LOCATION  
STAT        .                                         LOUISIANA :STATE     
CTRY        .                                     UNITED STATES :COUNTRY   
SRVC        .                                                   :SERVICE COMPANY
DATE        .                             9/13/2023 11:18:36 AM :LOG DATE  
API         .                                    17700410070000 :API NUMBER
UWI         .                                    17700410070000 :UNIQUE WELL ID
XCOORD      .                                  1453771.49108141 :SURFACE X 
YCOORD      .                                  10773222.7644816 :SURFACE Y 
LAT         .                                        29.6835328 :LATITUDE  
LON         .                                       -93.5879752 :LONGITUDE 
ELEV        .FT                                             100 :ELEVATION VALUE
ELEV_TYPE   .                                                KB :ELEVATION REFERENCE TYPE
~Curve Information Section
#MNEM       .UNIT                                      API CODE :CURVE DESCRIPTION
#------------------------------------------------------------------------------
DEPT        .FT                                                 :DEPTH     
ATR         .OHMM                                               :          
CATR        .MMHO                                               :          
DCAL        .IN                                                 :          
DRHB        .G/C3                                               :          
GR          .GAPI                                               :          
GR_NORM     .GAPI                                               :GammaRay Normalized
PSR         .OHMM                                               :          
RHOB        .G/C3                                               :          
ROP5        .F/HR                                               :          
TNPH        .%                                                  :          
VSH_GR      .V/V                                                :Volume of Shale from GR
~A        DEPTH            ATR           CATR           DCAL           DRHB             GR        GR_NORM            PSR           RHOB           ROP5           TNPH         VSH_GR
# ...
      9677.5000           0.47       2127.656           0.27           0.11         101.37       80.92586           0.45           2.22          39.65             50              1
      9678.0000           0.47       2127.656           0.33           0.09         100.99       80.51053           0.46           2.23          40.27             50              1
      9678.5000           0.48       2083.332           0.39           0.09       100.7899       80.29179           0.48            2.3          43.17             48              1
      9679.0000           0.49       2040.814           0.46           0.07         100.98       80.49963           0.48           2.31          43.37             47              1
      9679.5000           0.49       2040.814           0.45           0.08       102.1899       81.82207           0.48           2.33          43.37             46              1
      9680.0000           0.49       2040.814           0.38           0.07       100.7699          80.27            0.5           2.32          43.79             47              1
      9680.5000            0.5           2000           0.27           0.07        98.7699        78.0837           0.49           2.33          44.78             46      0.9592277
      9681.0000            0.5           2000           0.27           0.07           98.6       77.89797            0.5           2.33          45.11             45       0.955276
      9681.5000            0.5           2000           0.31           0.07       100.1899       79.63594            0.5           2.31          44.12             44      0.9922541
      9682.0000           0.49       2040.814           0.34           0.08       103.2899       83.02451           0.48           2.32          43.17             43              1
      9682.5000           0.48       2083.332           0.34           0.09         103.23       82.95913           0.48           2.33             48             44              1
      9683.0000           0.48       2083.332           0.28           0.09       103.6799        83.4509           0.47           2.31             48             45              1
      9683.5000           0.48       2083.332           0.24            0.1       100.2699       79.72341           0.48           2.28        46.6299             46      0.9941151
      9684.0000           0.49       2040.814           0.28           0.09        98.7899       78.10546           0.49           2.24          44.78             47      0.9596907
      9684.5000           0.49       2040.814           0.37            0.1          99.85       79.26434            0.5           2.23          44.34             47      0.9843477
      9685.0000           0.49       2040.814           0.42           0.09         101.59       81.16638            0.5           2.19          42.96             49              1
      9685.5000           0.48       2083.332            0.4            0.1        99.9099       79.32986           0.48           2.19           41.1             49      0.9857416
      9686.0000           0.48       2083.332           0.36            0.1          95.47       74.47653           0.47           2.16          39.22             50      0.8824794
      9686.5000           0.47       2127.656           0.39            0.1        92.1799        70.8801           0.47           2.17          39.74             51      0.8059596
      9687.0000           0.48       2083.332           0.37            0.1          94.21       73.09927           0.47           2.18          38.54             53      0.8531759
      9687.5000           0.47       2127.656            0.4           0.09        99.5299       78.91452           0.47           2.18          39.74             51      0.9769047
      9688.0000           0.47       2127.656           0.39           0.09         104.86       84.74083           0.47           2.19        41.3799             51              1
      9688.5000           0.47       2127.656           0.37            0.1       104.9399       84.82818           0.46           2.19        41.3799             50              1
      9689.0000           0.47       2127.656           0.31            0.1         102.83       82.52184           0.46           2.18          40.36             52              1
      9689.5000           0.47       2127.656           0.27           0.11         100.49       79.96392           0.48           2.18        41.5699             53      0.9992324
      9690.0000           0.48       2083.332           0.31            0.1       101.3999       80.95853           0.46           2.19          43.27             54              1
      9690.5000           0.47       2127.656           0.32            0.1       101.5599       81.13351           0.47            2.2           45.8             52              1
      9691.0000           0.48       2083.332           0.32            0.1       103.4299       83.17754           0.48            2.2          49.58             52              1
      9691.5000           0.49       2040.814           0.28            0.1         103.34       83.07932           0.47            2.2          51.43             48              1
      9692.0000            0.5           2000           0.34            0.1         103.37       83.11217           0.49           2.24          53.73             49              1
      9692.5000           0.51       1960.783           0.37           0.09         102.21       81.84402           0.52           2.29          48.65             46              1
      9693.0000           0.51       1960.783           0.39           0.09         101.46       81.02425           0.49           2.35          49.05             47              1
      9693.5000           0.52       1923.076           0.33           0.07       102.7699       82.45613           0.52           2.37          53.73             46              1
      9694.0000           0.53       1886.791           0.34           0.08         104.09       83.89909           0.55           2.34          53.73             46              1
      9694.5000           0.52       1923.076           0.34           0.09         106.45       86.47895           0.53           2.29          47.24             45              1
      9695.0000           0.52       1923.076            0.4            0.1         107.25       87.35339           0.51           2.25          47.24             46              1
      9695.5000           0.51       1960.783           0.34            0.1         105.12       85.02509           0.49           2.23          45.34             46              1
      9696.0000            0.5           2000           0.32           0.09            104       83.80071           0.49           2.23          45.34             49              1
      9696.5000           0.51       1960.783           0.26           0.09         102.61       82.28133           0.48           2.28             45             48              1
      9697.0000           0.53       1886.791           0.28           0.08       101.3799       80.93676           0.52           2.33          46.15             48              1
      9697.5000           0.54       1851.852           0.29           0.09       100.9299        80.4448           0.57           2.37          49.86             45              1
      9698.0000           0.54       1851.852           0.29           0.09         102.46       82.11741           0.57           2.37          47.75             44              1
      9698.5000           0.51       1960.783           0.32           0.09       105.2799       85.19992            0.5           2.36          45.92             43              1
      9699.0000           0.49       2040.814           0.32           0.08            106       85.98703            0.5           2.37          46.03             44              1
      9699.5000           0.49       2040.814           0.33           0.07         105.87       85.84489            0.5           2.37          47.75             45              1
