#------------------------------------------------------------------------------
# Created by    : vladimir.rabinovich
# Created on    : 09/19/2023 17:20:42
#------------------------------------------------------------------------------
~Version Information Section
VERS.           2.0     :   CWLS log ASCII Standard - VERSION 2.0
WRAP.           NO      :   One line per depth step
~Well Information Section
#MNEM       .UNIT                                         VALUE :DESCRIPTION
#------------------------------------------------------------------------------
STRT        .FT                                            1866 :START DEPTH
STOP        .FT                                            8637 :STOP DEPTH
STEP        .FT                                             0.5 :STEP      
NULL        .                                           -999.25 :NULL      
COMP        .                           GENERAL AMERICAN OIL CO :COMPANY   
WELL        .                               OCS G01862 ST00BP00 :WELL      
FLD         .                           WEST CAMERON BLOCK 0045 :FIELD     
LOC         .                                                   :LOCATION  
CNTY        .                                      WEST CAMERON :LOCATION  
STAT        .                                         LOUISIANA :STATE     
CTRY        .                                     UNITED STATES :COUNTRY   
SRVC        .                                                   :SERVICE COMPANY
DATE        .                             9/13/2023 11:18:18 AM :LOG DATE  
API         .                                    17700004060000 :API NUMBER
UWI         .                                    17700004060000 :UNIQUE WELL ID
XCOORD      .                                  1439968.94212662 :SURFACE X 
YCOORD      .                                  10754878.8884152 :SURFACE Y 
LAT         .                                        29.6328727 :LATITUDE  
LON         .                                       -93.6311393 :LONGITUDE 
ELEV        .FT                                              51 :ELEVATION VALUE
ELEV_TYPE   .                                                KB :ELEVATION REFERENCE TYPE
~Curve Information Section
#MNEM       .UNIT                                      API CODE :CURVE DESCRIPTION
#------------------------------------------------------------------------------
DEPT        .FT                                                 :DEPTH     
ASN         .OHMM                                               :          
CALI        .IN                                                 :          
DRHO        .G/C3                                               :          
DT          .US/F                                               :          
GR          .GAPI                                               :          
GR_NORM     .GAPI                                               :GammaRay Normalized
ILD         .OHMM                                               :          
RHOB        .G/C3                                               :          
SP          .MV                                                 :          
SP_NORM     .MV                                                 :SP Normalized
VSH_GR      .V/V                                                :Volume of Shale from GR
VSH_SP      .V/V                                                :Volume of Shale from SP
~A        DEPTH            ASN           CALI           DRHO             DT             GR        GR_NORM            ILD           RHOB             SP        SP_NORM         VSH_GR         VSH_SP
# ...
      5740.5000         0.9858         12.087         0.0791        99.7927        57.2076       54.36095         0.9024           2.36       -57.6718       -16.0252      0.4544883      0.7688431
      5741.0000         1.0549        12.2074         0.0872        99.1268        58.7986       56.29295         0.9686         2.3498       -59.9996       -18.3675      0.4955948      0.7328077
      5741.5000         1.1286        12.3165         0.0831       100.6855        59.0685       56.61971         1.0323         2.3384       -62.4959       -20.8783      0.5025469        0.69418
      5742.0000          1.187        12.4154         0.0739       104.6212        55.3175       52.06029         1.0845          2.349       -64.7588       -23.1557       0.405538      0.6591431
      5742.5000         1.2427        12.5027         0.0627       106.5557        51.0927       46.92521          1.135         2.3626        -64.281       -22.6924      0.2962811      0.6662708
      5743.0000          1.278        12.3383         0.0553       105.0602        49.2719        44.7113         1.1809         2.3769       -61.8903       -20.3163      0.2491766      0.7028261
      5743.5000         1.3341        12.1712          0.074       104.6337        48.9974       44.37653         1.2061           2.42       -59.2514       -17.6919      0.2420537      0.7432016
      5744.0000           1.39        12.1727         0.0949       102.7091        48.2599         43.479         1.2219         2.4523        -56.969        -15.424      0.2229574      0.7780923
      5744.5000         1.4385        12.1542         0.1066        99.1504        49.4144       44.88069         1.2416          2.466       -55.9162       -14.3857      0.2527807      0.7940661
      5745.0000         1.4549        12.0914         0.0814        91.0657        49.7913       45.33735         1.2571         2.4565       -55.3055       -13.7895      0.2624968      0.8032385
      5745.5000         1.4162        12.1998         0.0431        83.0205        49.6425       45.15533         1.2311         2.4521       -54.5458       -13.0443       0.258624       0.814703
      5746.0000         1.3625        12.3351         0.0438        77.2373        49.6068        45.1106         1.1824         2.4631       -54.1591       -12.6721      0.2576724      0.8204292
      5746.5000         1.3056        12.2406         0.0533        75.3425        51.9822        47.9959          1.138         2.4413       -54.0411       -12.5687      0.3190618        0.82202
      5747.0000         1.2554        12.2695         0.0657         82.723        51.4554       47.35442         1.1191         2.4142       -54.0528       -12.5949      0.3054133      0.8216169
      5747.5000         1.2083         12.437         0.0765        89.7537         50.183       45.80702         1.0988          2.384       -54.0718       -12.6284      0.2724898      0.8211015
      5748.0000          1.208        12.6482         0.0715        92.0155        53.0659        49.3089         1.0714         2.3846       -56.2736       -14.8447      0.3469978      0.7870046
      5748.5000         1.1851        12.6902         0.1093        95.4403        54.2527       50.74983         1.0313         2.3746       -59.7551       -18.3407      0.3776559        0.73322
      5749.0000         1.1152        12.6464         0.1135        92.1766        54.1539       50.62843         0.9744          2.321        -57.881       -16.4811       0.375073      0.7618293
      5749.5000         1.0757        12.6613         0.0891        87.3828        55.9769       52.84248         0.9421         2.3119        -54.344       -12.9586      0.4221804      0.8160216
      5750.0000         1.0311        12.7265         0.0336        88.6353        58.5752       55.99852         0.8902         2.3308       -50.5847        -9.2139      0.4893301      0.8736323
      5750.5000         0.9757        12.6882         0.0556          93.47          59.69       57.35197         0.8613         2.3497       -49.0606        -7.7043       0.518127      0.8968569
      5751.0000         0.9383        12.6255         0.0598        95.2915        60.4788       58.30916         0.8324         2.3484       -49.5088         -8.167      0.5384928      0.8897384
      5751.5000         0.9545        12.5919         0.0563          105.7        61.9697       60.11952         0.7988         2.3377       -53.6736       -12.3463       0.577011      0.8254415
      5752.0000         0.9738        12.6859         0.0618       108.4528         61.452       59.48922         0.7543         2.3177       -58.9922       -17.6794      0.5636004      0.7433938
      5752.5000         0.9667        12.8229         0.0951       105.6554        58.6118       56.03656         0.7222          2.341       -62.6885       -21.3902      0.4901396      0.6863046
      5753.0000         0.9247        12.9805         0.1287       104.5443        57.1924       54.31053         0.6953         2.3444       -64.4672       -23.1834      0.4534156      0.6587169
      5753.5000         0.8481        12.9789         0.1438       103.4482        58.4971       55.89462         0.6622         2.3039       -60.9774       -19.7081      0.4871196      0.7121831
      5754.0000         0.7842        12.7085         0.1324       105.8314        61.8475        59.9647         0.6276         2.2763       -54.0143       -12.7596       0.573717      0.8190831
      5754.5000         0.7276        12.4592         0.0903       110.3699        63.8281       62.37012         0.5829         2.3071       -48.1662         -6.926      0.6248963      0.9088308
      5755.0000         0.7035        12.2642         0.1033       113.4401        65.4838       64.38087         0.5402         2.3311       -46.7925        -5.5668      0.6676782      0.9297416
      5755.5000         0.7059        12.1489         0.1148       114.7451         67.557       66.89883         0.5015         2.3431       -48.7477        -7.5365      0.7212516      0.8994384
      5756.0000         0.7008        12.1824         0.1089       115.3583         69.645       69.43488         0.4981         2.3301       -53.5625       -12.3658      0.7752101      0.8251415
      5756.5000         0.6947        12.4078         0.1052       116.0125        69.7335       69.54108         0.4963          2.302       -58.8922         -17.71      0.7774697      0.7429231
      5757.0000         0.6826         12.637         0.1067       116.6299        68.8416       68.45605         0.5017         2.2796       -64.0421       -22.8744      0.7543842      0.6634708
      5757.5000         0.6638        12.8463         0.0959       117.1222        67.5863       66.92932         0.5122         2.2431       -65.7366       -24.5835      0.7219005      0.6371769
      5758.0000         0.6677        12.5604         0.0838       124.2031        65.8818       64.85685         0.5309         2.2339       -60.7366        -19.598      0.6778053      0.7138769
      5758.5000         0.6808         12.522         0.0693       126.2231        64.8225       63.56828         0.5574         2.2216       -55.4958       -14.3717      0.6503888      0.7942815
      5759.0000         0.6935        12.4888         0.0461       124.7166        66.2433       65.29359         0.5959         2.2429       -53.4634       -12.3538      0.6870977      0.8253261
      5759.5000         0.6995        12.3879         0.0548       121.2668        71.5522       71.74345         0.6229          2.277       -53.8755       -12.7804      0.8243287      0.8187631
      5760.0000         0.6917        12.2869         0.0737       116.1581        76.6097       77.88795         0.6389         2.2952       -52.0292       -10.9486      0.9550629      0.8469446
      5760.5000         0.6898        12.2609         0.0855       114.1927        76.7795       78.09296         0.6175         2.2906       -49.5199        -8.4538      0.9594246      0.8853261
