#------------------------------------------------------------------------------
# Created by    : vladimir.rabinovich
# Created on    : 09/19/2023 17:22:04
#------------------------------------------------------------------------------
~Version Information Section
VERS.           2.0     :   CWLS log ASCII Standard - VERSION 2.0
WRAP.           NO      :   One line per depth step
~Well Information Section
#MNEM       .UNIT                                         VALUE :DESCRIPTION
#------------------------------------------------------------------------------
STRT        .FT                                            4308 :START DEPTH
STOP        .FT                                           11086 :STOP DEPTH
STEP        .FT                                             0.5 :STEP      
NULL        .                                           -999.25 :NULL      
COMP        .                                     GULF OIL CORP :COMPANY   
WELL        .                               OCS G01859 ST00BP00 :WELL      
FLD         .                           WEST CAMERON BLOCK 0045 :FIELD     
LOC         .                                                   :LOCATION  
CNTY        .                                      WEST CAMERON :LOCATION  
STAT        .                                         LOUISIANA :STATE     
CTRY        .                                     UNITED STATES :COUNTRY   
SRVC        .                                                   :SERVICE COMPANY
DATE        .                             9/13/2023 11:18:18 AM :LOG DATE  
API         .                                    17700402800000 :API NUMBER
UWI         .                                    17700402800000 :UNIQUE WELL ID
XCOORD      .                                  1464540.60646957 :SURFACE X 
YCOORD      .                                  10776790.0411311 :SURFACE Y 
LAT         .                                        29.6934919 :LATITUDE  
LON         .                                       -93.5541052 :LONGITUDE 
ELEV        .FT                                              79 :ELEVATION VALUE
ELEV_TYPE   .                                                KB :ELEVATION REFERENCE TYPE
~Curve Information Section
#MNEM       .UNIT                                      API CODE :CURVE DESCRIPTION
#------------------------------------------------------------------------------
DEPT        .FT                                                 :DEPTH     
CALI        .IN                                                 :          
DRHO        .G/C3                                               :          
DT          .US/F                                               :          
GR          .GAPI                                               :          
GR_NORM     .GAPI                                               :GammaRay Normalized
ILD         .OHMM                                               :          
NPHI        .%                                                  :          
RHOB        .G/C3                                               :          
SFLU        .OHMM                                               :          
SP          .MV                                                 :          
SP_NORM     .MV                                                 :SP Normalized
VSH_GR      .V/V                                                :Volume of Shale from GR
VSH_SP      .V/V                                                :Volume of Shale from SP
~A        DEPTH           CALI           DRHO             DT             GR        GR_NORM            ILD           NPHI           RHOB           SFLU             SP        SP_NORM         VSH_GR         VSH_SP
# ...
      4764.0000        12.0995        -0.0144       124.3866        52.9423       52.13474         0.3734        47.0308         1.9808         0.4832       -89.5702       -40.5392       0.407122      0.2396308
      4764.5000        12.1445        -0.0161       124.9098        53.8184       53.96099          0.381        46.9595         1.9931         0.4799         -80.72       -31.7002      0.4459785      0.4096116
      4765.0000        12.1329         -0.011       129.5364        54.5413        55.4677         0.3871        46.4775         2.0487         0.5218       -75.3716        -26.363      0.4780363        0.51225
      4765.5000        12.0944        -0.0032       131.4895        55.2097       56.86093          0.395        47.4121         2.0727         0.5972       -72.2996       -23.3021      0.5076793      0.5711135
      4766.0000        12.0558         -0.002       132.3469        55.7675       58.02323         0.4068        49.5059         2.0872         0.6721       -70.2847       -21.2984      0.5324091      0.6096461
      4766.5000        12.0653        -0.0091        132.144        55.9576       58.41853         0.4345          50.64         2.0959         0.7558       -69.7555       -20.7803      0.5408197      0.6196096
      4767.0000        12.0882        -0.0142       129.2693        56.3181       59.16948         0.4871        50.6691         2.1081         0.8289       -69.7587       -20.7947      0.5567974      0.6193327
      4767.5000        12.0899        -0.0114       129.2595        56.9132       60.40958         0.5088        47.8819         2.1216          0.809       -69.5603       -20.6075      0.5831825      0.6229327
      4768.0000        12.0854        -0.0049       131.8447        57.4476       61.52309         0.5267         46.706         2.1319         0.7177       -68.3374       -19.3957      0.6068743      0.6462365
      4768.5000        12.0751        -0.0006         133.47        57.5755       61.78883         0.5655        45.7643         2.1383         0.6587         -65.98       -17.0495      0.6125284      0.6913558
      4769.0000        12.0623        -0.0008       134.6006        57.1643       60.92983         0.5764        44.6368         2.1406         0.6565        -64.835       -15.9156      0.5942517      0.7131615
      4769.5000        12.0524        -0.0012       132.5745        56.6281       59.81007         0.5837        42.4074         2.1386         0.6757       -64.6465       -15.7383      0.5704269      0.7165712
      4770.0000        12.0666        -0.0054       127.6489         56.517       59.57727          0.592        41.5811         2.1322         0.7626       -68.9377       -20.0407      0.5654739      0.6338327
      4770.5000           12.1        -0.0127        124.903         57.315       61.24063          0.599        41.6948         2.1387         0.8544       -69.1195       -20.2336      0.6008646      0.6301231
      4771.0000        12.1984        -0.0047       123.7808        58.3297       63.35603         0.6009        42.2247         2.1528         0.8415       -67.3342       -18.4595       0.645873      0.6642404
      4771.5000        12.3109         0.0003       124.0916        59.0851       64.93053         0.6021        44.0299         2.1632         0.7994       -64.5275       -15.6639      0.6793731      0.7180019
      4772.0000        12.4304         0.0016        125.394         59.673       66.15582         0.6069        45.7247         2.1567         0.7635       -59.5597       -10.7073      0.7054428      0.8133212
      4772.5000        12.5583         0.0012       127.5698        59.9356       66.70234         0.6113        46.3226         2.1442         0.6816       -57.5375        -8.6963      0.7170711      0.8519942
      4773.0000        12.6751         -0.001       130.0115        59.9952       66.82542         0.6115        46.2549         2.1399         0.6566       -56.4195        -7.5894      0.7196897      0.8732808
      4773.5000        12.7507        -0.0035       132.3147        60.1952       67.24157         0.6052         47.257         2.1352         0.6537        -55.587        -6.7681      0.7285441       0.889075
      4774.0000        12.7991        -0.0035       134.3372        60.5386       67.95663         0.6014        48.1324         2.1304         0.6593       -54.7718        -5.9641      0.7437582      0.9045365
      4774.5000         12.849        -0.0012       136.4807        60.8484       68.60163         0.5997        48.9839          2.129          0.659       -54.0289        -5.2323      0.7574815      0.9186096
      4775.0000        12.9053         0.0001       138.7815        60.6846        68.2589         0.5953        48.4053         2.1355         0.6399       -53.4642        -4.6788      0.7501892      0.9292538
      4775.5000        12.9322        -0.0008       141.2898        60.2205       67.28954         0.5892        46.9125         2.1377         0.6282       -52.9512        -4.1769      0.7295647      0.9389058
      4776.0000        12.9537        -0.0057       143.6155        59.6843        66.1698         0.5865        46.4018         2.1382         0.6228       -52.4742        -3.7111      0.7057404      0.9478635
      4776.5000        12.9671        -0.0105       144.7932        59.3238       65.41677         0.5831         47.694         2.1306         0.6207       -52.1664        -3.4145      0.6897185      0.9535673
      4777.0000        12.9667        -0.0149       144.9866        59.3741       65.52043         0.5825        48.8162         2.1216         0.6255       -52.4917        -3.7509      0.6919241      0.9470981
      4777.5000        12.9599        -0.0139        143.655        59.3573       65.48413         0.5839        48.0966         2.1217         0.6774       -53.3801        -4.6505      0.6911517      0.9297981
      4778.0000        12.9532        -0.0118       139.7214        59.1314       65.01189         0.5868        47.1169         2.1195         0.8301       -55.5987        -6.8802      0.6811039      0.8869193
      4778.5000        12.9464         -0.008       136.0874        58.7811       64.27989         0.5908        46.5595         2.1174         0.8872       -59.2994       -10.5921      0.6655296      0.8155366
      4779.0000        12.9579        -0.0032       134.1279         59.127        65.0002         0.5945         46.182          2.118         0.8061       -57.7216        -9.0255      0.6808553      0.8456634
      4779.5000        12.9724        -0.0032       135.6841        59.5851       65.95453         0.5981        46.2776         2.1211         0.7672       -56.2372        -7.5522      0.7011602      0.8739961
      4780.0000        12.9829        -0.0028       137.9106        60.3961       67.64521         0.6037        47.0356         2.1263         0.7645       -54.3635        -5.6897      0.7371321      0.9098135
      4780.5000        12.9901         0.0079       143.5002        61.2563        69.4383         0.6101        48.5127         2.1331         0.7421       -51.2375        -2.5748       0.775283      0.9697154
      4781.0000        12.9918         0.0148       144.4465        61.7689       70.50632         0.6175        49.8645         2.1305         0.7108       -50.4001        -1.7486      0.7980069      0.9856039
      4781.5000        12.9889         0.0144       144.7795        61.9102       70.80004         0.6186        50.5714         2.1329         0.6774       -49.9955        -1.3552      0.8042562      0.9931692
      4782.0000        12.9836         0.0039       144.8582        61.9522       70.88639         0.6159        50.8679         2.1246         0.6036       -49.7842         -1.155      0.8060934      0.9970192
      4782.5000        12.9799        -0.0068       144.8108        61.8431       70.65757         0.6147        50.7205         2.1071         0.5935       -49.7588        -1.1408      0.8012249      0.9972923
