#------------------------------------------------------------------------------
# Created by    : vladimir.rabinovich
# Created on    : 09/19/2023 17:20:43
#------------------------------------------------------------------------------
~Version Information Section
VERS.           2.0     :   CWLS log ASCII Standard - VERSION 2.0
WRAP.           NO      :   One line per depth step
~Well Information Section
#MNEM       .UNIT                                         VALUE :DESCRIPTION
#------------------------------------------------------------------------------
STRT        .FT                                            2986 :START DEPTH
STOP        .FT                                           10006 :STOP DEPTH
STEP        .FT                                             0.5 :STEP      
NULL        .                                           -999.25 :NULL      
COMP        .                                        CONOCO INC :COMPANY   
WELL        .                                OCS 00764 ST00BP00 :WELL      
FLD         .                           WEST CAMERON BLOCK 0192 :FIELD     
LOC         .                                                   :LOCATION  
CNTY        .                                      WEST CAMERON :LOCATION  
STAT        .                                         LOUISIANA :STATE     
CTRY        .                                     UNITED STATES :COUNTRY   
SRVC        .                                                   :SERVICE COMPANY
DATE        .                             9/13/2023 11:18:18 AM :LOG DATE  
API         .                                    17700003670000 :API NUMBER
UWI         .                                    17700003670000 :UNIQUE WELL ID
XCOORD      .                                  1596137.97932418 :SURFACE X 
YCOORD      .                                  10614860.5046116 :SURFACE Y 
LAT         .                                         29.249106 :LATITUDE  
LON         .                                        -93.138896 :LONGITUDE 
ELEV        .FT                                              84 :ELEVATION VALUE
ELEV_TYPE   .                                                KB :ELEVATION REFERENCE TYPE
~Curve Information Section
#MNEM       .UNIT                                      API CODE :CURVE DESCRIPTION
#------------------------------------------------------------------------------
DEPT        .FT                                                 :DEPTH     
ASN         .OHMM                                               :          
CALI        .IN                                                 :          
CALI_1      .IN                                                 :          
DRHO        .G/C3                                               :          
DT          .US/F                                               :          
GR          .GAPI                                               :          
ILD         .OHMM                                               :          
RHOB        .G/C3                                               :          
SP          .MV                                                 :          
SP_NORM     .MV                                                 :SP Normalized
VSH_SP      .V/V                                                :Volume of Shale from SP
~A        DEPTH            ASN           CALI         CALI_1           DRHO             DT             GR            ILD           RHOB             SP        SP_NORM         VSH_SP
# ...
      9758.5000         1.2003        12.2603        13.2198         0.0871        108.975        75.1077         0.9416         2.4034       -42.2039     -0.4456596              1
      9759.0000         1.1997        12.0224        13.2966         0.0718       109.3295        76.6367         0.9534         2.3968        -42.291     -0.5327606              1
      9759.5000         1.1986        11.9314        13.2113         0.0685       109.3307        77.4288         0.9345         2.3835       -42.3552      -0.596962              1
      9760.0000         1.1982        11.9614        13.0126         0.0785       109.2366        76.7606         0.9006         2.3744       -42.2647     -0.5064621              1
      9760.5000         1.1982        11.9837        12.6505         0.0862       109.1071        77.2185          0.871         2.3602       -42.0635     -0.3052597              1
      9761.0000         1.1976        11.9852        12.5075         0.0631       108.8318        77.6388         0.8487         2.3614       -41.9023      -0.144062              1
      9761.5000         1.1959         11.992        12.6229          0.071       107.2648        76.8726           0.83         2.3772       -41.8278      -0.069561              1
      9762.0000         1.1949        11.9495        12.6633         0.0628       105.6521         74.915         0.8176         2.3701       -41.8129     -0.0546608              1
      9762.5000         1.1945        11.8016        12.5711         0.0519       104.8821        73.3463         0.8267          2.388       -41.6832     0.07503891              1
      9763.0000         1.1983        11.7023        12.4581         0.0606       105.2166        73.9067         0.8358         2.3977       -41.5569      0.2013397              1
      9763.5000          1.205        11.6839        12.2691         0.0635       105.6527        74.8973         0.8582         2.3958       -41.4384      0.3198395              1
      9764.0000         1.2137        11.7124        12.0625         0.0569       106.0364        75.6854         0.8834         2.3996       -41.2697      0.4885406              1
      9764.5000         1.2228        11.7125        12.0905         0.0497       105.3992        76.4746         0.9106         2.4035       -41.1216      0.6366386              1
      9765.0000         1.2325        11.6399        12.1721          0.061       104.6958         76.396         0.9282         2.3999       -40.9879        0.77034              1
      9765.5000         1.2394        11.5578         12.148         0.0725       103.9924        76.0532         0.9458         2.4072       -40.8568      0.9014397              1
      9766.0000         1.2455        11.5327        11.9984         0.0827       103.8593        76.3301         0.9536         2.3985       -40.7376       1.020641              1
      9766.5000         1.2501        11.6328         11.927         0.0764       104.2546        75.3336         0.9579         2.3872       -40.6943       1.063938              1
      9767.0000         1.2547        11.7329        11.9951         0.0645       103.9369        73.5471         0.9584          2.386       -40.7614      0.9968414              1
      9767.5000         1.2588        11.6212        11.9019         0.0715       104.2701        71.6486         0.9584         2.3925       -40.9115      0.8467407              1
      9768.0000         1.2612        11.5534        11.7577         0.0864       104.0258        73.3251         0.9618         2.4083       -41.0754      0.6828384              1
      9768.5000         1.2628        11.5695        11.6897         0.0854       103.4064        74.8246         0.9656         2.4082       -41.2198      0.5384407              1
      9769.0000         1.2637        11.4771        11.7379         0.0753       103.6161        76.3262         0.9697          2.404       -41.2494      0.5088387              1
      9769.5000         1.2677        11.4282        11.7636         0.0663       104.5415        76.2633         0.9738         2.4229       -41.1095      0.6487389              1
      9770.0000           1.27        11.4924        11.7739         0.0574       105.0178        75.7754         0.9685         2.4187       -40.9724      0.7858391              1
      9770.5000         1.2692         11.572         11.746         0.0738       105.2909        75.5459         0.9612         2.4212       -40.8715      0.8867416              1
      9771.0000         1.2667        11.5787        11.7021         0.0824       105.3999        75.2089         0.9481         2.4197       -40.8613      0.8969383              1
      9771.5000         1.2655        11.5752        11.7591         0.0925       105.1289        74.3215         0.9363         2.4175        -40.859      0.8992386              1
      9772.0000         1.2649        11.4291        11.8814         0.0907       105.2992        73.1442          0.927         2.4053        -40.858       0.900238              1
      9772.5000         1.2635        11.2655        11.8629           0.07       104.6316        73.5569         0.9216         2.3938       -40.8472      0.9110413              1
      9773.0000         1.2615        11.5524        11.7944         0.0522       103.6074        74.6821         0.9339         2.4102       -40.8094      0.9488411              1
      9773.5000         1.2627        11.6685        11.7511         0.0654       103.1201        75.2501         0.9504         2.4039       -40.7624      0.9958382              1
      9774.0000         1.2667        11.7404        11.6738         0.0781       102.9856        74.6949         0.9701         2.4184       -40.7191       1.039139              1
      9774.5000         1.2719        11.7745        11.5964         0.0868       105.1548          73.61         0.9776         2.4319       -40.6678       1.090439              1
      9775.0000         1.2764        11.7846        11.6673          0.087       107.7275        72.8052         0.9756         2.4382        -40.612        1.14624              1
      9775.5000         1.2791        11.7884        11.8766          0.089        108.313        71.9836         0.9709         2.4369       -40.5504        1.20784              1
      9776.0000         1.2796        11.7983        12.1896         0.1009       107.9187        72.8474         0.9639         2.4415       -40.4748        1.28344              1
      9776.5000          1.276        11.9404        12.4057         0.1128       106.8304        74.9995         0.9556         2.4345       -40.3818       1.376438              1
      9777.0000         1.2695        11.9851        12.4365         0.1043       106.1864        75.0641         0.9442         2.4245       -40.3861       1.372139              1
      9777.5000         1.2613        11.8114        12.2505         0.0853       105.8232        75.1224         0.9384         2.4222       -40.4816       1.276638              1
      9778.0000         1.2522        11.6301        12.1188         0.0776       105.5984        74.8168         0.9366         2.4274       -40.6309       1.127338              1
      9778.5000         1.2443        11.7657        11.9584         0.0832        105.296        73.9501         0.9384         2.4151       -40.7171       1.041142              1
      9779.0000         1.2411        11.9183        11.8325         0.0852       105.0166        73.7004         0.9439          2.415       -40.8099      0.9483414              1
      9779.5000         1.2448        11.8404        11.9328         0.0799       104.7396        74.7932         0.9495         2.4128       -40.8774      0.8808403              1
      9780.0000         1.2494        11.7369        12.1031          0.068       104.4683        75.8879         0.9553         2.4008       -40.8609      0.8973389              1
      9780.5000         1.2542        11.7752        11.9702         0.0533        104.449        77.3718         0.9611         2.3953       -40.9012      0.8570404              1
