#------------------------------------------------------------------------------
# Created by    : vladimir.rabinovich
# Created on    : 09/19/2023 17:20:47
#------------------------------------------------------------------------------
~Version Information Section
VERS.           2.0     :   CWLS log ASCII Standard - VERSION 2.0
WRAP.           NO      :   One line per depth step
~Well Information Section
#MNEM       .UNIT                                         VALUE :DESCRIPTION
#------------------------------------------------------------------------------
STRT        .FT                                            2030 :START DEPTH
STOP        .FT                                            9342 :STOP DEPTH
STEP        .FT                                             0.5 :STEP      
NULL        .                                           -999.25 :NULL      
COMP        .                                      SHELL OIL CO :COMPANY   
WELL        .                               OCS G00950 ST00BP00 :WELL      
FLD         .                           EAST CAMERON BLOCK 0193 :FIELD     
LOC         .                                                   :LOCATION  
CNTY        .                                      EAST CAMERON :LOCATION  
STAT        .                                         LOUISIANA :STATE     
CTRY        .                                     UNITED STATES :COUNTRY   
SRVC        .                                                   :SERVICE COMPANY
DATE        .                             9/13/2023 11:18:15 AM :LOG DATE  
API         .                                    17703004920000 :API NUMBER
UWI         .                                    17703004920000 :UNIQUE WELL ID
XCOORD      .                                  1684363.85071557 :SURFACE X 
YCOORD      .                                  10458597.1936422 :SURFACE Y 
LAT         .                                        28.8191951 :LATITUDE  
LON         .                                       -92.8627139 :LONGITUDE 
ELEV        .FT                                              75 :ELEVATION VALUE
ELEV_TYPE   .                                                KB :ELEVATION REFERENCE TYPE
~Curve Information Section
#MNEM       .UNIT                                      API CODE :CURVE DESCRIPTION
#------------------------------------------------------------------------------
DEPT        .FT                                                 :DEPTH     
ASN         .OHMM                                               :          
CILM        .MMHO                                               :          
ILM         .OHMM                                               :          
LN          .OHMM                                               :          
SP          .MV                                                 :          
SP_NORM     .MV                                                 :SP Normalized
VSH_SP      .V/V                                                :Volume of Shale from SP
~A        DEPTH            ASN           CILM            ILM             LN             SP        SP_NORM         VSH_SP
# ...
      7859.0000          0.742           1215         0.7516        -999.25       -42.9697        -2.4392      0.9935412
      7859.5000         0.7341       1235.563         0.7449        -999.25       -42.4583        -1.9393              1
      7860.0000         0.7443       1252.834         0.7383        -999.25       -42.1712        -1.6637              1
      7860.5000         0.7547       1261.502         0.7344        -999.25       -42.7656        -2.2695      0.9960368
      7861.0000         0.7645       1253.859         0.7341        -999.25       -43.0214        -2.5368      0.9921059
      7861.5000         0.7721        1246.76         0.7339        -999.25       -42.7762         -2.303      0.9955441
      7862.0000         0.7629       1244.902         0.7336        -999.25       -42.5315        -2.0698      0.9989735
      7862.5000         0.7525       1243.045         0.7333        -999.25       -42.2864        -1.8362              1
      7863.0000         0.7438       1241.561         0.7318        -999.25       -42.0417        -1.6029              1
      7863.5000         0.7363       1245.016         0.7304        -999.25       -41.7076        -1.2803              1
      7864.0000         0.7304       1248.477         0.7289        -999.25       -41.5002        -1.0843              1
      7864.5000         0.7292       1251.938         0.7275        -999.25       -41.8279        -1.4235              1
      7865.0000         0.7281       1257.805         0.7261        -999.25       -42.1552        -1.7623              1
      7865.5000          0.727       1264.805         0.7246        -999.25       -42.4824        -2.1009      0.9985162
      7866.0000         0.7299       1271.795         0.7251        -999.25       -42.7851        -2.4151      0.9938956
      7866.5000         0.7335       1278.785         0.7259        -999.25       -43.0684        -2.7098      0.9895617
      7867.0000          0.737       1286.664         0.7266        -999.25       -43.3516        -3.0045      0.9852279
      7867.5000         0.7405       1294.859         0.7293        -999.25       -43.6128        -3.2772      0.9812176
      7868.0000         0.7484       1280.678         0.7365        -999.25       -43.8435        -3.5193      0.9776574
      7868.5000         0.7571       1265.572         0.7438        -999.25       -44.0743        -3.7616      0.9740941
      7869.0000         0.7664       1250.465          0.751        -999.25       -44.1373         -3.836          0.973
      7869.5000         0.7768       1233.646         0.7582        -999.25       -43.7986        -3.5088      0.9778118
      7870.0000         0.7872       1215.834          0.766        -999.25       -43.4604         -3.182      0.9826177
      7870.5000         0.7959       1200.908         0.7744        -999.25       -43.1217        -2.8548      0.9874294
      7871.0000         0.8039       1188.553         0.7827        -999.25       -42.7098        -2.4544      0.9933177
      7871.5000         0.8059       1176.219         0.7911        -999.25       -42.2779        -2.0339      0.9995015
      7872.0000         0.8043       1163.863         0.7995        -999.25       -41.9666        -1.7341              1
      7872.5000         0.8026       1152.725         0.8044        -999.25       -42.1896        -1.9685              1
      7873.0000          0.801       1141.893         0.8057        -999.25       -42.4128        -2.2032      0.9970118
      7873.5000         0.7994       1145.949         0.8071        -999.25       -42.6132        -2.4151      0.9938956
      7874.0000         0.7977       1150.848         0.8085        -999.25       -42.7767          -2.59      0.9913235
      7874.5000         0.7945       1157.506         0.8088        -999.25       -42.9402         -2.765        0.98875
      7875.0000         0.7906       1165.531          0.801        -999.25       -42.7529        -2.5891      0.9913368
      7875.5000         0.7868       1173.547         0.7932        -999.25       -42.3677        -2.2154      0.9968324
      7876.0000         0.7829       1181.574         0.7854        -999.25        -41.982        -1.8412              1
      7876.5000         0.7786       1189.602         0.7776        -999.25       -41.6166        -1.4872              1
      7877.0000         0.7738       1197.615         0.7698        -999.25       -41.2758        -1.1579              1
      7877.5000          0.769       1205.643         0.7607        -999.25       -41.0609        -0.9544              1
      7878.0000         0.7642       1213.568         0.7495        -999.25       -41.2045        -1.1095              1
      7878.5000         0.7594       1221.459         0.7383        -999.25       -41.3482        -1.2647              1
      7879.0000         0.7543       1229.361         0.7271        -999.25       -41.5552        -1.4831              1
      7879.5000         0.7493       1237.264         0.7213        -999.25       -41.7684        -1.7078              1
      7880.0000         0.7443       1245.156         0.7229        -999.25       -41.9816        -1.9324              1
      7880.5000         0.7397       1251.756         0.7245        -999.25       -42.1949        -2.1572      0.9976882
      7881.0000         0.7352       1255.955         0.7261        -999.25       -42.3583        -2.3321      0.9951162
      7881.5000          0.733       1260.154         0.7277        -999.25       -42.5218         -2.507      0.9925441
      7882.0000         0.7391        1264.35         0.7293        -999.25       -42.6854        -2.6821      0.9899691
      7882.5000         0.7452       1267.436         0.7341        -999.25       -42.8488        -2.8569      0.9873985
      7883.0000         0.7526        1265.25         0.7406        -999.25        -42.949        -2.9686      0.9857559
      7883.5000         0.7604       1263.066         0.7471        -999.25       -43.0407        -3.0718      0.9842382
      7884.0000         0.7677       1260.883         0.7535        -999.25       -43.1324        -3.1749       0.982722
      7884.5000         0.7713       1253.002           0.76        -999.25       -43.2159        -3.2699       0.981325
      7885.0000         0.7748       1244.783         0.7669        -999.25       -43.2964        -3.3618      0.9799736
      7885.5000         0.7783       1236.576         0.7738        -999.25       -43.3333        -3.4102      0.9792618
      7886.0000         0.7818       1228.369          0.779        -999.25       -43.3387        -3.4271      0.9790133
      7886.5000         0.7831       1220.162         0.7839        -999.25       -43.3442         -3.444      0.9787647
      7887.0000          0.784       1211.979         0.7888        -999.25       -43.3001        -3.4114      0.9792441
      7887.5000          0.785       1205.541         0.7937        -999.25        -43.095        -3.2177      0.9820926
      7888.0000         0.7849       1199.104         0.7958        -999.25       -42.8901        -3.0243      0.9849368
      7888.5000         0.7819       1196.734         0.7964        -999.25       -42.5421        -2.6877      0.9898868
      7889.0000         0.7789       1197.615          0.797        -999.25       -42.3279         -2.485      0.9928676
      7889.5000         0.7759       1198.496         0.7977        -999.25       -42.6937        -2.8623      0.9873191
      7890.0000         0.7729       1199.377         0.7965        -999.25       -43.0594        -3.2394      0.9817736
      7890.5000           0.77        1200.26         0.7944        -999.25       -43.4248        -3.6163      0.9762309
      7891.0000         0.7682       1201.559         0.7923        -999.25       -43.6232        -3.8261      0.9731456
      7891.5000         0.7686       1203.645         0.7902        -999.25       -43.6931        -3.9075      0.9719485
      7892.0000          0.769       1205.732         0.7881        -999.25       -43.7258        -3.9517      0.9712985
