#------------------------------------------------------------------------------
# Created by    : vladimir.rabinovich
# Created on    : 09/19/2023 17:21:14
#------------------------------------------------------------------------------
~Version Information Section
VERS.           2.0     :   CWLS log ASCII Standard - VERSION 2.0
WRAP.           NO      :   One line per depth step
~Well Information Section
#MNEM       .UNIT                                         VALUE :DESCRIPTION
#------------------------------------------------------------------------------
STRT        .FT                                            2600 :START DEPTH
STOP        .FT                                          9205.5 :STOP DEPTH
STEP        .FT                                             0.5 :STEP      
NULL        .                                           -999.25 :NULL      
COMP        .                              MCMORAN OIL & GAS CO :COMPANY   
WELL        .                                OCS 00757 ST00BP00 :WELL      
FLD         .                           WEST CAMERON BLOCK 0118 :FIELD     
LOC         .                                                   :LOCATION  
CNTY        .                                      WEST CAMERON :LOCATION  
STAT        .                                         LOUISIANA :STATE     
CTRY        .                                     UNITED STATES :COUNTRY   
SRVC        .                                                   :SERVICE COMPANY
DATE        .                             9/13/2023 11:18:49 AM :LOG DATE  
API         .                                    17700410700000 :API NUMBER
UWI         .                                    17700410700000 :UNIQUE WELL ID
XCOORD      .                                  1436864.54905534 :SURFACE X 
YCOORD      .                                  10703419.9985863 :SURFACE Y 
LAT         .                                        29.4912718 :LATITUDE  
LON         .                                       -93.6400205 :LONGITUDE 
ELEV        .FT                                             118 :ELEVATION VALUE
ELEV_TYPE   .                                                KB :ELEVATION REFERENCE TYPE
~Curve Information Section
#MNEM       .UNIT                                      API CODE :CURVE DESCRIPTION
#------------------------------------------------------------------------------
DEPT        .FT                                                 :DEPTH     
CAL         .IN                                                 :          
CNC         .%                                                  :          
DT24        .US/F                                               :          
GR          .GAPI                                               :          
GR_NORM     .GAPI                                               :GammaRay Normalized
M0C6        .MMHO                                               :          
M2R1        .OHMM                                               :          
M2R2        .OHMM                                               :          
M2R3        .OHMM                                               :          
M2R6        .OHMM                                               :          
M2R9        .OHMM                                               :          
M2RX        .OHMM                                               :          
PORZ        .%                                                  :          
RWAZ        .OHMM                                               :          
SP          .MV                                                 :          
SP_NORM     .MV                                                 :SP Normalized
TTEN        .LB/F                                               :          
VSH_GR      .V/V                                                :Volume of Shale from GR
VSH_SP      .V/V                                                :Volume of Shale from SP
ZCOR        .G/CC                                               :          
~A        DEPTH            CAL            CNC           DT24             GR        GR_NORM           M0C6           M2R1           M2R2           M2R3           M2R6           M2R9           M2RX           PORZ           RWAZ             SP        SP_NORM           TTEN         VSH_GR         VSH_SP           ZCOR
# ...
      7865.0000          9.629         29.942         94.482         23.571       27.36079       3256.827          0.298          0.261          0.251          0.242          0.241          0.245          28.22          0.026        -66.604       -70.3782       3385.649              0      0.0624568         -0.028
      7865.5000           9.62         31.005         94.213         26.992       31.06278       3423.458          0.348          0.288          0.271          0.259          0.258          0.262         28.285          0.028        -66.501       -70.2684       3379.333              0     0.06394051         -0.035
      7866.0000          9.643         32.898         92.985         30.557       34.92052       3550.362          0.399          0.311          0.286          0.272          0.271          0.275         29.378          0.032        -65.514       -69.2746       3371.706     0.04086222     0.07737031         -0.049
      7866.5000          9.778         33.797          96.25         31.721       36.18134        3642.49          0.418          0.314          0.283          0.269          0.267           0.27         31.463          0.036        -64.299       -68.0528       3369.377     0.06768815     0.09388104         -0.065
      7867.0000         10.037         33.051         99.006         30.602       34.97287       3709.581          0.413          0.305          0.272          0.257          0.254          0.257         33.528           0.04        -63.636       -67.3831       3371.086     0.04197596       0.102931         -0.065
      7867.5000         10.179         33.816          97.57         29.195        33.4529       3762.906          0.416          0.301          0.266           0.25          0.246          0.248          33.96          0.039        -63.594       -67.3343       3373.486     0.00963625      0.1035906         -0.051
      7868.0000         10.051         35.654         96.784         28.252       32.43479       3810.785          0.436          0.306          0.267           0.25          0.245          0.246         32.569          0.036        -64.421       -68.1545       3376.079              0     0.09250672         -0.035
      7868.5000          9.858         35.625         93.233         27.532       31.65788       3857.861          0.459          0.312          0.268           0.25          0.243          0.245         31.386          0.033        -65.931       -69.6577       3380.333              0     0.07219325         -0.024
      7869.0000          9.848         34.675         90.321         27.523       31.64998       3905.943          0.473          0.316          0.269          0.249          0.241          0.243         32.138          0.034        -67.248        -70.968       3386.142              0     0.05448645         -0.013
      7869.5000         10.004         33.632         92.727         28.455       32.65987        3954.71          0.489          0.321          0.271           0.25          0.242          0.244         33.981          0.039        -68.016       -71.7292       3390.067              0     0.04419997          0.002
      7870.0000         10.207         31.769          97.16         29.586         33.885       4000.442            0.5          0.327          0.275          0.253          0.245          0.247         35.231          0.042         -68.64       -72.3464       3388.818     0.01882975      0.0358595          0.012
      7870.5000         10.334          30.93         98.945         30.276       34.63314       4037.673          0.483          0.321          0.272          0.251          0.243          0.245         35.225          0.042        -69.428       -73.1276       3385.432     0.03474767     0.02530268          0.008
      7871.0000         10.261         32.334         97.411          30.08       34.42299       4058.347          0.434            0.3          0.258          0.241          0.233          0.236         34.021          0.037        -70.308       -74.0009       3382.944     0.03027628     0.01350135         -0.007
      7871.5000         10.016         33.887         95.073         28.377       32.58286       4053.332          0.377          0.272           0.24          0.226           0.22          0.222           32.1          0.031        -71.007       -74.6931         3383.9              0    0.004147298         -0.021
      7872.0000          9.784         33.209         92.333         26.067        30.0862       4010.905          0.335          0.251          0.225          0.215          0.209          0.212         30.335          0.026        -71.252       -74.9313       3386.314              0   0.0009284148         -0.031
      7872.5000          9.681         31.462         91.647         24.729       28.64086       3921.365          0.317          0.242           0.22          0.212          0.207           0.21         29.253          0.024        -70.946       -74.6185       3383.812              0    0.005155409         -0.035
      7873.0000          9.663         30.389         92.138         24.314       28.19384       3777.217          0.318          0.246          0.226          0.219          0.214          0.218         28.639          0.024        -70.037       -73.7028       3379.347              0     0.01752977         -0.028
      7873.5000          9.675         30.928         90.689         25.941       29.95544       3578.389          0.334          0.262          0.241          0.236          0.231          0.235         28.086          0.025        -67.605        -71.264       3381.182              0     0.05048649         -0.016
      7874.0000          9.728         33.102         90.881         31.576        36.0522        3332.25          0.364           0.29           0.27          0.265          0.259          0.265         26.907          0.025        -60.886       -64.5382       3386.696     0.06494043      0.1413757         -0.003
      7874.5000          9.862         35.844         96.855         41.757       47.06581        3056.31          0.411          0.338          0.316          0.312          0.305          0.312         25.466          0.027        -47.469       -51.1144        3388.14      0.2992725      0.3227784          0.019
      7875.0000         10.004         37.509        105.462         53.893       60.19394        2772.65          0.467          0.403          0.381          0.377          0.367          0.379         24.875          0.031        -30.453       -34.0917       3384.817      0.5785945      0.5528148          0.042
      7875.5000         10.028         38.214        114.057         63.525       70.61375       2507.446          0.523          0.478          0.459          0.455          0.441          0.458         24.632          0.036         -17.33       -20.9619       3379.956      0.8002927      0.7302446          0.052
      7876.0000          9.955          36.67          117.8         67.565       74.98526       2283.122          0.594          0.571          0.557          0.549           0.53          0.554          23.69           0.04        -12.382       -16.0071       3376.771      0.8933034      0.7972013          0.052
      7876.5000          9.885         30.533        112.443         65.416       72.66274        2117.95           0.72          0.708          0.696          0.679          0.651          0.687         23.014          0.047        -13.971       -17.5893       3378.409      0.8438882      0.7758203           0.04
      7877.0000          9.833          23.66        107.326         56.949       63.50667        2020.64          0.941          0.901          0.882          0.844          0.803          0.858         25.096          0.071        -19.336       -22.9476        3383.55      0.6490781      0.7034108          0.011
      7877.5000          9.792         20.075        104.811         44.741       43.26603       1992.191          1.189          1.038          0.997          0.932          0.887           0.95         29.734          0.113        -27.322       -30.9268        3386.27      0.2184262      0.5955838         -0.011
