#------------------------------------------------------------------------------
# Created by    : vladimir.rabinovich
# Created on    : 09/19/2023 17:22:25
#------------------------------------------------------------------------------
~Version Information Section
VERS.           2.0     :   CWLS log ASCII Standard - VERSION 2.0
WRAP.           NO      :   One line per depth step
~Well Information Section
#MNEM       .UNIT                                         VALUE :DESCRIPTION
#------------------------------------------------------------------------------
STRT        .FT                                            2996 :START DEPTH
STOP        .FT                                            8909 :STOP DEPTH
STEP        .FT                                             0.5 :STEP      
NULL        .                                           -999.25 :NULL      
COMP        .                             PHILLIPS PETROLEUM CO :COMPANY   
WELL        .                                OCS 00299 ST00BP00 :WELL      
FLD         .                           WEST CAMERON BLOCK 0045 :FIELD     
LOC         .                                                   :LOCATION  
CNTY        .                                      WEST CAMERON :LOCATION  
STAT        .                                         LOUISIANA :STATE     
CTRY        .                                     UNITED STATES :COUNTRY   
SRVC        .                                                   :SERVICE COMPANY
DATE        .                             9/13/2023 11:18:09 AM :LOG DATE  
API         .                                    17700407290000 :API NUMBER
UWI         .                                    17700407290000 :UNIQUE WELL ID
XCOORD      .                                  1446390.31791034 :SURFACE X 
YCOORD      .                                  10761453.0604348 :SURFACE Y 
LAT         .                                        29.6510516 :LATITUDE  
LON         .                                       -93.6110308 :LONGITUDE 
ELEV        .FT                                              99 :ELEVATION VALUE
ELEV_TYPE   .                                                KB :ELEVATION REFERENCE TYPE
~Curve Information Section
#MNEM       .UNIT                                      API CODE :CURVE DESCRIPTION
#------------------------------------------------------------------------------
DEPT        .FT                                                 :DEPTH     
CALX        .IN                                                 :          
CDL         .%                                                  :          
CILD        .MMHO                                               :          
CNS         .%                                                  :          
DRHO        .G/C3                                               :          
GR_NORM     .GAPI                                               :GammaRay Normalized
RILD        .OHMM                                               :          
RILM        .OHMM                                               :          
RLL         .OHMM                                               :          
SP          .MV                                                 :          
SP_NORM     .MV                                                 :SP Normalized
TENS        .LB                                                 :          
VSH_GR      .V/V                                                :Volume of Shale from GR
VSH_SP      .V/V                                                :Volume of Shale from SP
~A        DEPTH           CALX            CDL           CILD            CNS           DRHO        GR_NORM           RILD           RILM            RLL             SP        SP_NORM           TENS         VSH_GR         VSH_SP
# ...
      4976.0000          15.32        45.7059           5168           49.8         0.0676       45.53237         0.1892         0.2704            0.8          -13.6       -15.5048       1938.776      0.2666461              0
      4976.5000          14.64        47.4118       4783.673          48.66          0.051       45.74315         0.2077         0.2862          0.832        -12.815       -14.7198       1959.184      0.2711308              0
      4977.0000        13.7451        47.6471       4342.857          48.96         0.0333       46.59325         0.2304         0.3028         0.8485         -11.74       -13.6448       1979.592      0.2892182     0.03229089
      4977.5000          12.14        45.1765       3843.137          49.26         0.0137        50.6402         0.2704         0.3353         0.8079        -10.365       -12.2698           2000      0.3753234      0.1572909
      4978.0000          11.78          38.76       3341.177          49.56         0.0118       57.94366         0.3056         0.3748         0.7859        -9.2764       -11.1812       1979.592      0.5307161      0.2562546
      4978.5000        11.8371        31.1465           2912        45.8846         0.0263       66.17078          0.354         0.4146          0.758        -7.7609        -9.6657       1979.592      0.7057612      0.3940273
      4979.0000        12.2123        30.9175           2560        43.0588         0.0437       71.76864         0.4022         0.4456         0.7234        -5.9522         -7.857       1979.592      0.8248646      0.5584546
      4979.5000        13.0665        35.0588       2285.714             41         0.0583       72.35636         0.4323           0.47         0.6894        -4.6606        -6.5654       1979.592      0.8373694      0.6758727
      4980.0000          14.62        45.8384       2106.123        42.7059         0.0393        67.9545         0.4646         0.5005         0.7141        -4.0733        -5.9781       1979.592      0.7437127      0.7292637
      4980.5000         13.678           53.7       1959.184        44.5882         0.0167       61.28215         0.5048         0.5296         0.6937        -4.2879        -6.1927       1979.592      0.6017479      0.7097545
      4981.0000          12.14          53.16       1877.551           46.8          0.002       56.59105         0.5399         0.5557         0.7272        -4.8988        -6.8036       1979.592      0.5019372      0.6542182
      4981.5000          11.24        48.0588       1828.571          51.06          0.002       54.24442         0.5557          0.583         0.8295        -5.5066        -7.4114           2000      0.4520088      0.5989637
      4982.0000           11.2        39.6471       1812.245          51.06          0.002        57.0126         0.5557          0.583         0.8295        -5.3055        -7.2103           2000      0.5109065      0.6172454
      4982.5000           11.2        31.0588       1795.918        48.7059         0.0157       62.55133          0.561          0.583         0.7849           -4.3        -6.2048           2000      0.6287518      0.7086545
      4983.0000          11.18         25.898       1779.592          46.68         0.0294       66.39797          0.561          0.583         0.7412           -3.1        -5.0048           2000      0.7105951      0.8177454
      4983.5000          11.18        25.4694       1779.592          45.66         0.0441       73.35188          0.561         0.5774            0.7           -1.7        -3.6048           2000      0.8585505      0.9450182
      4984.0000          11.18        25.3469       1779.592        44.5882          0.051        78.7841          0.561         0.5774         0.6937           -0.9        -2.8048           2000      0.9741297              1
      4984.5000          11.18        26.8776       1779.592        44.6471          0.055       83.99895          0.561         0.5774         0.7627           -0.3        -2.2048           2000              1              1
      4985.0000          11.16          28.02       1779.592          45.66          0.048       85.95303          0.561         0.5719         0.6812              0        -1.9048           2000              1              1
      4985.5000          11.14          29.28       1746.939          46.68         0.0392       87.03757          0.561         0.5719          0.611         0.5102        -1.3946           2000              1              1
      4986.0000          11.14        30.5294       1681.633          47.88         0.0314         84.644         0.5664         0.5719         0.6055         0.8163        -1.0885           2000              1              1
      4986.5000          11.14        31.5882       1632.653        50.2353         0.0255       79.64181         0.5774         0.5886          0.583         0.8163        -1.0885           2000      0.9923789              1
      4987.0000          11.16        31.5882       1632.653          52.08         0.0294       74.63963         0.5886            0.6         0.7412         0.7143        -1.1905           2000      0.8859497              1
      4987.5000          11.14        31.1765       1632.653           51.9         0.0333       71.37652            0.6         0.6165         0.9174         0.6122        -1.2926           2000      0.8165216              1
      4988.0000          11.14        30.5882           1600           51.6         0.0373       77.46089          0.611         0.6165         0.6451         0.8163        -1.0885           2000      0.9459764              1
      4988.5000          11.14             30       1583.673        50.0588         0.0412        85.5017         0.6222         0.6165         0.6451         1.0173        -0.8875           2000              1              1
      4989.0000          11.16          29.58       1518.367        48.7647         0.0431        94.4963         0.6335         0.6165         0.6569         1.2147        -0.6901       2020.408              1              1
      4989.5000          11.16          29.88       1453.061          47.46         0.0461       101.9551         0.6569         0.6278         0.6812         1.2086        -0.6962       2020.408              1              1
      4990.0000          11.18        30.1176       1436.735          45.78         0.0461       108.2984         0.6751         0.6393         0.7067         1.2027        -0.7021       2020.408              1              1
      4990.5000          11.22        30.0588       1404.082          45.66         0.0461       107.3893         0.6937         0.6569         0.7067            1.3        -0.6048       2020.408              1              1
      4991.0000          11.24             30       1387.755          45.48         0.0461       100.3612         0.7135         0.6629         0.7067            1.3        -0.6048           2000              1              1
      4991.5000          11.28          29.88       1371.429          45.36          0.048       92.75984         0.7342         0.6812         0.7067            1.2        -0.7048           2000              1              1
      4992.0000           11.3           29.7       1355.102           45.9           0.05       91.20212         0.7555            0.7         0.7067            1.1        -0.8048       1979.592              1              1
      4992.5000          11.36          29.34       1322.449           46.8           0.05       92.53271         0.7774            0.7         0.7067              1        -0.9048       1979.592              1              1
      4993.0000          11.38          28.26       1306.122          46.62          0.048       94.75216         0.7849         0.7067         0.7067            0.8        -1.1048       1979.592              1              1
      4993.5000          11.38          27.12       1289.796          46.38         0.0461       97.19383         0.7849         0.7067         0.7135            0.7        -1.2048           2000              1              1
