#------------------------------------------------------------------------------
# Created by    : vladimir.rabinovich
# Created on    : 09/19/2023 17:22:25
#------------------------------------------------------------------------------
~Version Information Section
VERS.           2.0     :   CWLS log ASCII Standard - VERSION 2.0
WRAP.           NO      :   One line per depth step
~Well Information Section
#MNEM       .UNIT                                         VALUE :DESCRIPTION
#------------------------------------------------------------------------------
STRT        .FT                                            2996 :START DEPTH
STOP        .FT                                            8909 :STOP DEPTH
STEP        .FT                                             0.5 :STEP      
NULL        .                                           -999.25 :NULL      
COMP        .                             PHILLIPS PETROLEUM CO :COMPANY   
WELL        .                                OCS 00299 ST00BP00 :WELL      
FLD         .                           WEST CAMERON BLOCK 0045 :FIELD     
LOC         .                                                   :LOCATION  
CNTY        .                                      WEST CAMERON :LOCATION  
STAT        .                                         LOUISIANA :STATE     
CTRY        .                                     UNITED STATES :COUNTRY   
SRVC        .                                                   :SERVICE COMPANY
DATE        .                             9/13/2023 11:18:09 AM :LOG DATE  
API         .                                    17700407290000 :API NUMBER
UWI         .                                    17700407290000 :UNIQUE WELL ID
XCOORD      .                                  1446390.31791034 :SURFACE X 
YCOORD      .                                  10761453.0604348 :SURFACE Y 
LAT         .                                        29.6510516 :LATITUDE  
LON         .                                       -93.6110308 :LONGITUDE 
ELEV        .FT                                              99 :ELEVATION VALUE
ELEV_TYPE   .                                                KB :ELEVATION REFERENCE TYPE
~Curve Information Section
#MNEM       .UNIT                                      API CODE :CURVE DESCRIPTION
#------------------------------------------------------------------------------
DEPT        .FT                                                 :DEPTH     
CALX        .IN                                                 :          
CDL         .%                                                  :          
CILD        .MMHO                                               :          
CNS         .%                                                  :          
DRHO        .G/C3                                               :          
GR_NORM     .GAPI                                               :GammaRay Normalized
RILD        .OHMM                                               :          
RILM        .OHMM                                               :          
RLL         .OHMM                                               :          
SP          .MV                                                 :          
SP_NORM     .MV                                                 :SP Normalized
TENS        .LB                                                 :          
VSH_GR      .V/V                                                :Volume of Shale from GR
VSH_SP      .V/V                                                :Volume of Shale from SP
~A        DEPTH           CALX            CDL           CILD            CNS           DRHO        GR_NORM           RILD           RILM            RLL             SP        SP_NORM           TENS         VSH_GR         VSH_SP
# ...
      6146.0000          12.06          27.36       1746.939        43.5294          0.045       88.56748         0.5664         0.5504         0.6335        -0.6122         -2.517       2387.755              1              1
      6146.5000          12.04          27.18       1763.265             43           0.05       87.67625         0.5664         0.5504          0.669        -0.4082         -2.313       2367.347              1              1
      6147.0000          12.02          27.12       1795.918        43.7647          0.051       87.22946         0.5664         0.5504          0.669        -0.5102         -2.415       2367.347              1              1
      6147.5000          12.12          27.12       1812.245        45.5294           0.05       87.00478          0.561         0.5504         0.6451        -0.5102         -2.415       2367.347              1              1
      6148.0000          12.22          27.06       1828.571        47.3529          0.049       87.00231         0.5504         0.5451         0.6165        -0.5102         -2.415       2346.939              1              1
      6148.5000          12.16        26.7551       1861.224        46.1111          0.049       86.33331         0.5451         0.5399            0.6        -0.6122         -2.517       2346.939              1              1
      6149.0000          11.96        26.5102       1877.551        45.1553           0.05       86.10862         0.5347         0.5347         0.6874        -0.8163        -2.7211       2387.755              1              1
      6149.5000           11.9        26.9388       1893.878        43.6078          0.054       86.55049         0.5296         0.5246         0.6812        -0.7143        -2.6191       2408.163              1              1
      6150.0000          11.88          27.78       1926.531        44.2997          0.057       86.77024         0.5196         0.5196         0.6393        -0.6122         -2.517       2448.979              1              1
      6150.5000           11.8          28.44       1926.531           46.2         0.0561       87.68374         0.5146         0.5146         0.5886        -0.3061        -2.2109       2469.388              1              1
      6151.0000          11.92          28.68       1926.531        48.0588         0.0524       89.30025         0.5146         0.5196         0.5774        -0.2041        -2.1089       2489.796              1              1
      6151.5000          11.98          28.44       1926.531        49.9412         0.0487       86.88297         0.5196         0.5296          0.583        -0.3061        -2.2109       2489.796              1              1
      6152.0000          12.04          27.48       1910.204             49         0.0459       83.30542         0.5296         0.5399            0.6        -0.5102         -2.415       2489.796              1              1
      6152.5000          12.04        26.3878       1877.551           47.1          0.042       76.28816         0.5451         0.5451         0.6393        -0.8163        -2.7211       2469.388      0.9210247              1
      6153.0000          12.04         25.898       1877.551          45.42          0.038       73.33939         0.5557         0.5504         0.6812        -0.8163        -2.7211       2469.388       0.858285              1
      6153.5000             12        26.1429       1828.571        44.0588          0.034       74.47012         0.5664         0.5557         0.7342        -0.9184        -2.8232       2448.979      0.8823429              1
      6154.0000          11.94        26.2653       1795.918        44.1765          0.034       75.82749         0.5664          0.561         0.7483        -0.8163        -2.7211       2448.979      0.9112232              1
      6154.5000          11.84        26.6939       1763.265          46.38          0.035       78.54469         0.5719          0.561         0.6569        -0.4082         -2.313       2448.979      0.9690359              1
      6155.0000          11.76          27.42       1746.939          46.44          0.039       81.03523         0.5774          0.561         0.6451        -0.3061        -2.2109       2448.979              1              1
      6155.5000          11.76           28.8       1730.612           46.2           0.04       83.52577          0.583          0.561         0.6451        -0.2041        -2.1089       2448.979              1              1
      6156.0000          11.72          29.28       1746.939          46.14          0.041       82.61677          0.583          0.561         0.6165         -0.102        -2.0068       2428.572              1              1
      6156.5000          11.68          28.86       1746.939        48.7059          0.041       79.89465          0.583          0.561         0.6451         -0.102        -2.0068       2428.572      0.9977584              1
      6157.0000           11.7          27.78       1746.939          51.12          0.045       80.34546          0.583         0.5664         0.6451         -0.102        -2.0068       2428.572              1              1
      6157.5000          11.86        26.6327       1746.939          51.24           0.05       84.42248          0.583         0.5719         0.6451         -0.102        -2.0068       2428.572              1              1
      6158.0000          11.92         26.449       1746.939             49           0.05       85.77983         0.5886         0.5774          0.651         -0.102        -2.0068       2428.572              1              1
      6158.5000          11.66        26.5102       1746.939          46.68          0.048       83.28436         0.5886          0.583         0.6751         -0.102        -2.0068       2448.979              1              1
      6159.0000           11.6        26.2653       1730.612        44.7059          0.049       80.78888         0.5886          0.583         0.6812         -0.102        -2.0068       2428.572              1              1
      6159.5000           11.7        26.0204       1697.959        42.2941         0.0529       79.19995         0.5886          0.583         0.6629         -0.102        -2.0068       2408.163      0.9829777              1
      6160.0000          11.76        26.2653       1697.959        41.9412          0.047       77.83766         0.5886          0.583         0.6451         -0.102        -2.0068       2387.755      0.9539928              1
      6160.5000           11.8        26.8163       1714.286        41.9412          0.043       76.02208         0.5886         0.5774         0.6393              0        -1.9048       2408.163      0.9153634              1
      6161.0000          11.76        26.8776       1730.612        42.1765           0.04       74.88644         0.5886         0.5774         0.6629              0        -1.9048       2428.572      0.8912008              1
      6161.5000          11.68         26.449       1746.939        42.5294          0.044       76.92371         0.5886         0.5774         0.6812              0        -1.9048       2428.572      0.9345469              1
      6162.0000          11.64        26.3265       1763.265        42.8824          0.047       83.72038          0.583         0.5774         0.6874              0        -1.9048       2408.163              1              1
      6162.5000          11.64        26.8163       1779.592        42.9412           0.05       88.02403          0.583         0.5774         0.6629            0.2        -1.7048       2408.163              1              1
      6163.0000          11.68          27.18       1795.918        42.4118           0.05       86.43511         0.5774          0.583         0.6222            0.5        -1.4048       2387.755              1              1
      6163.5000          11.88          27.36       1795.918        43.8824           0.05        83.2597         0.5774          0.583         0.6222            0.5        -1.4048       2367.347              1              1
