#------------------------------------------------------------------------------
# Created by    : vladimir.rabinovich
# Created on    : 09/19/2023 17:22:25
#------------------------------------------------------------------------------
~Version Information Section
VERS.           2.0     :   CWLS log ASCII Standard - VERSION 2.0
WRAP.           NO      :   One line per depth step
~Well Information Section
#MNEM       .UNIT                                         VALUE :DESCRIPTION
#------------------------------------------------------------------------------
STRT        .FT                                            2996 :START DEPTH
STOP        .FT                                            8909 :STOP DEPTH
STEP        .FT                                             0.5 :STEP      
NULL        .                                           -999.25 :NULL      
COMP        .                             PHILLIPS PETROLEUM CO :COMPANY   
WELL        .                                OCS 00299 ST00BP00 :WELL      
FLD         .                           WEST CAMERON BLOCK 0045 :FIELD     
LOC         .                                                   :LOCATION  
CNTY        .                                      WEST CAMERON :LOCATION  
STAT        .                                         LOUISIANA :STATE     
CTRY        .                                     UNITED STATES :COUNTRY   
SRVC        .                                                   :SERVICE COMPANY
DATE        .                             9/13/2023 11:18:09 AM :LOG DATE  
API         .                                    17700407290000 :API NUMBER
UWI         .                                    17700407290000 :UNIQUE WELL ID
XCOORD      .                                  1446390.31791034 :SURFACE X 
YCOORD      .                                  10761453.0604348 :SURFACE Y 
LAT         .                                        29.6510516 :LATITUDE  
LON         .                                       -93.6110308 :LONGITUDE 
ELEV        .FT                                              99 :ELEVATION VALUE
ELEV_TYPE   .                                                KB :ELEVATION REFERENCE TYPE
~Curve Information Section
#MNEM       .UNIT                                      API CODE :CURVE DESCRIPTION
#------------------------------------------------------------------------------
DEPT        .FT                                                 :DEPTH     
CALX        .IN                                                 :          
CDL         .%                                                  :          
CILD        .MMHO                                               :          
CNS         .%                                                  :          
DRHO        .G/C3                                               :          
GR_NORM     .GAPI                                               :GammaRay Normalized
RILD        .OHMM                                               :          
RILM        .OHMM                                               :          
RLL         .OHMM                                               :          
SP          .MV                                                 :          
SP_NORM     .MV                                                 :SP Normalized
TENS        .LB                                                 :          
VSH_GR      .V/V                                                :Volume of Shale from GR
VSH_SP      .V/V                                                :Volume of Shale from SP
~A        DEPTH           CALX            CDL           CILD            CNS           DRHO        GR_NORM           RILD           RILM            RLL             SP        SP_NORM           TENS         VSH_GR         VSH_SP
# ...
      4598.0000          14.86        53.7059       3811.765          50.04          0.024       46.43954         0.2654         0.3142         0.5838           -7.1        -8.9281       1857.143      0.2859478      0.4610819
      4598.5000         12.757        51.1176       3609.046        53.8235          0.018       54.00737         0.2831         0.3349         0.5276        -5.6018        -7.4317       1857.602      0.4469653      0.5971181
      4599.0000         12.272          41.76       3389.723          55.44          0.023        57.9552         0.2989         0.3666         0.5622           -4.1        -5.9317       1878.594      0.5309617      0.7334818
      4599.5000         11.847        36.4118       3121.027          54.96          0.025       56.90302         0.3153         0.4013         0.6582           -4.1        -5.9334       1899.258       0.508575      0.7333273
      4600.0000         11.642        31.0588       2964.244        51.4118          0.015       47.34245         0.3295          0.456              1        -5.2037        -7.0389       1919.831      0.3051584      0.6328273
      4600.5000          11.68          16.62       2982.104        34.0251              0       40.86007         0.3353         0.4729         6.1592         -6.648        -8.4849       1922.636      0.1672356      0.5013727
      4601.0000           11.8          16.68       3158.893          19.86          0.004         38.701         0.3201          0.439         6.4984             -8        -9.8387        1967.37      0.1212978         0.3783
      4601.5000          13.06        23.3878       3273.445        12.6908         0.0178       41.24782         0.3056         0.3819         3.6455        -9.5561       -11.3966       1972.973      0.1754856      0.2366727
      4602.0000          13.78        31.3169       3387.033         8.7054         0.0285       46.93195         0.2972         0.3385          1.375       -10.3904       -12.2326       1957.323      0.2964244      0.1606727
      4602.5000          13.24             43       3576.471           9.84         0.0304       56.81998         0.2808         0.3201         0.5296         -9.898        -11.742       1938.776       0.506808      0.2052728
      4603.0000          13.32           45.6       3780.392        14.8824         0.0245        59.4178         0.2629         0.3172         0.5048        -8.8776       -10.7234       1918.367      0.5620809      0.2978727
      4603.5000           14.4        44.1765       3968.627          24.36         0.0304       56.41562         0.2484         0.3201         0.5196        -8.1633       -10.0108       1877.551      0.4982046      0.3626545
      4604.0000          15.68        42.7647       4048.979        41.0588         0.0392       51.82525         0.2415         0.3231         0.5664        -9.0816       -10.9309       1857.143      0.4005372      0.2790091
      4604.5000        16.0392          45.48       4065.306             45         0.0333       44.76418         0.2415         0.3292         0.6451          -10.1       -11.9511       1857.143      0.2503016      0.1862636
      4605.0000        16.1961        50.7647       3905.882          47.82         0.0265         42.213         0.2508         0.3416          0.669          -10.2       -12.0528       1857.143      0.1960212      0.1770182
      4605.5000        16.5098          51.66       3654.902          51.78         0.0265       44.75982         0.2654          0.348         0.6937        -9.3878       -11.2424       1877.551       0.250209      0.2506909
      4606.0000        16.6078           46.8       3372.549        56.2353         0.0275       50.64005         0.2972         0.3646         0.6937        -7.9592        -9.8155       1877.551      0.3753201      0.3804091
      4606.5000             13        40.6471           3088        56.3529         0.0225       59.20258         0.3261         0.3819         0.6937        -6.0204        -7.8785       1897.959      0.5575016         0.5565
      4607.0000          12.96          36.54           2848        50.4706         0.0167        67.4004         0.3612         0.4037         0.6937             -4        -5.8599       1897.959      0.7319233      0.7400091
      4607.5000           12.9        33.7059           2624        44.6471         0.0078       72.19823         0.3926         0.4431         0.6874             -3        -4.8616       1918.367      0.8340048      0.8307636
      4608.0000          12.84          31.62           2416        42.4118         0.0078       71.19605         0.4269         0.4729         0.6629           -2.3        -4.1634       1918.367       0.812682      0.8942363
      4608.5000           12.8        30.0086       2204.082        42.0672         0.0167       69.59387         0.4642         0.4954         0.6629           -1.7        -3.5652       1897.959       0.778593      0.9486182
      4609.0000           12.8        29.4829       2008.163        42.3754         0.0245        68.9917            0.5         0.5196         0.7135           -1.4        -3.2669       1877.551      0.7657808      0.9757364
      4609.5000          12.78          28.96       1893.878        42.2157         0.0373       73.18953         0.5246         0.5451         0.7627             -1        -2.8687       1877.551      0.8550964              1
      4610.0000           12.7        28.6743       1795.918        40.1373         0.0471       74.78735         0.5504          0.561         0.7135           -0.4        -2.2704       1857.143      0.8890926              1
      4610.5000          12.64          28.68       1697.959             37          0.053       76.17418         0.5768         0.5659         0.6687           -0.2        -2.0722       1877.551      0.9185995              1
      4611.0000           12.6           28.8       1665.306        37.0588          0.053       76.94749         0.6034         0.5757         0.6745              0         -1.874       1877.551      0.9350531              1
      4611.5000           12.5           28.8       1632.653        37.3529         0.0471       78.10793         0.6193           0.58         0.7194         0.2041        -1.6716       1857.143      0.9597431              1
      4612.0000          12.32          28.44       1616.327        38.4118         0.0392       78.47105         0.6301         0.5896         0.7588         0.4082        -1.4693       1857.143      0.9674692              1
      4612.5000          12.24          27.84           1600        38.7647         0.0441       79.69017         0.6296         0.5946         0.7126         0.8163         -1.063       1877.551      0.9934079              1
      4613.0000          12.18          27.42       1583.673        38.7059          0.048        77.7272         0.6236         0.5946         0.6607         0.9184        -0.9626       1877.551      0.9516425              1
      4613.5000           12.1           27.3       1583.673        38.2941         0.0461       76.35252         0.6236         0.5946         0.6357         1.0204        -0.8624       1877.551      0.9223941              1
      4614.0000           12.1          28.02           1600        38.0588         0.0402       75.76215         0.6236         0.5946         0.6236         0.9184        -0.9662       1877.551      0.9098329              1
      4614.5000          12.14          28.56       1616.327        38.2353         0.0324       74.56777         0.6236         0.5946         0.7063         0.9184        -0.9679       1877.551      0.8844207              1
      4615.0000           12.2           29.1       1616.327        38.5294         0.0255        71.3656         0.6236         0.5946         0.7319         0.9184        -0.9697       1877.551      0.8162894              1
      4615.5000          12.28          29.22       1632.653        38.8824         0.0216       67.16342         0.6176         0.5946          0.745         1.0204        -0.8694       1877.551      0.7268813              1
