#------------------------------------------------------------------------------
# Created by    : vladimir.rabinovich
# Created on    : 09/19/2023 17:21:58
#------------------------------------------------------------------------------
~Version Information Section
VERS.           2.0     :   CWLS log ASCII Standard - VERSION 2.0
WRAP.           NO      :   One line per depth step
~Well Information Section
#MNEM       .UNIT                                         VALUE :DESCRIPTION
#------------------------------------------------------------------------------
STRT        .FT                                            3382 :START DEPTH
STOP        .FT                                           10910 :STOP DEPTH
STEP        .FT                                             0.5 :STEP      
NULL        .                                           -999.25 :NULL      
COMP        .                               B P EXPLORATION INC :COMPANY   
WELL        .                               OCS G07597 ST00BP00 :WELL      
FLD         .                           WEST CAMERON BLOCK 0045 :FIELD     
LOC         .                                                   :LOCATION  
CNTY        .                                      WEST CAMERON :LOCATION  
STAT        .                                         LOUISIANA :STATE     
CTRY        .                                     UNITED STATES :COUNTRY   
SRVC        .                                                   :SERVICE COMPANY
DATE        .                             9/13/2023 11:18:09 AM :LOG DATE  
API         .                                    17700407640000 :API NUMBER
UWI         .                                    17700407640000 :UNIQUE WELL ID
XCOORD      .                                  1473636.79229916 :SURFACE X 
YCOORD      .                                   10762774.556795 :SURFACE Y 
LAT         .                                        29.6550545 :LATITUDE  
LON         .                                       -93.5252479 :LONGITUDE 
ELEV        .FT                                              90 :ELEVATION VALUE
ELEV_TYPE   .                                                KB :ELEVATION REFERENCE TYPE
~Curve Information Section
#MNEM       .UNIT                                      API CODE :CURVE DESCRIPTION
#------------------------------------------------------------------------------
DEPT        .FT                                                 :DEPTH     
CALI        .IN                                                 :          
DRHO        .G/C3                                               :          
DT          .US/F                                               :          
GR          .GAPI                                               :          
GR_1        .GAPI                                               :          
GR_NORM     .GAPI                                               :GammaRay Normalized
ILD         .OHMM                                               :          
ILM         .OHMM                                               :          
NPHI        .%                                                  :          
RHOB        .G/C3                                               :          
SFL         .OHMM                                               :          
SP          .MV                                                 :          
SP_NORM     .MV                                                 :SP Normalized
VSH_GR      .V/V                                                :Volume of Shale from GR
VSH_SP      .V/V                                                :Volume of Shale from SP
~A        DEPTH           CALI           DRHO             DT             GR           GR_1        GR_NORM            ILD            ILM           NPHI           RHOB            SFL             SP        SP_NORM         VSH_GR         VSH_SP
# ...
      6935.0000        11.2218        -0.0489        113.079        31.3953        41.3231       33.98783         0.1965         0.2065        38.1434         2.1228         0.4725      -134.9006       -82.7145      0.0210176     0.02787195
      6935.5000        11.2076        -0.0455       112.8085        32.7563        40.2525       36.25444         0.1989         0.2096        38.0357         2.1276         0.4554      -134.8213       -82.6414     0.06924341     0.02876338
      6936.0000        11.1811        -0.0434       112.4736        33.5818        40.4705       37.62923         0.2028         0.2144        38.0234         2.1261         0.4451      -134.8181       -82.6444     0.09849419     0.02872681
      6936.5000        11.1449        -0.0424       111.7327        33.8936        43.8251        38.1485         0.2081          0.221        38.2119         2.1255         0.4377      -134.3081       -82.1406      0.1095425     0.03487071
      6937.0000        11.0916        -0.0416       110.8628        34.2711        44.9504       38.77719          0.216         0.2312        38.5475         2.1265         0.4326      -133.2505       -81.0892      0.1229189     0.04769265
      6937.5000        11.0271        -0.0409       109.3757        34.3349        44.1871       38.88346          0.228         0.2457        38.7925         2.1281         0.4333      -132.0342       -79.8792      0.1251799     0.06244873
      6938.0000        11.0214        -0.0405       106.9347        34.5021        46.7667       39.16189         0.2457         0.2642        38.3431         2.1313         0.4381       -128.554       -76.4052      0.1311041      0.1048147
      6938.5000        11.0277        -0.0405       105.4526        34.6928        49.1636       39.47949         0.2743         0.2874        38.1454         2.1481         0.4599      -119.5934       -67.4508      0.1378615      0.2140147
      6939.0000        11.0333        -0.0385       104.4526        34.8835        49.8505       39.79708         0.3223         0.3239         38.154         2.1747         0.5287      -113.5696       -61.4332      0.1446188         0.2874
      6939.5000        11.0372        -0.0353       103.7699        35.2344        52.5674       40.38148         0.3415         0.3888        37.9818          2.227         0.6659      -107.0514       -54.9212      0.1570527      0.3668146
      6940.0000        11.0308        -0.0322        103.895        36.8671        54.6929       43.10059         0.3508         0.4147        37.6547         2.2615          0.817      -104.7594       -52.6354      0.2149062      0.3946902
      6940.5000        11.0231        -0.0295       105.1503        41.0852        56.5195       50.12542         0.3528         0.4231        35.9025         2.2705         0.8876      -105.6128        -53.495      0.3643707      0.3842073
      6941.0000        11.0151        -0.0272       106.6162        42.2734        59.0725       52.10424         0.3497         0.4108        35.4496         2.2655         0.8911      -107.9779       -55.8663      0.4064732       0.355289
      6941.5000        11.0001         -0.027       107.2655         42.663        61.9777       52.75309         0.3379         0.3917        35.2347         2.2375         0.8738      -109.7024        -57.597      0.4202785      0.3341829
      6942.0000        10.9955        -0.0277        106.892        43.0663         63.372       53.42474         0.3244         0.3759        35.2095         2.2257         0.8622      -109.7528       -57.6536      0.4345689      0.3334927
      6942.5000        10.9877        -0.0289       106.0846        43.6488        61.0352       54.39483         0.3231         0.3662        35.2945          2.215         0.8683      -109.9534       -57.8604      0.4552092      0.3309707
      6943.0000        10.9674        -0.0306       105.3064         44.059        59.0337       55.07799          0.324         0.3588         35.474         2.2113         0.8959      -111.0098       -58.9231      0.4697444       0.318011
      6943.5000        10.9644        -0.0327       104.8193        44.2571        56.0167       55.40791          0.322         0.3519        35.7479         2.2131         0.9322      -113.9917       -61.9112      0.4767641      0.2815707
      6944.0000        10.9739        -0.0349       105.3894        44.2604        52.8808        55.4134         0.3177         0.3455        36.2567         2.2131         0.9299       -114.025       -61.9507      0.4768809       0.281089
      6944.5000        10.9805        -0.0377       106.3746        43.9822        52.5067       54.95008         0.3111         0.3387         36.663         2.1999         0.8407       -117.006       -64.9379       0.467023      0.2446598
      6945.0000        10.9768        -0.0408       108.6398        43.6891        53.5512       54.46196         0.2969         0.3279        36.7978         2.1782         0.7411      -119.5531       -67.4912      0.4566374      0.2135219
      6945.5000        11.0147        -0.0443       111.6658        43.2761        53.3757       53.77414         0.2748          0.302        37.4177         2.1601         0.6316      -119.7063       -67.6506      0.4420029      0.2115781
      6946.0000        11.0956        -0.0464        113.212        42.8066        51.7172       52.99224         0.2508         0.2748        38.1027         2.1457         0.5287      -122.9598       -70.9103      0.4253668      0.1718256
      6946.5000        11.1494        -0.0434       112.3721        42.3177        49.7084       52.17802         0.2322         0.2562        38.1719         2.1363         0.3955      -125.6471       -73.6038      0.4080431      0.1389781
      6947.0000        11.1537        -0.0404       110.1515        42.0374        49.0695       51.71121           0.24         0.2545        38.2469         2.1327         0.3848      -120.4524       -68.4153      0.3981108      0.2022525
      6947.5000        11.1365        -0.0371       108.9321        42.0848        47.7924       51.79014         0.2659         0.2887        38.4052         2.1455         0.4088      -113.0601       -61.0292      0.3997903      0.2923268
      6948.0000        11.1294        -0.0334       109.1787        43.5851        47.3412       54.28875         0.3226         0.3401        38.6178         2.1756         0.4848      -105.6677        -53.643      0.4529522      0.3824024
      6948.5000        11.1123        -0.0302       110.3237          46.16        50.0946         58.577         0.3848         0.3895        38.8486         2.1969         0.6515         -96.33       -44.3116      0.5441914         0.4962
      6949.0000        11.0922        -0.0292       112.1094        47.9681        53.3787       61.58821         0.4165         0.4213        38.9662         2.2183         0.7044       -94.9326       -42.9204      0.6082599      0.5131659
      6949.5000        11.1032         -0.029       114.7041         49.062        54.4244          63.41         0.4295         0.4357        38.9828         2.2207          0.627       -94.2172       -42.2112      0.6470212      0.5218146
      6950.0000        11.1264        -0.0253       115.9742        50.1683        56.5657       65.25244         0.4323         0.4396         39.062         2.2163         0.5184       -90.7133       -38.7135      0.6862221      0.5644695
      6950.5000        11.1272         -0.017       116.1006         50.483        64.8221       65.77655          0.426         0.4336        39.4949         2.2128          0.495       -81.7576        -29.764      0.6973734      0.6736097
      6951.0000        11.1188          -0.01       114.7933        51.7192        66.3999        67.8353         0.4122         0.4251        40.4085         2.2205         0.5196       -79.7871       -27.7997      0.7411767      0.6975647
      6951.5000        11.1005        -0.0003       111.6261        53.8895        67.6205       71.44971         0.3883         0.4137        41.2211         2.2333            0.6       -79.7396       -27.7584      0.8180791      0.6980683
