#------------------------------------------------------------------------------
# Created by    : vladimir.rabinovich
# Created on    : 09/19/2023 17:20:42
#------------------------------------------------------------------------------
~Version Information Section
VERS.           2.0     :   CWLS log ASCII Standard - VERSION 2.0
WRAP.           NO      :   One line per depth step
~Well Information Section
#MNEM       .UNIT                                         VALUE :DESCRIPTION
#------------------------------------------------------------------------------
STRT        .FT                                            1866 :START DEPTH
STOP        .FT                                            8637 :STOP DEPTH
STEP        .FT                                             0.5 :STEP      
NULL        .                                           -999.25 :NULL      
COMP        .                           GENERAL AMERICAN OIL CO :COMPANY   
WELL        .                               OCS G01862 ST00BP00 :WELL      
FLD         .                           WEST CAMERON BLOCK 0045 :FIELD     
LOC         .                                                   :LOCATION  
CNTY        .                                      WEST CAMERON :LOCATION  
STAT        .                                         LOUISIANA :STATE     
CTRY        .                                     UNITED STATES :COUNTRY   
SRVC        .                                                   :SERVICE COMPANY
DATE        .                             9/13/2023 11:18:18 AM :LOG DATE  
API         .                                    17700004060000 :API NUMBER
UWI         .                                    17700004060000 :UNIQUE WELL ID
XCOORD      .                                  1439968.94212662 :SURFACE X 
YCOORD      .                                  10754878.8884152 :SURFACE Y 
LAT         .                                        29.6328727 :LATITUDE  
LON         .                                       -93.6311393 :LONGITUDE 
ELEV        .FT                                              51 :ELEVATION VALUE
ELEV_TYPE   .                                                KB :ELEVATION REFERENCE TYPE
~Curve Information Section
#MNEM       .UNIT                                      API CODE :CURVE DESCRIPTION
#------------------------------------------------------------------------------
DEPT        .FT                                                 :DEPTH     
ASN         .OHMM                                               :          
CALI        .IN                                                 :          
DRHO        .G/C3                                               :          
DT          .US/F                                               :          
GR          .GAPI                                               :          
GR_NORM     .GAPI                                               :GammaRay Normalized
ILD         .OHMM                                               :          
RHOB        .G/C3                                               :          
SP          .MV                                                 :          
SP_NORM     .MV                                                 :SP Normalized
VSH_GR      .V/V                                                :Volume of Shale from GR
VSH_SP      .V/V                                                :Volume of Shale from SP
~A        DEPTH            ASN           CALI           DRHO             DT             GR        GR_NORM            ILD           RHOB             SP        SP_NORM         VSH_GR         VSH_SP
# ...
      5966.0000         0.7577        12.8594         0.0875       107.0541        60.1381       61.03635          0.693          2.252       -65.4958        -29.789      0.5965182      0.5570923
      5966.5000         0.7832        12.4344         0.0561       104.7725        60.5673       61.51508         0.6983         2.2653        -53.207       -17.5066      0.6067038      0.7460523
      5967.0000         0.8074        11.9301         0.0482       102.8778          63.64        64.9491          0.705         2.2969        -50.257       -14.5631      0.6797682       0.791337
      5967.5000         0.8283        11.8422         0.0294       102.1003         67.623       69.40096         0.7129         2.3201       -48.9791       -13.2916      0.7744886      0.8108985
      5968.0000         0.8233        11.9179          0.033       104.4377        67.5741       69.34507         0.7138         2.3353       -47.3032       -11.6221      0.7732993      0.8365831
      5968.5000         0.8099        12.0538         0.0428       106.1948        67.7769       69.57068         0.7534         2.3338       -45.2588        -9.5842      0.7780995      0.8679354
      5969.0000         0.8002        12.4571          0.044       106.1526        70.4143       72.51805         0.7419         2.3317       -43.0087        -7.3405      0.8408096      0.9024538
      5969.5000         0.8218        12.4514         0.0305       105.4657        73.6744       76.16171         0.7045         2.3225       -41.3088        -5.6471      0.9183341      0.9285061
      5970.0000         0.8516        12.1451         0.0278        102.543        73.8624       76.37067         0.6615         2.3243        -40.481        -4.8257      0.9227802      0.9411431
      5970.5000          0.856        11.9701           0.03        103.649        71.0272       73.19971         0.6177         2.3347       -41.0745        -5.4257      0.8553129      0.9319123
      5971.0000         0.8355        11.9997         0.0282       106.2992        69.4875        71.4772         0.5714         2.3219       -42.0356        -6.3932      0.8186639      0.9170277
      5971.5000         0.8038        12.1465         0.0196        106.627        68.8013       70.70879         0.5263         2.3102        -42.811         -7.175      0.8023148          0.905
      5972.0000         0.7546        12.1683         0.0152       108.6636        65.6962        67.2362         0.5049         2.2835       -44.6551        -9.0256      0.7284297      0.8765292
      5972.5000         0.6935        12.0543         0.0299       111.1522        64.9221       66.36953          0.489         2.2726       -50.5032       -14.8801        0.70999        0.78646
      5973.0000         0.6468        11.8226          0.053       111.8163         63.071       64.29889         0.4797         2.2722       -56.9033       -21.2867      0.6659338      0.6878969
      5973.5000         0.6507        11.6727         0.0894       113.9261        60.0698       60.94233         0.4752         2.2496       -68.6069       -32.9967      0.5945176      0.5077431
      5974.0000         0.6691        11.7985         0.0888       117.7279        57.8109       58.41577         0.5129         2.2075       -75.3625       -39.7588       0.540761      0.4037108
      5974.5000           0.69        11.9189         0.0684       114.6899        56.8218       57.30873         0.5523         2.1776       -65.2737       -29.6764       0.517207      0.5588246
      5975.0000         0.7122         11.883         0.0203       113.4053        56.7949       57.27754         0.5963         2.1722       -59.0551       -23.4643      0.5165434      0.6543954
      5975.5000         0.7363        11.9021         0.0182       110.6129        57.4805        58.0428         0.6402         2.2216       -56.4135       -20.8291      0.5328255      0.6949369
      5976.0000         0.7687        11.9097         0.0572       109.4175        56.6509        57.1142         0.7009         2.2812       -57.4681       -21.8901       0.513068      0.6786138
      5976.5000         0.8019        11.8441         0.1042       107.1508         55.762       56.11918         0.7647         2.3212       -61.6663       -26.0948      0.4918975      0.6139261
      5977.0000         0.8371        11.9054         0.0592       104.5356        58.4286       59.09931         0.8052         2.3266       -56.0255       -20.4604      0.5553044      0.7006092
      5977.5000         0.8729        12.3281         0.0239       103.8083        61.2542       62.25708          0.838         2.3038       -52.3107       -16.7521      0.6224911        0.75766
      5978.0000          0.858          12.61         0.0396        102.791        64.0967       65.43387         0.8575         2.3146        -51.369       -15.8168      0.6900823      0.7720492
      5978.5000         0.8271        11.6129         0.0433       105.5735        67.6597       69.41606         0.8479         2.2961       -49.6107        -14.065      0.7748098          0.799
      5979.0000         0.8241        11.7012         0.0321       112.0066        72.5583       74.89156          0.786          2.297       -47.3032       -11.7639      0.8913097      0.8344015
      5979.5000         0.8461        11.9613         0.0334       117.0856        75.4449       78.11754         0.7348         2.3095       -44.1403        -8.6074      0.9599476      0.8829631
      5980.0000         0.8381        12.2406         0.0407       125.5721        80.6074       83.88808         0.6943         2.2735       -40.7143        -5.1879              1      0.9355708
      5980.5000         0.8132        11.6505         0.0186       130.4751        83.5067       87.12824         0.6705         2.2355       -39.0421        -3.5221              1      0.9611984
      5981.0000         0.7841        11.5714         0.0197       132.3821        85.5477       89.40895         0.6656         2.2477       -38.1235          -2.61              1      0.9752308
      5981.5000         0.7455        11.6371         0.0342       130.5073        86.8365       90.84859         0.6827         2.2726       -36.9088        -1.4017              1        0.99382
      5982.0000         0.7062        11.6888         0.0468       127.9827         85.538       89.39576         0.7019         2.2891       -36.1296         -0.629              1              1
      5982.5000         0.6762        11.5302         0.0479       127.0055        83.0812       86.64784         0.6734         2.3019       -37.0309        -1.5367              1      0.9917431
      5983.0000         0.6811        11.0999         0.0523       126.5939        81.2142       84.55943         0.6235         2.3021       -36.6976        -1.2098              1      0.9967723
      5983.5000         0.6778        10.7436         0.0579       129.4309        82.8077       86.33972         0.5743         2.2975       -36.1356        -0.6543              1              1
      5984.0000         0.6422        10.8259         0.0546        132.604        84.1631       87.85393         0.5342         2.2846       -35.6842        -0.2093              1              1
      5984.5000         0.6086        10.8962         0.0469       131.8936        84.6576       88.40556         0.5127         2.2868        -36.518        -1.0496              1      0.9992369
      5985.0000         0.5772        11.0017         0.0609       130.8457        82.4512        85.9377         0.4985         2.2815       -39.3402        -3.8782              1        0.95572
      5985.5000         0.5666        11.1615         0.0654       129.8127        79.2106       82.31348         0.4874         2.2722        -43.244        -7.7885              1      0.8955615
      5986.0000         0.5843        11.1273         0.0873       123.7915        75.1372       77.75822         0.4394         2.2421       -52.1033       -16.6542      0.9523026      0.7591662
