#------------------------------------------------------------------------------
# Created by    : vladimir.rabinovich
# Created on    : 09/19/2023 17:21:14
#------------------------------------------------------------------------------
~Version Information Section
VERS.           2.0     :   CWLS log ASCII Standard - VERSION 2.0
WRAP.           NO      :   One line per depth step
~Well Information Section
#MNEM       .UNIT                                         VALUE :DESCRIPTION
#------------------------------------------------------------------------------
STRT        .FT                                            3520 :START DEPTH
STOP        .FT                                            8510 :STOP DEPTH
STEP        .FT                                             0.5 :STEP      
NULL        .                                           -999.25 :NULL      
COMP        .                      SPINNAKER EXPLORATION CO LLC :COMPANY   
WELL        .                               OCS G21537 ST00BP00 :WELL      
FLD         .                                           WILDCAT :FIELD     
LOC         .                                                   :LOCATION  
CNTY        .                                      WEST CAMERON :LOCATION  
STAT        .                                         LOUISIANA :STATE     
CTRY        .                                     UNITED STATES :COUNTRY   
SRVC        .                                                   :SERVICE COMPANY
DATE        .                             9/13/2023 11:18:49 AM :LOG DATE  
API         .                                    17700410830000 :API NUMBER
UWI         .                                    17700410830000 :UNIQUE WELL ID
XCOORD      .                                   1446389.6294369 :SURFACE X 
YCOORD      .                                  10699667.6074025 :SURFACE Y 
LAT         .                                        29.4810902 :LATITUDE  
LON         .                                       -93.6100108 :LONGITUDE 
ELEV        .FT                                              91 :ELEVATION VALUE
ELEV_TYPE   .                                                KB :ELEVATION REFERENCE TYPE
~Curve Information Section
#MNEM       .UNIT                                      API CODE :CURVE DESCRIPTION
#------------------------------------------------------------------------------
DEPT        .FT                                                 :DEPTH     
CAL         .IN                                                 :          
CNC         .%                                                  :          
GR          .GAPI                                               :          
GR_NORM     .GAPI                                               :GammaRay Normalized
M0C6        .MMHO                                               :          
M2R1        .OHMM                                               :          
M2R2        .OHMM                                               :          
M2R3        .OHMM                                               :          
M2R6        .OHMM                                               :          
M2R9        .OHMM                                               :          
M2RX        .OHMM                                               :          
PORZ        .%                                                  :          
SP          .MV                                                 :          
SP_NORM     .MV                                                 :SP Normalized
TEN         .LB/F                                               :          
VSH_GR      .V/V                                                :Volume of Shale from GR
VSH_SP      .V/V                                                :Volume of Shale from SP
ZCOR        .G/CC                                               :          
~A        DEPTH            CAL            CNC             GR        GR_NORM           M0C6           M2R1           M2R2           M2R3           M2R6           M2R9           M2RX           PORZ             SP        SP_NORM            TEN         VSH_GR         VSH_SP           ZCOR
# ...
      6502.0000         10.417         29.497          74.76       41.29856       2308.872          0.625          0.475          0.427           0.41          0.404          0.412         24.967         -37.54       -35.6352        565.499      0.1765651      0.4200827         -0.006
      6502.5000         10.444         30.489         81.922       49.92429       2212.904          0.639          0.502          0.455           0.44          0.432          0.442         25.046         -31.26       -29.3552        566.249      0.3600914      0.5283586          0.034
      6503.0000         10.483         32.571         88.046       57.30019       2101.565          0.645          0.537          0.492          0.479           0.47          0.482         24.337         -23.36       -21.4552        570.077      0.5170253      0.6645655          0.069
      6503.5000         10.508         35.625         93.153       63.45165       1982.947          0.654          0.582          0.543          0.531          0.521          0.536          24.38        -16.181       -14.2762         577.09      0.6479074      0.7883414          0.092
      6504.0000         10.514         38.372         96.317        67.2639       1866.235          0.657          0.628          0.599          0.589          0.578          0.595          25.14        -11.074        -9.1692        581.033      0.7290192      0.8763931          0.111
      6504.5000         10.512         39.857          95.81       66.65626       1759.977          0.644          0.654          0.638          0.632          0.619          0.638         25.257         -7.991        -6.0862        575.264      0.7160906      0.9295483          0.123
      6505.0000          10.51         40.408         94.035       64.52209         1670.6          0.632           0.67          0.666          0.662          0.649          0.669         24.036         -6.275        -4.3702        563.443      0.6706828      0.9591345          0.121
      6505.5000         10.509         40.434         94.083       64.58266       1601.596          0.641          0.694          0.698          0.696          0.682          0.703         23.028         -5.315        -3.4102        556.186      0.6719714      0.9756862            0.1
      6506.0000           10.5         40.114         95.461       66.24449       1553.392          0.658          0.714           0.72          0.718          0.706          0.727         22.407         -4.652        -2.7472        557.118      0.7073296      0.9871172           0.07
      6506.5000         10.475         39.079         95.728       66.56885       1523.855          0.674          0.717          0.722          0.719          0.708           0.73         22.152         -4.804        -2.8992        561.487      0.7142308      0.9844965          0.045
      6507.0000         10.456         37.015         93.594       64.00234       1509.145          0.705          0.723          0.723          0.719           0.71          0.731         21.854         -6.888        -4.9832        562.544      0.6596243      0.9485655           0.03
      6507.5000         10.484         35.022         89.703        62.8239       1504.669          0.755           0.74          0.733          0.727           0.72          0.743         21.818        -10.609        -8.7042        559.788       0.634551      0.8844103           0.02
      6508.0000         10.555         33.752         87.043        60.1663       1505.933          0.795          0.746          0.733          0.726          0.722          0.745         22.035        -14.143       -12.2382        558.815      0.5780064      0.8234793          0.013
      6508.5000         10.611         33.186         86.612        59.7376       1509.233          0.799          0.729          0.713          0.707          0.704          0.726         22.073        -16.171       -14.2662         561.56      0.5688851      0.7885138          0.013
      6509.0000         10.631         33.333         87.498         60.626       1511.956          0.783          0.707          0.691          0.685          0.684          0.706         21.821        -16.645       -14.7402        563.727      0.5877872      0.7803414          0.015
      6509.5000         10.633         33.305         88.822        61.9523       1512.638           0.77          0.698          0.682          0.676          0.676          0.699         21.574        -16.092       -14.1872        564.163      0.6160064      0.7898759          0.015
      6510.0000         10.635         32.629         90.213        63.3456       1510.732          0.764          0.699          0.684          0.679           0.68          0.703          21.45        -15.068       -13.1632        566.892       0.645651       0.807531          0.023
      6510.5000         10.636         32.084         90.279         63.414       1506.314          0.757          0.701          0.686          0.681          0.682          0.707         21.406        -14.135       -12.2302        571.998      0.6471064      0.8236172          0.036
      6511.0000         10.635         32.116         88.881        62.0183       1499.735          0.748          0.697          0.684          0.679           0.68          0.705          21.43         -14.01       -12.1052        574.724      0.6174106      0.8257724          0.041
      6511.5000         10.632         32.448          86.93        60.0696       1491.427          0.745          0.699          0.685           0.68           0.68          0.707         20.986        -14.966       -13.0612        571.352      0.5759489      0.8092896          0.036
      6512.0000         10.632         31.679         85.856         58.998       1481.815          0.752           0.71          0.696           0.69           0.69          0.719         19.553        -15.747       -13.8422        563.927       0.553149      0.7958241           0.03
      6512.5000         10.633         29.821          87.25        60.3943        1471.35          0.762          0.728          0.714          0.708          0.707          0.739         17.883         -14.64       -12.7352        560.264      0.5828574      0.8149104          0.021
      6513.0000         10.634         28.696          90.16        63.3066       1460.546          0.766          0.746          0.734          0.727          0.725           0.76         17.236        -11.658        -9.7532        565.829      0.6448212      0.8663241          0.002
      6513.5000         10.634         30.212         92.144         65.293        1449.98          0.749          0.747          0.737          0.731          0.728          0.763         17.805         -8.429        -6.5242        574.339      0.6870851      0.9219965          -0.01
      6514.0000         10.633         34.342         93.614        66.7653       1440.224           0.71          0.721          0.715           0.71          0.707          0.741         18.982         -6.634        -4.7292        575.309      0.7184106      0.9529448          0.001
      6514.5000         10.631          38.75         95.048        68.2016       1431.723          0.686          0.705          0.703          0.699          0.695           0.73         20.093         -6.867        -4.9622        569.954      0.7489702      0.9489276          0.016
      6515.0000         10.631         41.261         94.408         67.564        1424.68          0.698          0.722          0.723           0.72          0.716          0.753         20.811         -7.968        -6.0632        567.954      0.7354043      0.9299448          0.012
      6515.5000         10.625         41.644         92.928        66.0863       1418.978          0.718          0.744          0.749          0.748          0.744          0.783         21.498         -8.112        -6.2072        570.677      0.7039639       0.927462          0.008
