#------------------------------------------------------------------------------
# Created by    : vladimir.rabinovich
# Created on    : 09/19/2023 17:19:36
#------------------------------------------------------------------------------
~Version Information Section
VERS.           2.0     :   CWLS log ASCII Standard - VERSION 2.0
WRAP.           NO      :   One line per depth step
~Well Information Section
#MNEM       .UNIT                                         VALUE :DESCRIPTION
#------------------------------------------------------------------------------
STRT        .FT                                          2840.5 :START DEPTH
STOP        .FT                                            9365 :STOP DEPTH
STEP        .FT                                             0.5 :STEP      
NULL        .                                           -999.25 :NULL      
COMP        .                              MCMORAN OIL & GAS CO :COMPANY   
WELL        .                                OCS 00757 ST00BP00 :WELL      
FLD         .                           WEST CAMERON BLOCK 0118 :FIELD     
LOC         .                                                   :LOCATION  
CNTY        .                                      WEST CAMERON :LOCATION  
STAT        .                                         LOUISIANA :STATE     
CTRY        .                                     UNITED STATES :COUNTRY   
SRVC        .                                                   :SERVICE COMPANY
DATE        .                             9/13/2023 11:18:49 AM :LOG DATE  
API         .                                    17700410710000 :API NUMBER
UWI         .                                    17700410710000 :UNIQUE WELL ID
XCOORD      .                                  1441592.04714169 :SURFACE X 
YCOORD      .                                  10704369.2355959 :SURFACE Y 
LAT         .                                        29.4939537 :LATITUDE  
LON         .                                       -93.6251728 :LONGITUDE 
ELEV        .FT                                              90 :ELEVATION VALUE
ELEV_TYPE   .                                                KB :ELEVATION REFERENCE TYPE
~Curve Information Section
#MNEM       .UNIT                                      API CODE :CURVE DESCRIPTION
#------------------------------------------------------------------------------
DEPT        .FT                                                 :DEPTH     
AHT10       .OHMM                                               :          
AHT20       .OHMM                                               :          
AHT30       .OHMM                                               :          
AHT60       .OHMM                                               :          
AHT90       .OHMM                                               :          
AHTCO90     .MMHO                                               :          
DPHZ        .DEC                                                :          
GR          .GAPI                                               :          
GR_NORM     .GAPI                                               :GammaRay Normalized
HCAL        .IN                                                 :          
HDRA        .G/CC                                               :          
HMIN        .OHMM                                               :          
HMNO        .OHMM                                               :          
NPOR        .DEC                                                :          
RHOZ        .G/CC                                               :          
RWA         .OHMM                                               :          
TENS        .LB                                                 :          
VSH_GR      .V/V                                                :Volume of Shale from GR
~A        DEPTH          AHT10          AHT20          AHT30          AHT60          AHT90        AHTCO90           DPHZ             GR        GR_NORM           HCAL           HDRA           HMIN           HMNO           NPOR           RHOZ            RWA           TENS         VSH_GR
# ...
      5108.5000         2.0182         1.3156         1.1253         1.0217         1.0213        979.187         0.1712        26.3595       32.54351         9.9634         0.0014          2.044          2.281         0.3246          2.368          0.037           2627              0
      5109.0000         1.3402         0.9514         0.8425         0.7641          0.764       1308.892         0.2349        24.2609       30.86947         9.9516        -0.0005          1.541           1.65         0.3224          2.262         0.0547           2618              0
      5109.5000          1.052         0.7655         0.6864         0.6236         0.6235       1603.954          0.272        23.0636       29.91447        10.0344         -0.003          1.291          1.483         0.3054          2.201         0.0612           2617              0
      5110.0000         0.8797         0.6507         0.5865         0.5368         0.5363       1864.629         0.2811        24.3927       30.97521        10.0107         -0.002          1.642          1.753         0.2674          2.186         0.0565           2627              0
      5110.5000         0.7668         0.5719         0.5186         0.4785         0.4777       2093.422          0.281        22.4017       29.38702        10.2709        -0.0003          2.311          2.112         0.2765          2.186         0.0503           2601              0
      5111.0000         0.7002         0.5223         0.4835         0.4576         0.4564       2191.084         0.2883        23.3596        30.1516        10.3419        -0.0012          2.084          1.933         0.2999          2.174         0.0508           2615              0
      5111.5000         0.6682          0.497         0.4574         0.4362         0.4345       2301.355         0.2975        23.9739       30.64213        10.2946        -0.0022          1.586          1.614         0.3459          2.159         0.0517           2601              0
      5112.0000         0.6574         0.4868         0.4496         0.4258         0.4239       2359.204         0.3039        24.2302       30.84692        10.2473        -0.0022          1.381          1.444           0.36          2.149         0.0528           2603              0
      5112.5000         0.6611         0.4843          0.448         0.4273         0.4251        2352.57         0.3024        25.1881       31.61149        10.1763        -0.0004          1.451          1.547         0.3667          2.151         0.0524           2668              0
      5113.0000         0.6851         0.4935         0.4597         0.4386         0.4355       2296.092         0.2937        25.1603       31.58968        10.1763         0.0042          1.533          1.626         0.3046          2.165         0.0504           2633              0
      5113.5000         0.7251         0.5183         0.4825         0.4568         0.4538        2203.72         0.2954        26.6851       32.80659        10.2709         0.0057          1.709          1.739         0.2852          2.163         0.0532           2614              0
      5114.0000          0.774         0.5519         0.5031         0.4775         0.4741       2109.079         0.3048         27.164       33.18904        10.4129         0.0051          1.416          1.426         0.2796          2.147         0.0595           2588    0.004022152
      5114.5000         0.8226         0.5785         0.5141          0.484         0.4804       2081.423         0.3076         29.798       35.29096        11.3709         0.0044          0.881          0.953          0.353          2.142         0.0614           2578      0.0487438
      5115.0000         0.8179         0.5692         0.5156         0.4873         0.4839       2066.368         0.2997        31.0572       36.29596        10.2946         0.0075          1.308          1.388          0.301          2.156         0.0585           2626     0.07012679
      5115.5000         0.7998         0.5622         0.5157         0.4893         0.4862        2056.88         0.2964        31.0572       36.29628        10.4129         0.0114          1.779          1.609         0.2787          2.161         0.0574           2647     0.07013354
      5116.0000         0.8108         0.5779         0.5234         0.4968         0.4936       2025.873         0.3188         29.381       34.95926        11.5247          0.008          1.229           1.12         0.3236          2.124         0.0682           2670     0.04168628
      5116.5000          0.824         0.5907         0.5312         0.4996         0.4964       2014.543         0.3446        28.9613       34.62468        11.6193         0.0044          0.762          0.765          0.407          2.081          0.081           2669     0.03456765
      5117.0000         0.8248         0.5896          0.523         0.4934         0.4907       2038.014         0.3479        31.8347       36.91766        10.6021        -0.0018          0.628          0.659         0.3879          2.076         0.0818           2637     0.08335447
      5117.5000         0.7975         0.5663         0.5047         0.4714         0.4683       2135.495         0.3216        32.1615       37.17873        10.2473        -0.0005          0.861           0.96         0.3406          2.119         0.0659           2617     0.08890907
      5118.0000         0.7442         0.5305         0.4828         0.4523         0.4492       2226.223         0.3016        33.3968       38.16468        10.1763        -0.0028          1.769          1.753         0.2977          2.152          0.055           2607      0.1098868
      5118.5000         0.7332         0.5221         0.4812         0.4466         0.4433       2255.991         0.3018        29.3261       34.91702        10.3182        -0.0036          1.596           1.41         0.2967          2.152         0.0544           2624     0.04078772
      5119.0000         0.7976         0.5551         0.5037         0.4636         0.4598       2174.965         0.3174        28.7599       34.46564        10.6494        -0.0064          1.117          1.071         0.3432          2.126         0.0629           2647     0.03118377
      5119.5000         0.8765         0.5929         0.5327         0.4859         0.4813       2077.896         0.3193        26.2654       32.47564        10.7677         -0.004          1.152          1.159           0.33          2.123         0.0667           2619              0
      5120.0000         0.8822         0.5922         0.5284         0.4745         0.4696       2129.246         0.3137        26.9837       33.04915        10.5548        -0.0004          1.204          1.206         0.3318          2.132         0.0626           2635    0.001045714
      5120.5000         0.8168         0.5528          0.496         0.4506         0.4472       2235.958         0.3031        25.4552       31.82989        10.1763         0.0028          1.585           1.58         0.3414           2.15         0.0554           2594              0
      5121.0000          0.756         0.5186         0.4723         0.4435         0.4402       2271.837          0.297        23.3903       30.18266         10.058         0.0029          1.957          1.889         0.3142           2.16         0.0522           2594              0
      5121.5000         0.7089         0.4976         0.4551         0.4326         0.4295       2328.092          0.298        23.1509       29.99202         9.9871         0.0005          1.914           1.91         0.2787          2.158         0.0513           2612              0
      5122.0000         0.6738         0.4801         0.4448         0.4365         0.4339       2304.883         0.3009        25.0361       31.49649         9.9752        -0.0022          1.715          1.802         0.3059          2.153         0.0529           2670              0
