#------------------------------------------------------------------------------
# Created by    : vladimir.rabinovich
# Created on    : 09/19/2023 17:22:24
#------------------------------------------------------------------------------
~Version Information Section
VERS.           2.0     :   CWLS log ASCII Standard - VERSION 2.0
WRAP.           NO      :   One line per depth step
~Well Information Section
#MNEM       .UNIT                                         VALUE :DESCRIPTION
#------------------------------------------------------------------------------
STRT        .FT                                             955 :START DEPTH
STOP        .FT                                            8851 :STOP DEPTH
STEP        .FT                                             0.5 :STEP      
NULL        .                                           -999.25 :NULL      
COMP        .                                SHELL OFFSHORE INC :COMPANY   
WELL        .                               OCS G08627 ST00BP00 :WELL      
FLD         .                                           WILDCAT :FIELD     
LOC         .                                                   :LOCATION  
CNTY        .                                 WEST CAMERON WEST :LOCATION  
STAT        .                                         LOUISIANA :STATE     
CTRY        .                                     UNITED STATES :COUNTRY   
SRVC        .                                                   :SERVICE COMPANY
DATE        .                             9/13/2023 11:18:15 AM :LOG DATE  
API         .                                    17701402000000 :API NUMBER
UWI         .                                    17701402000000 :UNIQUE WELL ID
XCOORD      .                                  1405165.89752093 :SURFACE X 
YCOORD      .                                  10654404.2103889 :SURFACE Y 
LAT         .                                        29.3559214 :LATITUDE  
LON         .                                       -93.7387067 :LONGITUDE 
ELEV        .FT                                             100 :ELEVATION VALUE
ELEV_TYPE   .                                                KB :ELEVATION REFERENCE TYPE
~Curve Information Section
#MNEM       .UNIT                                      API CODE :CURVE DESCRIPTION
#------------------------------------------------------------------------------
DEPT        .FT                                                 :DEPTH     
CALX        .IN                                                 :          
DRHO        .G/C3                                               :          
DT          .US/F                                               :          
GR          .GAPI                                               :          
GR_NORM     .GAPI                                               :GammaRay Normalized
ILD         .OHMM                                               :          
ILM         .OHMM                                               :          
LL          .OHMM                                               :          
NPHI        .%                                                  :          
RHOB        .G/C3                                               :          
SP          .MV                                                 :          
SP_NORM     .MV                                                 :SP Normalized
VSH_GR      .V/V                                                :Volume of Shale from GR
VSH_SP      .V/V                                                :Volume of Shale from SP
~A        DEPTH           CALX           DRHO             DT             GR        GR_NORM            ILD            ILM             LL           NPHI           RHOB             SP        SP_NORM         VSH_GR         VSH_SP
# ...
      7273.0000        11.2912         0.1442       103.9263        81.1111       76.15757         0.9784         0.9922         0.9161        41.9798         2.1809       -70.6211       2.602943      0.9182462              1
      7273.5000          11.55         0.1457       105.6022        77.2837       71.83555         0.9804         0.9954         0.9239        42.1193         2.1299       -70.9541       2.269943      0.8262883              1
      7274.0000        11.6989         0.1504       107.5679         74.021       68.15211         0.9822         0.9983         0.9075        42.2045         2.1055       -71.1495       2.074547      0.7479172              1
      7274.5000        11.3692         0.1601       107.6863        72.7888       66.76482         0.9839         1.0013         0.8894        43.1235         2.1007       -71.8311       1.392944      0.7184004              1
      7275.0000        11.2828         0.1679       107.5527        74.3046       68.48504         0.9905          1.006         0.8747        44.4874         2.1119       -72.8768      0.3472443      0.7550008              1
      7275.5000        11.3069         0.1696       106.8755        76.2849       70.73053         0.9983         1.0117         0.8914        45.2391         2.1219       -73.8029     -0.5788574      0.8027772              1
      7276.0000        11.4134         0.1494       105.6544        77.4138       72.01323         1.0037         1.0175         0.8903        45.6058         2.1274       -74.6406      -1.416557      0.8300687              1
      7276.5000        11.5342         0.1279       103.4266        78.5242       73.27502         1.0071         1.0218         0.8839        45.4412         2.1464       -73.4102     -0.1861572      0.8569154              1
      7277.0000         11.478         0.0931        99.8481        80.5933       75.62093         1.0092         1.0216         0.8919        44.2496         2.1974       -71.8335       1.390541      0.9068283              1
      7277.5000        11.2639         0.0692         98.052        81.3661       76.50094         1.0101         1.0197         0.9339        42.3018         2.2484       -72.6892      0.5348434      0.9255519              1
      7278.0000        11.1308         0.0581         99.108        81.3544       76.49383         1.0035         1.0049         0.9619        40.1089         2.2865        -73.509     -0.2849579      0.9254006              1
      7278.5000        11.3017         0.0524       101.8617        81.8251       77.03222         0.9959         0.9907          0.928        37.6693         2.3034       -72.5089      0.7151413      0.9368557              1
      7279.0000        11.3796         0.0478       105.1859          83.11       78.49133         0.9863         0.9812         0.8956        36.2675         2.3009       -72.5179      0.7061462      0.9679007              1
      7279.5000        11.3194         0.0491       107.8749        83.9691       79.46893         0.9765         0.9718         0.8743         36.376         2.2826       -72.7407       0.483345      0.9887007              1
      7280.0000        11.0395         0.0608       110.1388        83.5908       79.04726          0.969         0.9734         0.8586        38.0675         2.2592       -72.7361      0.4879456      0.9797289              1
      7280.5000        10.9526         0.0669       110.1127        82.6124       77.94696         0.9671         0.9904         0.8359        40.0465         2.2418        -72.558      0.6660461      0.9563183              1
      7281.0000        10.9464         0.0643       103.5413        82.4476       77.76671          0.967         1.0364         0.8026        41.7922         2.2289       -72.4055      0.8185425      0.9524832              1
      7281.5000        10.8871          0.048        99.6537         82.666        78.0198         0.9746         1.0938         0.9519        43.5885         2.2395       -72.3403      0.8837433       0.957868              1
      7282.0000        10.4772         0.0273        92.0183        80.1149       75.14104         0.9757         1.1313         1.4326        40.9766          2.303       -72.9905      0.2335434      0.8966179              1
      7282.5000        10.3592         0.0178        85.6238        73.8804       68.09702         0.9727         1.1288         1.9279        36.7957         2.3649       -74.0769     -0.8528519      0.7467452              1
      7283.0000        10.3741         0.0226        86.3964        65.0713       58.14154         0.9588         1.0595         1.6162        32.8525         2.3991       -75.2363      -2.012253      0.5349264      0.9995624
      7283.5000           10.4         0.0363        95.1781        61.1415       53.70373         0.9416         0.9972         1.2662        27.8604          2.413       -75.5122      -2.288155      0.4405049      0.9897088
      7284.0000        10.4595         0.0474       104.5381        62.0133        54.6957         0.9201         0.9449         0.9694        26.8323         2.3553       -76.1697      -2.945656      0.4616106      0.9662266
      7284.5000        10.4783         0.0513       107.8898        68.2181       61.71837         0.8962         0.9181         0.8563         31.343         2.3008       -77.4131      -4.189056      0.6110291      0.9218194
      7285.0000        10.4589         0.0465       106.9503        74.9161       69.29877         0.8724         0.9006         0.8948        33.7826          2.278       -77.7397      -4.515656      0.7723144      0.9101552
      7285.5000        10.4258         0.0373       103.5063         79.338        74.3053         0.8499         0.8915         0.9686        36.4955         2.2755       -77.6942      -4.470154      0.8788361      0.9117802
      7286.0000        10.6553         0.0283       100.7651        79.1222       74.06738         0.8546         0.8978         0.9982        37.1032         2.2862       -78.0613      -4.837257      0.8737739      0.8986694
      7286.5000        11.0935         0.0208       100.9596        78.8621       73.77935         0.8665         0.9072         0.9705        34.9266         2.2995       -78.5823      -5.358253      0.8676457      0.8800624
      7287.0000        11.1964         0.0188       105.8887        81.4761       76.74145         0.8805         0.9187         0.9362        33.1304         2.3086       -77.8798      -4.655754      0.9306691      0.9051517
      7287.5000        11.1219         0.0401       109.4374         84.475       80.13882         0.8994          0.933         0.9176        33.4677         2.3133       -76.6809      -3.456856              1      0.9479694
      7288.0000        11.5051         0.0634         111.71        86.3098       82.21976         0.9201          0.949         0.8988        34.6428         2.3059       -75.6943      -2.464699              1      0.9834036
      7288.5000        11.4871         0.0735       112.9012        80.0557       75.15356         0.9403         0.9646         0.8767        36.0588         2.2632       -75.3234      -2.087029      0.8968843      0.9968919
      7289.0000        11.0952         0.0751        108.939        74.3341       68.68953         0.9585         0.9793         0.8613        38.0853         2.2342       -75.5344      -2.291252      0.7593517      0.9895982
      7289.5000        10.6215         0.0641       102.7588        71.1011       65.03967         0.9683         0.9953         0.9219        40.5041          2.229       -75.9104      -2.660477       0.681695      0.9764115
      7290.0000        10.7019         0.0541        99.4967        69.7323        63.4979         0.9732         1.0102         1.0079          42.18         2.2677        -76.118      -2.861298      0.6488915      0.9692394
      7290.5000        10.8113         0.0718        96.6434        71.8285       65.87445         0.9871           1.01         1.0411         37.705         2.2991       -75.8926       -2.62912      0.6994564      0.9775314
