#------------------------------------------------------------------------------
# Created by    : vladimir.rabinovich
# Created on    : 09/19/2023 17:22:24
#------------------------------------------------------------------------------
~Version Information Section
VERS.           2.0     :   CWLS log ASCII Standard - VERSION 2.0
WRAP.           NO      :   One line per depth step
~Well Information Section
#MNEM       .UNIT                                         VALUE :DESCRIPTION
#------------------------------------------------------------------------------
STRT        .FT                                             955 :START DEPTH
STOP        .FT                                            8851 :STOP DEPTH
STEP        .FT                                             0.5 :STEP      
NULL        .                                           -999.25 :NULL      
COMP        .                                SHELL OFFSHORE INC :COMPANY   
WELL        .                               OCS G08627 ST00BP00 :WELL      
FLD         .                                           WILDCAT :FIELD     
LOC         .                                                   :LOCATION  
CNTY        .                                 WEST CAMERON WEST :LOCATION  
STAT        .                                         LOUISIANA :STATE     
CTRY        .                                     UNITED STATES :COUNTRY   
SRVC        .                                                   :SERVICE COMPANY
DATE        .                             9/13/2023 11:18:15 AM :LOG DATE  
API         .                                    17701402000000 :API NUMBER
UWI         .                                    17701402000000 :UNIQUE WELL ID
XCOORD      .                                  1405165.89752093 :SURFACE X 
YCOORD      .                                  10654404.2103889 :SURFACE Y 
LAT         .                                        29.3559214 :LATITUDE  
LON         .                                       -93.7387067 :LONGITUDE 
ELEV        .FT                                             100 :ELEVATION VALUE
ELEV_TYPE   .                                                KB :ELEVATION REFERENCE TYPE
~Curve Information Section
#MNEM       .UNIT                                      API CODE :CURVE DESCRIPTION
#------------------------------------------------------------------------------
DEPT        .FT                                                 :DEPTH     
CALX        .IN                                                 :          
DRHO        .G/C3                                               :          
DT          .US/F                                               :          
GR          .GAPI                                               :          
GR_NORM     .GAPI                                               :GammaRay Normalized
ILD         .OHMM                                               :          
ILM         .OHMM                                               :          
LL          .OHMM                                               :          
NPHI        .%                                                  :          
RHOB        .G/C3                                               :          
SP          .MV                                                 :          
SP_NORM     .MV                                                 :SP Normalized
VSH_GR      .V/V                                                :Volume of Shale from GR
VSH_SP      .V/V                                                :Volume of Shale from SP
~A        DEPTH           CALX           DRHO             DT             GR        GR_NORM            ILD            ILM             LL           NPHI           RHOB             SP        SP_NORM         VSH_GR         VSH_SP
# ...
      8317.0000        11.6852         0.1485       106.5229        86.2463        83.5444          0.858         0.8366         0.8902        41.6531         2.2234       -78.1903       -2.48851              1      0.9825532
      8317.5000        12.0242           0.16       106.1309        86.3251       83.62378         0.8566         0.8361         0.8976        41.3157         2.2361       -78.6378      -2.931274              1      0.9667402
      8318.0000        12.2235         0.1804        105.382          86.49        83.8005         0.8544         0.8349          0.896        41.9427         2.2485        -78.382      -2.670746              1      0.9760448
      8318.5000        12.2863         0.1833        104.896        85.7228       82.92321         0.8523          0.833         0.8885        43.0728         2.2488       -78.2355      -2.519508              1      0.9814461
      8319.0000        12.1989         0.1775       105.0353        83.8859       80.83625         0.8501         0.8312         0.8789        43.8998         2.2375       -78.2719      -2.551178              1      0.9803151
      8319.5000        12.0733         0.1625       105.5516        82.4222       79.17133         0.8478         0.8298         0.8763        44.5723         2.2121       -78.2408       -2.51535      0.9823686      0.9815946
      8320.0000        12.0943         0.1556       106.1158        81.3706       77.97242          0.845         0.8293         0.8852        45.0806         2.1898       -78.0454      -2.315224        0.95686       0.988742
      8320.5000        11.8905         0.1593       106.6826        80.8356        77.3577         0.8406         0.8288         0.8773        45.4113         2.1816       -77.4919      -1.756981      0.9437808              1
      8321.0000        11.8385         0.1633       106.9669        80.4186        76.8764         0.8352         0.8272         0.8667        45.1642         2.1817       -76.8989      -1.159256      0.9335403              1
      8321.5000        11.9273         0.1655       107.1116        80.1877       76.60555         0.8277         0.8224         0.8607        43.8386         2.1848       -76.9982      -1.253822      0.9277775              1
      8322.0000        12.0412         0.1597       107.3058        80.1479       76.55082         0.8207         0.8177         0.8622         41.686         2.1867       -78.4984       -2.74929      0.9266132      0.9732396
      8322.5000        11.8833         0.1525       107.5817        80.6227         77.078         0.8143         0.8122         0.8675        40.0493         2.1857        -79.142      -3.388161      0.9378297      0.9504228
      8323.0000        11.3182         0.1537       107.7194        81.8846       78.49525         0.8079         0.8057         0.8648        39.8367         2.1851        -79.121      -3.362427      0.9679841      0.9513419
      8323.5000          11.41         0.1597       107.5413        83.7041       80.54307         0.8036         0.7993         0.8542        39.5176         2.1923       -79.0182      -3.254898              1      0.9551822
      8324.0000        11.5254         0.1626       107.0615        85.6593       82.74432         0.7996         0.7937         0.8434        39.2769         2.2031       -78.9341      -3.166061              1      0.9583549
      8324.5000        11.6459         0.1586       106.3789        86.2488       83.40121         0.7974         0.7886         0.8457        39.7483         2.2111        -78.929      -3.156235              1      0.9587059
      8325.0000        11.5797         0.1544        106.177        86.1471       83.27649         0.7975         0.7836         0.8492        41.6292         2.2181       -78.9913      -3.213806              1      0.9566498
      8325.5000        11.5732         0.1512       106.4087        85.6766       82.73468         0.7976         0.7807         0.8367        42.9742         2.2194       -79.0526       -3.27037              1      0.9546296
      8326.0000        11.7393         0.1618       106.6376        87.9454       85.29058         0.7994         0.7809           0.82        44.0297         2.2095       -79.1222      -3.335236              1       0.952313
      8326.5000        11.7099         0.1755        106.704        91.2434       89.01031         0.8016         0.7812         0.8169        44.4279         2.1955        -79.149      -3.357307              1      0.9515247
      8327.0000        11.7153         0.1823       106.2474         92.972       90.95535         0.8038         0.7898         0.8208        43.3788         2.1876        -78.761      -2.964577              1      0.9655508
      8327.5000        11.7035          0.183       105.5961        92.2216       90.09703         0.8101         0.7984         0.8307        42.0323         2.1829       -78.0159      -2.214745              1      0.9923306
      8328.0000        11.2904         0.1726       104.9692        89.9666       87.53727         0.8165         0.8071          0.843        41.4061          2.178       -77.9609      -2.155014              1      0.9944638
      8328.5000        11.1913         0.1537       105.0443        89.1451       86.59856          0.824         0.8198         0.8506        41.8502         2.1669       -78.1675      -2.356888              1       0.987254
      8329.0000        11.1007         0.1228       105.2023        88.8621       86.26881         0.8366         0.8327         0.8574        43.5789         2.1519       -77.7458      -1.930443              1              1
      8329.5000        11.0621         0.0747       104.9022        88.8918       86.29266         0.8493         0.8458         0.8632        45.0851          2.152       -78.2051      -2.385017              1      0.9862494
      8330.0000        11.1145         0.0661       103.6372        88.2578       85.56598         0.8633         0.8621         0.8712        45.8323         2.1724       -78.3013      -2.476486              1      0.9829826
      8330.5000        11.2615         0.0844       102.3196        86.0089       83.01313         0.8806         0.8793         0.8819        45.4814         2.1908       -77.9844      -2.154854              1      0.9944695
      8331.0000        11.2205         0.1247        101.694        83.5474       80.21986         0.8983         0.8969         0.8928        44.8836         2.1849       -77.9401      -2.105827              1      0.9962205
      8331.5000        11.1539         0.1366       101.4563        82.4988       79.02434         0.9166         0.9181         0.9063         43.564         2.1585       -77.5995       -1.76049      0.9792413              1
      8332.0000         11.207         0.1229       100.1627        82.7981       79.35306         0.9354         0.9403         0.9202        42.1144          2.147       -77.8623      -2.018555      0.9862353      0.9993373
      8332.5000        11.2742         0.0896        98.5896        84.1123       80.82945         0.9545         0.9631         0.9349        40.3574         2.1578       -78.1985      -2.350029              1      0.9874989
      8333.0000         11.153         0.0579        97.5687         86.223       83.20657         0.9761          0.987         0.9514        38.9869          2.195        -78.062      -2.208794              1      0.9925431
      8333.5000        10.9245         0.0399        97.9388        88.4358       85.69913         0.9987         1.0115          0.971        37.8733         2.2473       -77.4481      -1.590164              1              1
      8334.0000        10.5691         0.0356        98.1757        90.0859       87.55538         1.0208         1.0356         0.9896        36.5894         2.2786       -77.6084      -1.745735              1              1
      8334.5000        10.5459          0.034        97.8474        90.3921        87.8919         1.0396         1.0585         1.0052        35.1921         2.2957       -78.8091      -2.941696              1       0.966368
