#------------------------------------------------------------------------------
# Created by    : vladimir.rabinovich
# Created on    : 09/19/2023 17:20:47
#------------------------------------------------------------------------------
~Version Information Section
VERS.           2.0     :   CWLS log ASCII Standard - VERSION 2.0
WRAP.           NO      :   One line per depth step
~Well Information Section
#MNEM       .UNIT                                         VALUE :DESCRIPTION
#------------------------------------------------------------------------------
STRT        .FT                                             612 :START DEPTH
STOP        .FT                                            9868 :STOP DEPTH
STEP        .FT                                             0.5 :STEP      
NULL        .                                           -999.25 :NULL      
COMP        .                                      SHELL OIL CO :COMPANY   
WELL        .                               OCS G00950 ST00BP00 :WELL      
FLD         .                                           WILDCAT :FIELD     
LOC         .                                                   :LOCATION  
CNTY        .                                      EAST CAMERON :LOCATION  
STAT        .                                         LOUISIANA :STATE     
CTRY        .                                     UNITED STATES :COUNTRY   
SRVC        .                                                   :SERVICE COMPANY
DATE        .                             9/13/2023 11:18:15 AM :LOG DATE  
API         .                                    17703002450000 :API NUMBER
UWI         .                                    17703002450000 :UNIQUE WELL ID
XCOORD      .                                  1691932.89207312 :SURFACE X 
YCOORD      .                                   10460306.475122 :SURFACE Y 
LAT         .                                        28.8238717 :LATITUDE  
LON         .                                       -92.8390619 :LONGITUDE 
ELEV        .FT                                              75 :ELEVATION VALUE
ELEV_TYPE   .                                                KB :ELEVATION REFERENCE TYPE
~Curve Information Section
#MNEM       .UNIT                                      API CODE :CURVE DESCRIPTION
#------------------------------------------------------------------------------
DEPT        .FT                                                 :DEPTH     
ASN         .OHMM                                               :          
GR          .GAPI                                               :          
GR_NORM     .GAPI                                               :GammaRay Normalized
ILD         .OHMM                                               :          
SP          .MV                                                 :          
SP_NORM     .MV                                                 :SP Normalized
VSH_GR      .V/V                                                :Volume of Shale from GR
VSH_SP      .V/V                                                :Volume of Shale from SP
~A        DEPTH            ASN             GR        GR_NORM            ILD             SP        SP_NORM         VSH_GR         VSH_SP
# ...
      6158.0000         0.3747        -999.25        -999.25         0.1795       -90.6222       -55.4776        -999.25     0.07665084
      6158.5000         0.3889        -999.25        -999.25         0.1744       -91.6115       -56.4706        -999.25     0.05982034
      6159.0000         0.3794        -999.25        -999.25          0.175       -92.5017       -57.3645        -999.25     0.04466952
      6159.5000           0.37        -999.25        -999.25         0.1787       -92.7258       -57.5923        -999.25     0.04080847
      6160.0000         0.3667        -999.25        -999.25         0.1789       -91.6731       -56.5433        -999.25     0.05858812
      6160.5000          0.374        -999.25        -999.25         0.1838       -89.3851       -54.2589        -999.25     0.09730679
      6161.0000         0.3732        -999.25        -999.25         0.1886       -82.5695        -47.447        -999.25      0.2127627
      6161.5000         0.3731        -999.25        -999.25         0.1945       -76.6458        -41.527        -999.25      0.3131017
      6162.0000         0.3884        -999.25        -999.25         0.2045         -71.72       -36.6049        -999.25      0.3965271
      6162.5000         0.4048        -999.25        -999.25         0.2035        -70.863       -35.7516        -999.25      0.4109899
      6163.0000         0.4221        -999.25        -999.25         0.2057       -70.4576       -35.3499        -999.25      0.4177983
      6163.5000         0.4392        -999.25        -999.25         0.2039       -72.4666       -37.3626        -999.25      0.3836848
      6164.0000         0.4479        -999.25        -999.25         0.1998        -76.446       -41.3457        -999.25      0.3161746
      6164.5000         0.4382        -999.25        -999.25         0.1886       -77.2931       -42.1965        -999.25      0.3017543
      6165.0000         0.4212        -999.25        -999.25         0.1787       -76.6155       -41.5226        -999.25      0.3131763
      6165.5000         0.4128        -999.25        -999.25         0.1732       -77.0591       -41.9699        -999.25       0.305595
      6166.0000         0.4226        -999.25        -999.25         0.1715       -78.4932       -43.4077        -999.25      0.2812254
      6166.5000         0.4434        -999.25        -999.25         0.1697       -78.3571       -43.2753        -999.25      0.2834695
      6167.0000         0.4774        -999.25        -999.25         0.1715       -76.9709       -41.8928        -999.25      0.3069017
      6167.5000         0.5142        -999.25        -999.25          0.186       -75.4863       -40.4119        -999.25      0.3320017
      6168.0000         0.5497        -999.25        -999.25         0.2048       -74.2974       -39.2267        -999.25      0.3520898
      6168.5000         0.5779        -999.25        -999.25         0.2274       -73.1381       -38.0711        -999.25      0.3716763
      6169.0000         0.5945        -999.25        -999.25         0.2471       -71.7841       -36.7208        -999.25      0.3945628
      6169.5000         0.6035        -999.25        -999.25          0.266        -69.554       -34.4944        -999.25      0.4322983
      6170.0000         0.6012        -999.25        -999.25         0.2758       -66.2028       -31.1469        -999.25      0.4890356
      6170.5000         0.5974        -999.25        -999.25         0.2846       -60.5698       -25.5176        -999.25      0.5844474
      6171.0000         0.5977        -999.25        -999.25         0.2915       -53.0198       -17.9713        -999.25      0.7123508
      6171.5000          0.602        -999.25        -999.25         0.2971       -49.7869       -14.7421        -999.25       0.767083
      6172.0000         0.6131        -999.25        -999.25         0.3015       -49.4321       -14.3909        -999.25      0.7730356
      6172.5000         0.6207        -999.25        -999.25         0.3075        -51.561       -16.5235        -999.25      0.7368898
      6173.0000         0.6522        -999.25        -999.25         0.3143       -56.1246       -21.0908        -999.25      0.6594779
      6173.5000         0.6771        -999.25        -999.25         0.3249       -61.4865       -26.4564        -999.25      0.5685356
      6174.0000         0.6936        -999.25        -999.25         0.3364       -62.4426       -27.4162        -999.25      0.5522678
      6174.5000         0.7069        -999.25        -999.25         0.3471       -61.0035       -25.9808        -999.25      0.5765966
      6175.0000          0.725        -999.25        -999.25         0.3577       -59.0717       -24.0527        -999.25      0.6092763
      6175.5000         0.7206        -999.25        -999.25         0.3677       -57.0597       -22.0444        -999.25      0.6433153
      6176.0000         0.7252        -999.25        -999.25         0.3778       -55.5406        -20.529        -999.25          0.669
      6176.5000         0.7308        -999.25        -999.25         0.3886       -53.8157       -18.8078        -999.25      0.6981729
      6177.0000         0.7029        -999.25        -999.25         0.3961       -51.8099       -16.8057        -999.25      0.7321067
      6177.5000         0.6724        -999.25        -999.25         0.4013       -49.4739       -14.4734        -999.25      0.7716373
      6178.0000         0.6524        -999.25        -999.25         0.4039       -46.7141       -11.7173        -999.25      0.8183509
      6178.5000         0.6461        -999.25        -999.25         0.3997       -45.6324       -10.6393        -999.25       0.836622
      6179.0000         0.6454        -999.25        -999.25         0.3927       -46.2398       -11.2504        -999.25      0.8262644
      6179.5000         0.6539        -999.25        -999.25         0.3827       -48.3306       -13.3449        -999.25      0.7907644
      6180.0000          0.669        -999.25        -999.25         0.3613       -52.1229       -17.1409        -999.25      0.7264254
      6180.5000         0.6859        -999.25        -999.25         0.3481       -55.8461       -20.8678        -999.25      0.6632577
      6181.0000         0.6658        -999.25        -999.25          0.345       -57.7041       -22.7295        -999.25      0.6317034
      6181.5000         0.6439        -999.25        -999.25         0.3473       -58.6096       -23.6387        -999.25      0.6162932
      6182.0000         0.6379        -999.25        -999.25         0.3442       -59.0164       -24.0492        -999.25      0.6093356
      6182.5000         0.6621        -999.25        -999.25         0.3374        -58.702       -23.7385        -999.25      0.6146017
      6183.0000          0.682        -999.25        -999.25         0.3271        -57.842       -22.8821        -999.25       0.629117
      6183.5000         0.6877        -999.25        -999.25           0.31       -57.2383       -22.2821        -999.25      0.6392865
      6184.0000         0.6779        -999.25        -999.25         0.2886       -59.1579       -24.2054        -999.25      0.6066881
      6184.5000         0.6551        -999.25        -999.25         0.2686       -63.1572       -28.2084        -999.25      0.5388407
      6185.0000         0.6589        -999.25        -999.25         0.2509       -67.3954       -32.4503        -999.25      0.4669441
      6185.5000          0.663        -999.25        -999.25         0.2373       -71.1458       -36.2044        -999.25      0.4033153
      6186.0000         0.6564        -999.25        -999.25         0.2261       -73.6001       -38.6624        -999.25      0.3616543
      6186.5000         0.6419        -999.25        -999.25         0.2186       -74.5179       -39.5839        -999.25      0.3460356
      6187.0000          0.626        -999.25        -999.25         0.2171       -75.2202       -40.2899        -999.25      0.3340695
