#------------------------------------------------------------------------------
# Created by    : vladimir.rabinovich
# Created on    : 09/19/2023 17:21:57
#------------------------------------------------------------------------------
~Version Information Section
VERS.           2.0     :   CWLS log ASCII Standard - VERSION 2.0
WRAP.           NO      :   One line per depth step
~Well Information Section
#MNEM       .UNIT                                         VALUE :DESCRIPTION
#------------------------------------------------------------------------------
STRT        .FT                                             570 :START DEPTH
STOP        .FT                                           10083 :STOP DEPTH
STEP        .FT                                             0.5 :STEP      
NULL        .                                           -999.25 :NULL      
COMP        .                                BP EXPLORATION INC :COMPANY   
WELL        .                               OCS G10548 ST00BP00 :WELL      
FLD         .                                           WILDCAT :FIELD     
LOC         .                                                   :LOCATION  
CNTY        .                                      WEST CAMERON :LOCATION  
STAT        .                                         LOUISIANA :STATE     
CTRY        .                                     UNITED STATES :COUNTRY   
SRVC        .                                                   :SERVICE COMPANY
DATE        .                             9/13/2023 11:18:09 AM :LOG DATE  
API         .                                    17700408010000 :API NUMBER
UWI         .                                    17700408010000 :UNIQUE WELL ID
XCOORD      .                                  1469734.01149431 :SURFACE X 
YCOORD      .                                  10675810.5973196 :SURFACE Y 
LAT         .                                        29.4157778 :LATITUDE  
LON         .                                        -93.536275 :LONGITUDE 
ELEV        .FT                                              80 :ELEVATION VALUE
ELEV_TYPE   .                                                KB :ELEVATION REFERENCE TYPE
~Curve Information Section
#MNEM       .UNIT                                      API CODE :CURVE DESCRIPTION
#------------------------------------------------------------------------------
DEPT        .FT                                                 :DEPTH     
CALI        .IN                                                 :          
DPHI        .%                                                  :          
GR          .GAPI                                               :          
GR_1        .GAPI                                               :          
GR_NORM     .GAPI                                               :GammaRay Normalized
ILD         .OHMM                                               :          
ILM         .OHMM                                               :          
NPHI        .%                                                  :          
SFL         .OHMM                                               :          
SP          .MV                                                 :          
SP_NORM     .MV                                                 :SP Normalized
VSH_GR      .V/V                                                :Volume of Shale from GR
VSH_SP      .V/V                                                :Volume of Shale from SP
~A        DEPTH           CALI           DPHI             GR           GR_1        GR_NORM            ILD            ILM           NPHI            SFL             SP        SP_NORM         VSH_GR         VSH_SP
# ...
      6916.0000        18.3151        29.6067        -999.25        79.9888        69.6672         0.8851         0.8442        47.7892         0.7935       -66.3903        -3.5439      0.7801532      0.9448607
      6916.5000        18.3991        29.8536        -999.25        78.4219        68.1035         0.8882         0.8426        47.1542         0.7927       -66.3385        -3.4954       0.746883      0.9465929
      6917.0000        18.3836        29.9684        -999.25        77.2682         66.953          0.894         0.8459        47.6286         0.8028       -66.2721        -3.4322      0.7224043        0.94885
      6917.5000        18.3174         29.416        -999.25        76.1888        65.8768          0.906         0.8527        48.8355          0.822       -66.1755        -3.3388      0.6995064      0.9521857
      6918.0000         18.239        28.5228        -999.25        74.9495        64.6407         0.9193         0.8641        49.6402         0.8516       -66.0691        -3.2356      0.6732064      0.9558714
      6918.5000        18.1773        27.2265        -999.25        74.0142        63.7086         0.9354         0.8772        49.6057         0.8787       -66.0294        -3.1992      0.6533744      0.9571714
      6919.0000        18.1804        26.4647        -999.25        75.9805        65.6781         0.9563         0.8982        47.4319         0.9055       -66.1591        -3.3321      0.6952788       0.952425
      6919.5000        18.2022        25.6803        -999.25        77.8264        67.5272         0.9798         0.9332        46.0268         0.9339       -66.3018         -3.478      0.7346212      0.9472143
      6920.0000         18.241        24.8779        -999.25         77.546          67.25         1.0039         0.9684        45.5549          0.965       -66.6354        -3.8148      0.7287234      0.9351857
      6920.5000        18.2907        24.1596        -999.25        76.1752        65.8824         1.0271         1.0006        45.0825         0.9901       -66.9443        -4.1269      0.6996256      0.9240393
      6921.0000        18.3407        23.6004        -999.25        75.7194        65.4298         1.0509          1.033        44.2283         1.0091       -66.9926        -4.1785      0.6899958      0.9221964
      6921.5000        18.3806        23.4313        -999.25        75.5435        65.2571         1.0712          1.051        43.5115         1.0234       -66.9309          -4.12      0.6863213      0.9242857
      6922.0000        18.3731        23.7362        -999.25        75.7888        65.5056         1.0845         1.0613        43.8921         1.0383       -66.8646        -4.0569      0.6916085      0.9265393
      6922.5000        18.3469        24.1885        -999.25        76.4283        66.1483         1.0785         1.0705        46.3691         1.0456       -66.6536        -3.8491       0.705283      0.9339607
      6923.0000        18.3079        24.3061        -999.25         77.649        67.3722         1.0618         1.0719        48.6809         1.0443       -66.4587        -3.6575      0.7313234      0.9408036
      6923.5000          18.27        24.0879        -999.25        79.0646         68.791         1.0387         1.0633        49.5734         1.0323       -66.2988        -3.5008      0.7615107         0.9464
      6924.0000        18.2575        23.8347        -999.25        80.8237        70.5533         1.0145         1.0457        48.9572         1.0044       -66.0432        -3.2484      0.7990063      0.9554143
      6924.5000        18.2784         24.417        -999.25         82.697        72.4297          0.993         1.0223        45.5884           0.96         -65.84        -3.0484      0.8389298      0.9625571
      6925.0000        18.3322        25.5339        -999.25        84.1584        73.8943         0.9691         0.9979         44.783         0.9173       -65.7208        -2.9324      0.8700916         0.9667
      6925.5000        18.4123        26.7649        -999.25         85.337        75.0761         0.9469         0.9744        46.2103         0.8882       -65.7303        -2.9452      0.8952363      0.9662428
      6926.0000         18.454        27.5613        -999.25        80.7245        70.4668         0.9269         0.9526        46.5743          0.875       -65.8955        -3.1136      0.7971659      0.9602286
      6926.5000        18.4644        27.8619        -999.25        77.2408        66.9863         0.9101         0.9322        46.2501         0.8751       -65.9648        -3.1861      0.7231127      0.9576393
      6927.0000        18.4746        27.7564        -999.25         77.228        66.9767         0.8939         0.9145        45.3618         0.8849       -65.9716        -3.1961      0.7229085      0.9572821
      6927.5000        18.4936        27.3504        -999.25        78.1614        67.9133           0.88         0.8982        45.0851         0.8958       -65.9592         -3.187      0.7428362      0.9576072
      6928.0000        18.4478        27.0083        -999.25        79.6848        69.4399         0.8699         0.8855        47.0897         0.8774       -65.9536        -3.1846      0.7753171      0.9576929
      6928.5000        18.2568        27.7827        -999.25        80.0906        69.8489         0.8625         0.8764        48.1454          0.814       -65.9966        -3.2308      0.7840192      0.9560429
      6929.0000        18.0544        28.6557        -999.25        79.0845         68.846         0.8573         0.8702        48.2313         0.7626        -66.043        -3.2804      0.7626809      0.9542714
      6929.5000        17.9111        29.0505        -999.25        77.0573         66.822         0.8567         0.8655        47.1377         0.7467          -66.1        -3.3406       0.719617      0.9521214
      6930.0000        17.8525        28.8651        -999.25        74.6555        64.4234         0.8629         0.8625         45.692         0.7632       -66.1729        -3.4168       0.668583         0.9494
      6930.5000        17.8523        27.9974        -999.25        74.3627        64.1338         0.8769         0.8697        44.1503            0.8       -66.2274        -3.4745      0.6624212      0.9473393
      6931.0000         17.826        27.3031        -999.25        75.2919        65.0662         0.9007         0.8832        43.2139          0.848       -66.3527         -3.603      0.6822596        0.94275
      6931.5000          17.78        26.9642        -999.25        76.9828        66.7603         0.9356         0.9006        42.9261         0.8975       -66.4559        -3.7094      0.7183043        0.93895
      6932.0000        17.7855        26.4879        -999.25        79.0175        68.7982         0.9642         0.9236        42.9946         0.9497       -66.4836        -3.7403      0.7616639      0.9378464
      6932.5000        17.8406         25.943        -999.25        80.1538        69.9377         0.9801         0.9448        43.2983         0.9887       -66.4713        -3.7313      0.7859085      0.9381679
      6933.0000        17.9347        25.6316        -999.25        80.3175        70.1046         0.9836          0.963        43.8268         0.9869       -66.3805        -3.6437      0.7894595      0.9412965
      6933.5000        17.9846        25.7366        -999.25         78.283        68.0733         0.9741         0.9619        44.2798         0.9451       -66.2683        -3.5347      0.7462405      0.9451893
      6934.0000        18.0314        26.4632        -999.25        75.4023        65.1958         0.9324         0.9437        44.5667         0.8853       -66.1215        -3.3911       0.685017      0.9503179
      6934.5000        18.0604        27.4449        -999.25        75.8068        65.6035         0.8781         0.9032        44.6964         0.8276       -65.8453        -3.1182      0.6936915      0.9600643
