#------------------------------------------------------------------------------
# Created by    : vladimir.rabinovich
# Created on    : 09/19/2023 17:21:58
#------------------------------------------------------------------------------
~Version Information Section
VERS.           2.0     :   CWLS log ASCII Standard - VERSION 2.0
WRAP.           NO      :   One line per depth step
~Well Information Section
#MNEM       .UNIT                                         VALUE :DESCRIPTION
#------------------------------------------------------------------------------
STRT        .FT                                            3382 :START DEPTH
STOP        .FT                                           10910 :STOP DEPTH
STEP        .FT                                             0.5 :STEP      
NULL        .                                           -999.25 :NULL      
COMP        .                               B P EXPLORATION INC :COMPANY   
WELL        .                               OCS G07597 ST00BP00 :WELL      
FLD         .                           WEST CAMERON BLOCK 0045 :FIELD     
LOC         .                                                   :LOCATION  
CNTY        .                                      WEST CAMERON :LOCATION  
STAT        .                                         LOUISIANA :STATE     
CTRY        .                                     UNITED STATES :COUNTRY   
SRVC        .                                                   :SERVICE COMPANY
DATE        .                             9/13/2023 11:18:09 AM :LOG DATE  
API         .                                    17700407640000 :API NUMBER
UWI         .                                    17700407640000 :UNIQUE WELL ID
XCOORD      .                                  1473636.79229916 :SURFACE X 
YCOORD      .                                   10762774.556795 :SURFACE Y 
LAT         .                                        29.6550545 :LATITUDE  
LON         .                                       -93.5252479 :LONGITUDE 
ELEV        .FT                                              90 :ELEVATION VALUE
ELEV_TYPE   .                                                KB :ELEVATION REFERENCE TYPE
~Curve Information Section
#MNEM       .UNIT                                      API CODE :CURVE DESCRIPTION
#------------------------------------------------------------------------------
DEPT        .FT                                                 :DEPTH     
CALI        .IN                                                 :          
DRHO        .G/C3                                               :          
DT          .US/F                                               :          
GR          .GAPI                                               :          
GR_1        .GAPI                                               :          
GR_NORM     .GAPI                                               :GammaRay Normalized
ILD         .OHMM                                               :          
ILM         .OHMM                                               :          
NPHI        .%                                                  :          
RHOB        .G/C3                                               :          
SFL         .OHMM                                               :          
SP          .MV                                                 :          
SP_NORM     .MV                                                 :SP Normalized
VSH_GR      .V/V                                                :Volume of Shale from GR
VSH_SP      .V/V                                                :Volume of Shale from SP
~A        DEPTH           CALI           DRHO             DT             GR           GR_1        GR_NORM            ILD            ILM           NPHI           RHOB            SFL             SP        SP_NORM         VSH_GR         VSH_SP
# ...
      3977.0000        14.3045        -0.0379       127.4097         35.843        53.8585       63.58948         0.4911         0.5298        43.7335          2.177          0.673      -100.7822        -33.074        0.65084      0.5149354
      3977.5000        14.3104        -0.0418        128.887        35.5908        57.4945       62.97868         0.4797         0.5339           44.4         2.1747         0.7036      -101.6172       -33.9313      0.6378443      0.5011081
      3978.0000        14.3177        -0.0424       127.1281        39.7629        61.3933        72.9111         0.4732         0.5392        45.0492         2.1742         0.7585       -110.121       -42.4573      0.8491724       0.363592
      3978.5000        14.3378        -0.0406       122.0931        43.5389        62.8122       81.89957         0.4679         0.5435        45.5502         2.1726         0.8389      -111.1254        -43.484              1      0.3470322
      3979.0000         14.358        -0.0378       119.5474        45.1929        60.1545       85.83115         0.4654         0.5467        45.6688         2.1746         0.8939      -117.2695       -49.6503              1      0.2475758
      3979.5000        14.3793        -0.0381       119.8522        45.3261        54.5862       86.13855         0.4625         0.5457        44.9028         2.1769            0.9       -126.934       -59.3371              1     0.09133708
      3980.0000        14.3368         -0.049       122.6245         40.129        48.2925       73.74352         0.4589         0.5436        42.8922         2.1744         0.8839      -124.1642       -56.5895      0.8668833      0.1356532
      3980.5000        14.3939        -0.0635        124.645        32.7462        44.2038       56.13971         0.4539         0.5382        42.7289          2.163         0.8476      -119.6533       -52.1009      0.4923342        0.20805
      3981.0000        14.5308         -0.074       125.6682        32.2371        41.6885        54.9165         0.4415         0.5315        43.2977         2.1388         0.8191      -119.1949       -51.6648      0.4663084      0.2150839
      3981.5000        14.9169         -0.086        93.4879        32.9131         40.531       56.51745         0.4242         0.5247        44.0831         2.1276          0.798       -126.239       -58.7311      0.5003713      0.1011113
      3982.0000        15.3731        -0.0979        28.6309        35.6599        40.4865       63.05326         0.4138         0.5227        44.8669         2.1189         0.7825      -123.2974       -55.8118       0.639431      0.1481968
      3982.5000        15.7642        -0.1046        24.6992        33.7974        40.3153       58.60477         0.4089         0.5181        44.9677           2.12         0.7684        -118.51       -51.0466      0.5447823      0.2250548
      3983.0000        15.8432        -0.1061        23.9035          29.68        39.5876       48.78274         0.4082         0.5164        44.8893         2.1322          0.757      -123.4518       -56.0107      0.3358029      0.1449887
      3983.5000        15.6718        -0.1035        35.6359        28.6793        37.7897       46.38799         0.4098         0.5088        45.3193         2.1362         0.7586      -125.1866       -57.7677      0.2848508        0.11665
      3984.0000        15.3038        -0.1036        69.9445        29.0555        35.7721       47.27446         0.4101         0.5102        47.0577         2.1304         0.7654      -122.6973       -55.3007      0.3037119      0.1564403
      3984.5000        15.2839        -0.1069        85.8729        28.6849        34.5528       46.38132         0.4094         0.5132        48.4828         2.1227         0.7743      -129.6191       -62.2448      0.2847089      0.0444387
      3985.0000        15.5023        -0.1146       107.2421        26.3597        35.0925        40.8302         0.4093         0.5178        49.6736         2.1046         0.7866      -135.0947       -67.7426      0.1666001              0
      3985.5000        15.5607        -0.1178       110.2797        22.6609        36.7151       32.00567         0.4099         0.5243         51.008         2.0789         0.8073      -127.6265       -60.2967              0     0.07585969
      3986.0000         15.557        -0.1189        113.332        22.2935        39.0723       31.12013         0.4112         0.5297        51.2097          2.075         0.8252      -122.0061       -54.6985              0      0.1661532
      3986.5000        15.5481        -0.1198       117.5183        23.9349        40.0549       35.02168         0.4133         0.5287        50.4356         2.0787         0.8112       -143.209       -75.9237     0.04301453              0
      3987.0000        15.5085        -0.1216        120.829        25.7146        38.7352       39.25283         0.4161         0.5273        49.4643         2.0881         0.8048      -146.8357       -79.5726      0.1330389              0
      3987.5000        15.4809        -0.1256        35.6161        27.0503        37.8119       42.42612         0.4194         0.5306        50.1824         2.0967         0.8048      -130.3962       -63.1554      0.2005557     0.02975162
      3988.0000        15.6268         -0.128        25.1825        27.1674        38.7741       42.69517         0.4231         0.5328        50.6367         2.0929         0.8123      -125.6089       -58.3904      0.2062802      0.1066065
      3988.5000        15.7825        -0.1276        21.0085        26.7029        40.0372       41.57821         0.4318         0.5402        50.6552         2.0841         0.8256      -127.8245       -60.6282      0.1825151      0.0705129
      3989.0000        15.6759        -0.1251        23.8002        25.7059        40.7576       39.19229         0.4462         0.5621        50.3502         2.0824         0.8514       -127.665        -60.491      0.1317509     0.07272579
      3989.5000        15.3857        -0.1205        34.8193        25.1704        41.7664       37.90614         0.4717         0.5955        49.8548         2.0919          0.982       -124.473       -57.3212       0.104386      0.1238516
      3990.0000        15.0349        -0.1109        40.6641        26.5316        44.0742       41.13999         0.5151         0.6484        49.1591         2.1118         1.4812      -114.7028       -47.5733      0.1731912      0.2810758
      3990.5000         14.919        -0.0976        48.0586        27.6438        43.4262       43.78044          0.581         0.7613         48.119         2.1542         1.7522      -115.3358       -48.2286       0.229371      0.2705065
      3991.0000        14.7231        -0.0897        78.2875        28.4545        42.7877       45.70236         0.6778         0.8413          45.85          2.198           1.77      -115.6051       -48.5201      0.2702629      0.2658049
      3991.5000        14.2172        -0.0914        30.7117        28.8082        42.1454       46.53526         0.8165         0.8885        39.2771         2.1959         1.2918      -116.8163       -49.7536      0.2879843      0.2459097
      3992.0000        13.7432        -0.1077        23.1287        29.8257        41.2383       48.95002         0.7836         0.9008        36.2395         2.1855         1.0675       -119.662       -52.6215      0.3393621      0.1996533
      3992.5000        13.5746        -0.1361        22.0711        31.3327        40.2727       52.53131         0.6599         0.8792        35.2649         2.1861         1.0002       -116.891       -49.8728      0.4155597      0.2439871
      3993.0000        13.5409        -0.1524        26.1122        32.3639        39.7081        54.9787         0.7182         0.8584        34.8508         2.1841         1.1279      -110.4846       -43.4886      0.4676319       0.346958
      3993.5000        13.5314        -0.1574        32.1629        32.0338        39.6618       54.18203         0.7981         0.8863        35.7476         2.1736         1.6079      -104.9301       -37.9564      0.4506816      0.4361871
