#------------------------------------------------------------------------------
# Created by    : vladimir.rabinovich
# Created on    : 09/19/2023 17:21:14
#------------------------------------------------------------------------------
~Version Information Section
VERS.           2.0     :   CWLS log ASCII Standard - VERSION 2.0
WRAP.           NO      :   One line per depth step
~Well Information Section
#MNEM       .UNIT                                         VALUE :DESCRIPTION
#------------------------------------------------------------------------------
STRT        .FT                                            2600 :START DEPTH
STOP        .FT                                          9205.5 :STOP DEPTH
STEP        .FT                                             0.5 :STEP      
NULL        .                                           -999.25 :NULL      
COMP        .                              MCMORAN OIL & GAS CO :COMPANY   
WELL        .                                OCS 00757 ST00BP00 :WELL      
FLD         .                           WEST CAMERON BLOCK 0118 :FIELD     
LOC         .                                                   :LOCATION  
CNTY        .                                      WEST CAMERON :LOCATION  
STAT        .                                         LOUISIANA :STATE     
CTRY        .                                     UNITED STATES :COUNTRY   
SRVC        .                                                   :SERVICE COMPANY
DATE        .                             9/13/2023 11:18:49 AM :LOG DATE  
API         .                                    17700410700000 :API NUMBER
UWI         .                                    17700410700000 :UNIQUE WELL ID
XCOORD      .                                  1436864.54905534 :SURFACE X 
YCOORD      .                                  10703419.9985863 :SURFACE Y 
LAT         .                                        29.4912718 :LATITUDE  
LON         .                                       -93.6400205 :LONGITUDE 
ELEV        .FT                                             118 :ELEVATION VALUE
ELEV_TYPE   .                                                KB :ELEVATION REFERENCE TYPE
~Curve Information Section
#MNEM       .UNIT                                      API CODE :CURVE DESCRIPTION
#------------------------------------------------------------------------------
DEPT        .FT                                                 :DEPTH     
CAL         .IN                                                 :          
CNC         .%                                                  :          
DT24        .US/F                                               :          
GR          .GAPI                                               :          
GR_NORM     .GAPI                                               :GammaRay Normalized
M0C6        .MMHO                                               :          
M2R1        .OHMM                                               :          
M2R2        .OHMM                                               :          
M2R3        .OHMM                                               :          
M2R6        .OHMM                                               :          
M2R9        .OHMM                                               :          
M2RX        .OHMM                                               :          
PORZ        .%                                                  :          
RWAZ        .OHMM                                               :          
SP          .MV                                                 :          
SP_NORM     .MV                                                 :SP Normalized
TTEN        .LB/F                                               :          
VSH_GR      .V/V                                                :Volume of Shale from GR
VSH_SP      .V/V                                                :Volume of Shale from SP
ZCOR        .G/CC                                               :          
~A        DEPTH            CAL            CNC           DT24             GR        GR_NORM           M0C6           M2R1           M2R2           M2R3           M2R6           M2R9           M2RX           PORZ           RWAZ             SP        SP_NORM           TTEN         VSH_GR         VSH_SP           ZCOR
# ...
      5681.0000        -999.25        -999.25        109.946         75.629       75.74268       1165.903            0.9          0.895          0.879          0.865          0.861          0.866        -999.25        -999.25        -15.407       -13.5022       2702.601      0.9094186      0.7980346        -999.25
      5681.5000        -999.25        -999.25          112.4         75.608       75.71796       1152.574          0.896          0.905          0.895          0.883          0.879          0.886        -999.25        -999.25        -14.056       -12.1512        2702.43      0.9088927      0.8240154        -999.25
      5682.0000        -999.25        -999.25        110.728         73.588       73.13287       1141.508          0.893          0.916          0.912          0.901          0.899          0.906        -999.25        -999.25        -12.615       -10.7102       2698.466       0.853891      0.8517269        -999.25
      5682.5000        -999.25        -999.25        108.461         71.837        70.8922       1134.782          0.901          0.936          0.938           0.93          0.928          0.937        -999.25        -999.25         -11.26        -9.3552       2694.881      0.8062171      0.8777846        -999.25
      5683.0000        -999.25        -999.25         104.54         71.356       70.27831       1133.975          0.909          0.957          0.966          0.961           0.96           0.97        -999.25        -999.25        -10.282        -8.3772       2696.352      0.7931556      0.8965923        -999.25
      5683.5000        -999.25        -999.25        101.007         72.808       72.14011       1140.008            0.9          0.961          0.977          0.976          0.976          0.987        -999.25        -999.25         -9.749        -7.8442       2698.359      0.8327682      0.9068423        -999.25
      5684.0000        -999.25        -999.25         104.38         75.438       75.51085       1153.045          0.862          0.935           0.96          0.961          0.964          0.975        -999.25        -999.25         -9.325        -7.4202       2699.416      0.9044861      0.9149961        -999.25
      5684.5000        -999.25        -999.25            112         78.495        79.4285       1172.427          0.801          0.883          0.915           0.92          0.924          0.935        -999.25        -999.25         -8.544        -6.6392       2701.934      0.9878405      0.9300154        -999.25
      5685.0000        -999.25        -999.25        119.341         82.026       83.95313       1196.716          0.732          0.816          0.854          0.863          0.869          0.879        -999.25        -999.25         -7.408        -5.5032        2702.91              1      0.9518616        -999.25
      5685.5000        -999.25        -999.25        125.533           85.2       88.02064       1223.818          0.667           0.75          0.792          0.802          0.811           0.82        -999.25        -999.25         -6.379        -4.4742       2697.708              1        0.97165        -999.25
      5686.0000        -999.25        -999.25        129.155         86.305       89.43799       1251.254          0.617          0.697           0.74          0.754          0.763          0.772        -999.25        -999.25         -5.821        -3.9162       2688.005              1      0.9823807        -999.25
      5686.5000        -999.25        -999.25        129.723         86.678       89.91792       1276.483          0.586          0.663          0.707          0.723          0.734          0.742        -999.25        -999.25         -5.666        -3.7612       2683.478              1      0.9853615        -999.25
      5687.0000        -999.25        -999.25        128.807         87.749       91.29185       1297.263          0.571          0.645           0.69          0.709           0.72          0.728        -999.25        -999.25         -5.516        -3.6112       2688.514              1      0.9882461        -999.25
      5687.5000        -999.25        -999.25         127.61         89.854       93.99004        1311.95          0.563          0.635          0.681          0.702          0.715          0.723        -999.25        -999.25         -5.111        -3.2062       2696.344              1      0.9960346        -999.25
      5688.0000        -999.25        -999.25        126.873          94.13       99.46899       1319.695           0.56           0.63          0.676            0.7          0.713          0.721        -999.25        -999.25         -4.678        -2.7732       2701.099              1              1        -999.25
      5688.5000        -999.25        -999.25        126.606         98.114       104.5738       1320.503           0.56           0.63          0.676          0.702          0.715          0.722        -999.25        -999.25         -4.631        -2.7262       2704.271              1              1        -999.25
      5689.0000        -999.25        -999.25        126.623         98.531       105.1101       1315.149          0.564          0.634          0.681          0.709          0.722          0.728        -999.25        -999.25          -5.05        -3.1452       2704.653              1      0.9972077        -999.25
      5689.5000        -999.25        -999.25        126.587         95.606       101.3659       1304.984          0.575          0.644          0.692          0.721          0.734           0.74        -999.25        -999.25         -5.512        -3.6072       2701.565              1      0.9883231        -999.25
      5690.0000        -999.25        -999.25        127.668         91.636       96.28308       1291.668          0.595          0.665          0.713          0.744          0.756          0.762        -999.25        -999.25         -5.521        -3.6162       2697.196              1        0.98815        -999.25
      5690.5000        -999.25        -999.25        130.253         88.435       92.18536       1276.884          0.626          0.697          0.746          0.778           0.79          0.796        -999.25        -999.25         -5.155        -3.2502       2694.172              1      0.9951885        -999.25
      5691.0000        -999.25        -999.25         132.57         87.911       91.51637        1262.07          0.661          0.733          0.783          0.816          0.827          0.833        -999.25        -999.25         -4.923        -3.0182       2696.218              1        0.99965        -999.25
      5691.5000        -999.25        -999.25        133.434         89.684       93.78933       1248.223          0.684          0.758          0.808          0.841           0.85          0.856        -999.25        -999.25          -5.01        -3.1052       2703.573              1      0.9979769        -999.25
      5692.0000        -999.25        -999.25         131.72         89.687       93.79535       1235.806          0.688          0.762          0.811          0.842          0.851          0.857        -999.25        -999.25         -5.053        -3.1482       2709.298              1        0.99715        -999.25
      5692.5000        -999.25        -999.25         127.73         87.211       90.62608       1224.781          0.678           0.75          0.798          0.827          0.835          0.841        -999.25        -999.25         -4.757        -2.8522       2708.356              1              1        -999.25
      5693.0000        -999.25        -999.25        123.558         84.965       87.75154       1214.759          0.664          0.736          0.782           0.81          0.817          0.823        -999.25        -999.25         -4.272        -2.3672       2702.325              1              1        -999.25
      5693.5000        -999.25        -999.25        121.115         85.923       88.98074        1205.25          0.658           0.73          0.776          0.802          0.809          0.814        -999.25        -999.25         -3.996        -2.0912       2699.232              1              1        -999.25
