#------------------------------------------------------------------------------
# Created by    : vladimir.rabinovich
# Created on    : 09/19/2023 17:20:42
#------------------------------------------------------------------------------
~Version Information Section
VERS.           2.0     :   CWLS log ASCII Standard - VERSION 2.0
WRAP.           NO      :   One line per depth step
~Well Information Section
#MNEM       .UNIT                                         VALUE :DESCRIPTION
#------------------------------------------------------------------------------
STRT        .FT                                            1866 :START DEPTH
STOP        .FT                                            8637 :STOP DEPTH
STEP        .FT                                             0.5 :STEP      
NULL        .                                           -999.25 :NULL      
COMP        .                           GENERAL AMERICAN OIL CO :COMPANY   
WELL        .                               OCS G01862 ST00BP00 :WELL      
FLD         .                           WEST CAMERON BLOCK 0045 :FIELD     
LOC         .                                                   :LOCATION  
CNTY        .                                      WEST CAMERON :LOCATION  
STAT        .                                         LOUISIANA :STATE     
CTRY        .                                     UNITED STATES :COUNTRY   
SRVC        .                                                   :SERVICE COMPANY
DATE        .                             9/13/2023 11:18:18 AM :LOG DATE  
API         .                                    17700004060000 :API NUMBER
UWI         .                                    17700004060000 :UNIQUE WELL ID
XCOORD      .                                  1439968.94212662 :SURFACE X 
YCOORD      .                                  10754878.8884152 :SURFACE Y 
LAT         .                                        29.6328727 :LATITUDE  
LON         .                                       -93.6311393 :LONGITUDE 
ELEV        .FT                                              51 :ELEVATION VALUE
ELEV_TYPE   .                                                KB :ELEVATION REFERENCE TYPE
~Curve Information Section
#MNEM       .UNIT                                      API CODE :CURVE DESCRIPTION
#------------------------------------------------------------------------------
DEPT        .FT                                                 :DEPTH     
ASN         .OHMM                                               :          
CALI        .IN                                                 :          
DRHO        .G/C3                                               :          
DT          .US/F                                               :          
GR          .GAPI                                               :          
GR_NORM     .GAPI                                               :GammaRay Normalized
ILD         .OHMM                                               :          
RHOB        .G/C3                                               :          
SP          .MV                                                 :          
SP_NORM     .MV                                                 :SP Normalized
VSH_GR      .V/V                                                :Volume of Shale from GR
VSH_SP      .V/V                                                :Volume of Shale from SP
~A        DEPTH            ASN           CALI           DRHO             DT             GR        GR_NORM            ILD           RHOB             SP        SP_NORM         VSH_GR         VSH_SP
# ...
      5843.0000         0.4759        11.7752         0.0937       117.6213        56.6118       53.37497         0.2674          1.936       -96.7589       -58.0876      0.4335099      0.1217292
      5843.5000         0.4719        11.6981         0.1023       114.9255        48.3723       43.36125         0.2617         1.8535       -98.0701       -59.4133      0.2204521      0.1013339
      5844.0000         0.4952        11.8283         0.0361       116.7509        49.6104       44.86454         0.2626         1.7954       -95.5757       -56.9334      0.2524369      0.1394862
      5844.5000         0.5214        11.7193         0.0184       113.4995        49.8326       45.13321         0.2709         1.7682       -93.8571       -55.2293      0.2581534      0.1657031
      5845.0000         0.5002         11.581         0.0546       124.1685        46.3478       40.89737         0.2768         1.7037         -94.92       -56.3067      0.1680292      0.1491277
      5845.5000         0.4747        11.7622         0.0726       126.4501         44.103       38.16822         0.2821         1.6863       -97.4719       -58.8731      0.1099622      0.1096446
      5846.0000         0.4551        12.2074         0.0646       118.3752        44.3649       38.48526         0.2856         1.7473      -100.2015       -61.6172      0.1167077     0.06742771
      5846.5000         0.4395        12.8915         0.1027       121.9513        44.4479       38.58479         0.2888         1.8627      -101.5093       -62.9395      0.1188252     0.04708463
      5847.0000         0.4424         13.778         0.1455       117.1947        43.0535       36.88914         0.3128         1.8872      -100.3849       -61.8297     0.08274768     0.06415845
      5847.5000         0.4502        14.1989         0.1153       112.1207        44.0935       38.15158         0.3376         1.8829       -97.9553       -59.4146       0.109608      0.1013138
      5848.0000         0.4646        13.8094         0.0753       114.3676        44.3356       38.44455         0.3541         1.9094       -94.2738       -55.7476      0.1158416      0.1577292
      5848.5000         0.4424        14.2172         0.0325        115.853        48.9681       44.07249         0.3666         1.9218        -90.059       -51.5473      0.2355848      0.2223493
      5849.0000          0.425        14.9899         0.0042       114.3936        53.2173       49.23464         0.3718         1.9573       -85.6737       -47.1765      0.3454179      0.2895923
      5849.5000         0.4234        13.4515          0.003       114.6404        57.0049         53.836         0.3796         1.9842       -82.6228       -44.1401      0.4433192      0.3363062
      5850.0000          0.464        12.9005         0.0266       114.2683        60.1357       57.63911         0.3913         1.9874       -84.0071       -45.5389      0.5242365      0.3147862
      5850.5000         0.5211        13.7987         0.0488       114.5659        61.8463       59.71656         0.4027         1.9081         -89.67       -51.2164      0.5684374        0.22744
      5851.0000         0.4965        15.0186         0.0954       116.2797         60.397       57.95408          0.414         1.8372       -88.1626       -49.7235      0.5309379      0.2504077
      5851.5000         0.4579        13.7953         0.1301       126.0731        57.3786       54.28501         0.4295         1.8112       -81.0366        -42.612      0.4528725      0.3598154
      5852.0000         0.4482        13.5679         0.1084       131.7324        54.4237       50.69297         0.4468         1.8265       -71.2885       -32.8784      0.3764461      0.5095631
      5852.5000         0.5073        12.9573         0.0642        132.459        58.3261       55.43382         0.4634         1.9836       -64.6542       -26.2586      0.4773154      0.6114061
      5853.0000          0.511        12.7246         0.0529        129.188        66.1211       64.90474         0.4784         2.1216       -63.3329       -24.9518      0.6788242      0.6315108
      5853.5000         0.4884        12.2534         0.0402       120.1112        69.5229       69.03728         0.4543          2.167       -54.4736        -16.107      0.7667506      0.7675846
      5854.0000         0.4575        11.7133         0.0368       111.8082           69.7       69.25114         0.4262         2.1716       -48.5699       -10.2178       0.771301      0.8581877
      5854.5000          0.427        12.0506         0.0342       116.9219        68.2579       67.49754         0.4336         2.1748       -47.9125         -9.575      0.7339903      0.8680769
      5855.0000         0.4364        12.3731         0.0181       119.3666        70.0626       69.68921          0.399         2.1087       -51.3736       -13.0506      0.7806215      0.8146061
      5855.5000         0.4728         12.668         0.0216        119.281        72.9003       73.13629         0.3563         2.0418       -63.1403       -24.8318      0.8539637      0.6333569
      5856.0000         0.5589        12.6333          0.049       120.1855        68.2115       67.43726         0.3235         1.9628       -78.8589       -40.5649      0.7327076      0.3913092
      5856.5000         0.6377        12.2871         0.0832       121.8615        58.5215       55.66107         0.3013         1.7879       -92.3997       -54.1202      0.4821504      0.1827661
      5857.0000         0.6395        12.2174         0.0849       121.3065        50.7264       46.18737           0.29          1.652       -98.0109       -59.7459      0.2805823     0.09621693
      5857.5000          0.607        12.1745         0.0758       122.7672        44.7629       38.93949         0.2952         1.5358      -100.7682       -62.5177      0.1263722     0.05357384
      5858.0000         0.5589        12.1121         0.0967       128.9995        39.8837       33.00911          0.297         1.5307      -102.5386       -64.3027   0.0001937379     0.02611237
      5858.5000         0.5054        12.0057         0.1098       132.4514        38.9435       31.86539         0.2975         1.5507      -103.6979       -65.4765              0    0.008053823
      5859.0000         0.4831        11.8901         0.1133       137.5454        40.6688       33.96059         0.2768         1.5887      -104.0227       -65.8158     0.02043809    0.002833792
      5859.5000         0.4658        11.9952         0.1211       131.7273         41.406       34.85518          0.254         1.6314      -103.9922       -65.7998     0.03947197    0.003080045
      5860.0000          0.444        12.4206         0.1132       128.3943        40.8324       34.15683         0.2362          1.691      -103.7266       -65.5487     0.02461348    0.006943101
      5860.5000          0.422        13.5811         0.1026       125.4828        39.6419       32.70883         0.2246         1.7146      -101.1904        -63.027              0     0.04573845
      5861.0000         0.4045         14.885         0.0815       118.0255        41.9521        35.5149         0.2278         1.7303       -99.7627       -61.6138     0.05350859        0.06748
      5861.5000         0.3939        15.9285         0.0305       123.6526        42.6169       36.32153         0.2227          1.775       -98.6581       -60.5237     0.07067075     0.08425076
      5862.0000         0.3835        15.9247          0.007       123.1318        44.4503       38.54808         0.2143         1.8203       -97.6201       -59.5003      0.1180443     0.09999537
      5862.5000          0.373         15.936         0.0315        120.079        48.0499       42.92087         0.2179           1.88       -95.8126       -57.7073      0.2110824        0.12758
      5863.0000         0.3626        15.9494         0.0459       120.9916        49.3955       44.55479         0.2229         1.9268       -93.7775       -55.6867      0.2458467      0.1586662
