#------------------------------------------------------------------------------
# Created by    : vladimir.rabinovich
# Created on    : 09/19/2023 17:21:57
#------------------------------------------------------------------------------
~Version Information Section
VERS.           2.0     :   CWLS log ASCII Standard - VERSION 2.0
WRAP.           NO      :   One line per depth step
~Well Information Section
#MNEM       .UNIT                                         VALUE :DESCRIPTION
#------------------------------------------------------------------------------
STRT        .FT                                             570 :START DEPTH
STOP        .FT                                           10083 :STOP DEPTH
STEP        .FT                                             0.5 :STEP      
NULL        .                                           -999.25 :NULL      
COMP        .                                BP EXPLORATION INC :COMPANY   
WELL        .                               OCS G10548 ST00BP00 :WELL      
FLD         .                                           WILDCAT :FIELD     
LOC         .                                                   :LOCATION  
CNTY        .                                      WEST CAMERON :LOCATION  
STAT        .                                         LOUISIANA :STATE     
CTRY        .                                     UNITED STATES :COUNTRY   
SRVC        .                                                   :SERVICE COMPANY
DATE        .                             9/13/2023 11:18:09 AM :LOG DATE  
API         .                                    17700408010000 :API NUMBER
UWI         .                                    17700408010000 :UNIQUE WELL ID
XCOORD      .                                  1469734.01149431 :SURFACE X 
YCOORD      .                                  10675810.5973196 :SURFACE Y 
LAT         .                                        29.4157778 :LATITUDE  
LON         .                                        -93.536275 :LONGITUDE 
ELEV        .FT                                              80 :ELEVATION VALUE
ELEV_TYPE   .                                                KB :ELEVATION REFERENCE TYPE
~Curve Information Section
#MNEM       .UNIT                                      API CODE :CURVE DESCRIPTION
#------------------------------------------------------------------------------
DEPT        .FT                                                 :DEPTH     
CALI        .IN                                                 :          
DPHI        .%                                                  :          
GR          .GAPI                                               :          
GR_1        .GAPI                                               :          
GR_NORM     .GAPI                                               :GammaRay Normalized
ILD         .OHMM                                               :          
ILM         .OHMM                                               :          
NPHI        .%                                                  :          
SFL         .OHMM                                               :          
SP          .MV                                                 :          
SP_NORM     .MV                                                 :SP Normalized
VSH_GR      .V/V                                                :Volume of Shale from GR
VSH_SP      .V/V                                                :Volume of Shale from SP
~A        DEPTH           CALI           DPHI             GR           GR_1        GR_NORM            ILD            ILM           NPHI            SFL             SP        SP_NORM         VSH_GR         VSH_SP
# ...
      6289.0000        11.1374         24.563        -999.25        98.2469        83.9165         0.8189         0.8202        41.9219          0.885       -69.7681        -3.0487              1      0.9544044
      6289.5000        10.9508        25.0139        -999.25        98.2911        83.9638         0.8273         0.8257        41.3694         0.9194       -69.7897        -3.0734              1      0.9533305
      6290.0000        10.8346        25.3944        -999.25        97.6783        83.3542         0.8318         0.8297        41.5308         0.9193       -69.8269        -3.1137              1      0.9515783
      6290.5000        10.7764        25.5638        -999.25         96.722        82.4011         0.8364         0.8321        41.6614         0.8792       -69.8776        -3.1675              1      0.9492391
      6291.0000        10.7823        25.5514        -999.25         96.053        81.7353         0.8434         0.8353        41.4901         0.8506       -69.9812        -3.2742              1         0.9446
      6291.5000        10.7998        25.3258        -999.25        96.1483        81.8338          0.854         0.8408        40.9331         0.8548       -70.0756        -3.3717              1      0.9403608
      6292.0000        10.8918        24.8674        -999.25        97.0562        82.7449          0.866         0.8522        40.6439         0.8707       -70.1537        -3.4529              1      0.9368305
      6292.5000        11.0455        24.2913        -999.25        97.4462        83.1381         0.8802         0.8688        40.5126         0.9037       -70.2407         -3.543              1      0.9329131
      6293.0000        11.1645        23.8048        -999.25        95.1932        80.8883         0.8957         0.8882        40.4919         0.9322       -70.3424        -3.6477              1      0.9283609
      6293.5000        11.1861        23.4112        -999.25        93.2583        78.9566         0.9128         0.9088        40.4338         0.9561       -70.4534        -3.7618         0.9778         0.9234
      6294.0000         11.103        23.1595        -999.25        91.3866        77.0881         0.9327         0.9308        40.3165         0.9768       -70.5741        -3.8856      0.9380446      0.9180174
      6294.5000        11.0231        22.9272        -999.25        89.9882        75.6929         0.9542         0.9518        40.0129         1.0011       -70.6235        -3.9381      0.9083596      0.9157348
      6295.0000        11.0565        22.7444        -999.25        89.0735        74.7814         0.9797          0.968        39.5755         1.0395       -70.6191        -3.9368       0.888966      0.9157913
      6295.5000        11.2144        22.6753        -999.25        88.4115        74.1226         0.9988         0.9809        39.0942         1.0924       -70.5148        -3.8356      0.8749489      0.9201913
      6296.0000        11.5058        22.8284        -999.25        89.2642        74.9785         1.0117          0.992         38.965         1.1761       -70.3788        -3.7027      0.8931596      0.9259695
      6296.5000        11.6608        23.2133        -999.25         92.446        78.1635         1.0135         0.9913        39.3499         1.2306       -70.2103        -3.5373      0.9609255      0.9331608
      6297.0000        11.6404        23.7017        -999.25        95.6901        81.4108         0.9874         0.9725        40.3251         1.1141       -70.0486        -3.3786              1      0.9400609
      6297.5000        11.1963        24.1313        -999.25        97.7505        83.4744          0.918         0.9085        41.5665         0.9282       -69.9126        -3.2457              1      0.9458391
      6298.0000        11.0357        24.4502        -999.25        98.7054        84.4325         0.8423         0.8519        42.1606         0.8421       -69.7885        -3.1247              1         0.9511
      6298.5000        10.9495        24.4665        -999.25       100.1686        85.8989         0.8096         0.8142        42.2487         0.7775       -69.6796        -3.0189              1         0.9557
      6299.0000        10.9176        24.3562        -999.25       102.0886        87.8221         0.7951         0.7903        44.5276         0.7679       -69.5339        -2.8763              1         0.9619
      6299.5000        10.9287        24.3046        -999.25            104        89.7367         0.7861         0.7899        45.8829         0.7758       -69.3884        -2.7339              1      0.9680913
      6300.0000        11.0699        24.3214        -999.25       105.2494        90.9893         0.7841         0.7972        46.5422         0.7838       -69.2623        -2.6109              1      0.9734392
      6300.5000        11.2409        24.2897        -999.25       103.3704        89.1135         0.7862         0.8049        46.6644         0.7901       -69.3035        -2.6552              1       0.971513
      6301.0000        11.3462        24.1013        -999.25       100.7783        86.5246         0.7937         0.8095        46.5535         0.7964       -69.4468        -2.8016              1      0.9651479
      6301.5000        11.3876        23.8666        -999.25        99.3427        85.0922         0.8017          0.814        46.2075         0.8072       -69.6625        -3.0203              1      0.9556391
      6302.0000        11.2862        23.5154        -999.25        98.4174        84.1701         0.8103         0.8177        45.5793         0.8228       -69.9238        -3.2847              1      0.9441435
      6302.5000        11.1442         23.147        -999.25        98.1694        83.9253         0.8198         0.8231        44.8739         0.8328       -70.2676        -3.6316              1      0.9290609
      6303.0000        11.2533        22.7656        -999.25        98.8291        84.5882         0.8278           0.83        44.0336         0.8378       -70.6926        -4.0597              1      0.9104478
      6303.5000           11.4          22.54        -999.25        99.2992        85.0615          0.835         0.8355        43.0478         0.8393       -71.0931        -4.4633              1         0.8929
      6304.0000         11.468         22.587        -999.25          98.77        84.5354         0.8403         0.8414        42.3514         0.8392       -71.4038        -4.7771              1      0.8792565
      6304.5000        11.4661        22.8531        -999.25        97.7672        83.5358         0.8467         0.8479        42.0355         0.8373       -71.5669        -4.9433              1      0.8720304
      6305.0000        11.4254        23.2977        -999.25        97.3838        83.1556         0.8538         0.8544        41.8864         0.8311       -71.6101        -4.9896              1      0.8700174
      6305.5000        11.3184        23.5604        -999.25         97.658         83.433         0.8608         0.8606        41.9048           0.82       -71.6504        -5.0329              1      0.8681348
      6306.0000        11.2198        23.4918        -999.25        98.1727        83.9509         0.8673         0.8685        42.0123         0.8081       -71.7458        -5.1314              1      0.8638521
      6306.5000        11.2056        23.1998        -999.25        98.4414        84.2228         0.8738         0.8815         41.942            0.8        -71.928        -5.3167              1      0.8557957
      6307.0000        11.2346        22.5874        -999.25        97.0214         82.806         0.8806         0.8928        41.4294         0.8064       -72.1876        -5.5794              1      0.8443739
      6307.5000        11.3122        21.8752        -999.25        92.4012         78.189         0.8858         0.8983        40.3986         0.8839       -72.4283        -5.8232      0.9614682      0.8337739
