#------------------------------------------------------------------------------
# Created by    : vladimir.rabinovich
# Created on    : 09/19/2023 17:22:32
#------------------------------------------------------------------------------
~Version Information Section
VERS.           2.0     :   CWLS log ASCII Standard - VERSION 2.0
WRAP.           NO      :   One line per depth step
~Well Information Section
#MNEM       .UNIT                                         VALUE :DESCRIPTION
#------------------------------------------------------------------------------
STRT        .FT                                            2450 :START DEPTH
STOP        .FT                                            9560 :STOP DEPTH
STEP        .FT                                             0.5 :STEP      
NULL        .                                           -999.25 :NULL      
COMP        .                               TALOS PETROLEUM LLC :COMPANY   
WELL        .                                OCS 00301 ST00BP00 :WELL      
FLD         .                           WEST CAMERON BLOCK 0045 :FIELD     
LOC         .                                                   :LOCATION  
CNTY        .                                      WEST CAMERON :LOCATION  
STAT        .                                         LOUISIANA :STATE     
CTRY        .                                     UNITED STATES :COUNTRY   
SRVC        .                                                   :SERVICE COMPANY
DATE        .                             9/13/2023 11:18:49 AM :LOG DATE  
API         .                                    17700410870000 :API NUMBER
UWI         .                                    17700410870000 :UNIQUE WELL ID
XCOORD      .                                  1447194.98921956 :SURFACE X 
YCOORD      .                                  10757079.9124673 :SURFACE Y 
LAT         .                                        29.6390336 :LATITUDE  
LON         .                                       -93.6084245 :LONGITUDE 
ELEV        .FT                                              96 :ELEVATION VALUE
ELEV_TYPE   .                                                KB :ELEVATION REFERENCE TYPE
~Curve Information Section
#MNEM       .UNIT                                      API CODE :CURVE DESCRIPTION
#------------------------------------------------------------------------------
DEPT        .FT                                                 :DEPTH     
CNC         .%                                                  :          
DCAL        .IN                                                 :          
GR          .GAPI                                               :          
GR_NORM     .GAPI                                               :GammaRay Normalized
M0C6        .MMHO                                               :          
M2R1        .OHMM                                               :          
M2R2        .OHMM                                               :          
M2R3        .OHMM                                               :          
M2R6        .OHMM                                               :          
M2R9        .OHMM                                               :          
M2RX        .OHMM                                               :          
SP          .MV                                                 :          
SP_NORM     .MV                                                 :SP Normalized
TEN         .LB/F                                               :          
VSH_GR      .V/V                                                :Volume of Shale from GR
VSH_SP      .V/V                                                :Volume of Shale from SP
ZCOR        .G/CC                                               :          
ZDEN        .G/CC                                               :          
~A        DEPTH            CNC           DCAL             GR        GR_NORM           M0C6           M2R1           M2R2           M2R3           M2R6           M2R9           M2RX             SP        SP_NORM            TEN         VSH_GR         VSH_SP           ZCOR           ZDEN
# ...
      7644.0000         32.134          0.448         53.482       49.73325       3648.226          0.346          0.283          0.268          0.263          0.259          0.255        -84.956       -70.7318        -10.699      0.3560267              0          0.028          2.186
      7644.5000         32.476          0.438         51.828       47.86442       3638.031          0.347          0.282          0.268          0.262          0.258          0.254        -88.544       -74.3304        -14.786      0.3162642              0          0.018          2.152
      7645.0000         32.641          0.437          51.08       47.02082       3628.981          0.349          0.283          0.268          0.262          0.258          0.254        -91.438       -77.2349        -15.126      0.2983153              0          0.011           2.14
      7645.5000         32.739          0.438         51.529       47.53203       3622.773          0.354          0.287          0.271          0.264           0.26          0.256        -92.841       -78.6485        -18.139      0.3091921              0          0.013          2.143
      7646.0000         32.687          0.438         51.617       47.63467       3621.785          0.364          0.293          0.276          0.269          0.264           0.26        -92.805        -78.623        -13.743       0.311376              0          0.011          2.142
      7646.5000         32.142          0.445         51.289       47.26652       3627.442          0.375            0.3          0.282          0.274          0.268          0.264        -91.422       -77.2505          8.763       0.303543              0          0.015          2.145
      7647.0000         31.298          0.482         51.074       47.02614       3640.934          0.379          0.303          0.284          0.275           0.27          0.266        -88.967       -74.8061         42.237      0.2984286              0          0.015           2.14
      7647.5000         30.992           0.55         50.265       46.11362       3661.381          0.371          0.298          0.279           0.27          0.265          0.261        -86.247       -72.0966         70.686      0.2790133              0          0.027          2.158
      7648.0000         31.558          0.605         49.071       44.76539       3687.173          0.355          0.288           0.27          0.262          0.257          0.253        -84.117       -69.9772         80.655      0.2503275   0.0003256662          0.027          2.158
      7648.5000          32.25          0.613         48.411       44.02139        3714.41          0.341          0.279          0.262          0.255           0.25          0.246        -83.086       -68.9567         72.155      0.2344976     0.01490424           0.02          2.149
      7649.0000         31.954          0.585         48.192        43.7766       3739.029          0.331          0.273          0.257           0.25          0.245          0.242        -83.186       -69.0673         69.479      0.2292893      0.0133243          0.018          2.153
      7649.5000         31.149          0.552         47.729       43.25566       3755.833          0.322          0.267          0.252          0.246          0.241          0.238        -84.185       -70.0768          91.11      0.2182055              0          0.024          2.163
      7650.0000         31.026          0.534         46.926       42.34982       3761.414          0.314          0.262          0.248          0.242          0.237          0.234        -85.873       -71.7753        115.316      0.1989323              0          0.019          2.145
      7650.5000         30.867          0.531         46.087       41.40335       3752.826          0.308          0.259          0.245          0.239          0.235          0.232        -87.577       -73.4899         105.25      0.1787947              0          0.015           2.14
      7651.0000         30.218          0.531         47.159       42.61963       3730.667          0.307          0.259          0.246          0.239          0.235          0.232        -88.367       -74.2904         66.314      0.2046729              0           0.02          2.145
      7651.5000          30.38          0.531         50.375       46.26223       3696.753          0.312          0.264          0.249          0.243          0.238          0.236        -88.354        -74.288         39.326       0.282175              0          0.049          2.181
      7652.0000         31.792          0.539         52.844       49.05953       3656.312          0.323          0.273          0.256          0.249          0.244          0.241        -88.528       -74.4725           33.3      0.3416921              0          0.043          2.195
      7652.5000         33.276          0.555         53.554       49.86612       3614.447          0.344          0.286          0.267          0.259          0.253           0.25        -89.021       -74.9761         21.384      0.3588535              0          0.037          2.207
      7653.0000         33.556           0.56         55.124       51.64588       3577.923          0.381          0.308          0.285          0.275          0.268          0.265        -89.018       -74.9836         -5.021      0.3967209              0          0.029          2.211
      7653.5000          33.01          0.517         57.586       54.43526       3550.574          0.432          0.335          0.305          0.293          0.285          0.282        -88.608       -74.5842        -27.091      0.4560694              0         -0.008          2.191
      7654.0000         32.566          0.435         58.059       54.97363       3535.019          0.463          0.349          0.314          0.301          0.292          0.288        -88.658       -74.6447        -31.101       0.467524              0          0.008          2.199
      7654.5000         32.384          0.381         55.893       52.52535       3529.995          0.449          0.339          0.305          0.291          0.283           0.28        -88.496       -74.4932        -19.921       0.415433              0          0.021          2.183
      7655.0000         32.033          0.392         53.999       50.38479       3533.036          0.409          0.316          0.285          0.273          0.265          0.263        -86.658       -72.6658         -5.939      0.3698891              0          0.016           2.16
      7655.5000         32.244          0.431         55.172       51.71537       3538.448          0.376          0.298           0.27          0.259          0.252          0.249        -82.913       -68.9313         -6.787      0.3981994     0.01526718          0.014          2.149
      7656.0000         33.716          0.456         58.012       54.93255       3540.904          0.369          0.296          0.268          0.257          0.249          0.247        -76.852       -62.8809        -13.483        0.46665      0.1017014          0.021          2.168
      7656.5000         35.609           0.46         59.557         59.398         3533.3          0.388           0.31           0.28          0.267          0.259          0.257        -69.711       -55.7504        -17.333      0.5616596      0.2035657          0.027          2.191
      7657.0000         35.516          0.457         59.355        59.1987       3504.333          0.407          0.324          0.291          0.278          0.269          0.267        -65.201       -51.2509        -27.582      0.5574191      0.2678443           0.03          2.178
      7657.5000         33.484          0.456         57.737        57.5834       3450.446          0.405          0.323          0.291          0.278          0.269          0.268        -64.153       -50.2135        -34.582      0.5230511      0.2826643           0.04          2.199
