#------------------------------------------------------------------------------
# Created by    : vladimir.rabinovich
# Created on    : 09/19/2023 17:20:14
#------------------------------------------------------------------------------
~Version Information Section
VERS.           2.0     :   CWLS log ASCII Standard - VERSION 2.0
WRAP.           NO      :   One line per depth step
~Well Information Section
#MNEM       .UNIT                                         VALUE :DESCRIPTION
#------------------------------------------------------------------------------
STRT        .FT                                             920 :START DEPTH
STOP        .FT                                            7860 :STOP DEPTH
STEP        .FT                                             0.5 :STEP      
NULL        .                                           -999.25 :NULL      
COMP        .                               ARCO OIL & GAS CORP :COMPANY   
WELL        .                               OCS G10568 ST00BP00 :WELL      
FLD         .                                           WILDCAT :FIELD     
LOC         .                                                   :LOCATION  
CNTY        .                                 WEST CAMERON WEST :LOCATION  
STAT        .                                         LOUISIANA :STATE     
CTRY        .                                     UNITED STATES :COUNTRY   
SRVC        .                                                   :SERVICE COMPANY
DATE        .                             9/13/2023 11:18:15 AM :LOG DATE  
API         .                                    17701402460000 :API NUMBER
UWI         .                                    17701402460000 :UNIQUE WELL ID
XCOORD      .                                  1443937.81344993 :SURFACE X 
YCOORD      .                                  10680295.6485051 :SURFACE Y 
LAT         .                                        29.4277648 :LATITUDE  
LON         .                                       -93.6173961 :LONGITUDE 
ELEV        .FT                                             100 :ELEVATION VALUE
ELEV_TYPE   .                                                KB :ELEVATION REFERENCE TYPE
~Curve Information Section
#MNEM       .UNIT                                      API CODE :CURVE DESCRIPTION
#------------------------------------------------------------------------------
DEPT        .FT                                                 :DEPTH     
ASFL        .OHMM                                               :          
CALI        .IN                                                 :          
DPHI        .%                                                  :          
DRHO        .G/CC                                               :          
DT          .US/F                                               :          
GR          .GAPI                                               :          
GR_1        .GAPI                                               :          
GR_NORM     .GAPI                                               :GammaRay Normalized
ILD         .OHMM                                               :          
ILM         .OHMM                                               :          
NPHI        .%                                                  :          
RFOC        .OHMM                                               :          
SP          .MV                                                 :          
SP_NORM     .MV                                                 :SP Normalized
VSH_GR      .V/V                                                :Volume of Shale from GR
VSH_SP      .V/V                                                :Volume of Shale from SP
~A        DEPTH           ASFL           CALI           DPHI           DRHO             DT             GR           GR_1        GR_NORM            ILD            ILM           NPHI           RFOC             SP        SP_NORM         VSH_GR         VSH_SP
# ...
      2808.0000          0.973        -999.25        -999.25        -999.25       137.2305        73.9476        -999.25        75.7062         0.6581        -999.25        -999.25        -999.25       -46.1538      -1.355312      0.9086425      0.9885383
      2808.5000         0.9732        -999.25        -999.25        -999.25       137.2937        71.2626        -999.25       72.37784         0.6547        -999.25        -999.25        -999.25       -46.6051       -1.79446      0.8378264      0.9743723
      2809.0000         0.9734        -999.25        -999.25        -999.25       136.9006        68.5762        -999.25       69.04774         0.6514        -999.25        -999.25        -999.25       -47.3521      -2.534279      0.7669733      0.9505071
      2809.5000         0.9736        -999.25        -999.25        -999.25       136.3298         65.891        -999.25       65.71913         0.6481        -999.25        -999.25        -999.25       -48.2267      -3.401695      0.6961517      0.9225259
      2810.0000         0.9744        -999.25        -999.25        -999.25       135.7649        63.2046        -999.25       62.38904         0.6473        -999.25        -999.25        -999.25       -48.9153      -4.083107      0.6252987      0.9005449
      2810.5000         0.9752        -999.25        -999.25        -999.25       135.2571        60.5182        -999.25       59.05893         0.6465        -999.25        -999.25        -999.25       -49.3888      -4.549427      0.5544454      0.8855023
      2811.0000         0.9759        -999.25        -999.25        -999.25       134.7498        57.8331        -999.25       55.73046         0.6458        -999.25        -999.25        -999.25       -49.5275      -4.680939      0.4836268        0.88126
      2811.5000         0.9767        -999.25        -999.25        -999.25       134.2258        55.1466        -999.25       52.40024         0.6451        -999.25        -999.25        -999.25       -49.3044      -4.450657       0.412771      0.8886885
      2812.0000         0.9742        -999.25        -999.25        -999.25       133.6387        55.1453        -999.25       52.38929         0.6444        -999.25        -999.25        -999.25       -48.8687      -4.007771      0.4125381      0.9029751
      2812.5000         0.9714        -999.25        -999.25        -999.25       133.0513        60.8275        -999.25        59.4039         0.6437        -999.25        -999.25        -999.25       -48.3017      -3.433586      0.5617852      0.9214972
      2813.0000         0.9684        -999.25        -999.25        -999.25       132.4509        66.5966        -999.25       66.52593         0.6429        -999.25        -999.25        -999.25       -47.7347      -2.859402      0.7133177      0.9400193
      2813.5000         0.9649        -999.25        -999.25        -999.25       132.8755        68.8683        -999.25       69.32471         0.6425        -999.25        -999.25        -999.25        -47.216      -2.333519      0.7728661      0.9569833
      2814.0000         0.9613        -999.25        -999.25        -999.25       133.6108        71.1296        -999.25       72.11063         0.6423        -999.25        -999.25        -999.25       -46.7148      -1.825134      0.8321412      0.9733828
      2814.5000         0.9578        -999.25        -999.25        -999.25       134.4219        73.3521        -999.25       74.84859         0.6421        -999.25        -999.25        -999.25       -46.2137      -1.316849      0.8903955      0.9897791
      2815.0000         0.9564        -999.25        -999.25        -999.25       135.2676        74.6268        -999.25       76.41495          0.642        -999.25        -999.25        -999.25       -45.7298     -0.8257637      0.9237223              1
      2815.5000         0.9582        -999.25        -999.25        -999.25       136.1646         74.615        -999.25       76.39102         0.6418        -999.25        -999.25        -999.25       -45.2724     -0.3611794      0.9232132              1
      2816.0000         0.9599        -999.25        -999.25        -999.25       136.6372        72.8855        -999.25       74.24379         0.6416        -999.25        -999.25        -999.25       -44.8344     0.08400345      0.8775274              1
      2816.5000         0.9619        -999.25        -999.25        -999.25       136.1865         71.077        -999.25       71.99889         0.6415        -999.25        -999.25        -999.25       -45.4202     -0.4946098      0.8297637              1
      2817.0000         0.9644        -999.25        -999.25        -999.25       135.1873         68.609        -999.25       68.93877         0.6425        -999.25        -999.25        -999.25       -46.8062      -1.873425      0.7646548       0.971825
      2817.5000         0.9669        -999.25        -999.25        -999.25       133.6992        67.2046        -999.25       67.19339         0.6435        -999.25        -999.25        -999.25       -47.7532      -2.813244      0.7275189      0.9415082
      2818.0000         0.9695        -999.25        -999.25        -999.25       132.4395        66.0134        -999.25       65.71156         0.6445        -999.25        -999.25        -999.25       -48.4294      -3.482258      0.6959906      0.9199272
      2818.5000         0.9684        -999.25        -999.25        -999.25       131.6594        65.5258        -999.25       65.09948         0.6455        -999.25        -999.25        -999.25       -48.2479      -3.293571      0.6829677      0.9260138
      2819.0000          0.967        -999.25        -999.25        -999.25       131.0486        66.2704        -999.25       66.01057         0.6466        -999.25        -999.25        -999.25       -47.8716      -2.910088      0.7023526      0.9383843
      2819.5000         0.9657        -999.25        -999.25        -999.25       130.4292        67.0068        -999.25       66.91151         0.6476        -999.25        -999.25        -999.25       -47.5372      -2.568504      0.7215214      0.9494031
      2820.0000         0.9651        -999.25        -999.25        -999.25       129.8843        67.6973        -999.25       67.75571         0.6486        -999.25        -999.25        -999.25       -47.2819      -2.306019      0.7394833      0.9578704
      2820.5000         0.9648        -999.25        -999.25        -999.25        131.501        68.3876        -999.25       68.59969         0.6518        -999.25        -999.25        -999.25       -47.2456      -2.262535      0.7574401       0.959273
      2821.0000         0.9645        -999.25        -999.25        -999.25       133.3528        69.0137        -999.25       69.36427         0.6551        -999.25        -999.25        -999.25       -47.2094      -2.219151      0.7737079      0.9606726
      2821.5000         0.9666        -999.25        -999.25        -999.25       134.4314        68.9802        -999.25       69.31352         0.6585        -999.25        -999.25        -999.25       -47.1722      -2.174767      0.7726281      0.9621043
      2822.0000         0.9693        -999.25        -999.25        -999.25       136.6521        68.5385        -999.25       68.75816         0.6618        -999.25        -999.25        -999.25       -47.1188      -2.114182      0.7608118      0.9640586
      2822.5000         0.9719        -999.25        -999.25        -999.25       135.8352        67.9305        -999.25       67.99725         0.6652        -999.25        -999.25        -999.25       -47.0654      -2.053596      0.7446224       0.966013
      2823.0000         0.9745        -999.25        -999.25        -999.25       134.5134        67.3204        -999.25       67.23373         0.6685        -999.25        -999.25        -999.25       -47.1938      -2.174812      0.7283773      0.9621028
      2823.5000         0.9761        -999.25        -999.25        -999.25       132.6748        66.7103        -999.25       66.47023         0.6736        -999.25        -999.25        -999.25       -47.7769      -2.750729      0.7121326      0.9435249
