#------------------------------------------------------------------------------
# Created by    : vladimir.rabinovich
# Created on    : 09/19/2023 17:22:24
#------------------------------------------------------------------------------
~Version Information Section
VERS.           2.0     :   CWLS log ASCII Standard - VERSION 2.0
WRAP.           NO      :   One line per depth step
~Well Information Section
#MNEM       .UNIT                                         VALUE :DESCRIPTION
#------------------------------------------------------------------------------
STRT        .FT                                             955 :START DEPTH
STOP        .FT                                            8851 :STOP DEPTH
STEP        .FT                                             0.5 :STEP      
NULL        .                                           -999.25 :NULL      
COMP        .                                SHELL OFFSHORE INC :COMPANY   
WELL        .                               OCS G08627 ST00BP00 :WELL      
FLD         .                                           WILDCAT :FIELD     
LOC         .                                                   :LOCATION  
CNTY        .                                 WEST CAMERON WEST :LOCATION  
STAT        .                                         LOUISIANA :STATE     
CTRY        .                                     UNITED STATES :COUNTRY   
SRVC        .                                                   :SERVICE COMPANY
DATE        .                             9/13/2023 11:18:15 AM :LOG DATE  
API         .                                    17701402000000 :API NUMBER
UWI         .                                    17701402000000 :UNIQUE WELL ID
XCOORD      .                                  1405165.89752093 :SURFACE X 
YCOORD      .                                  10654404.2103889 :SURFACE Y 
LAT         .                                        29.3559214 :LATITUDE  
LON         .                                       -93.7387067 :LONGITUDE 
ELEV        .FT                                             100 :ELEVATION VALUE
ELEV_TYPE   .                                                KB :ELEVATION REFERENCE TYPE
~Curve Information Section
#MNEM       .UNIT                                      API CODE :CURVE DESCRIPTION
#------------------------------------------------------------------------------
DEPT        .FT                                                 :DEPTH     
CALX        .IN                                                 :          
DRHO        .G/C3                                               :          
DT          .US/F                                               :          
GR          .GAPI                                               :          
GR_NORM     .GAPI                                               :GammaRay Normalized
ILD         .OHMM                                               :          
ILM         .OHMM                                               :          
LL          .OHMM                                               :          
NPHI        .%                                                  :          
RHOB        .G/C3                                               :          
SP          .MV                                                 :          
SP_NORM     .MV                                                 :SP Normalized
VSH_GR      .V/V                                                :Volume of Shale from GR
VSH_SP      .V/V                                                :Volume of Shale from SP
~A        DEPTH           CALX           DRHO             DT             GR        GR_NORM            ILD            ILM             LL           NPHI           RHOB             SP        SP_NORM         VSH_GR         VSH_SP
# ...
      2035.0000        12.2163         0.0347       145.8386        40.4427       43.94082          0.519          0.593         0.7797         47.897         2.0038      -139.1372      -13.72404      0.2327834      0.1625688
      2035.5000        11.5014         0.0293       142.8367        45.3278       49.25052          0.534         0.6133           0.85        45.1674          2.074      -138.5439      -13.14483      0.3457558      0.2039408
      2036.0000        12.2029         0.0294       142.2715        47.7974       51.93478         0.5367         0.6352          0.928        42.5092         2.0957      -137.5229      -12.13792      0.4028676      0.2758625
      2036.5000         12.826         0.0296       142.1611        48.8757        53.1068         0.5242         0.6378         0.8313        40.1177         2.0836      -136.5132      -11.14231      0.4278042      0.3469778
      2037.0000        12.2239         0.0297       143.4551        46.3702       50.38353         0.4999         0.6265         0.7798        41.8434         2.0639       -136.217      -10.86021      0.3698623      0.3671281
      2037.5000        12.0973         0.0266       144.7786        42.4227       46.09291         0.4732         0.6043         0.7474        41.8992         2.0592      -136.4158       -11.0731      0.2785726      0.3519211
      2038.0000        12.2414         0.0241       145.3247        37.6847       40.94311         0.4461         0.5814         0.7163        40.1802          2.059      -136.6111      -11.28249      0.1690023      0.3369648
      2038.5000          12.08         0.0229       146.1333        33.5001       36.39479         0.4238         0.5559         0.7041        38.9085         2.0582      -137.5874      -12.27289     0.07222959      0.2662223
      2039.0000        11.7348         0.0227       148.3679        30.2652       32.87872         0.4072          0.533         0.7152         38.213         2.0551      -138.2036      -12.90318              0      0.2212012
      2039.5000        12.0228         0.0222        153.115        28.3977        30.8489         0.3906         0.5142         0.7258        38.5633         2.0478      -137.9644      -12.67808              0      0.2372802
      2040.0000        12.9094         0.0213       155.6399        28.1618        30.5925         0.3797         0.4975         0.7301        41.0583         2.0364       -138.752      -13.47977              0      0.1800167
      2040.5000        12.9509         0.0209       157.0222        29.8718       32.45113          0.379         0.4829         0.7256        45.4631         2.0307       -139.665      -14.40685              0      0.1137962
      2041.0000        11.9173         0.0246       157.9634        31.0551       33.73728         0.3811         0.4744         0.7194        47.1627         2.0409      -139.5369      -14.29285     0.01568677       0.121939
      2041.5000        11.3239         0.0374       157.3411        31.0644       33.74739         0.3849         0.4723         0.7221        46.1282         2.0532      -139.4502      -14.22025     0.01590185      0.1271253
      2042.0000        11.4784         0.0486       155.8357        30.3202        32.9385         0.3878         0.4746         0.7355        43.2004         2.0637      -139.3989      -14.18304              0      0.1297831
      2042.5000        11.9422         0.0532       154.9019        30.0713       32.66797         0.3887         0.4742         0.7492        39.0563         2.0672      -139.4531      -14.25134              0      0.1249046
      2043.0000        12.0145         0.0485       153.8403         30.228       32.83829         0.3863         0.4736         0.7446        38.1456         2.0681      -139.5247      -14.33704              0      0.1187831
      2043.5000        11.8547         0.0343       152.2996        30.8254       33.48762         0.3851         0.4699         0.7243        37.5785         2.0672       -139.584      -14.41042     0.01037484      0.1135412
      2044.0000         11.764         0.0169       150.9978        31.5578       34.28367          0.382         0.4621         0.7367        37.0735         2.0646      -139.8594      -14.69992     0.02731218     0.09286281
      2044.5000         11.921         0.0062       150.7664        32.4106       35.21059         0.3789         0.4522         0.7438        36.5211         2.0621      -138.7197      -13.57431     0.04703392      0.1732635
      2045.0000        12.0653         0.0022       151.9575         33.613       36.51751          0.375         0.4433         0.7183        35.8093         2.0653      -138.2659      -13.13461     0.07484055       0.204671
      2045.5000        12.1443         0.0026       153.1387        34.8948       37.91071         0.3698         0.4367         0.6892        34.9436          2.071      -138.1023      -12.98509      0.1044833      0.2153506
      2046.0000        12.0792         0.0102       152.4297        36.0537       39.17034         0.3638         0.4296         0.6895        34.1997         2.0774      -137.3667       -12.2636      0.1312839       0.266886
      2046.5000        12.0078         0.0169       151.7473        36.9153       40.10683         0.3572         0.4231         0.6917        35.0363         2.0818      -137.3186      -12.22959      0.1512092      0.2693149
      2047.0000        12.1906         0.0196       152.3013        37.1019       40.30965         0.3502         0.4169         0.6879        36.1852         2.0754      -137.8394      -12.76448      0.1555244      0.2311085
      2047.5000        12.4706         0.0201       153.2307        36.4453       39.59598         0.3435         0.4112         0.6784         37.296         2.0694      -138.6875      -13.62667        0.14034      0.1695235
      2048.0000        12.5994           0.02       154.3635        34.6864        37.6842         0.3367         0.4054         0.6598        38.5775         2.0649      -138.4055      -13.35877     0.09966384      0.1886591
      2048.5000        12.6378          0.022       155.5496        33.0406       35.89535         0.3309         0.4028         0.6479        39.5643         2.0638      -138.2786      -13.24596     0.06160322      0.1967174
      2049.0000        12.6642         0.0246       156.3149        32.9708       35.81948         0.3273         0.4029         0.6498        39.7099         2.0671      -138.4539      -13.43536     0.05998904      0.1831888
      2049.5000        12.6819          0.028       156.3892        33.3549       36.23697         0.3254         0.4039         0.6664        38.8847         2.0711      -139.0127      -14.00824     0.06887168      0.1422686
      2050.0000        12.6611         0.0325       155.4932        34.3896        37.3616         0.3242         0.4055         0.6719        38.7462         2.0732      -139.4678      -14.47745     0.09280006      0.1087537
      2050.5000        12.6141         0.0351       154.9949        35.5161       38.58602         0.3242         0.4061         0.6629        39.5453         2.0697      -139.3594      -14.38314      0.1188514        0.11549
      2051.0000        12.4837          0.036       155.0156        36.6975        39.8701         0.3267         0.4064         0.6557        40.3067         2.0637      -138.4561      -13.49393      0.1461723      0.1790052
      2051.5000        12.3467         0.0355       155.2708        37.5371       40.78268         0.3302         0.4091         0.6618        40.7805         2.0592      -137.9951      -13.04703      0.1655889      0.2109266
      2052.0000        12.0742         0.0331       154.8123        37.8943       41.17092         0.3368         0.4134         0.6749        41.1078         2.0639      -138.2722      -13.33822      0.1738494      0.1901272
      2052.5000        11.5308         0.0304       153.5139        37.6841       40.94246         0.3564         0.4199         0.6701        41.1087         2.0698      -138.0872      -13.16731      0.1689884      0.2023348
