#------------------------------------------------------------------------------
# Created by    : vladimir.rabinovich
# Created on    : 09/19/2023 17:22:07
#------------------------------------------------------------------------------
~Version Information Section
VERS.           2.0     :   CWLS log ASCII Standard - VERSION 2.0
WRAP.           NO      :   One line per depth step
~Well Information Section
#MNEM       .UNIT                                         VALUE :DESCRIPTION
#------------------------------------------------------------------------------
STRT        .FT                                            4421 :START DEPTH
STOP        .FT                                           11895 :STOP DEPTH
STEP        .FT                                             0.5 :STEP      
NULL        .                                           -999.25 :NULL      
COMP        .                MURPHY EXPLORATION & PRODUCTION CO :COMPANY   
WELL        .                               OCS G02828 ST00BP00 :WELL      
FLD         .                           WEST CAMERON BLOCK 0116 :FIELD     
LOC         .                                                   :LOCATION  
CNTY        .                                      WEST CAMERON :LOCATION  
STAT        .                                         LOUISIANA :STATE     
CTRY        .                                     UNITED STATES :COUNTRY   
SRVC        .                                                   :SERVICE COMPANY
DATE        .                             9/13/2023 11:18:31 AM :LOG DATE  
API         .                                    17700404120000 :API NUMBER
UWI         .                                    17700404120000 :UNIQUE WELL ID
XCOORD      .                                  1472413.58592246 :SURFACE X 
YCOORD      .                                  10706677.6123634 :SURFACE Y 
LAT         .                                         29.500724 :LATITUDE  
LON         .                                        -93.528296 :LONGITUDE 
ELEV        .FT                                              75 :ELEVATION VALUE
ELEV_TYPE   .                                                KB :ELEVATION REFERENCE TYPE
~Curve Information Section
#MNEM       .UNIT                                      API CODE :CURVE DESCRIPTION
#------------------------------------------------------------------------------
DEPT        .FT                                                 :DEPTH     
CALI        .IN                                                 :          
DRHO        .G/C3                                               :          
DT          .US/F                                               :          
GR          .GAPI                                               :          
GR_1        .GAPI                                               :          
GR_NORM     .GAPI                                               :GammaRay Normalized
ILD         .OHMM                                               :          
NPHI        .%                                                  :          
RHOB        .G/C3                                               :          
SFL         .OHMM                                               :          
SP          .MV                                                 :          
SP_NORM     .MV                                                 :SP Normalized
VSH_GR      .V/V                                                :Volume of Shale from GR
VSH_SP      .V/V                                                :Volume of Shale from SP
~A        DEPTH           CALI           DRHO             DT             GR           GR_1        GR_NORM            ILD           NPHI           RHOB            SFL             SP        SP_NORM         VSH_GR         VSH_SP
# ...
      7949.0000        16.9625         0.0347       100.8859        73.8993        -999.25        79.2884         0.8312        33.9185         2.4121         0.8887        -44.642        -0.8325      0.9848595              1
      7949.5000        16.7872         0.0333       100.2644        74.4844        -999.25        79.8729         0.8492        33.7279         2.4058         0.8339       -44.8237        -1.0142      0.9972958              1
      7950.0000        16.5443         0.0395        99.7047         74.239        -999.25        79.6269          0.865        33.5814         2.4013         0.9095       -44.9525         -1.143      0.9920617              1
      7950.5000        16.5897         0.0401        99.2119        73.3903        -999.25        78.7776         0.8802        33.6763         2.4012         0.9381       -45.1284        -1.3189      0.9739916              1
      7951.0000        16.6796         0.0345        98.8019        72.3881        -999.25        77.7748         0.8837        33.8622         2.4086         0.9399       -44.9358          -1.08      0.9526554              1
      7951.5000        16.6754          0.029        99.2113        71.5793        -999.25        76.9654         0.8659        33.9433         2.4115         0.8821       -44.4827        -0.5626       0.935434              1
      7952.0000        16.7872         0.0328       100.3085         70.948        -999.25        76.3335         0.8476         33.943         2.4031         0.8524       -43.5063          0.478      0.9219894              1
      7952.5000        17.0331         0.0298       101.3947        70.4871        -999.25         75.872          0.834        33.9242         2.4155         0.8693       -42.6303         1.4183      0.9121702              1
      7953.0000         17.188         0.0227       102.5923        70.1473        -999.25        75.5316          0.838        33.9416         2.4038         0.8828       -42.0259          2.087      0.9049277              1
      7953.5000        17.2293         0.0209       104.2889        72.2383        -999.25         77.622         0.8423        33.9738         2.3913         0.8812       -41.8292          2.348      0.9494043              1
      7954.0000        17.2229         0.0343       106.0101        74.5496        -999.25        79.9327         0.8422         33.902         2.3886         0.8772        -42.556         1.6855      0.9985681              1
      7954.5000        17.2236         0.0468       107.0576        76.1716        -999.25        81.5541         0.8255        33.4606         2.3879         0.8824       -44.1924         0.1134              1              1
      7955.0000          17.24         0.0505       105.7894        77.3688        -999.25        82.7507         0.8058        32.8839         2.3666         0.8996       -47.4651         -3.095              1      0.9875568
      7955.5000        17.1128         0.0395       102.2589        78.3284        -999.25        83.7097         0.7821        32.3566         2.3529         0.9232       -52.4108        -7.9765              1      0.9320852
      7956.0000        16.7183         0.0291        97.7526        79.0237        -999.25        84.4044         0.7581        32.4289         2.3601         0.9596       -57.3565       -12.8579              1      0.8766147
      7956.5000        16.4196         0.0613        93.9032        79.5419        -999.25         84.922         0.7374        32.9673         2.3916         1.0023       -59.9504       -15.3875              1      0.8478693
      7957.0000        15.9052         0.0501        94.1436        79.8289        -999.25        85.2084         0.7238        33.6489         2.3752         1.0032       -59.7009       -15.0737              1      0.8514352
      7957.5000        17.3843         0.0375        96.9435        79.6971        -999.25         85.076         0.7084        34.7966         2.3636         0.9026        -58.248       -13.5565              1      0.8686761
      7958.0000        17.6381         0.0285       106.4269        79.3147        -999.25        84.6929         0.6964        37.4611         2.3543         0.7872       -56.1971       -11.4413              1      0.8927125
      7958.5000        17.2461         0.0208       110.7078        78.8441        -999.25        84.2217         0.6829        39.1478         2.3426          0.725       -54.5186        -9.6986              1      0.9125159
      7959.0000        15.8163         0.0183       111.6836        78.3411        -999.25        83.7181         0.6689        40.5066         2.3369         0.7081       -53.7756        -8.8913              1      0.9216897
      7959.5000        15.3137         0.0216       109.4573        77.9697        -999.25        83.3461          0.645        40.9213         2.3362         0.7052       -53.2482        -8.2996              1      0.9284136
      7960.0000        15.4431         0.0159       104.3577        77.2506        -999.25        82.6264          0.618        40.7219         2.3341         0.7091       -52.7511        -7.7382              1      0.9347932
      7960.5000         15.352         0.0091       101.9254        75.8586        -999.25        81.2338         0.6081        40.1551         2.3199          0.713       -52.0769        -6.9997              1      0.9431852
      7961.0000        15.2309         0.0243       103.8134        75.4325        -999.25        80.8071         0.6187         39.418         2.3175         0.7219       -50.8442        -5.7027              1      0.9579239
      7961.5000        15.1906         0.0421       107.4469        75.9591        -999.25        81.3331         0.6487        39.4461         2.3243         0.7279       -49.6462        -4.4404              1      0.9722682
      7962.0000        15.0835          0.056       111.2471        76.3147        -999.25        81.6881         0.6855        40.5878         2.3259         0.7305       -48.6024        -3.3324              1      0.9848591
      7962.5000        15.6643          0.027       114.5251        76.7781        -999.25        82.1509         0.6995        41.7296         2.3207          0.742       -47.7036        -2.3693              1      0.9958034
      7963.0000        17.0428         0.0162       114.0176        77.3992        -999.25        82.7714         0.6702        42.7915         2.3355         0.7666       -46.8028        -1.4042              1              1
      7963.5000        17.1031         0.0112       112.3505        78.1348        -999.25        83.5064          0.639         42.829         2.3412         0.7842        -46.181        -0.7181              1              1
      7964.0000        17.1043         0.0232       111.8981        78.9189        -999.25        84.2899         0.6115        42.3654         2.3302         0.7725       -45.5811        -0.0539              1              1
      7964.5000         17.021         0.0193       113.8583        79.5948        -999.25        84.9652         0.6041        41.8735         2.3198         0.7338       -45.2407         0.3508              1              1
      7965.0000        16.8605         0.0141       115.1724        80.2086        -999.25        85.5784         0.6016        41.3943         2.3169         0.6873       -45.4132         0.2425              1              1
      7965.5000        16.2735         0.0127       114.0654        80.9478        -999.25         86.317         0.6023        40.6454         2.3307         0.6717       -46.6432        -0.9232              1              1
      7966.0000         16.467         0.0197       110.4282        79.3281        -999.25        84.6967         0.6072        38.9853          2.342         0.6822       -48.2502        -2.4659              1      0.9947057
      7966.5000        16.1106         0.0308       106.8535        76.9633        -999.25        82.3313         0.6164         36.885         2.3559         0.7184       -49.6674        -3.8188              1      0.9793318
