#------------------------------------------------------------------------------
# Created by    : vladimir.rabinovich
# Created on    : 09/19/2023 17:21:14
#------------------------------------------------------------------------------
~Version Information Section
VERS.           2.0     :   CWLS log ASCII Standard - VERSION 2.0
WRAP.           NO      :   One line per depth step
~Well Information Section
#MNEM       .UNIT                                         VALUE :DESCRIPTION
#------------------------------------------------------------------------------
STRT        .FT                                            3520 :START DEPTH
STOP        .FT                                            8510 :STOP DEPTH
STEP        .FT                                             0.5 :STEP      
NULL        .                                           -999.25 :NULL      
COMP        .                      SPINNAKER EXPLORATION CO LLC :COMPANY   
WELL        .                               OCS G21537 ST00BP00 :WELL      
FLD         .                                           WILDCAT :FIELD     
LOC         .                                                   :LOCATION  
CNTY        .                                      WEST CAMERON :LOCATION  
STAT        .                                         LOUISIANA :STATE     
CTRY        .                                     UNITED STATES :COUNTRY   
SRVC        .                                                   :SERVICE COMPANY
DATE        .                             9/13/2023 11:18:49 AM :LOG DATE  
API         .                                    17700410830000 :API NUMBER
UWI         .                                    17700410830000 :UNIQUE WELL ID
XCOORD      .                                   1446389.6294369 :SURFACE X 
YCOORD      .                                  10699667.6074025 :SURFACE Y 
LAT         .                                        29.4810902 :LATITUDE  
LON         .                                       -93.6100108 :LONGITUDE 
ELEV        .FT                                              91 :ELEVATION VALUE
ELEV_TYPE   .                                                KB :ELEVATION REFERENCE TYPE
~Curve Information Section
#MNEM       .UNIT                                      API CODE :CURVE DESCRIPTION
#------------------------------------------------------------------------------
DEPT        .FT                                                 :DEPTH     
CAL         .IN                                                 :          
CNC         .%                                                  :          
GR          .GAPI                                               :          
GR_NORM     .GAPI                                               :GammaRay Normalized
M0C6        .MMHO                                               :          
M2R1        .OHMM                                               :          
M2R2        .OHMM                                               :          
M2R3        .OHMM                                               :          
M2R6        .OHMM                                               :          
M2R9        .OHMM                                               :          
M2RX        .OHMM                                               :          
PORZ        .%                                                  :          
SP          .MV                                                 :          
SP_NORM     .MV                                                 :SP Normalized
TEN         .LB/F                                               :          
VSH_GR      .V/V                                                :Volume of Shale from GR
VSH_SP      .V/V                                                :Volume of Shale from SP
ZCOR        .G/CC                                               :          
~A        DEPTH            CAL            CNC             GR        GR_NORM           M0C6           M2R1           M2R2           M2R3           M2R6           M2R9           M2RX           PORZ             SP        SP_NORM            TEN         VSH_GR         VSH_SP           ZCOR
# ...
      6838.0000         10.272         33.587         61.464        36.1292       3836.336          0.431          0.309          0.278          0.264          0.258          0.256         35.581        -57.288       -55.3832        580.231     0.06657872     0.07959997              0
      6838.5000         10.274         33.416         62.826        37.4935       3945.036          0.376          0.277          0.252           0.24          0.236          0.235         35.345        -58.558       -56.6532        587.783     0.09560638     0.05770348          0.006
      6839.0000         10.273         32.842         63.458        38.1279       4053.761          0.346          0.261          0.239          0.229          0.225          0.225         34.962        -59.717       -57.8122        618.888      0.1091042     0.03772071          0.004
      6839.5000         10.269         32.773         62.899        37.5712       4153.297          0.326          0.252          0.233          0.224          0.221           0.22         34.716        -60.499       -58.5942        634.346      0.0972596     0.02423793          0.002
      6840.0000         10.267         33.651         62.188        36.8625       4233.907          0.304          0.243          0.227          0.219          0.216          0.217         34.649         -61.07       -59.1652        616.644     0.08218084     0.01439312          0.002
      6840.5000         10.268         34.666         62.322        36.9989       4288.512          0.276          0.231          0.218          0.212           0.21           0.21         34.778        -61.548       -59.6432        597.127     0.08508301    0.006151726          0.001
      6841.0000         10.269         35.068         62.402        37.0812       4311.214          0.251          0.218          0.208          0.204          0.202          0.203         35.097        -61.577       -59.6722        594.937     0.08683404    0.005651737         -0.004
      6841.5000         10.268         34.934         61.445        36.1265       4298.491          0.233          0.209          0.202          0.198          0.197          0.198         35.383         -61.11       -59.2052        597.959     0.06652126     0.01370344         -0.008
      6842.0000         10.265          35.31         61.567        36.2509       4248.989          0.226          0.206            0.2          0.198          0.197          0.197         35.579        -60.633       -58.7282        598.384     0.06916809      0.0219276         -0.002
      6842.5000         10.263         36.761         63.566        38.2522       4164.114          0.228          0.209          0.203          0.201            0.2          0.201         35.585        -60.415       -58.5102        595.353       0.111749      0.0256862          0.008
      6843.0000         10.263         38.039         64.784        39.4725       4048.773          0.235          0.214          0.208          0.206          0.205          0.206         35.226        -60.153       -58.2482         587.59      0.1377128     0.03020346          0.012
      6843.5000         10.264         38.347         65.004        39.6949       3912.427          0.251          0.226          0.218          0.216          0.214          0.216         34.257        -59.165       -57.2602            580      0.1424447     0.04723792          0.013
      6844.0000         10.265         38.548          69.11        43.8032       3768.472          0.285          0.251           0.24          0.238          0.235          0.236         31.963        -55.882       -53.9772        580.219      0.2298553      0.1038414          0.016
      6844.5000         10.268          38.51         78.521        53.2166       3632.159          0.358          0.306          0.288          0.283          0.279          0.281         28.913        -48.628       -46.7232        585.097      0.4301404      0.2289103          0.018
      6845.0000         10.272         37.428         87.137        61.8349       3517.337          0.487          0.394          0.362          0.353          0.345          0.349         26.971        -39.288       -37.3832        584.912      0.6135085      0.3899448          0.024
      6845.5000         10.271         36.779         88.131        62.8312       3432.221          0.605          0.466          0.419          0.405          0.394          0.399         27.685        -33.503       -31.5982        578.804      0.6347064      0.4896862          0.038
      6846.0000         10.271         37.066         82.224        56.9266       3377.406           0.58          0.448          0.406          0.392          0.381          0.386         30.276         -35.02       -33.1152        574.234      0.5090767       0.463531          0.039
      6846.5000         10.285         36.686          75.25        49.9549       3343.397          0.454          0.368           0.34           0.33          0.322          0.326         32.559        -41.756       -39.8512        573.643      0.3607425      0.3473931          0.017
      6847.0000         10.323         35.343         70.743        45.4502       3314.241          0.344          0.292          0.275          0.268          0.262          0.265         32.892        -48.788       -46.8832        570.964      0.2648979      0.2261517         -0.001
      6847.5000         10.371         35.364         70.254        44.9636       3270.613          0.288          0.252          0.239          0.234           0.23          0.232          31.81        -52.447       -50.5422         564.66      0.2545447      0.1630656          0.007
      6848.0000         10.408          37.36         74.226        48.9379       3197.686          0.284           0.25          0.238          0.233          0.228           0.23         29.442        -50.345       -48.4402        561.766      0.3391043      0.1993069          0.026
      6848.5000         10.435         38.356         80.046        54.7602        3077.77          0.335          0.291          0.275          0.268          0.263          0.266          26.36        -41.254       -39.3492        565.399       0.462983      0.3560483          0.039
      6849.0000         10.454         36.926         84.527        59.2436       2923.911          0.456          0.382          0.354          0.346          0.338          0.344          24.03        -28.517       -26.6122        570.277      0.5583745      0.5756517          0.052
      6849.5000         10.464         36.262         87.044        61.7629       2753.783          0.612          0.491          0.447          0.436          0.425          0.436         23.189        -18.877       -16.9722        572.504      0.6119766      0.7418586          0.062
      6850.0000         10.472         37.679          89.27        63.9913       2585.505           0.71          0.559          0.506          0.493           0.48          0.495         22.919        -15.527       -13.6222        572.083      0.6593893      0.7996172          0.058
      6850.5000         10.484         38.039         91.648        66.3716       2436.343          0.738          0.586          0.533           0.52          0.506          0.523         22.228        -15.755       -13.8502            571       0.710034      0.7956862          0.044
      6851.0000         10.493         36.496         93.069        67.7949       2318.365          0.753          0.605          0.554           0.54          0.525          0.542         21.534        -16.258       -14.3532        572.434       0.740317      0.7870138          0.039
      6851.5000         10.496         35.526         93.544        68.2723       2236.031          0.758          0.615          0.566           0.55          0.535          0.552         21.395        -16.436       -14.5312        574.084      0.7504745      0.7839448          0.038
