#------------------------------------------------------------------------------
# Created by    : vladimir.rabinovich
# Created on    : 09/19/2023 17:20:47
#------------------------------------------------------------------------------
~Version Information Section
VERS.           2.0     :   CWLS log ASCII Standard - VERSION 2.0
WRAP.           NO      :   One line per depth step
~Well Information Section
#MNEM       .UNIT                                         VALUE :DESCRIPTION
#------------------------------------------------------------------------------
STRT        .FT                                            2030 :START DEPTH
STOP        .FT                                            9342 :STOP DEPTH
STEP        .FT                                             0.5 :STEP      
NULL        .                                           -999.25 :NULL      
COMP        .                                      SHELL OIL CO :COMPANY   
WELL        .                               OCS G00950 ST00BP00 :WELL      
FLD         .                           EAST CAMERON BLOCK 0193 :FIELD     
LOC         .                                                   :LOCATION  
CNTY        .                                      EAST CAMERON :LOCATION  
STAT        .                                         LOUISIANA :STATE     
CTRY        .                                     UNITED STATES :COUNTRY   
SRVC        .                                                   :SERVICE COMPANY
DATE        .                             9/13/2023 11:18:15 AM :LOG DATE  
API         .                                    17703004920000 :API NUMBER
UWI         .                                    17703004920000 :UNIQUE WELL ID
XCOORD      .                                  1684363.85071557 :SURFACE X 
YCOORD      .                                  10458597.1936422 :SURFACE Y 
LAT         .                                        28.8191951 :LATITUDE  
LON         .                                       -92.8627139 :LONGITUDE 
ELEV        .FT                                              75 :ELEVATION VALUE
ELEV_TYPE   .                                                KB :ELEVATION REFERENCE TYPE
~Curve Information Section
#MNEM       .UNIT                                      API CODE :CURVE DESCRIPTION
#------------------------------------------------------------------------------
DEPT        .FT                                                 :DEPTH     
ASN         .OHMM                                               :          
CILM        .MMHO                                               :          
ILM         .OHMM                                               :          
LN          .OHMM                                               :          
SP          .MV                                                 :          
SP_NORM     .MV                                                 :SP Normalized
VSH_SP      .V/V                                                :Volume of Shale from SP
~A        DEPTH            ASN           CILM            ILM             LN             SP        SP_NORM         VSH_SP
# ...
      8328.0000         0.8671       1134.762         0.8549        -999.25        -45.819        -1.2762              1
      8328.5000          0.871       1130.043         0.8559        -999.25       -45.4583        -0.9391              1
      8329.0000          0.874       1125.762          0.857        -999.25       -45.2635        -0.7679              1
      8329.5000         0.8769       1123.043         0.8616        -999.25       -46.0214        -1.5494              1
      8330.0000         0.8799       1120.322         0.8716        -999.25         -46.78        -2.3317      0.9951221
      8330.5000         0.8855       1113.527         0.8817        -999.25       -47.4648        -3.0401      0.9847044
      8331.0000         0.8925       1104.148         0.8967        -999.25       -47.6327        -3.2316      0.9818882
      8331.5000         0.8996        1094.77         0.9119        -999.25       -47.8007        -3.4232      0.9790706
      8332.0000         0.9067       1085.389          0.927        -999.25       -47.9077        -3.5538        0.97715
      8332.5000         0.9299       1074.375          0.952        -999.25       -47.7645        -3.4342      0.9789088
      8333.0000         0.9553       1059.924         0.9809        -999.25       -47.6216        -3.3149      0.9806632
      8333.5000          0.983       1045.492         1.0156        -999.25       -47.4786        -3.1955      0.9824191
      8334.0000         1.0231       1031.063         1.0514        -999.25       -47.8503        -3.5909      0.9766044
      8334.5000         1.0921       1016.634         1.0873        -999.25       -48.8223        -4.5865      0.9619632
      8335.0000         1.3165       1002.204         1.1242        -999.25       -50.3583        -6.1461       0.939028
      8335.5000         1.4146       974.3584         1.0819        -999.25       -53.1627        -8.9741      0.8974397
      8336.0000         1.4791       941.8008         1.0179        -999.25       -56.2415       -12.0765      0.8518162
      8336.5000         1.5358       901.5771         0.9548        -999.25       -59.5776       -15.4362      0.8024088
      8337.0000         1.6183        961.958         0.8953        -999.25       -67.6182       -23.5004      0.6838176
      8337.5000          1.701       1036.723         0.8361        -999.25       -78.5647       -34.4705      0.5224926
      8338.0000         1.6585       1126.369         0.7786        -999.25       -90.3107       -46.2402      0.3494088
      8338.5000         1.5959       1221.516         0.7227        -999.25      -101.4808       -57.4339      0.1847956
      8339.0000         1.5417       1333.709         0.6778        -999.25      -104.7526       -60.7293      0.1363338
      8339.5000         0.9507       1650.084          0.633        -999.25      -107.0253       -63.0256      0.1025647
      8340.0000         0.8486       2502.711         0.5894        -999.25      -108.4596       -64.4835     0.08112504
      8340.5000         0.8578       2579.102         0.5491        -999.25       -109.601       -65.6485     0.06399267
      8341.0000         0.8737       2621.668         0.5345        -999.25      -111.3165       -67.3876     0.03841759
      8341.5000         0.8892       2653.887         0.5216        -999.25      -114.1176       -70.2123              0
      8342.0000         0.8785       2670.664         0.5122        -999.25      -115.8516         -71.97              0
      8342.5000         0.8677       2685.227         0.5027        -999.25      -116.8085       -72.9505              0
      8343.0000         0.8555       2680.133         0.4933        -999.25      -117.9854        -74.151              0
      8343.5000         0.8362       2666.355         0.4838        -999.25      -118.1353       -74.3245              0
      8344.0000         0.8059       2645.344         0.4744        -999.25       -117.601       -73.8138              0
      8344.5000         0.7405       2624.309          0.465        -999.25      -116.3936         -72.63              0
      8345.0000         0.6435       2593.621         0.4646        -999.25      -114.7831       -71.0431              0
      8345.5000         0.5739       2532.836         0.4642        -999.25      -113.1505       -69.4342     0.00832064
      8346.0000         0.5578       2462.039         0.4745        -999.25      -109.4402       -65.7475      0.0625368
      8346.5000         0.5551       2384.656         0.4872        -999.25      -104.4139       -60.7448      0.1361059
      8347.0000          0.562       2215.016            0.5        -999.25       -91.7603       -48.1148      0.3218412
      8347.5000         0.5697       2085.957         0.5127        -999.25       -87.7299        -44.108      0.3807647
      8348.0000         0.5785       2002.896          0.539        -999.25       -83.5503        -39.952      0.4418824
      8348.5000         0.5873       1875.371         0.5659        -999.25       -79.2218       -35.6471      0.5051897
      8349.0000         0.5967       1801.689         0.5927        -999.25       -73.4844       -29.9333      0.5892162
      8349.5000         0.6116       1728.006         0.6195        -999.25       -64.8679       -21.3405      0.7155809
      8350.0000         0.6387       1654.324          0.649        -999.25       -62.3074       -18.8036      0.7528882
      8350.5000         0.6988       1556.471         0.6789        -999.25        -58.321       -14.8408      0.8111647
      8351.0000         0.7423       1477.646         0.7088        -999.25       -42.9375         0.5191              1
      8351.5000         0.7635        1329.02         0.7321        -999.25       -42.8084         0.6246              1
      8352.0000         0.7838       1232.518         0.7531        -999.25       -43.2051         0.2043              1
      8352.5000          0.804       1191.979         0.7742        -999.25       -43.6018         -0.216              1
      8353.0000         0.8146       1160.188         0.7859        -999.25       -43.9985        -0.6363              1
      8353.5000         0.8194       1136.131         0.7942        -999.25       -44.4058        -1.0673              1
      8354.0000         0.8179       1129.299         0.7966        -999.25       -44.8419         -1.527              1
      8354.5000         0.8165       1136.346          0.799        -999.25       -45.2779        -1.9866              1
      8355.0000          0.815       1143.391         0.8014        -999.25       -45.7081        -2.4404      0.9935235
      8355.5000         0.8152       1150.438         0.8039        -999.25       -46.0802        -2.8361      0.9877044
      8356.0000         0.8213       1158.047         0.8062        -999.25       -46.1695         -2.949      0.9860441
      8356.5000         0.8273       1166.523         0.8079        -999.25       -45.6564        -2.4595      0.9932426
      8357.0000         0.8334        1174.99         0.8096        -999.25       -45.1424        -1.9691              1
      8357.5000          0.829       1183.469         0.8114        -999.25       -44.6285        -1.4789              1
      8358.0000         0.8237       1191.934         0.8131        -999.25       -44.1145        -0.9885              1
      8358.5000         0.8185       1200.412         0.8148        -999.25       -43.7986        -0.6962              1
      8359.0000         0.8141       1203.223         0.8107        -999.25       -43.5522        -0.4734              1
      8359.5000         0.8103       1205.539         0.8058        -999.25       -43.3063        -0.2511              1
      8360.0000         0.8065       1207.852         0.8002        -999.25       -43.0599        -0.0283              1
      8360.5000         0.8028       1204.137         0.7938        -999.25       -42.8135         0.1945              1
      8361.0000         0.7986       1198.354         0.7874        -999.25       -42.6373         0.3534              1
