#------------------------------------------------------------------------------
# Created by    : vladimir.rabinovich
# Created on    : 09/19/2023 17:20:14
#------------------------------------------------------------------------------
~Version Information Section
VERS.           2.0     :   CWLS log ASCII Standard - VERSION 2.0
WRAP.           NO      :   One line per depth step
~Well Information Section
#MNEM       .UNIT                                         VALUE :DESCRIPTION
#------------------------------------------------------------------------------
STRT        .FT                                             920 :START DEPTH
STOP        .FT                                            7860 :STOP DEPTH
STEP        .FT                                             0.5 :STEP      
NULL        .                                           -999.25 :NULL      
COMP        .                               ARCO OIL & GAS CORP :COMPANY   
WELL        .                               OCS G10568 ST00BP00 :WELL      
FLD         .                                           WILDCAT :FIELD     
LOC         .                                                   :LOCATION  
CNTY        .                                 WEST CAMERON WEST :LOCATION  
STAT        .                                         LOUISIANA :STATE     
CTRY        .                                     UNITED STATES :COUNTRY   
SRVC        .                                                   :SERVICE COMPANY
DATE        .                             9/13/2023 11:18:15 AM :LOG DATE  
API         .                                    17701402460000 :API NUMBER
UWI         .                                    17701402460000 :UNIQUE WELL ID
XCOORD      .                                  1443937.81344993 :SURFACE X 
YCOORD      .                                  10680295.6485051 :SURFACE Y 
LAT         .                                        29.4277648 :LATITUDE  
LON         .                                       -93.6173961 :LONGITUDE 
ELEV        .FT                                             100 :ELEVATION VALUE
ELEV_TYPE   .                                                KB :ELEVATION REFERENCE TYPE
~Curve Information Section
#MNEM       .UNIT                                      API CODE :CURVE DESCRIPTION
#------------------------------------------------------------------------------
DEPT        .FT                                                 :DEPTH     
ASFL        .OHMM                                               :          
CALI        .IN                                                 :          
DPHI        .%                                                  :          
DRHO        .G/CC                                               :          
DT          .US/F                                               :          
GR          .GAPI                                               :          
GR_1        .GAPI                                               :          
GR_NORM     .GAPI                                               :GammaRay Normalized
ILD         .OHMM                                               :          
ILM         .OHMM                                               :          
NPHI        .%                                                  :          
RFOC        .OHMM                                               :          
SP          .MV                                                 :          
SP_NORM     .MV                                                 :SP Normalized
VSH_GR      .V/V                                                :Volume of Shale from GR
VSH_SP      .V/V                                                :Volume of Shale from SP
~A        DEPTH           ASFL           CALI           DPHI           DRHO             DT             GR           GR_1        GR_NORM            ILD            ILM           NPHI           RFOC             SP        SP_NORM         VSH_GR         VSH_SP
# ...
       984.0000         0.9249        -999.25        -999.25        -999.25       155.7852        -999.25        -999.25       33.59184         1.5916        -999.25        -999.25        -999.25       -91.7246      -7.571602      0.0125924      0.5305999
       984.5000         0.9468        -999.25        -999.25        -999.25       158.1904        -999.25        -999.25       32.79959         1.5116        -999.25        -999.25        -999.25       -85.1553      -1.508644              0      0.9636683
       985.0000         0.9745        -999.25        -999.25        -999.25       152.1001        -999.25        -999.25       33.50381         1.2968        -999.25        -999.25        -999.25       -79.7581       2.846794     0.01071946              1
       985.5000         0.9935        -999.25        -999.25        -999.25        146.011        -999.25        -999.25       34.20805         1.1558        -999.25        -999.25        -999.25       -78.5872       2.975945     0.02570311              1
       986.0000         1.0091        -999.25        -999.25        -999.25       139.9219        -999.25        -999.25       34.91227         1.0487        -999.25        -999.25        -999.25        -77.744        2.77739     0.04068667              1
       986.5000         1.0195        -999.25        -999.25        -999.25       133.8328        -999.25        -999.25        35.6165         0.9792        -999.25        -999.25        -999.25       -77.0215       2.458138     0.05567023              1
       987.0000           1.03        -999.25        -999.25        -999.25       127.7438        -999.25        -999.25       36.32072         0.9328        -999.25        -999.25        -999.25       -76.4014       2.036491     0.07065371              1
       987.5000         1.0373        -999.25        -999.25        -999.25       121.6548        -999.25        -999.25       37.02495         0.9061        -999.25        -999.25        -999.25       -75.8435       1.552635     0.08563728              1
       988.0000         1.0444        -999.25        -999.25        -999.25       115.5657        -999.25        -999.25       36.81368         0.8794        -999.25        -999.25        -999.25       -75.4857      0.8686829     0.08114218              1
       988.5000         1.0462        -999.25        -999.25        -999.25        113.252        -999.25        -999.25       36.60241         0.8539        -999.25        -999.25        -999.25       -75.1281      0.1845322     0.07664709              1
       989.0000         1.0475        -999.25        -999.25        -999.25       113.6467        -999.25        -999.25       36.39114         0.8448        -999.25        -999.25        -999.25       -74.7784      -0.507515       0.072152              1
       989.5000         1.0489        -999.25        -999.25        -999.25       114.1006        -999.25        -999.25       36.17988         0.8358        -999.25        -999.25        -999.25        -74.436      -1.206871     0.06765707      0.9852235
       990.0000         1.0501        -999.25        -999.25        -999.25       114.4706        -999.25        -999.25       35.96861         0.8267        -999.25        -999.25        -999.25       -74.0935      -1.099823     0.06316197      0.9928698
       990.5000         1.0511        -999.25        -999.25        -999.25       114.7936        -999.25        -999.25       35.75734         0.8176        -999.25        -999.25        -999.25       -73.8234      -1.061234     0.05866688      0.9956262
       991.0000          1.052        -999.25        -999.25        -999.25       115.1165        -999.25        -999.25       35.54607         0.8109        -999.25        -999.25        -999.25       -73.5656      -1.034927     0.05417179      0.9975052
       991.5000          1.053        -999.25        -999.25        -999.25       115.5826        -999.25        -999.25       35.33481         0.8098        -999.25        -999.25        -999.25       -73.3076       -1.00843     0.04967677      0.9993978
       992.0000          1.054        -999.25        -999.25        -999.25       116.0679        -999.25        -999.25       35.12354         0.8086        -999.25        -999.25        -999.25       -73.0624     -0.9947281     0.04518168              1
       992.5000         1.0549        -999.25        -999.25        -999.25       116.5532        -999.25        -999.25       34.91227         0.8075        -999.25        -999.25        -999.25       -72.8478      -1.011635     0.04068659      0.9991689
       993.0000         1.0561        -999.25        -999.25        -999.25        116.932        -999.25        -999.25       35.48106         0.8063        -999.25        -999.25        -999.25       -72.6332      -1.028534     0.05278859      0.9979619
       993.5000         1.0574        -999.25        -999.25        -999.25       117.2751        -999.25        -999.25       36.04987         0.8087        -999.25        -999.25        -999.25       -72.4341      -1.060928     0.06489076       0.995648
       994.0000         1.0587        -999.25        -999.25        -999.25       117.6183        -999.25        -999.25       36.61866         0.8196        -999.25        -999.25        -999.25       -72.3051      -1.163429     0.07699285      0.9883265
       994.5000         1.0599        -999.25        -999.25        -999.25       117.6787        -999.25        -999.25       37.18746         0.8305        -999.25        -999.25        -999.25        -72.176      -1.265839     0.08909493      0.9810115
       995.0000         1.0612        -999.25        -999.25        -999.25       117.6611        -999.25        -999.25       37.75626         0.8414        -999.25        -999.25        -999.25       -72.0469      -1.368233       0.101197      0.9736977
       995.5000         1.0625        -999.25        -999.25        -999.25       117.6436        -999.25        -999.25       38.32506         0.8562        -999.25        -999.25        -999.25       -71.9578      -1.510635      0.1132992      0.9635261
       996.0000         1.0644        -999.25        -999.25        -999.25        117.626        -999.25        -999.25       38.89386         0.8738        -999.25        -999.25        -999.25       -71.8901      -1.674431      0.1254012      0.9518264
       996.5000         1.0664        -999.25        -999.25        -999.25       117.6084        -999.25        -999.25       39.46266         0.8915        -999.25        -999.25        -999.25       -71.8267      -1.842537      0.1375034      0.9398188
       997.0000         1.0684        -999.25        -999.25        -999.25       117.5908        -999.25        -999.25       40.03145         0.9092        -999.25        -999.25        -999.25       -71.7764      -2.023735      0.1496054      0.9268761
       997.5000         1.0708        -999.25        -999.25        -999.25         117.76        -999.25        -999.25       40.60025         0.9253        -999.25        -999.25        -999.25       -71.7262      -2.205032      0.1617075      0.9139262
       998.0000         1.0741        -999.25        -999.25        -999.25       118.1423        -999.25        -999.25       41.16905         0.9391        -999.25        -999.25        -999.25       -71.8086      -2.518936      0.1738096      0.8915046
       998.5000         1.0774        -999.25        -999.25        -999.25       118.6605        -999.25        -999.25       41.73785         0.9529        -999.25        -999.25        -999.25       -71.9215      -2.863342      0.1859118      0.8669041
       999.0000         1.0807        -999.25        -999.25        -999.25       119.1337        -999.25        -999.25       42.30665         0.9666        -999.25        -999.25        -999.25       -72.0344      -3.207741      0.1980138      0.8423042
       999.5000         1.0844        -999.25        -999.25        -999.25       119.5875        -999.25        -999.25       42.30665         0.9804        -999.25        -999.25        -999.25       -72.1246      -3.529442      0.1980138      0.8193256
