#------------------------------------------------------------------------------
# Created by    : vladimir.rabinovich
# Created on    : 09/19/2023 17:21:57
#------------------------------------------------------------------------------
~Version Information Section
VERS.           2.0     :   CWLS log ASCII Standard - VERSION 2.0
WRAP.           NO      :   One line per depth step
~Well Information Section
#MNEM       .UNIT                                         VALUE :DESCRIPTION
#------------------------------------------------------------------------------
STRT        .FT                                             570 :START DEPTH
STOP        .FT                                           10083 :STOP DEPTH
STEP        .FT                                             0.5 :STEP      
NULL        .                                           -999.25 :NULL      
COMP        .                                BP EXPLORATION INC :COMPANY   
WELL        .                               OCS G10548 ST00BP00 :WELL      
FLD         .                                           WILDCAT :FIELD     
LOC         .                                                   :LOCATION  
CNTY        .                                      WEST CAMERON :LOCATION  
STAT        .                                         LOUISIANA :STATE     
CTRY        .                                     UNITED STATES :COUNTRY   
SRVC        .                                                   :SERVICE COMPANY
DATE        .                             9/13/2023 11:18:09 AM :LOG DATE  
API         .                                    17700408010000 :API NUMBER
UWI         .                                    17700408010000 :UNIQUE WELL ID
XCOORD      .                                  1469734.01149431 :SURFACE X 
YCOORD      .                                  10675810.5973196 :SURFACE Y 
LAT         .                                        29.4157778 :LATITUDE  
LON         .                                        -93.536275 :LONGITUDE 
ELEV        .FT                                              80 :ELEVATION VALUE
ELEV_TYPE   .                                                KB :ELEVATION REFERENCE TYPE
~Curve Information Section
#MNEM       .UNIT                                      API CODE :CURVE DESCRIPTION
#------------------------------------------------------------------------------
DEPT        .FT                                                 :DEPTH     
CALI        .IN                                                 :          
DPHI        .%                                                  :          
GR          .GAPI                                               :          
GR_1        .GAPI                                               :          
GR_NORM     .GAPI                                               :GammaRay Normalized
ILD         .OHMM                                               :          
ILM         .OHMM                                               :          
NPHI        .%                                                  :          
SFL         .OHMM                                               :          
SP          .MV                                                 :          
SP_NORM     .MV                                                 :SP Normalized
VSH_GR      .V/V                                                :Volume of Shale from GR
VSH_SP      .V/V                                                :Volume of Shale from SP
~A        DEPTH           CALI           DPHI             GR           GR_1        GR_NORM            ILD            ILM           NPHI            SFL             SP        SP_NORM         VSH_GR         VSH_SP
# ...
      4389.0000        10.6089        34.3232        -999.25        91.5873       90.70573         0.7301          0.707        49.0977         0.7409        -78.104        -0.0734              1              1
      4389.5000        10.6271        35.5157        -999.25        94.1394       93.59326         0.7343         0.7016        48.9507         0.7419       -78.0542        -0.0264              1              1
      4390.0000        10.6793        37.9716        -999.25        95.6581       95.30979         0.7418         0.6982         49.036         0.7448       -78.0195         0.0055              1              1
      4390.5000        10.7447         40.576        -999.25         95.976       95.66549         0.7442         0.6965          49.59         0.7494       -77.9941         0.0282              1              1
      4391.0000        10.8315        41.2885        -999.25        96.1613       95.87106         0.7445         0.6963        50.5563         0.7528       -77.9796         0.0399              1              1
      4391.5000        10.9243        40.8691        -999.25        94.8665       94.39941          0.742         0.6975        51.6359         0.7562       -77.9557          0.061              1              1
      4392.0000        10.9573         39.414        -999.25        92.5276       91.74461         0.7388         0.6986        52.6194         0.7638       -77.9176         0.0963              1              1
      4392.5000        10.8789         38.207        -999.25        92.2799       91.45939         0.7352         0.6978        53.1307         0.7694       -77.8751         0.1361              1              1
      4393.0000        10.7962         37.228        -999.25        92.8749       92.12922         0.7309         0.6969        53.1292         0.7672        -77.829         0.1794              1              1
      4393.5000        10.8161          36.75        -999.25        93.6566       93.01059         0.7267         0.6953        52.9459         0.7636       -77.8319         0.1737              1              1
      4394.0000        10.8659         36.542        -999.25        94.1844       93.60426         0.7232         0.6942        52.6078         0.7602        -77.873         0.1298              1              1
      4394.5000        10.9156        36.1758        -999.25        93.6903       93.03982         0.7201         0.6941        51.7971         0.7577       -77.9542         0.0459              1              1
      4395.0000        10.9356        35.6514        -999.25        93.1356       92.40685         0.7193         0.7013        50.6853         0.7559         -78.01        -0.0127              1              1
      4395.5000        10.9533        35.1589        -999.25        92.8716       92.10326         0.7185         0.7041        49.7242         0.7536       -78.0653        -0.0708              1              1
      4396.0000        10.9206        35.1697        -999.25        91.1738       90.17484         0.7196          0.704        51.2993         0.7517        -78.127        -0.1353              1              1
      4396.5000         10.881         35.561        -999.25        89.1357       87.86091         0.7207         0.7053        53.6172          0.751       -78.2106        -0.2216              1              1
      4397.0000        10.8298        35.5292        -999.25        88.2764       86.88276         0.7213         0.7088        56.0612         0.7533       -78.2965        -0.3103              1              1
      4397.5000        10.7838         35.254        -999.25        88.1206        86.7018         0.7218         0.7133        57.7322         0.7532       -78.3798        -0.3964              1              1
      4398.0000        10.7424        34.9128        -999.25        88.2211       86.81114         0.7218         0.7165         57.511         0.7526       -78.4169        -0.4363              1              1
      4398.5000        10.7143        34.9131        -999.25        88.6245       87.26385         0.7216         0.7201        56.0447         0.7516       -78.4468        -0.4689              1              1
      4399.0000        10.6903        35.1796        -999.25        89.4349       88.17775         0.7215         0.7223        54.6556         0.7483       -78.4757        -0.5006              1              1
      4399.5000         10.675        35.0858        -999.25        90.5929       89.48553         0.7227         0.7227         53.711         0.7478       -78.5044        -0.5321              1              1
      4400.0000        10.6623        34.7883        -999.25         92.368       91.49249         0.7242         0.7225        53.1838         0.7491       -78.5327        -0.5632              1              1
      4400.5000        10.6619        34.6031        -999.25         93.431       92.69263         0.7252         0.7244        52.9794         0.7506        -78.504        -0.5372              1              1
      4401.0000        10.6616        34.6051        -999.25        92.9683       92.16389          0.727         0.7268        53.1356         0.7551       -78.5001        -0.5361              1              1
      4401.5000        10.6721        34.9009        -999.25         91.626       90.63842         0.7307         0.7298        53.3522         0.7608       -78.5277        -0.5665              1              1
      4402.0000        10.6877        35.2711        -999.25        90.5806       89.44926         0.7361         0.7337        53.3764         0.7667       -78.5065         -0.548              1              1
      4402.5000        10.7032        35.5297        -999.25        90.9427       89.85517         0.7438         0.7391        53.2335         0.7738       -78.5244        -0.5687              1              1
      4403.0000        10.7406         35.365        -999.25        91.5085        90.4919         0.7528         0.7484        52.8297         0.7819       -78.5793        -0.6264              1              1
      4403.5000        10.7801        34.8358        -999.25        91.3961       90.36011         0.7634         0.7606        52.2116         0.7971       -78.6611         -0.711              1              1
      4404.0000        10.8399        34.0621        -999.25        85.6523       83.84689         0.7776         0.7772        50.5781         0.8126       -78.9562        -1.0089              1              1
      4404.5000        10.9007         33.149        -999.25         82.111       79.82957         0.7948         0.8008        47.2496         0.8342       -79.4119        -1.4673       0.996374              1
      4405.0000        10.9523        31.9608        -999.25         80.452       77.94523         0.8216         0.8292        44.9601         0.8593       -80.3073        -2.3655      0.9562815      0.9841087
      4405.5000        10.9947         30.843        -999.25        79.1478       76.46281         0.8515         0.8584        42.7426         0.8862       -81.2203        -3.2813      0.9247406      0.9442913
      4406.0000        11.0119        30.3047        -999.25        77.3228       74.39036         0.8775         0.8877        41.8842         0.9138       -81.9993         -4.063      0.8806459      0.9103044
      4406.5000        11.0292        30.0268        -999.25         73.905       70.51301         0.9036         0.9124        42.4951         0.9415       -82.7231        -4.7896      0.7981491      0.8787131
      4407.0000        11.0217         29.792        -999.25        70.1824       66.29025         0.9256         0.9345        43.5323         0.9672       -83.5233        -5.5926      0.7083031         0.8438
      4407.5000        10.9899         29.356        -999.25        67.6791       63.44905         0.9437         0.9529        43.0184         0.9876       -84.3615        -6.4336      0.6478522      0.8072348
