#------------------------------------------------------------------------------
# Created by    : vladimir.rabinovich
# Created on    : 09/19/2023 17:20:44
#------------------------------------------------------------------------------
~Version Information Section
VERS.           2.0     :   CWLS log ASCII Standard - VERSION 2.0
WRAP.           NO      :   One line per depth step
~Well Information Section
#MNEM       .UNIT                                         VALUE :DESCRIPTION
#------------------------------------------------------------------------------
STRT        .FT                                             194 :START DEPTH
STOP        .FT                                           14521 :STOP DEPTH
STEP        .FT                                             0.5 :STEP      
NULL        .                                           -999.25 :NULL      
COMP        .                             MAGNOLIA PETROLEUM CO :COMPANY   
WELL        .                                OCS 00043 ST00BP00 :WELL      
FLD         .                          EUGENE ISLAND BLOCK 0089 :FIELD     
LOC         .                                                   :LOCATION  
CNTY        .                                     EUGENE ISLAND :LOCATION  
STAT        .                                         LOUISIANA :STATE     
CTRY        .                                     UNITED STATES :COUNTRY   
SRVC        .                                                   :SERVICE COMPANY
DATE        .                             9/13/2023 11:18:42 AM :LOG DATE  
API         .                                    17709003920000 :API NUMBER
UWI         .                                    17709003920000 :UNIQUE WELL ID
XCOORD      .                                  2056408.80151155 :SURFACE X 
YCOORD      .                                  10562022.8372996 :SURFACE Y 
LAT         .                                        29.0974849 :LATITUDE  
LON         .                                       -91.6970667 :LONGITUDE 
ELEV        .FT                                              50 :ELEVATION VALUE
ELEV_TYPE   .                                                KB :ELEVATION REFERENCE TYPE
~Curve Information Section
#MNEM       .UNIT                                      API CODE :CURVE DESCRIPTION
#------------------------------------------------------------------------------
DEPT        .FT                                                 :DEPTH     
ASN         .OHMM                                               :          
LAT         .OHMM                                               :          
LN          .OHMM                                               :          
SP          .MV                                                 :          
SP_NORM     .MV                                                 :SP Normalized
VSH_SP      .V/V                                                :Volume of Shale from SP
~A        DEPTH            ASN            LAT             LN             SP        SP_NORM         VSH_SP
# ...
      1144.0000         2.3148         0.7396         1.5955      -138.1553      -45.25257     0.09688631
      1144.5000         2.3124         0.7416         1.5948      -136.6743       -43.7745      0.1270511
      1145.0000         2.2976         0.7437         1.5868      -135.0535      -42.15662      0.1600689
      1145.5000         2.2828         0.7458         1.5788      -133.4817      -40.58776      0.1920865
      1146.0000          2.268         0.7478         1.5708      -131.6069      -38.71589       0.230288
      1146.5000         2.2531         0.7499         1.5628      -130.2241      -37.33602      0.2584485
      1147.0000         2.2343         0.7519         1.5546      -130.5759      -37.69074      0.2512093
      1147.5000         2.2153          0.754          1.544      -132.0728      -39.19057      0.2206005
      1148.0000         2.1962          0.756         1.5334      -135.1882      -42.30891      0.1569611
      1148.5000         2.1772         0.7581         1.5227      -136.2031      -43.32673      0.1361892
      1149.0000         2.1658           0.76         1.5121      -137.0269      -44.15347       0.119317
      1149.5000         2.1562         0.7602         1.5015      -137.5869      -44.71639      0.1078287
      1150.0000         2.1466         0.7605         1.4908      -137.2429      -44.37532      0.1147894
      1150.5000          2.143         0.7607         1.4799      -136.7554      -43.89075      0.1246786
      1151.0000         2.1479         0.7609          1.469      -136.1626      -43.30087      0.1367169
      1151.5000         2.1528         0.7612         1.4581      -135.5701       -42.7113      0.1487489
      1152.0000         2.1578         0.7614         1.4473       -134.968      -42.11214      0.1609768
      1152.5000         2.1627         0.7616         1.4364      -134.3347      -41.48177      0.1738415
      1153.0000         2.1586         0.7619         1.4237      -133.7014      -40.85139      0.1867062
      1153.5000         2.1471         0.7621         1.4069      -133.1882      -40.34113      0.1971199
      1154.0000         2.1265         0.7623         1.3901      -133.0566      -40.21245       0.199746
      1154.5000         2.0898         0.7626         1.3732       -133.894      -41.05278      0.1825963
      1155.0000         2.0578         0.7628         1.3564      -136.1428      -43.30452      0.1366425
      1155.5000         2.0328         0.7621         1.3395      -137.2122      -44.37684      0.1147584
      1156.0000         2.0181         0.7609         1.3227      -137.8574      -45.02497      0.1015312
      1156.5000         2.0054         0.7597         1.3058      -138.3828      -45.55329     0.09074916
      1157.0000         2.0023         0.7584         1.2889      -138.9231      -46.09652     0.07966287
      1157.5000         2.0009         0.7572          1.272      -139.3865      -46.56286     0.07014574
      1158.0000         1.9996         0.7559         1.2551      -139.1274      -46.30668      0.0753739
      1158.5000         2.0025         0.7547         1.2382       -137.458      -44.64021      0.1093836
      1159.0000         2.0053         0.7535         1.2243      -135.4687      -42.65385      0.1499215
      1159.5000         2.0082         0.7522         1.2103      -135.7437      -42.93177      0.1442496
      1160.0000         1.9947          0.751         1.1964       -136.282        -43.473      0.1332041
      1160.5000         1.8698         0.7498         1.1825      -136.7434      -43.93732      0.1237281
      1161.0000         1.8663         0.7485         1.1685       -136.585      -43.78186      0.1269008
      1161.5000         1.8696          0.746         1.1574      -136.4265      -43.62628      0.1300759
      1162.0000         1.8432          0.743         1.1468      -136.3057      -43.50841      0.1324815
      1162.5000         1.8094           0.74         1.1362      -136.2024      -43.40804      0.1345299
      1163.0000         1.7851          0.737         1.1256      -136.4504      -43.65897      0.1294089
      1163.5000         1.7633          0.734         1.1155      -136.8806       -44.0921      0.1205693
      1164.0000         1.7438          0.731         1.1161      -137.4446      -44.65903      0.1089994
      1164.5000         1.7247          0.728         1.1166      -138.2849      -45.50226     0.09179065
      1165.0000         1.6988          0.725         1.1171      -138.8889      -46.10919     0.07940425
      1165.5000          1.669          0.722         1.1176      -139.3508      -46.57402     0.06991795
      1166.0000         1.6402          0.719         1.1182      -139.4673      -46.69345     0.06748059
      1166.5000         1.6113         0.7161         1.1164      -139.3853      -46.61437     0.06909444
      1167.0000         1.5827         0.7131         1.1146       -138.824      -46.05601     0.08048964
      1167.5000         1.5566         0.7106         1.1128      -138.2627      -45.49763     0.09188516
      1168.0000         1.5316         0.7085          1.111      -137.5806      -44.81846      0.1057457
      1168.5000         1.5098         0.7063         1.1054       -136.686       -43.9268      0.1239429
      1169.0000         1.5267         0.7041          1.097      -135.7336      -42.97732        0.14332
      1169.5000         1.5481          0.702         1.0886      -134.5759      -41.82255      0.1668868
      1170.0000         1.5829         0.6998         1.0801      -133.5435      -40.79308      0.1878963
      1170.5000          1.653         0.6976         1.0717      -132.6523      -39.90481      0.2060243
      1171.0000         1.6923         0.6955         1.0633      -131.8911      -39.14654      0.2214992
      1171.5000         1.6932         0.6933         1.0697      -131.9192      -39.17757      0.2208658
      1172.0000         1.6736         0.6911         1.0765      -133.9961      -41.25739      0.1784207
      1172.5000         1.6638         0.6889         1.0834      -136.0693      -43.33353      0.1360505
      1173.0000          1.677         0.6869         1.0902      -136.5415      -43.80865       0.126354
      1173.5000         1.6969         0.6889           1.11       -135.709      -42.97908      0.1432841
      1174.0000          1.725         0.6908         1.1311      -134.9866      -42.25961      0.1579671
      1174.5000         1.7504         0.6928         1.1522      -135.8381      -43.11404      0.1405297
      1175.0000         1.7702         0.6947         1.1732      -136.8784      -44.15727      0.1192393
      1175.5000         1.7886         0.6967         1.1943      -137.1912      -44.47299      0.1127961
      1176.0000         1.7831         0.6986         1.2124      -137.3923      -44.67703       0.108632
      1176.5000         1.7473         0.7006         1.2282      -137.2119      -44.49956      0.1122539
      1177.0000         1.7319         0.7025          1.244      -136.9851       -44.2757      0.1168225
      1177.5000         1.7189         0.7045         1.2598      -136.7583      -44.05181      0.1213916
      1178.0000         1.7085         0.7064         1.2756      -136.3523      -43.64874      0.1296176
      1178.5000         1.7016          0.708         1.2844      -135.8416      -43.14097      0.1399802
      1179.0000         1.7177         0.7077         1.2843      -135.5735       -42.8758      0.1453918
      1179.5000         1.7456         0.7073         1.2841      -135.7729      -43.07813      0.1412626
      1180.0000         1.7962          0.707         1.2839      -135.9976      -43.30576      0.1366171
      1180.5000         1.8617         0.7067         1.2779      -136.3464      -43.65749      0.1294389
      1181.0000         1.9201         0.7063         1.2487      -136.6953      -44.00932      0.1222589
      1181.5000          1.918          0.706         1.2194      -137.0442      -44.36115      0.1150785
