#------------------------------------------------------------------------------
# Created by    : vladimir.rabinovich
# Created on    : 09/19/2023 17:22:11
#------------------------------------------------------------------------------
~Version Information Section
VERS.           2.0     :   CWLS log ASCII Standard - VERSION 2.0
WRAP.           NO      :   One line per depth step
~Well Information Section
#MNEM       .UNIT                                         VALUE :DESCRIPTION
#------------------------------------------------------------------------------
STRT        .FT                                             714 :START DEPTH
STOP        .FT                                            7955 :STOP DEPTH
STEP        .FT                                             0.5 :STEP      
NULL        .                                           -999.25 :NULL      
COMP        .                                ODECO OIL & GAS CO :COMPANY   
WELL        .                               OCS G04756 ST00BP00 :WELL      
FLD         .                           WEST CAMERON BLOCK 0165 :FIELD     
LOC         .                                                   :LOCATION  
CNTY        .                                      WEST CAMERON :LOCATION  
STAT        .                                         LOUISIANA :STATE     
CTRY        .                                     UNITED STATES :COUNTRY   
SRVC        .                                                   :SERVICE COMPANY
DATE        .                             9/13/2023 11:19:06 AM :LOG DATE  
API         .                                    17700406200000 :API NUMBER
UWI         .                                    17700406200000 :UNIQUE WELL ID
XCOORD      .                                  1451757.14487559 :SURFACE X 
YCOORD      .                                  10673474.8616073 :SURFACE Y 
LAT         .                                        29.4091131 :LATITUDE  
LON         .                                       -93.5927176 :LONGITUDE 
ELEV        .FT                                             113 :ELEVATION VALUE
ELEV_TYPE   .                                                KB :ELEVATION REFERENCE TYPE
~Curve Information Section
#MNEM       .UNIT                                      API CODE :CURVE DESCRIPTION
#------------------------------------------------------------------------------
DEPT        .FT                                                 :DEPTH     
CALI        .IN                                                 :          
CILD        .MMHO                                               :          
DRHO        .G/C3                                               :          
DT          .US/F                                               :          
GR          .GAPI                                               :          
GR_NORM     .GAPI                                               :GammaRay Normalized
ILD         .OHMM                                               :          
NPSS        .%                                                  :Neutron Porosity Sandstone
RFOC        .OHMM                                               :          
RHOB        .G/C3                                               :          
RILD        .OHMM                                               :          
RILM        .OHMM                                               :          
SN          .OHMM                                               :          
SP          .MV                                                 :          
SP_NORM     .MV                                                 :SP Normalized
VSH_GR      .V/V                                                :Volume of Shale from GR
VSH_SP      .V/V                                                :Volume of Shale from SP
~A        DEPTH           CALI           CILD           DRHO             DT             GR        GR_NORM            ILD           NPSS           RFOC           RHOB           RILD           RILM             SN             SP        SP_NORM         VSH_GR         VSH_SP
# ...
      5064.0000        11.2083            744         0.0692        -999.25        71.5094       61.49047        -999.25           38.7         1.2483          2.273         1.3566         1.3441        -999.25          -16.8        -3.7778      0.6061803      0.9850423
      5064.5000        11.1875            760         0.0792        -999.25        75.4717       65.97919        -999.25           38.1          1.203          2.273         1.3318         1.2953        -999.25          -15.9        -2.9311      0.7016848              1
      5065.0000        11.1667            776         0.0836        -999.25        79.0566       70.04024        -999.25          37.26         1.1594          2.266         1.3195         1.2368        -999.25          -15.3        -2.3844      0.7880902              1
      5065.5000        11.1458            784         0.0752        -999.25        81.9608       73.32995        -999.25          36.84         1.1277          2.255         1.3074         1.2483        -999.25          -18.3        -5.4377       0.858084      0.9531212
      5066.0000        11.1458            784         0.0632        -999.25        81.9608       73.32869        -999.25        35.6538         1.0867          2.251         1.3074         1.2716        -999.25          -17.1         -4.291      0.8580572      0.9751731
      5066.5000        11.1458            776         0.0612        -999.25        81.3726       72.66103        -999.25        34.7308         1.0668          2.256         1.3074         1.2834        -999.25          -16.8        -4.0443      0.8438518      0.9799173
      5067.0000        11.1458            776         0.0752        -999.25        80.3922       71.54883        -999.25        34.4423         1.0968          2.268         1.3074         1.3074        -999.25          -18.3        -5.5976      0.8201878      0.9500462
      5067.5000        11.1458            768         0.0812        -999.25        79.2453       70.24796        -999.25        33.9808         1.1381          2.278         1.3318         1.3074        -999.25          -17.1        -4.4509      0.7925097      0.9720981
      5068.0000        11.1458            760         0.0776        -999.25        78.8679       69.81905        -999.25        33.9808          1.181          2.273         1.3441         1.3074        -999.25          -15.9        -3.3043       0.783384      0.9941481
      5068.5000        11.1458            760         0.0792        -999.25        79.6226         70.673        -999.25        35.7115          1.181          2.269         1.3566         1.3074        -999.25          -16.5        -3.9576      0.8015533      0.9815846
      5069.0000        11.1458            760         0.0836        -999.25        80.7843       71.98827        -999.25          37.56         1.1701          2.274         1.3692         1.2953        -999.25          -16.2        -3.7109      0.8295376      0.9863288
      5069.5000        11.1458            752         0.1016        -999.25        80.1961        71.3205        -999.25          38.04         1.1381          2.283         1.3692         1.2834        -999.25          -15.6        -3.1642      0.8153297      0.9968423
      5070.0000        11.1458            752         0.1096        -999.25        80.5882       71.76357        -999.25          36.96         1.0968          2.289         1.3692         1.2834        -999.25          -17.4        -5.0175      0.8247567      0.9612019
      5070.5000        11.1458            752         0.1156        -999.25        81.1504       72.39939        -999.25          36.12         1.0767          2.281         1.3692         1.2716        -999.25          -18.3        -5.9708      0.8382849      0.9428692
      5071.0000        11.1458            752         0.1176        -999.25         81.502       72.79656        -999.25        35.7692         1.0668          2.266         1.3692         1.2834        -999.25          -17.4        -5.1241      0.8467354      0.9591519
      5071.5000        11.1458            752         0.1216        -999.25        79.5065       70.53408        -999.25        34.7308          1.057         2.2451         1.3692         1.3074        -999.25          -18.9        -6.6774      0.7985975      0.9292808
      5072.0000        11.1458            776         0.1216        -999.25        77.6084       68.38207        -999.25         32.375          1.057         2.2206         1.3441         1.3074        -999.25          -20.7        -8.5307      0.7528101      0.8936404
      5072.5000        11.1458            792         0.1216        -999.25        74.2593       64.58572        -999.25         32.875         1.0867         2.2235         1.2953         1.2716        -999.25          -18.9         -6.784      0.6720367      0.9272308
      5073.0000        11.1458            824         0.1216        -999.25        71.6667       61.64663        -999.25          36.06         1.1277         2.2422         1.2142         1.2255        -999.25          -17.4        -5.3373      0.6095029      0.9550519
      5073.5000        11.1458            856         0.1116        -999.25        70.3704       60.17646        -999.25           37.5         1.1594           2.26         1.1381         1.1594        -999.25            -18        -5.9907      0.5782225      0.9424865
      5074.0000         11.125            928         0.0552        -999.25        71.4815       61.43428        -999.25        35.5385          1.181         2.2431         1.0767         1.0968        -999.25            -24        -12.044      0.6049846      0.8260769
      5074.5000         11.125           1008         0.0149        -999.25        73.5185       63.74129        -999.25        33.2308         1.1277         2.2216         0.9905         1.0377        -999.25          -24.6       -12.6973      0.6540701      0.8135135
      5075.0000         11.125           1072        -0.0051        -999.25             75       65.41896        -999.25        33.1154         1.0767         2.2059         0.9174          0.981        -999.25          -22.8       -10.9506      0.6897651      0.8471038
      5075.5000        11.1042           1168         0.0049        -999.25        73.5185       63.73891        -999.25        34.8462         1.0281          2.202         0.8524         0.9262        -999.25          -22.8       -11.0039      0.6540193      0.8460789
      5076.0000        11.1042           1248         0.0229        -999.25           69.6       59.29734        -999.25          36.06              1          2.202         0.7859          0.868        -999.25          -29.7       -17.9572      0.5595179      0.7123616
      5076.5000        11.0833           1336         0.0373        -999.25           66.4       55.66996        -999.25        35.0769          0.981          2.182         0.7319          0.822        -999.25       -32.3529       -20.6634      0.4823396      0.6603192
      5077.0000        11.0833           1424         0.0349        -999.25           66.6       55.89535        -999.25        34.0385         0.9532          2.158         0.6801          0.772        -999.25       -35.2941       -23.6579      0.4871351      0.6027327
      5077.5000        11.0833           1504         0.0249        -999.25           67.2       56.57411        -999.25        33.1731         0.9352         2.1385         0.6481         0.7254        -999.25       -38.8235       -27.2406      0.5015768      0.5338346
      5078.0000        11.0833           1568         0.0249        -999.25             66       55.21307        -999.25        34.3846         0.9717         2.1302         0.6357         0.7063        -999.25       -40.5882       -29.0586      0.4726184      0.4988731
      5078.5000        11.0833           1592         0.0273        -999.25           64.2       53.17212        -999.25        35.8269              1          2.124         0.6302         0.6868        -999.25       -42.0588       -30.5825      0.4291939      0.4695673
