#------------------------------------------------------------------------------
# Created by    : vladimir.rabinovich
# Created on    : 09/19/2023 17:21:57
#------------------------------------------------------------------------------
~Version Information Section
VERS.           2.0     :   CWLS log ASCII Standard - VERSION 2.0
WRAP.           NO      :   One line per depth step
~Well Information Section
#MNEM       .UNIT                                         VALUE :DESCRIPTION
#------------------------------------------------------------------------------
STRT        .FT                                             570 :START DEPTH
STOP        .FT                                           10083 :STOP DEPTH
STEP        .FT                                             0.5 :STEP      
NULL        .                                           -999.25 :NULL      
COMP        .                                BP EXPLORATION INC :COMPANY   
WELL        .                               OCS G10548 ST00BP00 :WELL      
FLD         .                                           WILDCAT :FIELD     
LOC         .                                                   :LOCATION  
CNTY        .                                      WEST CAMERON :LOCATION  
STAT        .                                         LOUISIANA :STATE     
CTRY        .                                     UNITED STATES :COUNTRY   
SRVC        .                                                   :SERVICE COMPANY
DATE        .                             9/13/2023 11:18:09 AM :LOG DATE  
API         .                                    17700408010000 :API NUMBER
UWI         .                                    17700408010000 :UNIQUE WELL ID
XCOORD      .                                  1469734.01149431 :SURFACE X 
YCOORD      .                                  10675810.5973196 :SURFACE Y 
LAT         .                                        29.4157778 :LATITUDE  
LON         .                                        -93.536275 :LONGITUDE 
ELEV        .FT                                              80 :ELEVATION VALUE
ELEV_TYPE   .                                                KB :ELEVATION REFERENCE TYPE
~Curve Information Section
#MNEM       .UNIT                                      API CODE :CURVE DESCRIPTION
#------------------------------------------------------------------------------
DEPT        .FT                                                 :DEPTH     
CALI        .IN                                                 :          
DPHI        .%                                                  :          
GR          .GAPI                                               :          
GR_1        .GAPI                                               :          
GR_NORM     .GAPI                                               :GammaRay Normalized
ILD         .OHMM                                               :          
ILM         .OHMM                                               :          
NPHI        .%                                                  :          
SFL         .OHMM                                               :          
SP          .MV                                                 :          
SP_NORM     .MV                                                 :SP Normalized
VSH_GR      .V/V                                                :Volume of Shale from GR
VSH_SP      .V/V                                                :Volume of Shale from SP
~A        DEPTH           CALI           DPHI             GR           GR_1        GR_NORM            ILD            ILM           NPHI            SFL             SP        SP_NORM         VSH_GR         VSH_SP
# ...
      7543.0000        14.7583        19.5842        -999.25        74.8479        71.7493         1.0066         1.0055        32.8843         1.1262       -64.0876        -6.6947      0.8244532      0.8695917
      7543.5000        14.7115        20.3574        -999.25        76.3044        73.2131         0.9549         0.9554        34.3047         1.0804       -63.6237        -6.2529      0.8555978      0.8818639
      7544.0000        14.6757        21.4564        -999.25         77.766        74.6821         0.9102         0.9068        35.6505         1.0256       -63.2434        -5.8947      0.8868532      0.8918139
      7544.5000        14.5855        22.2608        -999.25        79.1346        76.0581         0.8756         0.8794        36.0291         0.9814       -62.9057        -5.5791      0.9161298      0.9005805
      7545.0000        14.4874        22.4591        -999.25         80.434        77.3648          0.888         0.8885        35.5473         0.9525       -62.6489        -5.3444      0.9439319         0.9071
      7545.5000        14.4336        22.2362        -999.25        81.6031        78.5413         0.9099         0.9092        34.7682         0.9393       -62.5141        -5.2316      0.9689638      0.9102333
      7546.0000        14.4989         21.819        -999.25         81.907        78.8526         0.9281         0.9282        36.2052         0.9437       -62.4096        -5.1492      0.9755872      0.9125222
      7546.5000        14.5807        21.3745        -999.25        82.2107        79.1637         0.9317         0.9267        38.5975          0.939       -62.2728        -5.0345      0.9822063      0.9157083
      7547.0000        14.6454        21.4213        -999.25        82.5145        79.4748         0.9241         0.9164        40.7641          0.903       -62.1808        -4.9646      0.9888256        0.91765
      7547.5000        14.6536        21.9618        -999.25        82.3207        79.2884         0.9103         0.9021        42.4193         0.8525       -62.1177        -4.9236      0.9848595      0.9187889
      7548.0000        14.6418        23.1849        -999.25        82.0323        79.0074         0.9052         0.8894        43.7007         0.8227       -62.0591         -4.887      0.9788809      0.9198055
      7548.5000        14.6018        24.4753        -999.25        81.6342        78.6166         0.9006         0.8841        44.2346         0.8159       -62.0018        -4.8518       0.970566      0.9207833
      7549.0000        14.5541        25.6505        -999.25        80.9176        77.9074         0.8973         0.8796        43.7934         0.8164        -61.938        -4.8101      0.9554766      0.9219416
      7549.5000        14.5045        26.7106        -999.25        80.3217        77.3189         0.8938         0.8794        42.5494         0.8193       -61.8638         -4.758      0.9429553      0.9233889
      7550.0000        14.5648        27.2586        -999.25        80.7213        77.7258         0.8896         0.8802         41.099         0.8331       -61.8251        -4.7414      0.9516128        0.92385
      7550.5000        14.7026        26.2202        -999.25        77.6942        74.7061         0.8857         0.8865         42.041         0.8485       -61.8022        -4.7406      0.8873639      0.9238722
      7551.0000        14.8066        24.8416        -999.25        75.4399        72.4592         0.8931         0.9001        42.0694         0.8753       -61.7475        -4.7079      0.8395574      0.9247805
      7551.5000        14.7048        23.3867        -999.25        74.1134          71.14         0.9099         0.9156        40.4277         0.9072       -61.7455         -4.728      0.8114893      0.9242222
      7552.0000        14.6013        21.7405        -999.25        72.9961        70.0301         0.9362         0.9364        37.7512          0.947       -61.7917        -4.7963      0.7878744       0.922325
      7552.5000        14.5954        20.7731        -999.25        72.3607        69.4021         0.9583         0.9647        36.4773         0.9934       -61.8568        -4.8835      0.7745128      0.9199028
      7553.0000        14.6513        23.0085        -999.25        75.5885        72.6373         0.9688         0.9803        39.2913          1.019       -61.9388        -4.9876      0.8433468      0.9170111
      7553.5000        14.7015        25.2004        -999.25        78.8386        75.8947         0.9565         0.9596        41.6657         0.9558       -62.0053        -5.0761      0.9126531      0.9145528
      7554.0000        14.6688         27.204        -999.25        82.3265          79.39         0.9385          0.931        43.6423         0.8937       -62.0592        -5.1521      0.9870213      0.9124417
      7554.5000        14.6333        28.0802        -999.25        82.2869        79.3578         0.9187         0.9043        44.7286          0.865       -62.0368        -5.1518      0.9863362        0.91245
      7555.0000        14.6241        26.8332        -999.25        80.7646        77.8428          0.898         0.8823         43.886         0.8699       -62.0016        -5.1387       0.954102      0.9128139
      7555.5000        14.6327        25.7716        -999.25          81.13        78.2156         0.8822         0.8608        42.6062         0.8591       -61.9509        -5.1101       0.962034      0.9136083
      7556.0000         14.616        25.6774        -999.25        81.2793        78.3723         0.8701         0.8498        43.6887         0.8426       -61.9327         -5.114      0.9653681         0.9135
      7556.5000        14.5574        26.6164        -999.25        81.2316        78.3319         0.8584         0.8423        44.5814         0.8294       -61.9164        -5.1197      0.9645085      0.9133416
      7557.0000        14.5013        26.9302        -999.25        80.9329        78.0406         0.8543         0.8362        44.0386         0.8166       -61.9196         -5.145      0.9583107      0.9126389
      7557.5000        14.5087        26.3667        -999.25        80.9275        78.0426         0.8502         0.8338        44.4707         0.8134       -61.9228        -5.1703      0.9583532      0.9119361
      7558.0000        14.4892        25.8871        -999.25        81.7865        78.9089         0.8464         0.8314        46.3038         0.8126       -61.9105        -5.1801      0.9767851      0.9116639
      7558.5000        14.4355        26.3517        -999.25        82.9744        80.1042         0.8429          0.829        47.6465         0.8126       -61.8934        -5.1851              1       0.911525
      7559.0000        14.3605        26.8646        -999.25        83.3992        80.5364         0.8394         0.8268        48.2618         0.8126        -61.787        -5.1007              1      0.9138694
      7559.5000        14.3132        26.0437        -999.25        83.3174        80.4619         0.8359         0.8247        47.8304         0.8134       -61.6422         -4.978              1      0.9172778
      7560.0000        14.3004        25.0374        -999.25        83.5955        80.7474          0.832         0.8225        46.5117         0.8157       -61.4561         -4.814              1      0.9218333
      7560.5000        14.3007        24.4603        -999.25         83.087        80.2463         0.8282         0.8216        45.0494          0.818       -61.3011        -4.6811              1       0.925525
      7561.0000        14.3236        24.3812        -999.25        82.2057        79.3724         0.8245         0.8217        43.5588         0.8191       -61.1656        -4.5677      0.9866468       0.928675
      7561.5000         14.351        24.2386        -999.25        82.1702        79.3442         0.8212         0.8217        44.7742         0.8197         -61.04        -4.4642      0.9860468        0.93155
