#------------------------------------------------------------------------------
# Created by    : vladimir.rabinovich
# Created on    : 09/19/2023 17:20:44
#------------------------------------------------------------------------------
~Version Information Section
VERS.           2.0     :   CWLS log ASCII Standard - VERSION 2.0
WRAP.           NO      :   One line per depth step
~Well Information Section
#MNEM       .UNIT                                         VALUE :DESCRIPTION
#------------------------------------------------------------------------------
STRT        .FT                                             194 :START DEPTH
STOP        .FT                                           14521 :STOP DEPTH
STEP        .FT                                             0.5 :STEP      
NULL        .                                           -999.25 :NULL      
COMP        .                             MAGNOLIA PETROLEUM CO :COMPANY   
WELL        .                                OCS 00043 ST00BP00 :WELL      
FLD         .                          EUGENE ISLAND BLOCK 0089 :FIELD     
LOC         .                                                   :LOCATION  
CNTY        .                                     EUGENE ISLAND :LOCATION  
STAT        .                                         LOUISIANA :STATE     
CTRY        .                                     UNITED STATES :COUNTRY   
SRVC        .                                                   :SERVICE COMPANY
DATE        .                             9/13/2023 11:18:42 AM :LOG DATE  
API         .                                    17709003920000 :API NUMBER
UWI         .                                    17709003920000 :UNIQUE WELL ID
XCOORD      .                                  2056408.80151155 :SURFACE X 
YCOORD      .                                  10562022.8372996 :SURFACE Y 
LAT         .                                        29.0974849 :LATITUDE  
LON         .                                       -91.6970667 :LONGITUDE 
ELEV        .FT                                              50 :ELEVATION VALUE
ELEV_TYPE   .                                                KB :ELEVATION REFERENCE TYPE
~Curve Information Section
#MNEM       .UNIT                                      API CODE :CURVE DESCRIPTION
#------------------------------------------------------------------------------
DEPT        .FT                                                 :DEPTH     
ASN         .OHMM                                               :          
LAT         .OHMM                                               :          
LN          .OHMM                                               :          
SP          .MV                                                 :          
SP_NORM     .MV                                                 :SP Normalized
VSH_SP      .V/V                                                :Volume of Shale from SP
~A        DEPTH            ASN            LAT             LN             SP        SP_NORM         VSH_SP
# ...
     12582.0000         0.3853          0.356         0.3043        -90.546      -40.24598              0
     12582.5000         0.3826         0.3574         0.2997       -91.6959      -41.39542              0
     12583.0000          0.395         0.3589         0.2951       -92.5861      -42.28516              0
     12583.5000          0.446         0.3603         0.2947       -93.4141       -43.1127              0
     12584.0000         0.5027         0.3617         0.3005       -94.2175      -43.91563              0
     12584.5000          0.608         0.3766         0.3064        -95.141      -44.83867              0
     12585.0000         0.8425         0.4036         0.3123       -95.2643      -44.96151              0
     12585.5000         0.9174         0.4306         0.3182       -94.8336      -44.53035              0
     12586.0000         1.2464         0.4576         0.3294       -94.4041      -44.10039              0
     12586.5000         1.3192          0.506         0.3421       -93.9712      -43.66703              0
     12587.0000          1.273         0.5088         0.3549       -93.5339      -43.22926              0
     12587.5000         0.7596         0.4839         0.3677       -93.0977       -42.7926              0
     12588.0000         0.5771          0.459         0.3804       -92.6914      -42.38584              0
     12588.5000         0.5072         0.4341         0.3932       -92.3086      -42.00258              0
     12589.0000          0.455          0.413         0.4042       -91.9246      -41.61811              0
     12589.5000         0.4276         0.3993         0.4137       -91.3962      -41.08926              0
     12590.0000         0.4034         0.3855         0.4231       -90.4639      -40.15649              0
     12590.5000         0.3825         0.3718         0.4325       -89.5316      -39.22373      0.0194068
     12591.0000          0.378          0.358          0.442       -88.3462      -38.03786     0.04905338
     12591.5000         0.4577         0.3442         0.4514       -87.0232      -36.71441     0.08213987
     12592.0000         0.5867         0.3305         0.4562       -85.0143      -34.70504       0.132374
     12592.5000         0.6503         0.3167         0.4588       -78.9364      -28.62668      0.2843329
     12593.0000          0.692         0.3076         0.4614       -75.4025      -25.09232      0.3726921
     12593.5000         0.7314          0.311         0.4641       -72.9474      -22.63676       0.434081
     12594.0000         0.7632         0.3143         0.4667       -70.1926      -19.88149      0.5029628
     12594.5000         0.7936         0.3177         0.4693       -69.1116      -18.80003      0.5299991
     12595.0000         0.8078          0.321         0.4719        -68.066      -17.75397      0.5561507
     12595.5000          0.822         0.3244         0.4743       -67.7097      -17.39721      0.5650698
     12596.0000         0.8362         0.3277         0.4764       -68.3745      -18.06154      0.5484614
     12596.5000         0.8467         0.3311         0.4785       -69.3069      -18.99348      0.5251629
     12597.0000         0.8549         0.3344         0.4806       -70.3302      -20.01632      0.4995919
     12597.5000         0.8631         0.3377         0.4827       -71.6022      -21.28786      0.4678034
     12598.0000         0.8714         0.3414         0.4848        -73.751       -23.4362      0.4140951
     12598.5000         0.8786         0.3479         0.4869       -76.6722      -26.35694      0.3410766
     12599.0000         0.8827         0.3543          0.489       -77.5735      -27.25777      0.3185557
     12599.5000         0.8868         0.3608         0.4911       -76.9164      -26.60021      0.3349948
     12600.0000         0.8903         0.3672         0.4927       -75.7333      -25.41665      0.3645838
     12600.5000         0.8914         0.3737          0.493         -74.55      -24.23289      0.3941777
     12601.0000         0.8925         0.3802         0.4932       -73.4801      -23.16253      0.4209368
     12601.5000         0.8854         0.3866         0.4935       -72.5145      -22.19646      0.4450884
     12602.0000         0.8745         0.3869         0.4938       -72.0461       -21.7276      0.4568101
     12602.5000          0.857         0.3842         0.4941        -72.479      -22.16003      0.4459991
     12603.0000         0.8348         0.3815         0.4943        -72.913      -22.59358      0.4351605
     12603.5000         0.8215         0.3788         0.4946       -73.3469      -23.02702      0.4243246
     12604.0000         0.8086         0.3761         0.4928       -74.2637      -23.94336      0.4014161
     12604.5000         0.7982         0.3734         0.4892        -75.691      -25.37019      0.3657452
     12605.0000          0.789         0.3707         0.4857       -76.8654      -26.54413      0.3363968
     12605.5000         0.7797          0.368         0.4821       -77.9286      -27.60686      0.3098285
     12606.0000         0.7723         0.3653         0.4786       -78.9741       -28.6519      0.2837025
     12606.5000         0.7661         0.3628          0.475        -79.276      -28.95334      0.2761664
     12607.0000         0.7599         0.3605         0.4715       -78.3525      -28.02938      0.2992655
     12607.5000          0.753         0.3581         0.4682       -77.5624      -27.23882      0.3190295
     12608.0000         0.7453         0.3557         0.4658       -76.8486      -26.52456       0.336886
     12608.5000         0.7377         0.3533         0.4635       -76.5734      -26.24889      0.3437777
     12609.0000         0.7248         0.3531         0.4611       -77.2715      -26.94653      0.3263368
     12609.5000         0.7093         0.3545         0.4588       -77.9708      -27.64537      0.3088657
     12610.0000         0.6834         0.3559         0.4564       -78.8765      -28.55061      0.2862348
     12610.5000         0.6611         0.3572         0.4541       -79.8865      -29.56014      0.2609964
     12611.0000         0.6413         0.3597         0.4517       -80.8876      -30.56079      0.2359803
     12611.5000         0.6249         0.3638         0.4495       -81.8799      -31.55262      0.2111845
     12612.0000         0.6031         0.3679         0.4509       -82.9631      -32.63535      0.1841162
     12612.5000         0.5556          0.372         0.4522       -84.3949      -34.06669      0.1483327
     12613.0000         0.5118         0.3761         0.4536       -86.1597      -35.83103      0.1042242
     12613.5000         0.4871         0.3802          0.455        -87.809      -37.47987     0.06300326
     12614.0000         0.4591         0.3844         0.4563       -89.1919      -38.86231     0.02844219
     12614.5000         0.4397         0.3897         0.4577       -90.9012      -40.57115              0
     12615.0000         0.4452          0.395         0.4591       -92.2086      -41.87809              0
     12615.5000          0.475         0.4003         0.4604       -90.7103      -40.37932              0
     12616.0000         0.5413         0.4056         0.4618       -86.0043      -35.67286      0.1081784
     12616.5000         0.6275          0.414         0.4634        -81.689       -31.3571      0.2160725
     12617.0000         0.6618         0.4245         0.4651       -79.0519      -28.71954      0.2820115
     12617.5000         0.6929         0.4349         0.4667       -77.6711      -27.33827      0.3165432
     12618.0000         0.7214         0.4454         0.4684        -76.761      -26.42772      0.3393071
     12618.5000         0.7424          0.458         0.4701       -75.9962      -25.66245      0.3584387
     12619.0000         0.7601         0.4706         0.4717       -75.5967      -25.26249      0.3684377
     12619.5000          0.763         0.4833         0.4734       -75.4768      -25.14212      0.3714469
