#------------------------------------------------------------------------------
# Created by    : vladimir.rabinovich
# Created on    : 09/19/2023 17:22:32
#------------------------------------------------------------------------------
~Version Information Section
VERS.           2.0     :   CWLS log ASCII Standard - VERSION 2.0
WRAP.           NO      :   One line per depth step
~Well Information Section
#MNEM       .UNIT                                         VALUE :DESCRIPTION
#------------------------------------------------------------------------------
STRT        .FT                                            2450 :START DEPTH
STOP        .FT                                            9560 :STOP DEPTH
STEP        .FT                                             0.5 :STEP      
NULL        .                                           -999.25 :NULL      
COMP        .                               TALOS PETROLEUM LLC :COMPANY   
WELL        .                                OCS 00301 ST00BP00 :WELL      
FLD         .                           WEST CAMERON BLOCK 0045 :FIELD     
LOC         .                                                   :LOCATION  
CNTY        .                                      WEST CAMERON :LOCATION  
STAT        .                                         LOUISIANA :STATE     
CTRY        .                                     UNITED STATES :COUNTRY   
SRVC        .                                                   :SERVICE COMPANY
DATE        .                             9/13/2023 11:18:49 AM :LOG DATE  
API         .                                    17700410870000 :API NUMBER
UWI         .                                    17700410870000 :UNIQUE WELL ID
XCOORD      .                                  1447194.98921956 :SURFACE X 
YCOORD      .                                  10757079.9124673 :SURFACE Y 
LAT         .                                        29.6390336 :LATITUDE  
LON         .                                       -93.6084245 :LONGITUDE 
ELEV        .FT                                              96 :ELEVATION VALUE
ELEV_TYPE   .                                                KB :ELEVATION REFERENCE TYPE
~Curve Information Section
#MNEM       .UNIT                                      API CODE :CURVE DESCRIPTION
#------------------------------------------------------------------------------
DEPT        .FT                                                 :DEPTH     
CNC         .%                                                  :          
DCAL        .IN                                                 :          
GR          .GAPI                                               :          
GR_NORM     .GAPI                                               :GammaRay Normalized
M0C6        .MMHO                                               :          
M2R1        .OHMM                                               :          
M2R2        .OHMM                                               :          
M2R3        .OHMM                                               :          
M2R6        .OHMM                                               :          
M2R9        .OHMM                                               :          
M2RX        .OHMM                                               :          
SP          .MV                                                 :          
SP_NORM     .MV                                                 :SP Normalized
TEN         .LB/F                                               :          
VSH_GR      .V/V                                                :Volume of Shale from GR
VSH_SP      .V/V                                                :Volume of Shale from SP
ZCOR        .G/CC                                               :          
ZDEN        .G/CC                                               :          
~A        DEPTH            CNC           DCAL             GR        GR_NORM           M0C6           M2R1           M2R2           M2R3           M2R6           M2R9           M2RX             SP        SP_NORM            TEN         VSH_GR         VSH_SP           ZCOR           ZDEN
# ...
      6230.0000        -999.25        -999.25         61.334         55.355       2633.246          0.595          0.439          0.388          0.369          0.359           0.36        -57.289       -48.9989        -123.17      0.4756384      0.2539857        -999.25        -999.25
      6230.5000        -999.25        -999.25         64.597         58.974       2629.939          0.601          0.443          0.392          0.372          0.362          0.364        -56.356       -48.0638       -150.419      0.5526383      0.2688286        -999.25        -999.25
      6231.0000        -999.25        -999.25         66.794       61.41069       2629.638          0.613          0.452          0.399          0.379          0.368          0.371        -54.319       -46.0246       -126.781      0.6044827      0.3011968        -999.25        -999.25
      6231.5000        -999.25        -999.25         67.977       62.72274       2634.714          0.626          0.462          0.408          0.386          0.376          0.379        -52.199       -43.9024        -67.282      0.6323988      0.3348825        -999.25        -999.25
      6232.0000        -999.25        -999.25         70.062       65.03522       2646.698          0.631          0.467          0.413          0.391           0.38          0.383        -50.756       -42.4572         -5.465      0.6816004      0.3578222        -999.25        -999.25
      6232.5000        -999.25        -999.25         71.891       67.06377       2665.558          0.611          0.458          0.407          0.385          0.376          0.379        -50.401       -42.1001         17.906       0.724761      0.3634905        -999.25        -999.25
      6233.0000        -999.25        -999.25         69.906       64.86221       2689.416          0.564          0.432          0.387          0.367          0.359          0.361        -51.832       -43.5289        -15.646      0.6779193      0.3408111        -999.25        -999.25
      6233.5000        -999.25        -999.25         65.949        60.4735       2714.619           0.51            0.4           0.36          0.343          0.336          0.338        -54.933       -46.6277        -90.157      0.5845425      0.2916238        -999.25        -999.25
      6234.0000        -999.25        -999.25         63.881       58.17988         2736.5          0.477          0.378          0.342          0.326           0.32          0.322        -57.356       -49.0486       -160.694      0.5357422      0.2531968        -999.25        -999.25
      6234.5000        -999.25        -999.25         64.525       58.89414       2750.115          0.479          0.376          0.338          0.323          0.317          0.319        -56.525       -48.2154       -179.259      0.5509391      0.2664222        -999.25        -999.25
      6235.0000        -999.25        -999.25          66.04       60.57443       2751.255          0.514          0.391          0.349          0.333          0.327          0.329        -52.931       -44.6192       -119.917      0.5866899      0.3235047        -999.25        -999.25
      6235.5000        -999.25        -999.25         66.418       60.99367        2736.74          0.565          0.414          0.366          0.348          0.341          0.344        -49.306       -40.9921         -5.616        0.59561      0.3810778        -999.25        -999.25
      6236.0000        -999.25        -999.25          64.94       59.35442       2704.973          0.604           0.43          0.377          0.358          0.351          0.355        -47.654       -39.3379        104.642      0.5607322       0.407335        -999.25        -999.25
      6236.5000        -999.25        -999.25         63.317       57.55435       2655.604          0.621          0.436          0.381          0.363          0.356          0.359        -48.557       -40.2387        166.378      0.5224329      0.3930365        -999.25        -999.25
      6237.0000        -999.25        -999.25         64.593       58.96956       2589.541          0.626          0.439          0.384          0.366          0.359          0.362         -50.69       -42.3696        169.255      0.5525438      0.3592127        -999.25        -999.25
      6237.5000        -999.25        -999.25          68.42       63.21408       2508.605           0.63          0.445           0.39          0.373          0.364          0.368        -51.188       -42.8654        136.022      0.6428528      0.3513429        -999.25        -999.25
      6238.0000        -999.25        -999.25         71.291        66.3983       2415.595          0.649           0.46          0.403          0.386          0.377          0.381        -49.304       -40.9792         83.142      0.7106021      0.3812826        -999.25        -999.25
      6238.5000        -999.25        -999.25         72.796        68.0675       2314.111          0.697           0.49           0.43          0.412          0.401          0.405         -46.94        -38.613          5.607      0.7461169      0.4188413        -999.25        -999.25
      6239.0000        -999.25        -999.25         75.401        70.9567       2208.488          0.775          0.538           0.47           0.45          0.436          0.441        -44.992       -36.6629        -72.692      0.8075894      0.4497952        -999.25        -999.25
      6239.5000        -999.25        -999.25         78.963       74.90732       2103.407          0.863          0.594          0.518          0.496          0.479          0.484        -42.511       -34.1797        -89.055      0.8916451      0.4892111        -999.25        -999.25
      6240.0000        -999.25        -999.25         82.196       78.49303       2003.375          0.936          0.648          0.565          0.542          0.521          0.526        -38.901       -30.5675        -34.001      0.9679369      0.5465477        -999.25        -999.25
      6240.5000        -999.25        -999.25         84.388       80.92418       1912.101          0.967          0.686          0.601          0.577          0.554          0.559        -34.357       -26.0214         36.323              1       0.618708        -999.25        -999.25
      6241.0000        -999.25        -999.25         84.769       81.34674       1832.016          0.953          0.702           0.62          0.597          0.573          0.578        -29.531       -21.1932         70.231              1      0.6953461        -999.25        -999.25
      6241.5000        -999.25        -999.25         83.286       79.70194       1764.111          0.928          0.706          0.631          0.609          0.586           0.59        -25.455        -17.115         57.543      0.9936584      0.7600794        -999.25        -999.25
      6242.0000        -999.25        -999.25         81.392       77.60131       1708.141          0.912          0.712          0.642          0.622            0.6          0.603        -22.733       -14.3909          3.539      0.9489641       0.803319        -999.25        -999.25
      6242.5000        -999.25        -999.25         79.945       75.99644       1663.041            0.9          0.719          0.655          0.637          0.616          0.619        -21.265       -12.9207        -62.959       0.914818      0.8266556        -999.25        -999.25
      6243.0000        -999.25        -999.25         82.032       78.31114        1627.46          0.882           0.72          0.663          0.647          0.628           0.63        -20.692       -12.3455        -97.386      0.9640669      0.8357857        -999.25        -999.25
      6243.5000        -999.25        -999.25         87.169       84.00858       1600.013          0.852          0.708          0.658          0.645          0.629          0.629        -20.606       -12.2574        -92.893              1      0.8371841        -999.25        -999.25
