#------------------------------------------------------------------------------
# Created by    : vladimir.rabinovich
# Created on    : 09/19/2023 17:22:25
#------------------------------------------------------------------------------
~Version Information Section
VERS.           2.0     :   CWLS log ASCII Standard - VERSION 2.0
WRAP.           NO      :   One line per depth step
~Well Information Section
#MNEM       .UNIT                                         VALUE :DESCRIPTION
#------------------------------------------------------------------------------
STRT        .FT                                            2996 :START DEPTH
STOP        .FT                                            8909 :STOP DEPTH
STEP        .FT                                             0.5 :STEP      
NULL        .                                           -999.25 :NULL      
COMP        .                             PHILLIPS PETROLEUM CO :COMPANY   
WELL        .                                OCS 00299 ST00BP00 :WELL      
FLD         .                           WEST CAMERON BLOCK 0045 :FIELD     
LOC         .                                                   :LOCATION  
CNTY        .                                      WEST CAMERON :LOCATION  
STAT        .                                         LOUISIANA :STATE     
CTRY        .                                     UNITED STATES :COUNTRY   
SRVC        .                                                   :SERVICE COMPANY
DATE        .                             9/13/2023 11:18:09 AM :LOG DATE  
API         .                                    17700407290000 :API NUMBER
UWI         .                                    17700407290000 :UNIQUE WELL ID
XCOORD      .                                  1446390.31791034 :SURFACE X 
YCOORD      .                                  10761453.0604348 :SURFACE Y 
LAT         .                                        29.6510516 :LATITUDE  
LON         .                                       -93.6110308 :LONGITUDE 
ELEV        .FT                                              99 :ELEVATION VALUE
ELEV_TYPE   .                                                KB :ELEVATION REFERENCE TYPE
~Curve Information Section
#MNEM       .UNIT                                      API CODE :CURVE DESCRIPTION
#------------------------------------------------------------------------------
DEPT        .FT                                                 :DEPTH     
CALX        .IN                                                 :          
CDL         .%                                                  :          
CILD        .MMHO                                               :          
CNS         .%                                                  :          
DRHO        .G/C3                                               :          
GR_NORM     .GAPI                                               :GammaRay Normalized
RILD        .OHMM                                               :          
RILM        .OHMM                                               :          
RLL         .OHMM                                               :          
SP          .MV                                                 :          
SP_NORM     .MV                                                 :SP Normalized
TENS        .LB                                                 :          
VSH_GR      .V/V                                                :Volume of Shale from GR
VSH_SP      .V/V                                                :Volume of Shale from SP
~A        DEPTH           CALX            CDL           CILD            CNS           DRHO        GR_NORM           RILD           RILM            RLL             SP        SP_NORM           TENS         VSH_GR         VSH_SP
# ...
      3032.0000        -999.25        -999.25        -999.25        52.6502        -999.25       38.21387        -999.25        -999.25        -999.25        -999.25        -999.25           1440      0.1109335        -999.25
      3032.5000        -999.25        -999.25        -999.25        51.2941        -999.25       50.39668        -999.25        -999.25        -999.25        -999.25        -999.25       1438.068      0.3701422        -999.25
      3033.0000        -999.25        -999.25        -999.25          49.98        -999.25       57.64186        -999.25        -999.25        -999.25        -999.25        -999.25       1435.236      0.5242949        -999.25
      3033.5000        -999.25        -999.25        -999.25          48.66        -999.25        66.9211        -999.25        -999.25        -999.25        -999.25        -999.25       1432.375      0.7217256        -999.25
      3034.0000        -999.25        -999.25        -999.25          50.46        -999.25       74.02686        -999.25        -999.25        -999.25        -999.25        -999.25        1449.85      0.8729118        -999.25
      3034.5000        -999.25        -999.25        -999.25          54.06        -999.25       76.30069        -999.25        -999.25        -999.25        -999.25        -999.25       1467.733      0.9212913        -999.25
      3035.0000          14.54        31.2453             50           56.7          0.091        76.5816        19.8933        19.8845         0.6381        -2.7125         3.0018       1445.144      0.9272681              1
      3035.5000          14.18        32.6038            250          55.68          0.089       74.58845         1.8714         2.1494         0.6711        -2.1782         3.5361       1442.904      0.8848606              1
      3036.0000        13.6667        32.4706            700        52.6471          0.084       72.02682         1.4593         1.3306         0.7852        -1.7461         3.9682       1420.664       0.830358              1
      3036.5000        13.1373          29.52           1216          48.72          0.079       70.31793         0.7254         0.7929         1.0767        -1.1224         4.5919           1420      0.7939985              1
      3037.0000        13.6078        25.7143           1456        44.5882          0.078       74.57784         0.6866         0.6735         1.4607        -0.6122         5.1021           1420      0.8846348              1
      3037.5000          14.12          23.16           1456        38.3529           0.09        80.2589         0.6801            0.7         1.4077         -0.102         5.6123           1440              1              1
      3038.0000           14.4          22.92           1376        32.3529            0.1       88.49802         0.7126         0.7384            0.9        -0.2045         5.5098           1440              1              1
      3038.5000           14.2        25.5306           1392        33.3589            0.1       91.05257         0.6611         0.7191         0.8827        -1.0169         4.6974           1440              1              1
      3039.0000        13.9608          27.54           1568        36.3911          0.068       89.62788         0.6078          0.687         0.8915        -1.7214         3.9929           1440              1              1
      3039.5000        13.8627          28.68       1866.667        38.6424         0.0353       85.07664         0.5291         0.6561         0.9087         -2.921         2.7933           1440              1              1
      3040.0000        13.8824          29.04       2116.667        39.8251         0.0245       79.67274          0.447         0.5995         0.9442        -4.2087         1.5056           1440       0.993037              1
      3040.5000           14.1          29.82       2445.554        40.1121         0.0216       74.87638         0.3783         0.5251         0.9276        -5.5085         0.2058       1438.068      0.8909868              1
      3041.0000             16        31.2259       2761.239         39.747         0.0255       69.02096         0.3578          0.461         0.9035        -6.4176        -0.7033       1455.395      0.7664034              1
      3041.5000        16.1192        33.7947        2949.85        39.4975         0.0294       67.06689         0.3416         0.4038         0.8391        -7.0145        -1.3002       1452.636      0.7248274              1
      3042.0000         16.519        36.2946        3089.71        40.6228         0.0314       63.99807         0.3292          0.389         0.7788        -7.2047        -1.4904        1449.85      0.6595335              1
      3042.5000          16.78        38.1765           3200        44.1176         0.0343       60.65072         0.3142         0.3819         0.7384        -7.2921        -1.5778       1447.406      0.5883132              1
      3043.0000        17.0392          40.56           3248        48.7059         0.0363       57.30322         0.3028         0.3854         0.7789        -7.2785        -1.5642       1445.144      0.5170898              1
      3043.5000        17.7451        42.9412           3360          51.36         0.0392       53.39848         0.2972         0.3963         0.8485        -7.4671        -1.7528       1442.904      0.4340102              1
      3044.0000         19.098        47.8235           3440          51.96         0.0402       49.77242         0.2944         0.3963         0.8402        -7.8612        -2.1469       1440.687      0.3568601              1
      3044.5000        19.3529          52.14           3552          52.62         0.0206       46.10176         0.2835          0.389         0.8239        -8.2653         -2.551           1420      0.2787609              1
      3045.0000        19.3725        59.9412           3632             54          0.001         42.119         0.2756         0.3783         0.8079        -8.4694        -2.7551           1440      0.1940213              1
      3045.5000        19.3725             63           3760        60.0588         -0.007       40.41008         0.2679         0.3578         0.7859        -8.5714        -2.8571           1460      0.1576613              1
      3046.0000        19.3725        62.1176           3920        61.4706         -0.007       41.25922         0.2532         0.3448         0.7652        -8.5714        -2.8571           1440      0.1757282              1
      3046.5000        19.3725          59.04           4048          63.42         0.0137       42.67684         0.2438         0.3261         0.7189        -8.5714        -2.8571           1440      0.2058902              1
      3047.0000        19.3725        55.7647           4112          64.44          0.052       44.94714         0.2415         0.3085         0.6481        -8.5714        -2.8571           1460      0.2541945              1
      3047.5000        19.3922          53.22           4176          65.28          0.071       48.07013         0.2415         0.3028         0.6058        -8.5714        -2.8571           1460       0.320641              1
      3048.0000        19.4118          51.36        4176.96          65.82          0.071        48.9082         0.2415         0.3085         0.6236        -8.5714        -2.8571           1460      0.3384722              1
      3048.5000        19.4326          52.92       4157.841          64.74          0.052       50.02409         0.2418         0.3147         0.7127        -8.4557        -2.7414           1460      0.3622147              1
      3049.0000        19.4545          52.74       4138.526          63.24         0.0333       49.74797         0.2424         0.3213         0.7812        -8.3282        -2.6139           1460      0.3563399              1
      3049.5000        19.4767          51.54       4086.622        61.6471         0.0078       48.62244         0.2477          0.322         0.8124        -8.3028        -2.5885           1460      0.3323923              1
