#------------------------------------------------------------------------------
# Created by    : vladimir.rabinovich
# Created on    : 09/19/2023 17:20:14
#------------------------------------------------------------------------------
~Version Information Section
VERS.           2.0     :   CWLS log ASCII Standard - VERSION 2.0
WRAP.           NO      :   One line per depth step
~Well Information Section
#MNEM       .UNIT                                         VALUE :DESCRIPTION
#------------------------------------------------------------------------------
STRT        .FT                                             920 :START DEPTH
STOP        .FT                                            7860 :STOP DEPTH
STEP        .FT                                             0.5 :STEP      
NULL        .                                           -999.25 :NULL      
COMP        .                               ARCO OIL & GAS CORP :COMPANY   
WELL        .                               OCS G10568 ST00BP00 :WELL      
FLD         .                                           WILDCAT :FIELD     
LOC         .                                                   :LOCATION  
CNTY        .                                 WEST CAMERON WEST :LOCATION  
STAT        .                                         LOUISIANA :STATE     
CTRY        .                                     UNITED STATES :COUNTRY   
SRVC        .                                                   :SERVICE COMPANY
DATE        .                             9/13/2023 11:18:15 AM :LOG DATE  
API         .                                    17701402460000 :API NUMBER
UWI         .                                    17701402460000 :UNIQUE WELL ID
XCOORD      .                                  1443937.81344993 :SURFACE X 
YCOORD      .                                  10680295.6485051 :SURFACE Y 
LAT         .                                        29.4277648 :LATITUDE  
LON         .                                       -93.6173961 :LONGITUDE 
ELEV        .FT                                             100 :ELEVATION VALUE
ELEV_TYPE   .                                                KB :ELEVATION REFERENCE TYPE
~Curve Information Section
#MNEM       .UNIT                                      API CODE :CURVE DESCRIPTION
#------------------------------------------------------------------------------
DEPT        .FT                                                 :DEPTH     
ASFL        .OHMM                                               :          
CALI        .IN                                                 :          
DPHI        .%                                                  :          
DRHO        .G/CC                                               :          
DT          .US/F                                               :          
GR          .GAPI                                               :          
GR_1        .GAPI                                               :          
GR_NORM     .GAPI                                               :GammaRay Normalized
ILD         .OHMM                                               :          
ILM         .OHMM                                               :          
NPHI        .%                                                  :          
RFOC        .OHMM                                               :          
SP          .MV                                                 :          
SP_NORM     .MV                                                 :SP Normalized
VSH_GR      .V/V                                                :Volume of Shale from GR
VSH_SP      .V/V                                                :Volume of Shale from SP
~A        DEPTH           ASFL           CALI           DPHI           DRHO             DT             GR           GR_1        GR_NORM            ILD            ILM           NPHI           RFOC             SP        SP_NORM         VSH_GR         VSH_SP
# ...
      4648.0000        -999.25        14.1423         28.442         0.0621       128.9158       113.4089       101.0294       86.23878         1.0305         1.0301        38.6053         1.2233       -49.4628     -0.7441025              1              1
      4648.5000        -999.25        14.2273        28.6981         0.0629       128.9824       112.8793       101.6641       86.87296         1.0464         1.0425        37.9833         1.2332       -49.4071     -0.6898651              1              1
      4649.0000        -999.25        14.3131        28.9739         0.0625       128.8945       111.5221       101.3761       86.58443          1.064         1.0617        37.9595         1.2582       -49.3846     -0.6688232              1              1
      4649.5000        -999.25        14.3869        29.1405         0.0594       128.6379       110.6553       100.4376       85.64541         1.0828         1.0869        38.3641         1.2901       -49.3843     -0.6699829              1              1
      4650.0000        -999.25         14.339        28.8914         0.0554        127.292       108.8962        99.1946       84.40189         1.1054         1.1128        38.6499         1.3232       -49.4062     -0.6933403              1              1
      4650.5000        -999.25        14.1543        28.6535         0.0556       124.0432       106.4222        97.5262       82.73296          1.126         1.1344        38.6854         1.3526       -49.4175     -0.7060966              1              1
      4651.0000        -999.25        14.0239        28.5473         0.0672       121.0797       104.2604        95.7688       80.97503         1.1367         1.1442        38.5516         1.3792       -49.4192      -0.709259              1              1
      4651.5000        -999.25        13.9648        28.5659         0.0779        119.314       103.1449        94.8003         80.006         1.1427          1.141        38.3633          1.394        -49.455     -0.7465172              1              1
      4652.0000        -999.25        13.9779        28.4872         0.0824       118.0277       104.6796        93.6962       78.90138         1.1278         1.1234        38.1635         1.3455       -49.5244     -0.8173752      0.9766251              1
      4652.5000        -999.25         14.046         28.336         0.0828       117.9131       108.4988        93.7164       78.92106         1.0991         1.1007        38.0775         1.2947       -49.5515      -0.845932      0.9770438              1
      4653.0000        -999.25        14.1368        28.2679         0.0905       119.5994       111.7834        93.5802       78.78433         1.0633         1.0715        38.4139         1.2546       -49.5531     -0.8489952      0.9741347              1
      4653.5000        -999.25        14.2028        28.5578         0.1089       122.0936       114.4263         93.415       78.61861         1.0267         1.0421         38.619         1.2215       -49.5692     -0.8665504      0.9706087              1
      4654.0000        -999.25        14.2417        28.9735         0.1204        124.077       115.9375        93.2704       78.47348         0.9949         1.0158        38.4083         1.1971       -49.5928      -0.891613      0.9675208              1
      4654.5000        -999.25        14.2097        29.0246         0.1091       125.4246       115.1536        93.5146       78.71716         0.9793         0.9992        38.2585         1.1872       -49.6006     -0.9008713      0.9727056              1
      4655.0000        -999.25         14.121        28.6642         0.0982        126.127       114.3984        96.5073       81.70934         0.9736         0.9933        38.6272         1.1867        -49.595     -0.8967323              1              1
      4655.5000        -999.25        14.0656        28.3362         0.0894       126.4899       113.8647        98.8962       84.09771         0.9744         0.9931        39.6265         1.1911       -49.5528     -0.8559875              1              1
      4656.0000        -999.25        14.0397        28.0694         0.0828        126.569       113.9019       100.3176       85.51858         0.9753          0.995        40.4201         1.2018       -49.4846     -0.7892494              1              1
      4656.5000        -999.25        14.0298        27.8235         0.0793       126.4474       114.0016       101.8661       87.06655         0.9754         0.9966        40.1251         1.2128       -49.3324     -0.6385078              1              1
      4657.0000        -999.25        14.0233        27.6038         0.0766       126.2979       114.1449       103.3777       88.57763         0.9754         0.9977        39.7458         1.2392       -49.1392     -0.4467659              1              1
      4657.5000        -999.25        14.0253        27.4756         0.0744       126.2782       113.0492       103.1566       88.35601         0.9697         0.9894        39.5723         1.2719       -48.9166     -0.2256241              1              1
      4658.0000        -999.25         14.031        27.5381         0.0724       126.4662       110.5734       101.1949       86.39378         0.9636         0.9756        39.6824         1.2932       -48.7522    -0.06268692              1              1
      4658.5000        -999.25        14.0325        27.8188         0.0706       127.0901       109.2118        100.549       85.74736         0.9415         0.9548        39.6896         1.2644       -48.5838      0.1042557              1              1
      4659.0000        -999.25        14.0331        28.4604         0.0737       128.0999       109.4352       100.1145       85.31233         0.9203         0.9336        39.5371         1.2144       -48.3837      0.3028946              1              1
      4659.5000        -999.25        14.0317        29.5042         0.0825       129.2637        109.777        96.7947         81.992         0.9002         0.9144        39.3278         1.1723       -48.2346      0.4505386              1              1
      4660.0000        -999.25        14.0358        30.3632         0.0878       130.3472       111.8212        93.9141       79.11089         0.8783         0.9021        39.1776         1.1448       -47.8898      0.7938766      0.9810827              1
      4660.5000        -999.25        14.0419        30.8391         0.0789       131.4009       115.2589        94.0747       79.27096          0.855         0.8908         39.239         1.1306       -47.5409       1.141319      0.9844885              1
      4661.0000        -999.25        14.0436        30.8161         0.0702       132.4238        118.158        95.3232       80.51893         0.8383         0.8803        39.5414         1.1389       -47.2943       1.386459              1              1
      4661.5000        -999.25        14.0493        30.2428         0.0632        132.866       119.4816        96.7234        81.9186         0.8254         0.8759        39.8713         1.1497       -47.1686       1.510704              1              1
      4662.0000        -999.25        14.0705        29.5712         0.0593       132.7791       116.5028        98.9121       84.10678         0.8146         0.8732        40.1871         1.1582       -47.3245       1.353344              1              1
      4662.5000        -999.25        14.1189         29.491         0.0597       131.9111       112.5604       100.5903       85.78446         0.8092         0.8742        40.4764         1.1641         -47.71      0.9663849              1              1
      4663.0000        -999.25        14.1094        29.5679         0.0625       130.8699       109.9812       101.9285       87.12213         0.8144         0.8758        40.7226         1.1671       -48.0958      0.5791283              1              1
      4663.5000        -999.25        14.0753        29.6481         0.0671       129.8569       111.6116       102.3805       87.57361         0.8243         0.8775        40.8983         1.1655       -48.3594       0.314064              1              1
