#------------------------------------------------------------------------------
# Created by    : vladimir.rabinovich
# Created on    : 09/19/2023 17:22:13
#------------------------------------------------------------------------------
~Version Information Section
VERS.           2.0     :   CWLS log ASCII Standard - VERSION 2.0
WRAP.           NO      :   One line per depth step
~Well Information Section
#MNEM       .UNIT                                         VALUE :DESCRIPTION
#------------------------------------------------------------------------------
STRT        .FT                                            4265 :START DEPTH
STOP        .FT                                           12768 :STOP DEPTH
STEP        .FT                                             0.5 :STEP      
NULL        .                                           -999.25 :NULL      
COMP        .                                SHELL OFFSHORE INC :COMPANY   
WELL        .                               OCS G04749 ST00BP02 :WELL      
FLD         .                                           WILDCAT :FIELD     
LOC         .                                                   :LOCATION  
CNTY        .                                      WEST CAMERON :LOCATION  
STAT        .                                         LOUISIANA :STATE     
CTRY        .                                     UNITED STATES :COUNTRY   
SRVC        .                                                   :SERVICE COMPANY
DATE        .                             9/13/2023 11:19:06 AM :LOG DATE  
API         .                                    17700406070000 :API NUMBER
UWI         .                                    17700406070000 :UNIQUE WELL ID
XCOORD      .                                   1486969.7252092 :SURFACE X 
YCOORD      .                                  10728694.6404599 :SURFACE Y 
LAT         .                                        29.5614647 :LATITUDE  
LON         .                                       -93.4828123 :LONGITUDE 
ELEV        .FT                                              98 :ELEVATION VALUE
ELEV_TYPE   .                                                KB :ELEVATION REFERENCE TYPE
~Curve Information Section
#MNEM       .UNIT                                      API CODE :CURVE DESCRIPTION
#------------------------------------------------------------------------------
DEPT        .FT                                                 :DEPTH     
CALI        .IN                                                 :          
DRHO        .G/C3                                               :          
DT          .US/F                                               :          
GR          .GAPI                                               :          
GR_1        .GAPI                                               :          
GR_NORM     .GAPI                                               :GammaRay Normalized
ILD         .OHMM                                               :          
ILM         .OHMM                                               :          
NPHI        .%                                                  :          
RHOB        .G/C3                                               :          
SFL         .OHMM                                               :          
SP          .MV                                                 :          
SP_NORM     .MV                                                 :SP Normalized
VSH_GR      .V/V                                                :Volume of Shale from GR
VSH_SP      .V/V                                                :Volume of Shale from SP
~A        DEPTH           CALI           DRHO             DT             GR           GR_1        GR_NORM            ILD            ILM           NPHI           RHOB            SFL             SP        SP_NORM         VSH_GR         VSH_SP
# ...
      7206.0000        14.3057         0.0252       119.8944        -999.25        60.1374         62.599         0.2975         0.3337         43.678         2.0069         0.4957       -39.6823       -11.1968      0.6297659      0.8954909
      7206.5000        13.0979         0.0403       121.3759        -999.25        65.2988        70.0913         0.3515         0.3878        45.0775         2.0732         0.5158        -31.498        -2.9372      0.7891766        0.98935
      7207.0000        12.4216         0.0477        121.882        -999.25        71.7319       79.43417         0.4176         0.4504        44.7084         2.1229         0.5555       -26.7289         1.9073       0.987961              1
      7207.5000        12.1873         0.0553       121.7567        -999.25        75.2528       84.53941         0.4915         0.5155         44.616         2.1796         0.5761       -24.2433         4.4683              1              1
      7208.0000        12.2352         0.0678       120.9794        -999.25        76.5095       86.35011         0.5651         0.5496        46.2695         2.2009         0.5832        -22.878         5.9089              1              1
      7208.5000         12.339         0.0578       119.3583        -999.25        77.3984       87.62576         0.6006         0.5632        49.1226         2.1853          0.587       -22.7038         6.1585              1              1
      7209.0000         12.411          0.043       117.5304        -999.25        78.5142       89.23144         0.6098          0.566        50.1621          2.168         0.5879       -23.3534         5.5843              1              1
      7209.5000        12.4387         0.0354       116.1022        -999.25        80.0327       91.42323         0.6098          0.564        49.1888         2.1611          0.605       -24.0958         4.9173              1              1
      7210.0000        12.4301         0.0345       115.5459        -999.25        79.9729       91.31828         0.6075         0.5588        47.0347         2.1676         0.6277       -24.6913         4.3971              1              1
      7210.5000        12.4008          0.038       116.2136        -999.25        76.7289       86.58014         0.6055         0.5554         46.029         2.1799         0.6498       -24.8583         4.3055              1              1
      7211.0000         12.379         0.0481       117.2397        -999.25        74.6543       83.54371         0.6061         0.5543        46.6363         2.1946         0.6479        -24.481         4.7582              1              1
      7211.5000        12.3605         0.0593       117.6149        -999.25        72.8466       80.89548          0.613         0.5552         48.126         2.2101         0.6417       -23.8425          5.472              1              1
      7212.0000        12.3107         0.0664       117.4044        -999.25        73.1421       81.30756         0.6199         0.5602        50.8002          2.202         0.6483       -23.1306         6.2593              1              1
      7212.5000        12.2596         0.0563       116.9209        -999.25        75.3875       84.55701           0.62         0.5676        53.0836         2.1844         0.6731       -22.5308         6.9345              1              1
      7213.0000        12.1864         0.0458       116.3145        -999.25        76.9141       86.76042         0.6177         0.5796        54.4305         2.1707         0.7112        -22.074         7.4666              1              1
      7213.5000        12.1331         0.0391       115.8729        -999.25        77.5219       87.62707         0.6123         0.5889        54.6199         2.1631         0.7433         -21.89          7.726              1              1
      7214.0000        12.1013         0.0345       115.8755        -999.25        78.8907       89.60087         0.6067         0.5877        53.0731         2.1559         0.7527       -21.9824          7.709              1              1
      7214.5000        12.1024         0.0294       117.0205        -999.25         82.803       95.27567         0.6025         0.5853        49.8021         2.1484           0.74       -21.3434         8.4233              1              1
      7215.0000        12.1265         0.0259       118.6516        -999.25         85.254       98.82426         0.6001         0.5831        48.2402          2.143         0.7115       -18.9215        10.9206              1              1
      7215.5000        12.1576         0.0302       120.1676        -999.25        83.6508       96.47362         0.6042         0.5842        48.6191         2.1369         0.6801       -16.7112        13.2063              1              1
      7216.0000        12.2108         0.0363       118.8621        -999.25        80.1748       90.07118         0.6108         0.5894        49.5526         2.1318          0.663       -15.1766        14.8162              1              1
      7216.5000        12.2672         0.0429       116.0432        -999.25        77.2076       86.24055         0.6199         0.5983        50.8438         2.1347         0.6649       -14.5574        15.5108              1              1
      7217.0000        12.4088         0.0485       113.5828        -999.25        75.1256       83.54792         0.6308         0.6077        51.0573         2.1644         0.7007        -14.622        15.5216              1              1
      7217.5000        12.5575         0.0528       112.2484        -999.25        73.9393       82.00699         0.6423         0.6257        48.4101         2.1914         0.7559       -14.1996        16.0193              1              1
      7218.0000        12.6791         0.0469       112.4402        -999.25        73.7389       81.73355         0.6552         0.6432        43.8073         2.2033         0.7857       -13.4448        16.8495              1              1
      7218.5000        12.7408         0.0324       113.7068        -999.25        73.7834       81.77493         0.6651         0.6594        41.2608         2.1936         0.7923        -14.573        15.7967              1              1
      7219.0000        12.7113         0.0178       114.3463        -999.25        74.2672       82.38128         0.6694         0.6654        40.1664         2.1808          0.791       -16.8506        13.5945              1              1
      7219.5000        12.6609         0.0217       114.0995        -999.25        75.2596       83.64139         0.6684         0.6688        41.3224          2.181         0.7872       -19.6608        10.8596              1              1
      7220.0000        12.6163         0.0299       113.3647        -999.25        75.2017       83.55114         0.6631          0.665        42.1898         2.1873         0.7756        -21.438         9.1578              1              1
      7220.5000        12.5977         0.0404       112.7628        -999.25        74.3826       82.48232          0.656         0.6603        42.4423          2.194         0.7524       -23.5314         7.1398              1              1
      7221.0000        12.5982           0.05       113.6052        -999.25        73.5671       81.41801         0.6473         0.6528        42.2634         2.1907         0.7287       -26.7083         4.0382              1              1
      7221.5000        12.6147         0.0462       116.7047        -999.25        74.7815       82.96369         0.6426         0.6485        41.9568         2.1846         0.7091       -25.4849          5.337              1              1
      7222.0000        12.6448           0.04       119.6401        -999.25         75.916       84.40652         0.6404         0.6476        41.1465         2.1781         0.7074        -25.133         5.7643              1              1
      7222.5000        12.6999         0.0383       117.8323        -999.25        72.2755       79.71011         0.6424         0.6549        40.2093         2.1796          0.736       -25.7407         5.2319      0.9938321              1
