#------------------------------------------------------------------------------
# Created by    : vladimir.rabinovich
# Created on    : 09/19/2023 17:22:11
#------------------------------------------------------------------------------
~Version Information Section
VERS.           2.0     :   CWLS log ASCII Standard - VERSION 2.0
WRAP.           NO      :   One line per depth step
~Well Information Section
#MNEM       .UNIT                                         VALUE :DESCRIPTION
#------------------------------------------------------------------------------
STRT        .FT                                             714 :START DEPTH
STOP        .FT                                            7955 :STOP DEPTH
STEP        .FT                                             0.5 :STEP      
NULL        .                                           -999.25 :NULL      
COMP        .                                ODECO OIL & GAS CO :COMPANY   
WELL        .                               OCS G04756 ST00BP00 :WELL      
FLD         .                           WEST CAMERON BLOCK 0165 :FIELD     
LOC         .                                                   :LOCATION  
CNTY        .                                      WEST CAMERON :LOCATION  
STAT        .                                         LOUISIANA :STATE     
CTRY        .                                     UNITED STATES :COUNTRY   
SRVC        .                                                   :SERVICE COMPANY
DATE        .                             9/13/2023 11:19:06 AM :LOG DATE  
API         .                                    17700406200000 :API NUMBER
UWI         .                                    17700406200000 :UNIQUE WELL ID
XCOORD      .                                  1451757.14487559 :SURFACE X 
YCOORD      .                                  10673474.8616073 :SURFACE Y 
LAT         .                                        29.4091131 :LATITUDE  
LON         .                                       -93.5927176 :LONGITUDE 
ELEV        .FT                                             113 :ELEVATION VALUE
ELEV_TYPE   .                                                KB :ELEVATION REFERENCE TYPE
~Curve Information Section
#MNEM       .UNIT                                      API CODE :CURVE DESCRIPTION
#------------------------------------------------------------------------------
DEPT        .FT                                                 :DEPTH     
CALI        .IN                                                 :          
CILD        .MMHO                                               :          
DRHO        .G/C3                                               :          
DT          .US/F                                               :          
GR          .GAPI                                               :          
GR_NORM     .GAPI                                               :GammaRay Normalized
ILD         .OHMM                                               :          
NPSS        .%                                                  :Neutron Porosity Sandstone
RFOC        .OHMM                                               :          
RHOB        .G/C3                                               :          
RILD        .OHMM                                               :          
RILM        .OHMM                                               :          
SN          .OHMM                                               :          
SP          .MV                                                 :          
SP_NORM     .MV                                                 :SP Normalized
VSH_GR      .V/V                                                :Volume of Shale from GR
VSH_SP      .V/V                                                :Volume of Shale from SP
~A        DEPTH           CALI           CILD           DRHO             DT             GR        GR_NORM            ILD           NPSS           RFOC           RHOB           RILD           RILM             SN             SP        SP_NORM         VSH_GR         VSH_SP
# ...
      3144.0000           10.8           1608         0.0692        -999.25           86.4       87.85819        -999.25          45.48         0.8402         2.1292         0.6278         0.6055        -999.25          -19.8        -4.3706              1      0.9736423
      3144.5000           10.8           1616         0.0592        -999.25             88       89.66696        -999.25           42.9         0.8402         2.1188         0.6278         0.6055        -999.25          -20.4        -4.9869              1      0.9617904
      3145.0000           10.8           1608         0.0572        -999.25           89.4       91.24921        -999.25          42.12         0.8239         2.1083         0.6278         0.6055        -999.25          -23.1        -7.7032              1      0.9095538
      3145.5000           10.8           1584         0.0532        -999.25             90       91.92491        -999.25          43.56            0.8         2.0942         0.6278         0.6055        -999.25          -23.1        -7.7196              1      0.9092385
      3146.0000           10.8           1560         0.0473        -999.25           88.6       90.33416        -999.25          43.68         0.8079         2.0798         0.6451         0.6278        -999.25          -20.4        -5.0359              1      0.9608481
      3146.5000           10.8           1512         0.0473        -999.25           86.2       87.61036        -999.25          39.06         0.8079          2.075          0.669         0.6451        -999.25          -18.9        -3.5522              1      0.9893808
      3147.0000           10.8           1472         0.0532        -999.25           83.2       84.20667        -999.25          37.08         0.8402         2.0846         0.6812         0.6629        -999.25          -19.2        -3.8685              1      0.9832981
      3147.5000           10.8           1440         0.0612        -999.25             81       81.70939        -999.25        35.9423         0.8739          2.101            0.7         0.6751        -999.25          -18.9        -3.5848              1      0.9887539
      3148.0000          10.82           1408         0.0716        -999.25        78.5185       78.89324        -999.25          36.66         0.9159         2.1417         0.7126         0.6937        -999.25          -19.5        -4.2012      0.9764519         0.9769
      3148.5000          10.82           1368         0.0872        -999.25        76.3195        76.3972        -999.25          40.68          0.957          2.205         0.7319         0.7063        -999.25            -21        -5.7175      0.9233447      0.9477404
      3149.0000          10.82           1352         0.1208        -999.25        74.8897       74.77281        -999.25          43.98         0.9826          2.206          0.745         0.7189        -999.25          -22.2        -6.9338      0.8887832        0.92435
      3149.5000          10.84           1336         0.1084        -999.25        75.4899       75.44863        -999.25          43.56         0.9404         2.1951          0.745         0.7126        -999.25          -21.9        -6.6501      0.9031624      0.9298058
      3150.0000           10.8           1320         0.0876        -999.25        76.6461        76.7546        -999.25          42.12         0.8825         2.1657         0.7517         0.7063        -999.25          -22.2        -6.9664       0.930949      0.9237231
      3150.5000        10.7794           1320         0.0672        -999.25        77.4074       77.61309        -999.25           38.4         0.8248         2.1458         0.7594         0.7009        -999.25          -23.1        -7.8827      0.9492147      0.9061019
      3151.0000        10.7983           1328         0.0632        -999.25         77.037       77.18906        -999.25          36.36         0.7746         2.1469         0.7475         0.7087        -999.25          -23.7        -8.4991      0.9401929      0.8942481
      3151.5000        10.7973           1352         0.0752        -999.25        75.3704       75.29633        -999.25        35.1923         0.7766         2.1539         0.7297         0.7168        -999.25          -25.2       -10.0154       0.899922      0.8650885
      3152.0000        10.7963           1384         0.0896        -999.25        70.5556       69.83615        -999.25          38.58         0.8837         2.1843         0.7183         0.7248        -999.25          -27.6       -12.4317      0.7837479      0.8186212
      3152.5000        10.7959           1392         0.0912        -999.25          63.75       62.11996        -999.25           43.8         1.0092          2.218         0.7063         0.7319        -999.25       -31.4706       -16.3186      0.6195737      0.7438731
      3153.0000        10.7959           1392         0.0812        -999.25        58.3673       56.01626        -999.25          46.14         1.0659          2.219            0.7         0.7384        -999.25       -33.5294       -18.3937      0.4897076      0.7039673
      3153.5000        10.7755           1360         0.0632        -999.25        57.1429       54.62461        -999.25          46.62          0.981         2.1804         0.7189          0.745        -999.25       -34.4118       -19.2925       0.460098      0.6866827
      3154.0000        10.7755           1328         0.0373        -999.25        59.1837       56.93287        -999.25          46.26         0.9174         2.0837          0.745         0.7517        -999.25       -32.6471       -17.5441      0.5092101      0.7203058
      3154.5000        10.7755           1304         0.0249        -999.25         64.375       62.81131        -999.25          44.46         0.8524          2.011          0.772         0.7584        -999.25          -27.6       -12.5133      0.6342831      0.8170519
      3155.0000        10.7959           1272         0.0213        -999.25        69.7917       68.94514        -999.25           40.2         0.8601           2.01         0.7929         0.7652        -999.25          -23.4        -8.3296      0.7647903      0.8975077
      3155.5000        10.7959           1264         0.0213        -999.25        73.1481       72.74433        -999.25        34.7885         0.8919         2.0702            0.8          0.772        -999.25            -21        -5.9459      0.8456241      0.9433481
      3156.0000        10.7959           1256         0.0373        -999.25        74.0741       73.78933        -999.25        33.0577         0.9174         2.1292         0.7929         0.7652        -999.25          -19.2        -4.1623      0.8678581      0.9776481
      3156.5000        10.7959           1280         0.0692        -999.25        73.7037       73.36542        -999.25        33.0577         0.9174         2.1784         0.7859         0.7584        -999.25            -18        -2.9786      0.8588387              1
      3157.0000        10.7959           1328         0.0876        -999.25        72.7778       72.31202        -999.25        33.2885         0.9174          2.234          0.772         0.7384        -999.25          -18.3        -3.2949       0.836426      0.9943289
      3157.5000        10.7959           1392         0.0752        -999.25        72.2222       71.67813        -999.25        33.5769         0.9352          2.228         0.7189            0.7        -999.25          -20.1        -5.1112       0.822939         0.9594
      3158.0000        10.7755           1496         0.0532        -999.25        72.2222       71.67393        -999.25        35.0769         0.9262          2.208         0.6671         0.6607        -999.25          -21.6        -6.6275      0.8228495      0.9302404
      3158.5000        10.7755           1592         0.0273        -999.25        71.0837       70.37962        -999.25          36.84         0.9087         2.1696         0.6117         0.6176        -999.25          -23.7        -8.7438       0.795311      0.8895423
