#------------------------------------------------------------------------------
# Created by    : vladimir.rabinovich
# Created on    : 09/19/2023 17:20:43
#------------------------------------------------------------------------------
~Version Information Section
VERS.           2.0     :   CWLS log ASCII Standard - VERSION 2.0
WRAP.           NO      :   One line per depth step
~Well Information Section
#MNEM       .UNIT                                         VALUE :DESCRIPTION
#------------------------------------------------------------------------------
STRT        .FT                                            2986 :START DEPTH
STOP        .FT                                           10006 :STOP DEPTH
STEP        .FT                                             0.5 :STEP      
NULL        .                                           -999.25 :NULL      
COMP        .                                        CONOCO INC :COMPANY   
WELL        .                                OCS 00764 ST00BP00 :WELL      
FLD         .                           WEST CAMERON BLOCK 0192 :FIELD     
LOC         .                                                   :LOCATION  
CNTY        .                                      WEST CAMERON :LOCATION  
STAT        .                                         LOUISIANA :STATE     
CTRY        .                                     UNITED STATES :COUNTRY   
SRVC        .                                                   :SERVICE COMPANY
DATE        .                             9/13/2023 11:18:18 AM :LOG DATE  
API         .                                    17700003670000 :API NUMBER
UWI         .                                    17700003670000 :UNIQUE WELL ID
XCOORD      .                                  1596137.97932418 :SURFACE X 
YCOORD      .                                  10614860.5046116 :SURFACE Y 
LAT         .                                         29.249106 :LATITUDE  
LON         .                                        -93.138896 :LONGITUDE 
ELEV        .FT                                              84 :ELEVATION VALUE
ELEV_TYPE   .                                                KB :ELEVATION REFERENCE TYPE
~Curve Information Section
#MNEM       .UNIT                                      API CODE :CURVE DESCRIPTION
#------------------------------------------------------------------------------
DEPT        .FT                                                 :DEPTH     
ASN         .OHMM                                               :          
CALI        .IN                                                 :          
CALI_1      .IN                                                 :          
DRHO        .G/C3                                               :          
DT          .US/F                                               :          
GR          .GAPI                                               :          
ILD         .OHMM                                               :          
RHOB        .G/C3                                               :          
SP          .MV                                                 :          
SP_NORM     .MV                                                 :SP Normalized
VSH_SP      .V/V                                                :Volume of Shale from SP
~A        DEPTH            ASN           CALI         CALI_1           DRHO             DT             GR            ILD           RHOB             SP        SP_NORM         VSH_SP
# ...
      9691.0000         1.0859        10.5903        11.8294         0.0701       109.0647        74.7814         0.8723         2.4145       -43.2691       -1.51086              1
      9691.5000         1.0865        10.6582        11.7811         0.0857       108.8895        76.8215         0.8718          2.429       -43.3965       -1.63826              1
      9692.0000         1.0837        10.9466        11.7561         0.0726       109.0314        78.5983         0.8715          2.436       -43.5287      -1.770462              1
      9692.5000         1.0783        11.1372        11.8537         0.0594       109.3069        79.1171         0.8677         2.4081        -43.616      -1.857761              1
      9693.0000         1.0752        11.1834        11.9242          0.059       109.9856        78.2031         0.8584         2.3895       -43.6028      -1.844559              1
      9693.5000          1.072        11.1744        11.9412         0.0699       110.9937         77.696         0.8491         2.3806       -43.5645      -1.806259              1
      9694.0000         1.0678        11.1584        11.9635         0.0808       112.4299        76.4402         0.8454         2.3733       -43.5065       -1.74826              1
      9694.5000         1.0629        11.1999          11.89         0.0718        111.592        76.1729         0.8436         2.3705       -43.4196      -1.661362              1
      9695.0000         1.0591        11.4871        11.7935         0.0553       110.6333        76.3528          0.842         2.3755       -43.3437      -1.585461              1
      9695.5000         1.0551        11.7915        11.7105           0.04       109.7375        75.9493         0.8417         2.3805       -43.2297      -1.471458              1
      9696.0000         1.0476        11.9834        11.6327          0.041       108.9528        77.4662         0.8407         2.3795       -43.0696      -1.311359              1
      9696.5000         1.0385        11.8249        11.5549         0.0358       108.8467        79.6084         0.8368         2.3829       -42.8929      -1.134659              1
      9697.0000         1.0281         11.699        11.5798         0.0287       110.1176        78.0027         0.8329         2.3923       -42.7977      -1.039459              1
      9697.5000         1.0204        11.6279        11.9753         0.0325        111.115         76.395         0.8292         2.4022       -42.7341     -0.9758606              1
      9698.0000         1.0131        11.6572        12.9084         0.0413       111.0627        74.7893         0.8255         2.4121       -42.7415     -0.9832611              1
      9698.5000         1.0073        11.7223        13.8446         0.0503       110.9001        73.4626         0.8228         2.3953       -42.7554     -0.9971619              1
      9699.0000         1.0021        11.8895        13.9218         0.0468        111.126        74.0712         0.8207         2.3901       -42.8163       -1.05806              1
      9699.5000         1.0028        12.1052        13.7965         0.0453       111.4934        75.2374         0.8161         2.3892       -42.8743      -1.116058              1
      9700.0000         1.0034        12.2391        13.5577         0.0518       112.0869        77.2244         0.8193         2.3854       -42.8845      -1.126259              1
      9700.5000         1.0024        12.3676        13.3597         0.0459       112.8217        76.5739         0.8175         2.3948       -42.9497       -1.19146              1
      9701.0000         1.0006        12.2438        13.1885         0.0659       112.4176        75.9528         0.8128         2.4059       -43.0072      -1.248959              1
      9701.5000         1.0012        12.0961        13.6798         0.0882       111.4181        76.6166         0.8162         2.4143       -43.0402       -1.28196              1
      9702.0000         1.0017         11.917        14.0149         0.1005       110.2928        76.3832         0.8173         2.4281       -43.0677       -1.30946              1
      9702.5000         1.0021        11.9789        13.7182         0.0939       109.5056        74.6438         0.8178         2.4271       -43.0256      -1.267361              1
      9703.0000         1.0025        12.0875        13.4391         0.0873        109.198        72.9418         0.8098          2.428         -42.92      -1.161758              1
      9703.5000          1.003        12.1647        13.3307         0.0911       109.5962        72.8258         0.8038         2.4201       -42.8204       -1.06216              1
      9704.0000         1.0034        12.1438        13.5324            0.1        110.389          72.02         0.7995         2.4259        -42.753     -0.9947586              1
      9704.5000         1.0039        12.1196        13.6608         0.0958       111.1787        72.9595         0.7981         2.4222       -42.7291     -0.9708595              1
      9705.0000         1.0044        12.0985         13.587         0.0838       111.9697        72.8494         0.7969         2.3996       -42.7548     -0.9965591              1
      9705.5000         1.0059         12.141         13.473          0.082        112.436        71.7803         0.8015         2.3973       -42.7799       -1.02166              1
      9706.0000         1.0077        12.1835        13.3501         0.0691       111.8314        71.9551         0.8063         2.3784       -42.7675      -1.009262              1
      9706.5000          1.008        11.9828        13.2381         0.0722       110.9183        73.7948         0.8133         2.3735       -42.6902     -0.9319611              1
      9707.0000          1.008        12.0067         13.314         0.0691       110.0238        74.7023         0.8196          2.377       -42.6247     -0.8664589              1
      9707.5000         1.0077        11.8546        13.2839         0.0535       110.0313        72.8553         0.8243         2.3727       -42.5896     -0.8313599              1
      9708.0000         1.0069        11.6573        13.2329         0.0379       110.5975        71.9977         0.8251          2.385       -42.5256     -0.7673607              1
      9708.5000         1.0057        11.7952        13.3064         0.0496        111.109        73.3231         0.8194         2.3969       -42.3976     -0.6393585              1
      9709.0000         1.0062        11.8823        13.2974         0.0424       111.2419        73.9402         0.8115         2.3763       -42.2519       -0.49366              1
      9709.5000         1.0074        11.8898         13.229         0.0352       111.1992        73.0126         0.8012         2.3557       -42.1664     -0.4081612              1
      9710.0000         1.0085        12.0458        13.3816         0.0434       111.1947        72.3325         0.7949         2.3618       -42.1354     -0.3771591              1
      9710.5000         1.0095        12.3033        13.6253          0.058       111.2139        75.0094         0.7908         2.3768       -42.1818     -0.4235611              1
      9711.0000          1.008        12.1529        13.7791         0.0726       111.7734        77.6863         0.7854         2.3845       -42.2293     -0.4710617              1
      9711.5000          1.006        12.0269        13.3939         0.0687       112.9679        76.6466           0.78         2.3859       -42.2437     -0.4854584              1
      9712.0000         1.0039        12.0087        13.4754         0.0631       113.5083        76.7959         0.7764          2.391       -42.2036     -0.4453621              1
      9712.5000         1.0017        11.9075        13.7334         0.0685       113.2689        78.3093         0.7729         2.3948        -42.141     -0.3827591              1
      9713.0000         0.9988        11.7802        13.4425         0.0672       112.9846        76.6171         0.7714         2.3837       -42.1147     -0.3564606              1
