#------------------------------------------------------------------------------
# Created by    : vladimir.rabinovich
# Created on    : 09/19/2023 17:21:07
#------------------------------------------------------------------------------
~Version Information Section
VERS.           2.0     :   CWLS log ASCII Standard - VERSION 2.0
WRAP.           NO      :   One line per depth step
~Well Information Section
#MNEM       .UNIT                                         VALUE :DESCRIPTION
#------------------------------------------------------------------------------
STRT        .FT                                            3895 :START DEPTH
STOP        .FT                                         10595.5 :STOP DEPTH
STEP        .FT                                             0.5 :STEP      
NULL        .                                           -999.25 :NULL      
COMP        .                               TALOS PETROLEUM LLC :COMPANY   
WELL        .                                OCS 00300 ST00BP00 :WELL      
FLD         .                           WEST CAMERON BLOCK 0045 :FIELD     
LOC         .                                                   :LOCATION  
CNTY        .                                      WEST CAMERON :LOCATION  
STAT        .                                         LOUISIANA :STATE     
CTRY        .                                     UNITED STATES :COUNTRY   
SRVC        .                                                   :SERVICE COMPANY
DATE        .                             9/13/2023 11:18:36 AM :LOG DATE  
API         .                                    17700410070000 :API NUMBER
UWI         .                                    17700410070000 :UNIQUE WELL ID
XCOORD      .                                  1453771.49108141 :SURFACE X 
YCOORD      .                                  10773222.7644816 :SURFACE Y 
LAT         .                                        29.6835328 :LATITUDE  
LON         .                                       -93.5879752 :LONGITUDE 
ELEV        .FT                                             100 :ELEVATION VALUE
ELEV_TYPE   .                                                KB :ELEVATION REFERENCE TYPE
~Curve Information Section
#MNEM       .UNIT                                      API CODE :CURVE DESCRIPTION
#------------------------------------------------------------------------------
DEPT        .FT                                                 :DEPTH     
ATR         .OHMM                                               :          
CATR        .MMHO                                               :          
DCAL        .IN                                                 :          
DRHB        .G/C3                                               :          
GR          .GAPI                                               :          
GR_NORM     .GAPI                                               :GammaRay Normalized
PSR         .OHMM                                               :          
RHOB        .G/C3                                               :          
ROP5        .F/HR                                               :          
TNPH        .%                                                  :          
VSH_GR      .V/V                                                :Volume of Shale from GR
~A        DEPTH            ATR           CATR           DCAL           DRHB             GR        GR_NORM            PSR           RHOB           ROP5           TNPH         VSH_GR
# ...
      7495.0000           0.28       3571.426           0.33           0.03          44.21       32.53742           0.29           2.22       461.8198             40              0
      7495.5000           0.31       3225.805           0.36           0.03          48.03       36.14491           0.32           2.25       461.8198             39     0.06691304
      7496.0000           0.34       2941.176           0.43           0.04        58.1899         45.746           0.26           2.27       461.8198             36      0.2711914
      7496.5000           0.44       2272.727           0.52           0.04        68.0699        55.0824           0.44           2.29       483.7598             40      0.4698383
      7497.0000            0.5           2000            0.6           0.05        76.2599       62.82111           0.46           2.34       474.2695             40      0.6344916
      7497.5000           0.63       1587.301           0.57           0.09          74.74       61.38054           0.77           2.39       391.6396             36      0.6038412
      7498.0000           0.69       1449.275           0.64            0.1          73.85       60.53545           1.06            2.3       295.1997             32      0.5858607
      7498.5000           0.72       1388.889           0.67           0.12        71.0399       57.87524           1.02            2.3       263.3398             29      0.5292605
      7499.0000           0.69       1449.275           0.71           0.08          70.83       57.67303            0.9           2.28       163.6699             29       0.524958
      7499.5000           0.59       1694.914           0.63           0.08          72.73       59.46555           0.89           2.29        84.5299             30      0.5630967
      7500.0000           0.53       1886.791           0.54           0.07           77.5       63.97118           0.64           2.23        77.9299             32      0.6589612
      7500.5000           0.41       2439.023           0.55            0.1        83.3899       69.53557           0.43            2.2        53.5699             35      0.7773525
      7501.0000           0.35       2857.141           0.49            0.1          87.61       73.52139           0.34           2.22        53.5699             36      0.8621573
      7501.5000            0.3       3333.332           0.43           0.08          88.62       74.47243           0.29            2.2          49.41             38       0.882392
      7502.0000           0.29       3448.273           0.47           0.06          86.47       72.43625           0.27           2.21          49.05             39      0.8390691
      7502.5000           0.28       3571.426            0.5           0.06        80.8099       67.08161           0.33           2.21          50.28             40      0.7251407
      7503.0000           0.25           4000           0.58           0.06        74.6799       61.28285           0.29           2.19          50.28             42      0.6017627
      7503.5000           0.21       4761.898           0.52           0.06          71.23       58.01773            0.2           2.15          50.14             42      0.5322922
      7504.0000            0.2           5000           0.52           0.06        71.7799       58.53392           0.22           2.13          55.22             41      0.5432749
      7504.5000           0.19       5263.156           0.51           0.06          73.75       60.39268           0.21           2.13        77.2599             39       0.582823
      7505.0000           0.18       5555.555           0.52           0.08        73.7699       60.40775           0.21           2.14          81.47             40      0.5831436
      7505.5000           0.18       5555.555           0.46           0.07        71.0499       57.83262           0.21           2.14       111.1399             39      0.5283537
      7506.0000           0.18       5555.555           0.35           0.07          71.22       57.98977            0.2           2.14       107.1899             38      0.5316972
      7506.5000           0.19       5263.156           0.26           0.04        74.4399       61.03004           0.19           2.13       121.6899             39      0.5963839
      7507.0000           0.19       5263.156           0.28           0.04        82.1399       68.30548            0.2           2.13       121.6899             39      0.7511805
      7507.5000           0.19       5263.156           0.33           0.03        85.5399       71.51608            0.2           2.14       129.5498             40      0.8194911
      7508.0000            0.2           5000           0.35           0.03        83.6499       69.72561            0.2           2.14       129.5498             40      0.7813959
      7508.5000            0.2           5000           0.31           0.03        78.8099       65.14633           0.21           2.14       140.6899             41      0.6839645
      7509.0000            0.2           5000            0.3           0.03           73.6       60.21743           0.21           2.13       147.6199             39      0.5790942
      7509.5000            0.2           5000           0.29           0.03          71.72       58.43636           0.21           2.13       147.6199             38      0.5411992
      7510.0000           0.19       5263.156           0.32           0.03        72.0699       58.76353            0.2           2.14         165.23             37      0.5481601
      7510.5000           0.19       5263.156            0.3           0.03        73.7999       60.39529            0.2           2.14       207.0498             39      0.5828785
      7511.0000           0.19       5263.156            0.3           0.02          75.95       62.42407            0.2           2.14       207.0498             38      0.6260441
      7511.5000           0.19       5263.156           0.27           0.02        73.7799        60.3689           0.19           2.14       272.9897             38      0.5823171
      7512.0000           0.19       5263.156           0.27           0.03        72.6599       59.30639           0.19           2.14            286             37      0.5597105
      7512.5000           0.19       5263.156           0.33           0.04        70.6599       57.41196            0.2           2.15            286             37      0.5194035
      7513.0000           0.19       5263.156           0.38           0.04          73.36       59.96085            0.2           2.16       287.0596             38       0.573635
      7513.5000           0.21       4761.898           0.41           0.04          74.25       60.79841           0.21           2.16       281.4199             39      0.5914556
      7514.0000           0.24       4166.664           0.42           0.03        75.2999       61.78728           0.26           2.17       261.0498             39      0.6124954
      7514.5000           0.23        4347.82           0.41           0.04        74.0699       60.62069           0.28           2.18       250.1599             39      0.5876741
      7515.0000           0.21       4761.898           0.44           0.04        73.6299       60.20104           0.22           2.16       250.1599             39      0.5787456
      7515.5000           0.21       4761.898           0.47           0.04          73.86       60.41485           0.21           2.14         227.96             38      0.5832946
      7516.0000           0.21       4761.898            0.5           0.03        73.8199       60.37325           0.22           2.13       230.9099             37      0.5824096
      7516.5000            0.2           5000           0.54           0.04        72.3899       59.01764           0.21           2.13       230.9099             36      0.5535667
      7517.0000            0.2           5000           0.61           0.05        71.6699        58.3333            0.2           2.12         216.99             37      0.5390064
