#------------------------------------------------------------------------------
# Created by    : vladimir.rabinovich
# Created on    : 09/19/2023 17:22:07
#------------------------------------------------------------------------------
~Version Information Section
VERS.           2.0     :   CWLS log ASCII Standard - VERSION 2.0
WRAP.           NO      :   One line per depth step
~Well Information Section
#MNEM       .UNIT                                         VALUE :DESCRIPTION
#------------------------------------------------------------------------------
STRT        .FT                                            4421 :START DEPTH
STOP        .FT                                           11895 :STOP DEPTH
STEP        .FT                                             0.5 :STEP      
NULL        .                                           -999.25 :NULL      
COMP        .                MURPHY EXPLORATION & PRODUCTION CO :COMPANY   
WELL        .                               OCS G02828 ST00BP00 :WELL      
FLD         .                           WEST CAMERON BLOCK 0116 :FIELD     
LOC         .                                                   :LOCATION  
CNTY        .                                      WEST CAMERON :LOCATION  
STAT        .                                         LOUISIANA :STATE     
CTRY        .                                     UNITED STATES :COUNTRY   
SRVC        .                                                   :SERVICE COMPANY
DATE        .                             9/13/2023 11:18:31 AM :LOG DATE  
API         .                                    17700404120000 :API NUMBER
UWI         .                                    17700404120000 :UNIQUE WELL ID
XCOORD      .                                  1472413.58592246 :SURFACE X 
YCOORD      .                                  10706677.6123634 :SURFACE Y 
LAT         .                                         29.500724 :LATITUDE  
LON         .                                        -93.528296 :LONGITUDE 
ELEV        .FT                                              75 :ELEVATION VALUE
ELEV_TYPE   .                                                KB :ELEVATION REFERENCE TYPE
~Curve Information Section
#MNEM       .UNIT                                      API CODE :CURVE DESCRIPTION
#------------------------------------------------------------------------------
DEPT        .FT                                                 :DEPTH     
CALI        .IN                                                 :          
DRHO        .G/C3                                               :          
DT          .US/F                                               :          
GR          .GAPI                                               :          
GR_1        .GAPI                                               :          
GR_NORM     .GAPI                                               :GammaRay Normalized
ILD         .OHMM                                               :          
NPHI        .%                                                  :          
RHOB        .G/C3                                               :          
SFL         .OHMM                                               :          
SP          .MV                                                 :          
SP_NORM     .MV                                                 :SP Normalized
VSH_GR      .V/V                                                :Volume of Shale from GR
VSH_SP      .V/V                                                :Volume of Shale from SP
~A        DEPTH           CALI           DRHO             DT             GR           GR_1        GR_NORM            ILD           NPHI           RHOB            SFL             SP        SP_NORM         VSH_GR         VSH_SP
# ...
      7463.0000        10.4609         0.0038        95.4822        60.1695        -999.25       58.55978         0.6042        34.6429         2.2352         1.2355       -60.0807        -14.427       0.543825      0.8587841
      7463.5000        10.6643              0       100.9202        60.3362        -999.25       58.76837         0.5957        36.5069          2.244         1.1801       -60.3788       -14.7446      0.5482631       0.855175
      7464.0000        10.5421        -0.0023       106.3583        60.7275        -999.25       59.25898         0.5578        37.1195         2.2279         0.9736       -63.1754       -17.5607      0.5587017      0.8231739
      7464.5000        10.2276        -0.0051       109.1539        61.9667        -999.25       60.81435         0.4801        36.3179         2.1855         0.8033       -78.0272       -32.4319      0.5917948       0.654183
      7465.0000        10.1337        -0.0123       109.6914        62.5411        -999.25        61.5349         0.4062        35.2736         2.1647         0.7058        -92.879       -47.3032      0.6071256      0.4851909
      7465.5000        10.1154        -0.0091       109.3408         62.268        -999.25       61.19121         0.3438        34.2678         2.1579         0.7216      -107.7162       -62.1599       0.599813      0.3163648
      7466.0000        10.1072        -0.0043       108.0574         61.232        -999.25        59.8895         0.2909        33.8284         2.1703         0.7065      -117.6884       -72.1515       0.572117      0.2028239
      7466.5000        10.0983          0.001       106.2749        61.3404        -999.25       60.02475         0.2461        34.0532          2.185         0.6156      -123.4045       -77.8871      0.5749947      0.1376466
      7467.0000        10.0825         0.0067       104.2301        62.0316        -999.25       60.89196         0.2082        34.1768          2.194         0.5164      -124.9584       -79.4605      0.5934459       0.119767
      7467.5000        10.0732          0.013       102.6598        62.8472        -999.25        61.9154         0.1773        34.2632         2.2056         0.4744      -125.5704       -80.0919      0.6152213       0.112592
      7468.0000        10.0842         0.0323       101.6803        63.4626        -999.25       62.68744         0.1639        34.4535         2.2536         0.4338       -123.155        -77.696      0.6316475      0.1398182
      7468.5000        10.1455         0.0273       101.2502        64.0314        -999.25       63.40096         0.1678        34.8519         2.2741          0.378      -115.8466       -70.4071      0.6468288      0.2226466
      7469.0000        10.2397         0.0233       101.5154        64.1638        -999.25       63.56645         0.1818        36.2219         2.2736         0.3413      -102.1835       -56.7634        0.65035      0.3776886
      7469.5000        10.3357         0.0145       101.9304        63.6175        -999.25       62.87969         0.2234        37.8111         2.2643         0.3964       -88.5204       -43.1198      0.6357381      0.5327296
      7470.0000        10.4316        -0.0025       103.4799        62.2214        -999.25       61.12578         0.2821        39.4003          2.236         0.4835       -78.3281       -32.9469      0.5984209      0.6483307
      7470.5000        10.4995        -0.0147       108.6433        58.8954        -999.25        56.9484         0.3562        40.0768          2.191         0.5515       -77.6511       -32.2894      0.5095405      0.6558023
      7471.0000        10.4459        -0.0165       113.8705        54.4673        -999.25       51.38707         0.4477        38.2734         2.1637         0.5579       -83.4866       -38.1444      0.3912142      0.5892681
      7471.5000        10.3113        -0.0176       115.0873         53.255        -999.25       49.86396         0.4949         35.603         2.1538          0.647       -93.2019       -47.8791      0.3588077      0.4786466
      7472.0000        10.1537        -0.0176       113.3115        52.9797        -999.25       49.51751         0.4908        34.1201         2.1525          0.911      -102.9319       -57.6286      0.3514364      0.3678568
      7472.5000          10.05        -0.0071        110.134        53.1472        -999.25       49.72709         0.4744        33.4843         2.1566         0.9646      -112.6472       -67.3634      0.3558955      0.2572341
      7473.0000        10.0645         -0.002       116.7931        54.4135        -999.25       51.31649         0.3951        32.9976         2.1628         0.8866      -121.4894        -76.225      0.3897125      0.1565341
      7473.5000        10.1039        -0.0009       124.5603        56.8798        -999.25       54.41279         0.3281        32.5256         2.1691         0.6697      -125.9728       -80.7279      0.4555913      0.1053648
      7474.0000        10.1432         0.0002       139.8396        58.6334        -999.25       56.61413         0.2722        32.4141         2.1753         0.5912      -128.5117       -83.2863      0.5024282     0.07629204
      7474.5000        10.1834         0.0013        151.824         59.989        -999.25       58.31567         0.2257        33.2088         2.1819         0.5683      -130.5571       -85.3511      0.5386313     0.05282844
      7475.0000        10.2208         0.0027       152.9812         60.173        -999.25       58.54597        -999.25        34.0034           2.19         0.5621      -131.0835        -85.897      0.5435313     0.04662496
      7475.5000        10.2553         0.0045       138.5845        59.7258        -999.25       57.98364        -999.25        35.1274         2.2015          0.561      -130.2983       -85.1312      0.5315668     0.05532724
      7476.0000        10.2878         0.0066       121.6378        58.7142        -999.25       56.71257        -999.25        35.3867          2.214         0.5379      -129.4297       -84.2821      0.5045227     0.06497617
      7476.5000        10.3153         0.0103       101.3959        57.3568        -999.25       55.00727        -999.25        35.2223         2.2297         0.5116      -129.2058       -84.0777      0.4682397     0.06729889
      7477.0000        10.3271         0.0166        75.4561        57.1181        -999.25       54.70676        -999.25        34.8734         2.2476          0.475      -129.2888       -84.1801      0.4618461     0.06613524
      7477.5000        10.3231         0.0301         89.392        57.0012        -999.25       54.55922        -999.25        34.2338          2.289         0.4356      -128.6694       -83.5802      0.4587067     0.07295227
      7478.0000         10.338         0.0431       114.2628        56.8201        -999.25       54.33105        -999.25        32.2502         2.3955         0.3917      -125.6353       -80.5656      0.4538521      0.1072091
      7478.5000        10.3889         0.0458       136.5935        56.6938        -999.25       54.17169        -999.25        28.4691         2.4743         0.3577      -121.1371       -76.0868      0.4504614      0.1581046
      7479.0000        10.4955         0.0352       138.3159        57.2949        -999.25       54.92564        -999.25        26.5963         2.4227         0.4264      -110.8715       -65.8407       0.466503      0.2745375
      7479.5000        10.5843         0.0233       136.0149        58.4656        -999.25         56.395          0.297        28.1781         2.3778         0.5323       -98.6466       -53.6353      0.4977659      0.4132352
      7480.0000        10.7218         0.0012       110.7715        58.6487        -999.25       56.62417         0.4268        29.5266         2.3538         1.2354       -87.1188       -42.1269      0.5026419      0.5440125
      7480.5000        10.7909         0.0026       100.7854        57.9648        -999.25       55.76461         0.6313        29.6596         2.3875           1.37       -81.9786       -37.0062      0.4843534      0.6022023
