#------------------------------------------------------------------------------
# Created by    : vladimir.rabinovich
# Created on    : 09/19/2023 17:19:36
#------------------------------------------------------------------------------
~Version Information Section
VERS.           2.0     :   CWLS log ASCII Standard - VERSION 2.0
WRAP.           NO      :   One line per depth step
~Well Information Section
#MNEM       .UNIT                                         VALUE :DESCRIPTION
#------------------------------------------------------------------------------
STRT        .FT                                          2840.5 :START DEPTH
STOP        .FT                                            9365 :STOP DEPTH
STEP        .FT                                             0.5 :STEP      
NULL        .                                           -999.25 :NULL      
COMP        .                              MCMORAN OIL & GAS CO :COMPANY   
WELL        .                                OCS 00757 ST00BP00 :WELL      
FLD         .                           WEST CAMERON BLOCK 0118 :FIELD     
LOC         .                                                   :LOCATION  
CNTY        .                                      WEST CAMERON :LOCATION  
STAT        .                                         LOUISIANA :STATE     
CTRY        .                                     UNITED STATES :COUNTRY   
SRVC        .                                                   :SERVICE COMPANY
DATE        .                             9/13/2023 11:18:49 AM :LOG DATE  
API         .                                    17700410710000 :API NUMBER
UWI         .                                    17700410710000 :UNIQUE WELL ID
XCOORD      .                                  1441592.04714169 :SURFACE X 
YCOORD      .                                  10704369.2355959 :SURFACE Y 
LAT         .                                        29.4939537 :LATITUDE  
LON         .                                       -93.6251728 :LONGITUDE 
ELEV        .FT                                              90 :ELEVATION VALUE
ELEV_TYPE   .                                                KB :ELEVATION REFERENCE TYPE
~Curve Information Section
#MNEM       .UNIT                                      API CODE :CURVE DESCRIPTION
#------------------------------------------------------------------------------
DEPT        .FT                                                 :DEPTH     
AHT10       .OHMM                                               :          
AHT20       .OHMM                                               :          
AHT30       .OHMM                                               :          
AHT60       .OHMM                                               :          
AHT90       .OHMM                                               :          
AHTCO90     .MMHO                                               :          
DPHZ        .DEC                                                :          
GR          .GAPI                                               :          
GR_NORM     .GAPI                                               :GammaRay Normalized
HCAL        .IN                                                 :          
HDRA        .G/CC                                               :          
HMIN        .OHMM                                               :          
HMNO        .OHMM                                               :          
NPOR        .DEC                                                :          
RHOZ        .G/CC                                               :          
RWA         .OHMM                                               :          
TENS        .LB                                                 :          
VSH_GR      .V/V                                                :Volume of Shale from GR
~A        DEPTH          AHT10          AHT20          AHT30          AHT60          AHT90        AHTCO90           DPHZ             GR        GR_NORM           HCAL           HDRA           HMIN           HMNO           NPOR           RHOZ            RWA           TENS         VSH_GR
# ...
      8076.5000         2.4971         1.7947         1.6046         1.6517         1.5726        635.897         0.3292        65.4926       61.51709        10.4365        -0.0073          1.885          2.001         0.3375          2.107         0.2326           3596      0.6067467
      8077.0000         2.4028          1.716          1.548         1.6484         1.5789        633.347         0.3343          60.88       56.50615        10.3419        -0.0082          1.926          2.047         0.3443          2.098         0.2415           3534      0.5001308
      8077.5000         2.2937         1.5893         1.4225         1.5198         1.4684        681.007         0.3331        59.6007       55.11878        10.2236        -0.0081          1.853          2.013         0.3085            2.1         0.2228           3494      0.4706124
      8078.0000         1.9715         1.4364         1.2655         1.3222         1.2875        776.677          0.328        62.8573       58.66293           10.2        -0.0056          1.774          1.962          0.312          2.109          0.189           3523      0.5460197
      8078.5000         1.4805         1.1688          1.066         1.1533         1.1305        884.589         0.3136        68.9177       65.25505        10.3656         -0.005          1.836          1.998         0.3067          2.133         0.1506           3586      0.6862777
      8079.0000         1.3039         0.9805         0.8937         0.8977         0.8842       1131.022         0.2836        72.7129       69.38467        10.5311        -0.0031            1.9          1.962         0.2888          2.182         0.0949           3631       0.774142
      8079.5000          1.562         1.0927         1.0014         0.9931         0.9779       1022.629           0.25        70.8931        67.4098        10.6494        -0.0019          1.387          1.277         0.3037          2.238         0.0801           3679      0.7321234
      8080.0000         2.0528         1.3809         1.0888         0.9833         0.9706       1030.238         0.2382         67.768       64.01582        10.6967         -0.001          1.236          1.125         0.3417          2.257         0.0716           3649      0.6599112
      8080.5000         2.1944         1.3834         1.1713         1.1159         1.0969        911.664         0.2581        61.0962       56.76605         10.886          0.001           1.78          1.714         0.3581          2.224         0.0962           3631      0.5056607
      8081.0000         1.9226         1.1717          1.024          0.973          0.958       1043.838         0.2913        59.1631       54.66811        10.5075         -0.002          1.695          1.846         0.3392          2.169          0.109           3657      0.4610237
      8081.5000         1.4596         0.9657         0.8727         0.8282         0.8166       1224.623         0.3093        60.5853       56.21783         10.401        -0.0027          1.658          1.782         0.3279           2.14         0.1057           3576      0.4939965
      8082.0000         1.1286         0.8006         0.7404         0.7026         0.6934       1442.246         0.2968        65.5798       61.65117        10.4365        -0.0037          1.533           1.48         0.3371           2.16         0.0821           3546      0.6095994
      8082.5000         0.9781         0.7175         0.6617         0.6228         0.6147       1626.833         0.2683        68.0144       64.30153        10.5311        -0.0002          1.313          1.185         0.3141          2.207         0.0586           3596        0.66599
      8083.0000          0.875         0.6719         0.6019         0.5644         0.5572       1794.666         0.2461        68.4792       64.81046        10.6258         0.0013          1.391          1.267         0.3022          2.244         0.0441           3595      0.6768184
      8083.5000         0.7674         0.6072         0.5643         0.5239         0.5167       1935.182         0.2323        68.9722       65.34998        10.6494         0.0033          1.437          1.311         0.3161          2.267         0.0361           3650      0.6882975
      8084.0000         0.6984         0.5499         0.5305         0.4882         0.4812       2078.186         0.2335        70.3116       66.80968        10.6258         0.0049          1.209          1.093         0.3075          2.265          0.034           3604       0.719355
      8084.5000         0.6847         0.5317         0.5198         0.4716          0.464       2155.403         0.2428        70.0862        66.5682        11.1225         0.0058          1.367           1.25         0.2856          2.249         0.0357           3596       0.714217
      8085.0000          0.711         0.5467         0.5305         0.4782         0.4694       2130.304         0.2571        70.8512       67.40356        10.8268         0.0033          1.442          1.353         0.2786          2.226         0.0408           3616      0.7319906
      8085.5000         0.7486         0.5747         0.5517         0.4991         0.4894       2043.394         0.2603        75.9841       72.98737        10.5311         0.0008          1.325          1.232         0.2869           2.22         0.0437           3608      0.8507951
      8086.0000         0.7844           0.61         0.5811         0.5264         0.5148       1942.551         0.2426        74.5321       71.41245         10.543          0.003          1.173          1.087         0.2908           2.25         0.0395           3615      0.8172861
      8086.5000         0.8227         0.6477         0.6124         0.5441         0.5313       1882.171         0.2265        75.4433       72.40655        10.7204         0.0041          1.168          1.051         0.2987          2.276         0.0352           3624      0.8384372
      8087.0000         0.8311         0.6656         0.6376         0.5826         0.5672       1763.131         0.2083        69.9299       66.41613        11.0161         0.0103          1.297          1.146         0.2811          2.306         0.0314           3657      0.7109815
      8087.5000         0.8163         0.6707         0.6479         0.6049         0.5881       1700.531         0.1895        76.0102       73.02998        11.2172         0.0226          1.036          0.933         0.2913          2.337         0.0265           3648      0.8517018
      8088.0000         0.7952         0.6717         0.6508         0.6235         0.6052       1652.316         0.1775        75.2918       72.25259        11.8795         0.0288          0.955          0.848         0.3112          2.357         0.0237           3678      0.8351616
      8088.5000         0.7628         0.6707         0.6602         0.6381         0.6185       1616.791         0.1809         79.027       76.31683        11.4301         0.0259          0.778          0.689         0.3023          2.351         0.0253           3654      0.9216347
      8089.0000         0.7405         0.6681         0.6643         0.6523         0.6311         1584.6         0.1859        81.1358       78.61307        12.0924         0.0269          0.674          0.597         0.3233          2.343         0.0273           3671      0.9704908
      8089.5000         0.7368         0.6758         0.6858         0.6742         0.6511       1535.847         0.1805        80.1042       77.49518        11.7376         0.0355          0.649          0.575         0.3185          2.352         0.0265           3648      0.9467059
      8090.0000         0.7436         0.7021         0.7011         0.6925         0.6671       1499.131         0.1702         79.219        76.5363        12.4472         0.0455          0.654          0.579         0.2973          2.369         0.0239           3577      0.9263043
