#------------------------------------------------------------------------------
# Created by    : vladimir.rabinovich
# Created on    : 09/19/2023 17:22:32
#------------------------------------------------------------------------------
~Version Information Section
VERS.           2.0     :   CWLS log ASCII Standard - VERSION 2.0
WRAP.           NO      :   One line per depth step
~Well Information Section
#MNEM       .UNIT                                         VALUE :DESCRIPTION
#------------------------------------------------------------------------------
STRT        .FT                                            2450 :START DEPTH
STOP        .FT                                            9560 :STOP DEPTH
STEP        .FT                                             0.5 :STEP      
NULL        .                                           -999.25 :NULL      
COMP        .                               TALOS PETROLEUM LLC :COMPANY   
WELL        .                                OCS 00301 ST00BP00 :WELL      
FLD         .                           WEST CAMERON BLOCK 0045 :FIELD     
LOC         .                                                   :LOCATION  
CNTY        .                                      WEST CAMERON :LOCATION  
STAT        .                                         LOUISIANA :STATE     
CTRY        .                                     UNITED STATES :COUNTRY   
SRVC        .                                                   :SERVICE COMPANY
DATE        .                             9/13/2023 11:18:49 AM :LOG DATE  
API         .                                    17700410870000 :API NUMBER
UWI         .                                    17700410870000 :UNIQUE WELL ID
XCOORD      .                                  1447194.98921956 :SURFACE X 
YCOORD      .                                  10757079.9124673 :SURFACE Y 
LAT         .                                        29.6390336 :LATITUDE  
LON         .                                       -93.6084245 :LONGITUDE 
ELEV        .FT                                              96 :ELEVATION VALUE
ELEV_TYPE   .                                                KB :ELEVATION REFERENCE TYPE
~Curve Information Section
#MNEM       .UNIT                                      API CODE :CURVE DESCRIPTION
#------------------------------------------------------------------------------
DEPT        .FT                                                 :DEPTH     
CNC         .%                                                  :          
DCAL        .IN                                                 :          
GR          .GAPI                                               :          
GR_NORM     .GAPI                                               :GammaRay Normalized
M0C6        .MMHO                                               :          
M2R1        .OHMM                                               :          
M2R2        .OHMM                                               :          
M2R3        .OHMM                                               :          
M2R6        .OHMM                                               :          
M2R9        .OHMM                                               :          
M2RX        .OHMM                                               :          
SP          .MV                                                 :          
SP_NORM     .MV                                                 :SP Normalized
TEN         .LB/F                                               :          
VSH_GR      .V/V                                                :Volume of Shale from GR
VSH_SP      .V/V                                                :Volume of Shale from SP
ZCOR        .G/CC                                               :          
ZDEN        .G/CC                                               :          
~A        DEPTH            CNC           DCAL             GR        GR_NORM           M0C6           M2R1           M2R2           M2R3           M2R6           M2R9           M2RX             SP        SP_NORM            TEN         VSH_GR         VSH_SP           ZCOR           ZDEN
      2450.0000         79.029          0.236         41.372       85.30209        -999.25        -999.25        -999.25        -999.25        -999.25        -999.25        -999.25       -106.638     -0.4397704            -11              1              1         -0.735          1.803
      2450.5000         83.483          0.235         42.703       85.86396        -999.25        -999.25        -999.25        -999.25        -999.25        -999.25        -999.25       -106.429       1.288914        -15.526              1              1         -0.731           1.76
      2451.0000         85.248          0.235         43.545       84.59695        -999.25        -999.25        -999.25        -999.25        -999.25        -999.25        -999.25       -106.395       2.318503        -20.254              1              1         -0.759          1.699
      2451.5000         83.011          0.235         44.474       84.14465        -999.25        -999.25        -999.25        -999.25        -999.25        -999.25        -999.25       -106.187       2.774416        -17.362              1              1         -0.746          1.732
      2452.0000         76.662          0.235          45.52       75.55623        -999.25        -999.25        -999.25        -999.25        -999.25        -999.25        -999.25       -105.644       2.637378        -12.541      0.9054517              1         -0.733           1.78
      2452.5000         74.024          0.236         46.541       77.46255        -999.25        -999.25        -999.25        -999.25        -999.25        -999.25        -999.25       -104.835       1.192003        -11.053      0.9460118              1         -0.716          1.804
      2453.0000         78.866          0.237           47.3       85.35396        -999.25        -999.25        -999.25        -999.25        -999.25        -999.25        -999.25       -103.877     -0.9034557         -6.086              1              1         -0.701           1.82
      2453.5000         79.024          0.237         47.337       85.80065        -999.25        -999.25        -999.25        -999.25        -999.25        -999.25        -999.25        -102.97      0.4760783          1.667              1              1           -0.7          1.832
      2454.0000         73.989          0.236         47.111       79.16158        -999.25        -999.25        -999.25        -999.25        -999.25        -999.25        -999.25       -102.366      0.5575037         -2.736      0.9821612              1          -0.69          1.856
      2454.5000         76.485          0.235         47.286       78.27577        -999.25        -999.25        -999.25        -999.25        -999.25        -999.25        -999.25        -102.13     -0.6747264        -16.668      0.9633143              1          -0.68          1.866
      2455.0000         79.502          0.235          47.52        86.4361        -999.25        -999.25        -999.25        -999.25        -999.25        -999.25        -999.25       -102.036       2.590999        -25.169              1              1         -0.676           1.86
      2455.5000         73.885          0.235         46.587        85.0465        -999.25        -999.25        -999.25        -999.25        -999.25        -999.25        -999.25       -101.891       1.914451        -29.274              1              1         -0.683          1.853
      2456.0000         70.476          0.235         44.354       81.08034        -999.25        -999.25        -999.25        -999.25        -999.25        -999.25        -999.25       -101.688     -0.9822301         -32.44              1              1         -0.653          1.888
      2456.5000          75.75          0.235           41.8       85.59887        -999.25        -999.25        -999.25        -999.25        -999.25        -999.25        -999.25       -101.419        3.68722        -33.521              1              1         -0.611          1.886
      2457.0000         86.413          0.234         39.444       76.07902        -999.25        -999.25        -999.25        -999.25        -999.25        -999.25        -999.25       -100.992     -0.9569933         -34.19      0.9165748              1         -0.579          1.895
      2457.5000         92.782          0.234         36.782       83.99136        -999.25        -999.25        -999.25        -999.25        -999.25        -999.25        -999.25       -100.328        1.01934        -36.889              1              1         -0.587          1.864
      2458.0000         90.719          0.236          34.46       75.60125        -999.25        -999.25        -999.25        -999.25        -999.25        -999.25        -999.25        -99.524     -0.3661847        -35.272      0.9064096              1         -0.599          1.842
      2458.5000          84.28          0.237         34.188       84.11247        -999.25        -999.25        -999.25        -999.25        -999.25        -999.25        -999.25        -98.917       1.902155        -25.293              1              1          -0.63          1.825
      2459.0000         75.094          0.237         35.511       75.07157        -999.25        -999.25        -999.25        -999.25        -999.25        -999.25        -999.25        -98.719     -0.4487509        -21.086      0.8951398              1         -0.688          1.773
      2459.5000         67.749          0.237         37.438        77.8171        -999.25        -999.25        -999.25        -999.25        -999.25        -999.25        -999.25        -98.645       1.433538        -20.672      0.9535553              1         -0.699          1.801
      2460.0000         65.627          0.238         39.671       75.48306        -999.25        -999.25        -999.25        -999.25        -999.25        -999.25        -999.25        -98.321       3.313978         -3.324       0.903895              1         -0.671          1.875
      2460.5000          66.26          0.238         40.877        80.8262        -999.25        -999.25        -999.25        -999.25        -999.25        -999.25        -999.25        -97.726     -0.9909784         16.294              1              1         -0.628           1.95
      2461.0000         67.125          0.236         40.178       79.66135        -999.25        -999.25        -999.25        -999.25        -999.25        -999.25        -999.25        -96.918      0.2755771          5.693      0.9927948              1         -0.618          1.959
      2461.5000         66.511          0.234         38.934       75.01727        -999.25        -999.25        -999.25        -999.25        -999.25        -999.25        -999.25        -95.783     -0.5429188        -22.736      0.8939844              1         -0.658          1.876
      2462.0000         61.052           0.23          37.45       83.67636        -999.25        -999.25        -999.25        -999.25        -999.25        -999.25        -999.25        -94.386      0.3763665        -45.223              1              1         -0.598          2.027
      2462.5000         57.082          0.225         34.716       75.18086        -999.25        -999.25        -999.25        -999.25        -999.25        -999.25        -999.25        -93.358       1.026658        -52.375      0.8974652              1         -0.737          2.059
      2463.0000         63.472           0.23         31.402       86.49269        -999.25        -999.25        -999.25        -999.25        -999.25        -999.25        -999.25        -93.606     -0.4395421        -43.813              1              1         -1.173          1.739
      2463.5000         83.056           0.24         28.689        80.1447        -999.25        -999.25        -999.25        -999.25        -999.25        -999.25        -999.25        -95.235       3.400509        -31.915              1              1         -1.195          1.862
