#------------------------------------------------------------------------------
# Created by    : vladimir.rabinovich
# Created on    : 09/19/2023 17:20:47
#------------------------------------------------------------------------------
~Version Information Section
VERS.           2.0     :   CWLS log ASCII Standard - VERSION 2.0
WRAP.           NO      :   One line per depth step
~Well Information Section
#MNEM       .UNIT                                         VALUE :DESCRIPTION
#------------------------------------------------------------------------------
STRT        .FT                                            2030 :START DEPTH
STOP        .FT                                            9342 :STOP DEPTH
STEP        .FT                                             0.5 :STEP      
NULL        .                                           -999.25 :NULL      
COMP        .                                      SHELL OIL CO :COMPANY   
WELL        .                               OCS G00950 ST00BP00 :WELL      
FLD         .                           EAST CAMERON BLOCK 0193 :FIELD     
LOC         .                                                   :LOCATION  
CNTY        .                                      EAST CAMERON :LOCATION  
STAT        .                                         LOUISIANA :STATE     
CTRY        .                                     UNITED STATES :COUNTRY   
SRVC        .                                                   :SERVICE COMPANY
DATE        .                             9/13/2023 11:18:15 AM :LOG DATE  
API         .                                    17703004920000 :API NUMBER
UWI         .                                    17703004920000 :UNIQUE WELL ID
XCOORD      .                                  1684363.85071557 :SURFACE X 
YCOORD      .                                  10458597.1936422 :SURFACE Y 
LAT         .                                        28.8191951 :LATITUDE  
LON         .                                       -92.8627139 :LONGITUDE 
ELEV        .FT                                              75 :ELEVATION VALUE
ELEV_TYPE   .                                                KB :ELEVATION REFERENCE TYPE
~Curve Information Section
#MNEM       .UNIT                                      API CODE :CURVE DESCRIPTION
#------------------------------------------------------------------------------
DEPT        .FT                                                 :DEPTH     
ASN         .OHMM                                               :          
CILM        .MMHO                                               :          
ILM         .OHMM                                               :          
LN          .OHMM                                               :          
SP          .MV                                                 :          
SP_NORM     .MV                                                 :SP Normalized
VSH_SP      .V/V                                                :Volume of Shale from SP
~A        DEPTH            ASN           CILM            ILM             LN             SP        SP_NORM         VSH_SP
# ...
      4944.5000         0.4145        3319.84           0.37        -999.25       -96.4388       -27.2799      0.6282368
      4945.0000         0.4045       3340.152         0.3664        -999.25       -98.0966       -28.9377      0.6038573
      4945.5000         0.3985       3348.852         0.3758        -999.25      -102.6576       -33.4987      0.5367838
      4946.0000         0.3926       3357.543         0.3851        -999.25      -111.4045       -42.2456      0.4081529
      4946.5000         0.4007       3352.703         0.3945        -999.25      -126.1017       -56.9428      0.1920177
      4947.0000         0.4111       3311.059         0.4039        -999.25       -126.056       -56.8971      0.1926897
      4947.5000         0.4216       3259.715          0.417        -999.25      -123.3894       -54.2305      0.2319044
      4948.0000         0.4324       3129.805         0.4314        -999.25      -120.0332       -50.8743      0.2812603
      4948.5000         0.4434       2749.777         0.4457        -999.25      -115.4198       -46.2609      0.3491044
      4949.0000         0.4543       2541.707           0.46        -999.25      -107.7544       -38.5955      0.4618309
      4949.5000         0.4653        2282.07         0.4743        -999.25       -97.2972       -28.1383      0.6156132
      4950.0000         0.4763       2122.602         0.4886        -999.25       -90.3619        -21.203       0.717603
      4950.5000         0.4879       2042.961         0.5029        -999.25       -72.7708        -3.6119      0.9762956
      4951.0000         0.5002       1996.377         0.5168        -999.25       -73.7501        -4.5912      0.9618941
      4951.5000         0.5125       2040.176         0.5304        -999.25       -76.0856        -6.9267      0.9275485
      4952.0000         0.5248       2077.277         0.5439        -999.25        -91.724       -22.5651      0.6975721
      4952.5000         0.5371       2109.934         0.5515        -999.25       -94.4059        -25.247      0.6581324
      4953.0000           0.55       2143.805         0.5571        -999.25       -95.7966       -26.6377      0.6376809
      4953.5000         0.5632        2146.68         0.5627        -999.25       -93.2804       -24.1215      0.6746838
      4954.0000         0.5763       2103.469         0.5663        -999.25       -90.8114       -21.6525      0.7109926
      4954.5000         0.5891       2060.254         0.5558        -999.25       -88.3948       -19.2359      0.7465309
      4955.0000         0.6015       2012.594         0.5452        -999.25       -86.3704       -17.2115      0.7763014
      4955.5000         0.5898       1963.271         0.5346        -999.25       -84.2765       -15.1176      0.8070941
      4956.0000         0.5662       1913.949         0.5237        -999.25       -81.6775       -12.5186      0.8453147
      4956.5000         0.5407       1863.684         0.5129        -999.25       -78.1168        -8.9579       0.897678
      4957.0000         0.5218       1815.035          0.502        -999.25       -74.2739         -5.115      0.9541912
      4957.5000         0.5193       1774.023         0.4944        -999.25       -72.4658        -3.3069      0.9807809
      4958.0000         0.5357       1733.818         0.5008        -999.25       -70.9086        -1.7497              1
      4958.5000         0.5521       1694.963         0.5072        -999.25       -69.9359         -0.777              1
      4959.0000         0.5751       1710.146         0.5136        -999.25       -68.9626         0.1963              1
      4959.5000         0.6038       1735.594         0.5331        -999.25       -68.7886         0.3703              1
      4960.0000         0.6265       1771.777         0.5533        -999.25       -71.1139         -1.955              1
      4960.5000         0.6449       1824.109         0.5756        -999.25       -74.2064        -5.0475      0.9551838
      4961.0000         0.6593       1876.396         0.5979        -999.25       -82.5342       -13.3753      0.8327162
      4961.5000         0.6545       1935.602         0.5683        -999.25       -88.0602       -18.9013      0.7514515
      4962.0000         0.6358       2005.271         0.5479        -999.25        -91.004       -21.8451      0.7081603
      4962.5000         0.5951       2078.043         0.5318        -999.25       -93.7874       -24.6285      0.6672279
      4963.0000         0.5454        2164.02         0.5157        -999.25       -96.7531       -27.5942      0.6236147
      4963.5000         0.4971       2282.789         0.4995        -999.25      -100.0282       -30.8693      0.5754514
      4964.0000         0.4841       2487.266         0.4834        -999.25      -102.8723       -33.7134      0.5336264
      4964.5000         0.4712        2811.41         0.4672        -999.25      -105.2061       -36.0472      0.4993059
      4965.0000         0.4582       3060.445         0.4551        -999.25      -107.9132       -38.7543      0.4594956
      4965.5000         0.4487       3221.082          0.443        -999.25      -112.8174       -43.6585       0.387375
      4966.0000         0.4403       3345.871          0.431        -999.25      -130.4827       -61.3238      0.1275912
      4966.5000          0.432       3436.113         0.4189        -999.25      -131.3945       -62.2356      0.1141824
      4967.0000         0.4236       3498.645         0.4069        -999.25      -132.3062       -63.1473       0.100775
      4967.5000           0.41       3563.824          0.395        -999.25      -133.0552       -63.8963     0.08976027
      4968.0000         0.3945       3645.488         0.3833        -999.25      -133.7371       -64.5782     0.07973234
      4968.5000         0.3816       3712.508         0.3716        -999.25      -134.4114       -65.2525     0.06981614
      4969.0000         0.3709       3763.852           0.36        -999.25      -135.0598       -65.9009     0.06028086
      4969.5000         0.3603       3813.668         0.3483        -999.25      -135.5952       -66.4363     0.05240732
      4970.0000         0.3495       3856.297         0.3366        -999.25      -135.3784       -66.2195     0.05559562
      4970.5000         0.3386       3885.766          0.325        -999.25      -134.7075       -65.5486     0.06546178
      4971.0000         0.3292       3904.746         0.3134        -999.25       -133.991       -64.8321     0.07599853
      4971.5000         0.3363       3898.207         0.3029        -999.25      -133.2754       -64.1165     0.08652204
      4972.0000         0.3434       3872.355         0.2924        -999.25       -132.394       -63.2351     0.09948383
      4972.5000         0.3506       3842.777         0.2819        -999.25      -131.1436       -61.9847      0.1178721
      4973.0000         0.3577       3813.199         0.2713        -999.25      -129.8938       -60.7349      0.1362514
      4973.5000         0.3574       3783.617          0.264        -999.25       -128.644       -59.4851      0.1546309
      4974.0000         0.3492       3754.039         0.2713        -999.25      -125.1672       -56.0083      0.2057603
      4974.5000         0.3411       3706.039         0.2786        -999.25       -120.645       -51.4861      0.2722633
      4975.0000          0.333       3654.832         0.2859        -999.25      -114.2572       -45.0983      0.3662015
      4975.5000         0.3332       3612.023         0.2932        -999.25      -108.0543       -38.8954      0.4574206
      4976.0000          0.338       3586.215         0.3006        -999.25      -108.5161       -39.3572      0.4506294
      4976.5000         0.3427        3560.41         0.3103        -999.25      -108.9783       -39.8194      0.4438323
      4977.0000         0.3474       3534.602         0.3225        -999.25      -104.8394       -35.6805      0.5046985
      4977.5000         0.3521       3509.277         0.3346        -999.25      -102.3112       -33.1523      0.5418779
