#------------------------------------------------------------------------------
# Created by    : vladimir.rabinovich
# Created on    : 09/19/2023 17:21:14
#------------------------------------------------------------------------------
~Version Information Section
VERS.           2.0     :   CWLS log ASCII Standard - VERSION 2.0
WRAP.           NO      :   One line per depth step
~Well Information Section
#MNEM       .UNIT                                         VALUE :DESCRIPTION
#------------------------------------------------------------------------------
STRT        .FT                                            3520 :START DEPTH
STOP        .FT                                            8510 :STOP DEPTH
STEP        .FT                                             0.5 :STEP      
NULL        .                                           -999.25 :NULL      
COMP        .                      SPINNAKER EXPLORATION CO LLC :COMPANY   
WELL        .                               OCS G21537 ST00BP00 :WELL      
FLD         .                                           WILDCAT :FIELD     
LOC         .                                                   :LOCATION  
CNTY        .                                      WEST CAMERON :LOCATION  
STAT        .                                         LOUISIANA :STATE     
CTRY        .                                     UNITED STATES :COUNTRY   
SRVC        .                                                   :SERVICE COMPANY
DATE        .                             9/13/2023 11:18:49 AM :LOG DATE  
API         .                                    17700410830000 :API NUMBER
UWI         .                                    17700410830000 :UNIQUE WELL ID
XCOORD      .                                   1446389.6294369 :SURFACE X 
YCOORD      .                                  10699667.6074025 :SURFACE Y 
LAT         .                                        29.4810902 :LATITUDE  
LON         .                                       -93.6100108 :LONGITUDE 
ELEV        .FT                                              91 :ELEVATION VALUE
ELEV_TYPE   .                                                KB :ELEVATION REFERENCE TYPE
~Curve Information Section
#MNEM       .UNIT                                      API CODE :CURVE DESCRIPTION
#------------------------------------------------------------------------------
DEPT        .FT                                                 :DEPTH     
CAL         .IN                                                 :          
CNC         .%                                                  :          
GR          .GAPI                                               :          
GR_NORM     .GAPI                                               :GammaRay Normalized
M0C6        .MMHO                                               :          
M2R1        .OHMM                                               :          
M2R2        .OHMM                                               :          
M2R3        .OHMM                                               :          
M2R6        .OHMM                                               :          
M2R9        .OHMM                                               :          
M2RX        .OHMM                                               :          
PORZ        .%                                                  :          
SP          .MV                                                 :          
SP_NORM     .MV                                                 :SP Normalized
TEN         .LB/F                                               :          
VSH_GR      .V/V                                                :Volume of Shale from GR
VSH_SP      .V/V                                                :Volume of Shale from SP
ZCOR        .G/CC                                               :          
~A        DEPTH            CAL            CNC             GR        GR_NORM           M0C6           M2R1           M2R2           M2R3           M2R6           M2R9           M2RX           PORZ             SP        SP_NORM            TEN         VSH_GR         VSH_SP           ZCOR
# ...
      7496.0000         11.762         43.769        113.943        87.6291       1705.553          0.536          0.579          0.594          0.593          0.594          0.599         20.522         -5.469        -3.5642        615.904              1      0.9743574          0.033
      7496.5000         11.797         44.643        111.786        85.4712       1714.642          0.503          0.548          0.565          0.565          0.566          0.571         20.743         -4.867        -2.9622        614.814              1      0.9842262           0.03
      7497.0000         11.801          43.27        109.289        82.9733       1722.511          0.487          0.535          0.553          0.554          0.556           0.56         20.907         -3.867        -1.9622        603.031              1              1          0.027
      7497.5000           11.8         42.846         109.81        83.4933       1728.318          0.486          0.536          0.555          0.557          0.559          0.563         21.277         -3.119        -1.2142        594.993              1              1          0.025
      7498.0000         11.799         43.536        111.048        84.7304       1731.425          0.489           0.54           0.56          0.562          0.565          0.569         21.844          -2.79        -0.8852        607.954              1              1          0.026
      7498.5000         11.801         44.859        109.859        83.5405       1731.483           0.49          0.542          0.562          0.564          0.567          0.571         22.272         -2.572        -0.6672        619.545              1              1          0.029
      7499.0000         11.803         46.453        107.507        81.1875       1728.533          0.492          0.543          0.563          0.566          0.569          0.573         22.307         -2.219        -0.3142        607.541              1              1          0.034
      7499.5000         11.792         46.244        106.346        80.0256       1722.966          0.496          0.548          0.568          0.571          0.574          0.578         22.017         -1.886         0.0188        595.963              1              1          0.035
      7500.0000         11.718          45.53          105.2        78.8786       1715.529          0.502          0.554          0.574          0.578          0.581          0.584         21.738         -1.949        -0.0442         605.97      0.9761404              1          0.033
      7500.5000         11.576         47.995        103.592        77.2697       1707.258          0.506          0.559           0.58          0.583          0.586           0.59         21.865         -2.402        -0.4972        614.232      0.9419085              1          0.032
      7501.0000         11.438         53.291        102.295        75.9718       1699.426          0.508          0.564          0.585          0.588          0.591          0.594         22.532          -2.81        -0.9052        598.958      0.9142936              1          0.026
      7501.5000         11.364         58.261        100.412        74.0878       1693.441          0.512           0.57          0.593          0.595          0.597          0.601         23.431         -2.884        -0.9792        579.992      0.8742085              1          0.019
      7502.0000         11.333         59.555         97.361        71.0359       1690.667          0.517           0.58          0.603          0.605          0.607           0.61         24.199         -2.621        -0.7162         584.36      0.8092744              1          0.025
      7502.5000         11.315         55.388         96.553         70.227       1692.201           0.52          0.588          0.612          0.613          0.614          0.617         24.693         -2.202        -0.2972        599.133      0.7920638              1          0.038
      7503.0000         11.312         48.531          99.53         73.203       1698.543          0.518          0.588          0.612          0.611          0.612          0.615         24.872         -1.791         0.1138        597.285       0.855383              1          0.044
      7503.5000         11.322         43.799        102.665        76.3371       1709.405          0.508          0.576          0.598          0.596          0.597          0.599         24.885          -1.44         0.4648        582.024      0.9220659              1          0.047
      7504.0000         11.338         42.622        104.177        77.8482       1723.597          0.497          0.556          0.573           0.57           0.57          0.572         25.129         -1.131         0.7738        575.517       0.954217              1          0.063
      7504.5000         11.307         44.424        105.213        78.8832       1739.252          0.492          0.539           0.55          0.546          0.545          0.547         25.664         -1.296         0.6088         576.62      0.9762383              1          0.087
      7505.0000         11.171         45.889        104.864        78.5333       1754.229          0.505          0.535          0.541          0.534          0.533          0.534         25.523         -2.696        -0.7912        573.835      0.9687937              1          0.087
      7505.5000         10.992         44.542        101.652        75.3204       1766.725          0.533          0.545          0.544          0.536          0.534          0.535         23.612         -5.034        -3.1292        568.787       0.900434      0.9814885          0.067
      7506.0000         10.893         42.066         96.665        70.3324        1775.82          0.573          0.567          0.559          0.548          0.546          0.547          19.59         -6.837        -4.9322        559.143      0.7943063      0.9519311          0.061
      7506.5000         10.889         40.679         90.798        64.4645       1781.788          0.633          0.612          0.597          0.584          0.581          0.582         14.565         -7.387        -5.4822        545.673      0.6694574      0.9429147          0.056
      7507.0000          10.92         40.332         86.081        59.7466       1786.095          0.699          0.671          0.651          0.634           0.63          0.631         11.735         -7.294        -5.3892        548.557      0.5690766      0.9444394          0.025
      7507.5000         10.998         41.385         86.286        59.9506       1790.914          0.692          0.678           0.66          0.642          0.637          0.638         13.711         -7.077        -5.1722         573.17       0.573417      0.9479967          0.007
      7508.0000          11.13         44.308         91.579        65.2427       1798.484          0.615          0.623          0.613          0.597          0.593          0.594         18.222         -6.578        -4.6732        593.242      0.6860149      0.9561771          0.029
      7508.5000         11.278         47.991         98.373        72.0357       1810.239          0.549          0.573           0.57          0.555          0.552          0.553         21.537          -5.63        -3.7252        601.077      0.8305467       0.971718          0.054
      7509.0000         11.395         49.639        103.017        76.6788       1826.298          0.515          0.549          0.549          0.536          0.533          0.534         23.204         -4.341        -2.4362         600.24      0.9293362      0.9928492          0.073
      7509.5000         11.467         47.333        104.165        77.8259        1845.17          0.495           0.53          0.531          0.518          0.516          0.518         24.737         -3.253        -1.3482        578.299      0.9537425              1            0.1
