#------------------------------------------------------------------------------
# Created by    : vladimir.rabinovich
# Created on    : 09/19/2023 17:19:36
#------------------------------------------------------------------------------
~Version Information Section
VERS.           2.0     :   CWLS log ASCII Standard - VERSION 2.0
WRAP.           NO      :   One line per depth step
~Well Information Section
#MNEM       .UNIT                                         VALUE :DESCRIPTION
#------------------------------------------------------------------------------
STRT        .FT                                          2840.5 :START DEPTH
STOP        .FT                                            9365 :STOP DEPTH
STEP        .FT                                             0.5 :STEP      
NULL        .                                           -999.25 :NULL      
COMP        .                              MCMORAN OIL & GAS CO :COMPANY   
WELL        .                                OCS 00757 ST00BP00 :WELL      
FLD         .                           WEST CAMERON BLOCK 0118 :FIELD     
LOC         .                                                   :LOCATION  
CNTY        .                                      WEST CAMERON :LOCATION  
STAT        .                                         LOUISIANA :STATE     
CTRY        .                                     UNITED STATES :COUNTRY   
SRVC        .                                                   :SERVICE COMPANY
DATE        .                             9/13/2023 11:18:49 AM :LOG DATE  
API         .                                    17700410710000 :API NUMBER
UWI         .                                    17700410710000 :UNIQUE WELL ID
XCOORD      .                                  1441592.04714169 :SURFACE X 
YCOORD      .                                  10704369.2355959 :SURFACE Y 
LAT         .                                        29.4939537 :LATITUDE  
LON         .                                       -93.6251728 :LONGITUDE 
ELEV        .FT                                              90 :ELEVATION VALUE
ELEV_TYPE   .                                                KB :ELEVATION REFERENCE TYPE
~Curve Information Section
#MNEM       .UNIT                                      API CODE :CURVE DESCRIPTION
#------------------------------------------------------------------------------
DEPT        .FT                                                 :DEPTH     
AHT10       .OHMM                                               :          
AHT20       .OHMM                                               :          
AHT30       .OHMM                                               :          
AHT60       .OHMM                                               :          
AHT90       .OHMM                                               :          
AHTCO90     .MMHO                                               :          
DPHZ        .DEC                                                :          
GR          .GAPI                                               :          
GR_NORM     .GAPI                                               :GammaRay Normalized
HCAL        .IN                                                 :          
HDRA        .G/CC                                               :          
HMIN        .OHMM                                               :          
HMNO        .OHMM                                               :          
NPOR        .DEC                                                :          
RHOZ        .G/CC                                               :          
RWA         .OHMM                                               :          
TENS        .LB                                                 :          
VSH_GR      .V/V                                                :Volume of Shale from GR
~A        DEPTH          AHT10          AHT20          AHT30          AHT60          AHT90        AHTCO90           DPHZ             GR        GR_NORM           HCAL           HDRA           HMIN           HMNO           NPOR           RHOZ            RWA           TENS         VSH_GR
# ...
      9350.5000         0.5275         0.2943         0.3189         0.4004         0.9349       1069.649         0.4364        85.3039       84.69883         3.8603         0.0786          0.408          0.363         0.3602           1.93         0.2536           4142              1
      9351.0000         0.5372         0.2984         0.3253          0.436         1.1639        859.187         0.4364        85.3039       84.69883         3.8603         0.0786          0.408          0.363         0.3602           1.93         0.3157           4080              1
      9351.5000         0.5412         0.3004           0.33         0.4681         1.4236        702.452         0.4364        85.3039       84.69883         3.8603         0.0786          0.408          0.363         0.3602           1.93         0.3861           4099              1
      9352.0000          0.541         0.3012          0.333         0.4903         1.6397        609.861         0.4364        85.3039       84.69883         3.8603         0.0786          0.408          0.363         0.3602           1.93         0.4448           4095              1
      9352.5000         0.5391         0.3012         0.3343            0.5         1.7368        575.772         0.4364        85.3039       84.69883         3.8603         0.0786          0.408          0.363         0.3602           1.93         0.4711           4128              1
      9353.0000         0.5364         0.3004         0.3339          0.499          1.709        585.128         0.4364        85.3039       84.69883         3.8603         0.0786          0.408          0.363         0.3602           1.93         0.4636           4103              1
      9353.5000         0.5347         0.2998         0.3329         0.4926         1.6217        616.623         0.4364        85.3039       84.69883         3.8603         0.0786          0.408          0.363         0.3602           1.93         0.4399           4135              1
      9354.0000         0.5347         0.2997         0.3323         0.4853         1.5329        652.363         0.4364        85.3039       84.69883         3.8603         0.0786          0.408          0.363         0.3602           1.93         0.4158           4250              1
      9354.5000         0.5358         0.2999         0.3319         0.4789         1.4613        684.317         0.4364        85.3039       84.69883         3.8603         0.0786          0.408          0.363         0.3602           1.93         0.3963           4277              1
      9355.0000          0.537            0.3         0.3317         0.4738         1.4083        710.096         0.4364        85.3039       84.69883         3.8603         0.0786          0.408          0.363         0.3602           1.93         0.3819           4274              1
      9355.5000          0.538         0.2999         0.3316         0.4702         1.3715        729.155         0.4363        85.3039       84.69883         3.8603         0.0785          0.408          0.363         0.3602           1.93         0.3719           4370              1
      9356.0000         0.5388         0.2998         0.3316         0.4673         1.3439        744.114         0.4363        85.3039       84.69883         3.8603         0.0785          0.408          0.363         0.3602           1.93         0.3643           4329              1
      9356.5000         0.5393         0.2996         0.3314         0.4649         1.3223        756.234         0.4362        85.3039       84.69883         3.8603         0.0783          0.408          0.363         0.3602           1.93         0.3583           4245              1
      9357.0000         0.5393         0.2994         0.3312         0.4629         1.3043         766.67          0.436        85.3039       84.69883         3.8603         0.0781          0.407          0.362         0.3602          1.931         0.3531           4151              1
      9357.5000         0.5392         0.2992          0.331         0.4613         1.2916        774.245         0.4357        85.3039       84.69883         3.8603         0.0777          0.407          0.362         0.3602          1.931         0.3491           4069              1
      9358.0000         0.5391         0.2991         0.3308         0.4604         1.2838         778.95         0.4352        85.3039       84.69883         3.8603         0.0769          0.407          0.362         0.3602          1.932         0.3461           4011              1
      9358.5000         0.5391         0.2991         0.3307         0.4599         1.2802        781.117         0.4343        85.3039       84.69883         3.8603         0.0756          0.407          0.362         0.3602          1.933         0.3436           3929              1
      9359.0000         0.5391         0.2991         0.3306         0.4598         1.2801        781.204         0.4328        85.3039       84.69883         3.8603          0.302          0.407          0.363         0.3602          1.936          0.341           3880              1
      9359.5000         0.5392         0.2991         0.3306           0.46         1.2824        779.782         0.4301        85.3039       84.69883         3.8603         0.9881          0.407          0.363         0.3602           1.94         0.3372           3794              1
      9360.0000         0.5393         0.2991         0.3307         0.4603         1.2862        777.491         0.4279        85.3039       84.69883         3.8603         1.6751          0.407          0.362         0.3602          1.944         0.3344           3692              1
      9360.5000         0.5394         0.2992         0.3308         0.4607         1.2904        774.941       607.2121        85.3039       84.69883         3.8603        -999.25          0.407          0.362         0.3602        -999.25        2006881           3677              1
      9361.0000         0.5395         0.2992         0.3308          0.461         1.2943        772.593       607.2121        85.3039       84.69883         3.8603        -999.25          0.407          0.362         0.3602        -999.25        2012981           3580              1
      9361.5000         0.5395         0.2992         0.3309         0.4613         1.2975        770.721       607.2121        85.3039       84.69883         3.8603        -999.25          0.407          0.362         0.3602        -999.25        2017871           3555              1
      9362.0000         0.5396         0.2992         0.3309         0.4614         1.2996        769.438       607.2121        85.3039       84.69883         3.8603        -999.25          0.406          0.362         0.3602        -999.25        2021234           3530              1
      9362.5000         0.5396         0.2992         0.3309         0.4615         1.3008        768.739       607.2121        85.3039       84.69883         3.8603        -999.25          0.406          0.362         0.3602        -999.25        2023074           3381              1
      9363.0000         0.5395         0.2992         0.3309         0.4615         1.3012        768.527       607.2121        85.3039       84.69883         3.8603        -999.25          0.406          0.361         0.3602        -999.25        2023631           3308              1
      9363.5000         0.5395         0.2992         0.3309         0.4614          1.301        768.661       607.2121        85.3039       84.69883         3.8603        -999.25          0.405          0.361         0.3602        -999.25        2023277           3225              1
      9364.0000         0.5395         0.2992         0.3309         0.4613         1.3004        769.009       607.2121        85.3039       84.69883         3.8603        -999.25          0.405          0.361         0.3602        -999.25        2022363           3171              1
