#------------------------------------------------------------------------------
# Created by    : vladimir.rabinovich
# Created on    : 09/19/2023 17:21:58
#------------------------------------------------------------------------------
~Version Information Section
VERS.           2.0     :   CWLS log ASCII Standard - VERSION 2.0
WRAP.           NO      :   One line per depth step
~Well Information Section
#MNEM       .UNIT                                         VALUE :DESCRIPTION
#------------------------------------------------------------------------------
STRT        .FT                                            3382 :START DEPTH
STOP        .FT                                           10910 :STOP DEPTH
STEP        .FT                                             0.5 :STEP      
NULL        .                                           -999.25 :NULL      
COMP        .                               B P EXPLORATION INC :COMPANY   
WELL        .                               OCS G07597 ST00BP00 :WELL      
FLD         .                           WEST CAMERON BLOCK 0045 :FIELD     
LOC         .                                                   :LOCATION  
CNTY        .                                      WEST CAMERON :LOCATION  
STAT        .                                         LOUISIANA :STATE     
CTRY        .                                     UNITED STATES :COUNTRY   
SRVC        .                                                   :SERVICE COMPANY
DATE        .                             9/13/2023 11:18:09 AM :LOG DATE  
API         .                                    17700407640000 :API NUMBER
UWI         .                                    17700407640000 :UNIQUE WELL ID
XCOORD      .                                  1473636.79229916 :SURFACE X 
YCOORD      .                                   10762774.556795 :SURFACE Y 
LAT         .                                        29.6550545 :LATITUDE  
LON         .                                       -93.5252479 :LONGITUDE 
ELEV        .FT                                              90 :ELEVATION VALUE
ELEV_TYPE   .                                                KB :ELEVATION REFERENCE TYPE
~Curve Information Section
#MNEM       .UNIT                                      API CODE :CURVE DESCRIPTION
#------------------------------------------------------------------------------
DEPT        .FT                                                 :DEPTH     
CALI        .IN                                                 :          
DRHO        .G/C3                                               :          
DT          .US/F                                               :          
GR          .GAPI                                               :          
GR_1        .GAPI                                               :          
GR_NORM     .GAPI                                               :GammaRay Normalized
ILD         .OHMM                                               :          
ILM         .OHMM                                               :          
NPHI        .%                                                  :          
RHOB        .G/C3                                               :          
SFL         .OHMM                                               :          
SP          .MV                                                 :          
SP_NORM     .MV                                                 :SP Normalized
VSH_GR      .V/V                                                :Volume of Shale from GR
VSH_SP      .V/V                                                :Volume of Shale from SP
~A        DEPTH           CALI           DRHO             DT             GR           GR_1        GR_NORM            ILD            ILM           NPHI           RHOB            SFL             SP        SP_NORM         VSH_GR         VSH_SP
# ...
      8924.0000        11.3101         0.0469       107.8754        58.9376        77.6444       72.45581         0.6928         0.7299        42.3483         2.3013         0.7986       -46.1293         -7.539      0.8394853       0.950663
      8924.5000        11.3055         0.0455       107.3865        60.1932        76.2366       74.54821         0.7107         0.7415         41.998          2.306         0.7995       -45.1203        -6.5363      0.8840045       0.961562
      8925.0000        11.2998         0.0446       106.9862        60.2772        75.0476       74.68926         0.7259         0.7558        41.1751         2.3137         0.8247       -43.9792        -5.4014      0.8870056      0.9738978
      8925.5000        11.2908         0.0442       107.0334        60.3748        77.7076       74.85314          0.733           0.76        40.5243         2.3131         0.8342       -48.3092        -9.7377      0.8904924      0.9267641
      8926.0000         11.284          0.044       107.4769        60.7867        78.1222       75.54031         0.7262          0.758        40.5716         2.3061          0.804       -48.1921        -9.6269      0.9051129      0.9279685
      8926.5000        11.2967         0.0447        109.489        62.3632        79.4486       78.16713         0.7141          0.751        41.1883         2.2937         0.7759       -46.2589        -7.6999      0.9610028      0.9489141
      8927.0000        11.3249          0.046       110.0609        63.8878        82.0431       80.70737         0.7072         0.7436         41.163         2.2865         0.7866       -44.5598        -6.0071              1      0.9673141
      8927.5000        11.3851         0.0474       109.5222        63.6736        82.2206       80.35199         0.7482         0.7802        40.6876         2.2835         0.8459       -44.2275         -5.681              1      0.9708587
      8928.0000        11.4419         0.0486        106.707         56.369        80.0808       68.18803         0.8146         0.8318        39.8624         2.2939         1.0987       -45.4385        -6.8983      0.7486816      0.9576272
      8928.5000        11.4838         0.0493        99.6719        53.6285        77.5181       63.62533         0.8856         0.8755        38.4191          2.317         1.1861       -46.1779         -7.644      0.6516028      0.9495217
      8929.0000        11.5115         0.0502        96.6143        51.9941        74.8652       60.90458         0.8907         0.8902        37.0962         2.3447         1.1877       -46.2018        -7.6741      0.5937145      0.9491946
      8929.5000        11.5584         0.0513        95.5073        51.2316        72.8374       59.63602         0.8612         0.8782        36.5812         2.3563         1.1364       -46.3922        -7.8708      0.5667238      0.9470565
      8930.0000        11.5902          0.053        95.3721        52.0913        74.3328       61.06894         0.8173         0.8575        36.7115         2.3616         1.0469        -46.498        -7.9829      0.5972115       0.945838
      8930.5000        11.5897         0.0548        98.5649         54.346        78.7144       64.82524         0.7726         0.8261        37.7173         2.3616         0.9227       -45.6061        -7.0972      0.6771328      0.9554652
      8931.0000        11.5893         0.0567       100.9215        57.0715        81.4668       69.36564         0.7541         0.8188        37.9918         2.3589         0.8788       -47.6091        -9.1065       0.773737       0.933625
      8931.5000        11.5888         0.0585       102.8401        58.4766        84.4089       71.70687         0.7636         0.8105         38.273         2.3514          0.862       -48.1273         -9.631      0.8235505      0.9279239
      8932.0000         11.578         0.0595       104.7563        59.8469        87.3024        73.9903         0.7605         0.7948        39.0857         2.3407         0.8445        -44.769        -6.2789      0.8721341      0.9643598
      8932.5000        11.5488         0.0583       106.6208        61.8848        86.0283       77.38539         0.7369         0.7684        40.0636         2.3381         0.8145       -42.9637        -4.4799        0.94437      0.9839141
      8933.0000        11.5526         0.0575       108.1804         65.973        85.9261       84.19524         0.6997         0.7335        40.9475         2.3377         0.7615       -43.3639        -4.8863              1      0.9794967
      8933.5000        11.5695         0.0593        109.521        66.1898        87.2087       84.55744         0.6677         0.7003        41.7228         2.3358         0.7123       -43.5526        -5.0813              1      0.9773772
      8934.0000        11.5837         0.0612       110.5024        66.3474        85.7656       84.82127         0.6599         0.6824        42.4319         2.3313         0.6867        -43.187         -4.722              1      0.9812826
      8934.5000        11.5898         0.0612       111.1205        65.7913        84.9401       83.89629         0.6556         0.6825        42.7773         2.3252         0.6777       -42.8435        -4.3847              1      0.9849489
      8935.0000        11.5984         0.0599       111.4025        64.7423        84.0248       82.15061         0.6592           0.69        42.9974         2.3212         0.6845       -42.5825          -4.13              1      0.9877174
      8935.5000        11.6138         0.0579       111.3557        65.0836        81.2966       82.72018         0.6636         0.6959        43.0703         2.3175         0.7317       -42.3035        -3.8573              1      0.9906815
      8936.0000        11.6383         0.0537        110.532        65.9594        83.6309       84.18007         0.6748          0.699        43.0797         2.3161         0.7903       -42.2813        -3.8413              1      0.9908555
      8936.5000        11.6576         0.0491       109.0562        66.3793        83.8959       84.88053         0.6817         0.7014        42.9716         2.3215         0.8087       -42.4708        -4.0371              1      0.9887272
      8937.0000         11.668         0.0509       107.8065        65.0538        82.3422       82.67439         0.6814          0.701        42.8126         2.3256         0.7942       -42.9117        -4.4842              1      0.9838674
      8937.5000        11.6716         0.0532       107.7336         62.398        85.3182       78.25257         0.6756         0.6962        42.5231         2.3269         0.7702       -44.0727        -5.6515      0.9628206      0.9711794
      8938.0000        11.6691         0.0542       108.4485        60.5619        83.9567       75.19605         0.6628         0.6784         42.701         2.3276         0.7386       -44.1001        -5.6852      0.8977883       0.970813
      8938.5000        11.6638         0.0537       109.5062         59.637        76.8226        73.6569         0.6424         0.6553        42.9525         2.3237         0.7174       -43.2319        -4.8232      0.8650404      0.9801826
      8939.0000        11.6584         0.0523       110.5037        59.8232         76.684       73.96832         0.6122         0.6314        42.9517         2.3183         0.7182       -42.2378        -3.8354      0.8716664      0.9909196
      8939.5000         11.653         0.0508       111.3302        60.5831        74.3789       75.23502         0.5875         0.6115        42.9407         2.3122         0.7334       -41.6187        -3.2226      0.8986175      0.9975804
      8940.0000        11.6477         0.0509       112.1973         61.617        74.5662        76.9582         0.5713         0.5991        43.2109         2.3062         0.7427       -42.5517        -4.1618      0.9352808      0.9873717
      8940.5000        11.6531         0.0512       112.7526        61.6419        75.2178       77.00085         0.5703         0.5936        42.9554         2.2996         0.7398       -43.4199        -5.0363      0.9361882      0.9778663
