#------------------------------------------------------------------------------
# Created by    : vladimir.rabinovich
# Created on    : 09/19/2023 17:22:13
#------------------------------------------------------------------------------
~Version Information Section
VERS.           2.0     :   CWLS log ASCII Standard - VERSION 2.0
WRAP.           NO      :   One line per depth step
~Well Information Section
#MNEM       .UNIT                                         VALUE :DESCRIPTION
#------------------------------------------------------------------------------
STRT        .FT                                            4265 :START DEPTH
STOP        .FT                                           12768 :STOP DEPTH
STEP        .FT                                             0.5 :STEP      
NULL        .                                           -999.25 :NULL      
COMP        .                                SHELL OFFSHORE INC :COMPANY   
WELL        .                               OCS G04749 ST00BP02 :WELL      
FLD         .                                           WILDCAT :FIELD     
LOC         .                                                   :LOCATION  
CNTY        .                                      WEST CAMERON :LOCATION  
STAT        .                                         LOUISIANA :STATE     
CTRY        .                                     UNITED STATES :COUNTRY   
SRVC        .                                                   :SERVICE COMPANY
DATE        .                             9/13/2023 11:19:06 AM :LOG DATE  
API         .                                    17700406070000 :API NUMBER
UWI         .                                    17700406070000 :UNIQUE WELL ID
XCOORD      .                                   1486969.7252092 :SURFACE X 
YCOORD      .                                  10728694.6404599 :SURFACE Y 
LAT         .                                        29.5614647 :LATITUDE  
LON         .                                       -93.4828123 :LONGITUDE 
ELEV        .FT                                              98 :ELEVATION VALUE
ELEV_TYPE   .                                                KB :ELEVATION REFERENCE TYPE
~Curve Information Section
#MNEM       .UNIT                                      API CODE :CURVE DESCRIPTION
#------------------------------------------------------------------------------
DEPT        .FT                                                 :DEPTH     
CALI        .IN                                                 :          
DRHO        .G/C3                                               :          
DT          .US/F                                               :          
GR          .GAPI                                               :          
GR_1        .GAPI                                               :          
GR_NORM     .GAPI                                               :GammaRay Normalized
ILD         .OHMM                                               :          
ILM         .OHMM                                               :          
NPHI        .%                                                  :          
RHOB        .G/C3                                               :          
SFL         .OHMM                                               :          
SP          .MV                                                 :          
SP_NORM     .MV                                                 :SP Normalized
VSH_GR      .V/V                                                :Volume of Shale from GR
VSH_SP      .V/V                                                :Volume of Shale from SP
~A        DEPTH           CALI           DRHO             DT             GR           GR_1        GR_NORM            ILD            ILM           NPHI           RHOB            SFL             SP        SP_NORM         VSH_GR         VSH_SP
# ...
      9399.0000        13.1647         0.0179        95.0878        -999.25        35.8704       39.10429         0.1768          0.217        27.6764         2.1562         0.9454      -129.4897       -97.9355      0.1298785     0.02106632
      9399.5000        13.2291         0.0212        95.2473        -999.25        35.4046       38.35648         0.1751         0.2148        27.5417         2.1598          0.907      -129.1052       -97.5448      0.1139676     0.02505306
      9400.0000        13.2632         0.0193        95.4165        -999.25        34.8631       37.48907         0.1732         0.2127        27.8434         2.1603         0.8582      -128.5571       -96.9906     0.09551214     0.03070816
      9400.5000        13.2468          0.019        96.0616        -999.25        33.9265       35.99834         0.1709         0.2105        28.2142         2.1663         0.8025      -127.9934       -96.4207      0.0637944     0.03652347
      9401.0000         13.214         0.0221        96.8561        -999.25         32.831       34.25691         0.1687         0.2092        28.6113         2.1766         0.7493      -127.5933       -96.0145     0.02674273     0.04066833
      9401.5000        13.2144         0.0223        97.0649        -999.25        31.2429       31.73833         0.1666         0.2108        29.0235         2.1862         0.7154      -127.3239       -95.7389              0     0.04348062
      9402.0000         13.218         0.0178        96.3632        -999.25        29.7748       29.40905         0.1643         0.2151        29.1898          2.195         0.6991      -127.3586       -95.7675              0     0.04318876
      9402.5000        13.2433         0.0152        94.6769        -999.25        29.2439       28.55837          0.162         0.2198        28.2134         2.1975         0.7241      -127.2806       -95.6833              0       0.044048
      9403.0000        13.2662         0.0237        93.1556        -999.25        29.1445       28.38845         0.1608         0.2218        26.6413         2.1969         0.7782      -127.0999       -95.4965              0      0.0459541
      9403.5000        13.2288         0.0344        92.6833        -999.25        30.5876        30.6521          0.164         0.2237        25.6153         2.2039         0.8572      -126.2244       -94.6149              0     0.05495001
      9404.0000        13.2342         0.0426        93.1438        -999.25        32.1508        33.1052         0.1725         0.2254        26.7857         2.2029         0.9279      -123.1272       -91.5115    0.002238334     0.08661737
      9404.5000        13.2625         0.0381         93.564        -999.25        33.2743       34.86462          0.187         0.2301        28.8347         2.1944         0.9073      -119.7513       -88.1295     0.03967277      0.1211275
      9405.0000        13.1952         0.0336        93.2896        -999.25         32.851        34.1837         0.2115         0.2409        30.1285         2.1925         0.7894      -113.4739       -81.8459      0.0251852      0.1852459
      9405.5000        13.0493         0.0325        90.7288        -999.25        32.3996       33.45845         0.2389         0.2686        30.4309         2.2015         0.7118      -104.3649       -72.7308    0.009754181      0.2782572
      9406.0000        12.8455         0.0394        88.4819        -999.25        31.9456       32.72909         0.2693         0.3246        29.4305         2.2049         0.6727        -91.041       -59.4007              0      0.4142786
      9406.5000        12.8072          0.036        88.4845        -999.25        32.0421       32.86823         0.3023         0.3791        28.7257         2.1967         0.7244       -80.5736       -48.9272              0       0.521151
      9407.0000        12.8225         0.0291        95.0972        -999.25        32.5096       33.59271          0.348         0.4071        30.3723         2.1891         0.8388       -67.1898       -35.5373     0.01261082      0.6577827
      9407.5000        12.9067         0.0201       108.5378        -999.25        33.6389       35.36127         0.4367         0.4507        31.4498         2.1873         0.8252       -56.6826       -25.0239     0.05023973      0.7650623
      9408.0000        13.0565         0.0265       113.4668        -999.25        36.7651       40.28029         0.5226         0.5076        31.6841         2.1827         0.7828       -46.7346       -15.0698      0.1548998      0.8666347
      9408.5000        13.2393         0.0437       115.5383        -999.25        44.7284       52.83079         0.6156         0.5607        31.8654         2.1448         0.5966        -40.592         -8.921      0.4219317      0.9293776
      9409.0000        13.8116         0.0663       110.7096        -999.25        49.7355       60.71723         0.6876         0.5984        35.5564         2.1042         0.5493       -36.8989        -5.2218      0.5897284      0.9671245
      9409.5000        15.1531         0.0785       104.6848        -999.25        52.3966       64.90247         0.7295         0.6318        41.6342         2.0575         0.5695        -35.136        -3.4527      0.6787758      0.9851765
      9410.0000        15.6993         0.0654        98.9001        -999.25        52.9647       65.78564         0.7567         0.6653        49.7881         2.0182         0.6277       -34.0948        -2.4054      0.6975667      0.9958633
      9410.5000          16.02         0.0581         93.671        -999.25        52.8036        65.5184         0.7615         0.7011        51.3767         1.9996         0.7428       -33.4363        -1.7408      0.6918809              1
      9411.0000        16.1768         0.0545        94.4366        -999.25        52.4966       65.02096         0.7615         0.7244        50.8592         1.9884         0.8151       -33.0439        -1.3422       0.681297              1
      9411.5000        16.0865         0.0519       100.2212        -999.25         52.358       64.78919         0.7606         0.7272        49.1292         1.9942         0.8168       -33.0598         -1.352      0.6763658              1
      9412.0000        15.9027         0.0487       103.5388        -999.25        52.4141       64.86461         0.7827          0.724        48.6327         2.0026         0.7367       -33.4706        -1.7566      0.6779704              1
      9412.5000        15.8107         0.0509       104.2944        -999.25        53.2495       66.16949         0.8128          0.741        49.4105         2.0022         0.6949        -34.136        -2.4159      0.7057338      0.9957561
      9413.0000        15.9092         0.0478       100.3613        -999.25        54.4274       68.01472         0.8341         0.7715        50.2604         1.9832         0.6791       -35.3159        -3.5896      0.7449942      0.9837796
      9413.5000        16.2931         0.0404        96.3632        -999.25         55.908       70.33755         0.8493         0.8067        51.2173          1.954         0.7116       -37.3259        -5.5935      0.7944161      0.9633316
      9414.0000        16.6067          0.033        92.2649        -999.25        55.1677       69.15649         0.8417         0.8495        51.8288         1.9261         0.8047       -39.5333        -7.7948      0.7692869      0.9408694
      9414.5000        16.2996         0.0255        85.2494        -999.25        53.8246       67.02442         0.8318         0.8959        52.0687         1.9095         0.9136       -42.2949       -10.5502      0.7239239       0.912753
      9415.0000        15.6653         0.0168        83.1602        -999.25        52.5917       65.06625         0.8072          0.929        51.0939         1.9099         1.2545        -44.692       -12.9412      0.6822606      0.8883551
      9415.5000          14.84         0.0074        82.0381        -999.25        51.4287       63.21832         0.7776         0.9032           47.7         1.9687         2.1001       -45.3569       -13.5999      0.6429428      0.8816337
