#------------------------------------------------------------------------------
# Created by    : vladimir.rabinovich
# Created on    : 09/19/2023 17:21:14
#------------------------------------------------------------------------------
~Version Information Section
VERS.           2.0     :   CWLS log ASCII Standard - VERSION 2.0
WRAP.           NO      :   One line per depth step
~Well Information Section
#MNEM       .UNIT                                         VALUE :DESCRIPTION
#------------------------------------------------------------------------------
STRT        .FT                                            2600 :START DEPTH
STOP        .FT                                          9205.5 :STOP DEPTH
STEP        .FT                                             0.5 :STEP      
NULL        .                                           -999.25 :NULL      
COMP        .                              MCMORAN OIL & GAS CO :COMPANY   
WELL        .                                OCS 00757 ST00BP00 :WELL      
FLD         .                           WEST CAMERON BLOCK 0118 :FIELD     
LOC         .                                                   :LOCATION  
CNTY        .                                      WEST CAMERON :LOCATION  
STAT        .                                         LOUISIANA :STATE     
CTRY        .                                     UNITED STATES :COUNTRY   
SRVC        .                                                   :SERVICE COMPANY
DATE        .                             9/13/2023 11:18:49 AM :LOG DATE  
API         .                                    17700410700000 :API NUMBER
UWI         .                                    17700410700000 :UNIQUE WELL ID
XCOORD      .                                  1436864.54905534 :SURFACE X 
YCOORD      .                                  10703419.9985863 :SURFACE Y 
LAT         .                                        29.4912718 :LATITUDE  
LON         .                                       -93.6400205 :LONGITUDE 
ELEV        .FT                                             118 :ELEVATION VALUE
ELEV_TYPE   .                                                KB :ELEVATION REFERENCE TYPE
~Curve Information Section
#MNEM       .UNIT                                      API CODE :CURVE DESCRIPTION
#------------------------------------------------------------------------------
DEPT        .FT                                                 :DEPTH     
CAL         .IN                                                 :          
CNC         .%                                                  :          
DT24        .US/F                                               :          
GR          .GAPI                                               :          
GR_NORM     .GAPI                                               :GammaRay Normalized
M0C6        .MMHO                                               :          
M2R1        .OHMM                                               :          
M2R2        .OHMM                                               :          
M2R3        .OHMM                                               :          
M2R6        .OHMM                                               :          
M2R9        .OHMM                                               :          
M2RX        .OHMM                                               :          
PORZ        .%                                                  :          
RWAZ        .OHMM                                               :          
SP          .MV                                                 :          
SP_NORM     .MV                                                 :SP Normalized
TTEN        .LB/F                                               :          
VSH_GR      .V/V                                                :Volume of Shale from GR
VSH_SP      .V/V                                                :Volume of Shale from SP
ZCOR        .G/CC                                               :          
~A        DEPTH            CAL            CNC           DT24             GR        GR_NORM           M0C6           M2R1           M2R2           M2R3           M2R6           M2R9           M2RX           PORZ           RWAZ             SP        SP_NORM           TTEN         VSH_GR         VSH_SP           ZCOR
# ...
      7436.0000          9.814         29.234         95.401         44.956        34.2444       3338.803          0.484          0.331          0.292          0.273          0.269          0.272         30.994          0.035         -68.03       -70.7864       3234.411      0.0264766              0         -0.018
      7436.5000          9.817         29.247         95.885          46.51       36.68347       3438.676          0.473           0.32          0.283          0.265          0.261          0.264         30.567          0.033        -67.975       -70.7365       3237.684     0.07837166              0         -0.013
      7437.0000          9.813         29.995         96.276         49.761       41.78316       3523.859          0.468          0.316          0.278          0.261          0.257           0.26         30.393          0.032        -68.059       -70.8257       3241.877      0.1868758              0         -0.006
      7437.5000          9.803         31.082         96.276         50.862         43.512       3593.289          0.466          0.314          0.276          0.259          0.255          0.258         30.483          0.032        -68.319       -71.0909       3245.048      0.2236597              0         -0.006
      7438.0000          9.792         32.023         96.155         49.192        40.8964       3646.337          0.457          0.311          0.273          0.257          0.253          0.256         30.465          0.032        -68.463       -71.2401       3244.839      0.1680085              0         -0.014
      7438.5000          9.787         31.752         96.179         47.793       38.70566       3683.827          0.438          0.304          0.268          0.252          0.248          0.251         30.143          0.031         -68.19       -70.9722       3242.027       0.121397              0          -0.02
      7439.0000          9.791         30.523         96.176         48.096       39.18338       3705.537           0.42          0.297          0.262          0.247          0.243          0.245         29.767          0.029        -67.444       -70.2314       3238.323      0.1315614              0         -0.017
      7439.5000            9.8         29.914         96.117         49.324       41.11134       3711.115           0.41          0.293          0.259          0.245           0.24          0.242         29.686          0.029        -66.463       -69.2556       3237.157      0.1725818     0.01078841         -0.009
      7440.0000          9.804          30.18         96.015         50.108       42.34318       3698.235           0.41          0.293          0.258          0.244          0.239          0.241         29.802          0.029        -65.768       -68.5658       3240.141      0.1987911     0.02078546              0
      7440.5000          9.797         30.431         95.734         50.428       42.84756       3665.597          0.417          0.296           0.26          0.246          0.241          0.243          29.78          0.029        -65.695       -68.4979       3242.766      0.2095226     0.02176954          0.001
      7441.0000           9.79         30.336         95.519         50.524       43.00074       3612.377          0.436          0.305          0.267          0.252          0.247          0.249         29.491          0.029        -65.942       -68.7501        3242.12      0.2127818     0.01811451         -0.003
      7441.5000          9.788         29.794           95.4         50.946       43.66503       3540.523          0.466          0.321          0.279          0.263          0.257          0.259          29.03          0.029        -66.018       -68.8313       3241.274      0.2269156      0.0169377              0
      7442.0000          9.794         29.281         95.236         51.339       44.28386       3454.233          0.496          0.338          0.293          0.276          0.268          0.271         28.667           0.03        -65.675       -68.4935       3241.373       0.240082     0.02183334          0.009
      7442.5000          9.813         29.374         95.644         51.293        44.2144       3361.978          0.524          0.357          0.308          0.289          0.281          0.284         28.687          0.031        -64.869       -67.6926       3240.798      0.2386042     0.03344063          0.009
      7443.0000          9.845         29.708         96.688         51.548       44.61686       3273.222          0.547          0.376          0.325          0.304          0.294          0.298         28.684          0.033        -63.881       -66.7098       3239.718      0.2471672     0.04768405          0.006
      7443.5000           9.88         29.457         95.505         52.714       46.44762       3185.095          0.565          0.395          0.343          0.321          0.311          0.317         27.508          0.032        -62.995        -65.829        3238.64      0.2861196     0.06044924          0.013
      7444.0000          9.913         28.215          90.23         53.006       46.90809       3122.167          0.598          0.422          0.366          0.342          0.332           0.34         24.935          0.028        -62.112       -64.9511       3239.125      0.2959169     0.07317242          0.008
      7444.5000          9.941         26.684         85.881         52.013       45.35406       3090.075          0.648          0.451           0.39          0.365          0.354          0.364         23.036          0.025        -61.685       -64.5293       3243.485      0.2628525     0.07928555         -0.014
      7445.0000          9.958          26.31           84.7         51.329       44.28433       3088.698          0.642          0.447          0.389          0.364          0.355          0.366         24.006          0.027        -62.574       -65.4235       3248.051      0.2400921     0.06632609         -0.029
      7445.5000           9.97         27.592         86.679         51.244       44.15372        3111.63          0.572          0.407          0.359          0.338          0.331          0.341         26.908          0.033        -64.196       -67.0507       3249.303      0.2373133     0.04274352          -0.02
      7446.0000          9.982         29.522          92.86         51.204       44.09367       3147.132          0.507          0.368          0.328          0.311          0.306          0.315         29.295          0.036         -64.91       -67.7699       3248.124      0.2360355     0.03232033         -0.004
      7446.5000          9.988         30.987         97.835         50.806       43.47234       3180.013          0.461          0.339          0.304          0.291          0.287          0.295         30.067          0.036        -64.064        -66.929       3247.838      0.2228157     0.04450724          0.001
      7447.0000          9.981         32.172         99.382         50.696       43.30254       3194.517          0.422          0.316          0.285          0.274          0.271          0.278          29.42          0.032        -61.852       -64.7222       3249.013      0.2192031     0.07648988          0.002
      7447.5000          9.976         32.455          99.99         50.862       43.56547       3176.703          0.413           0.31           0.28           0.27          0.268          0.275         28.138          0.029         -58.54       -61.4154       3248.873      0.2247972      0.1244145          0.005
      7448.0000          9.988         31.145         99.927          51.06       43.87857       3116.915          0.451          0.331          0.298          0.288          0.286          0.294         27.228          0.029        -55.262       -58.1425       3243.091       0.231459      0.1718478          0.011
      7448.5000         10.022         29.557         98.689         51.477       44.53502       3010.741          0.509          0.364          0.326          0.317          0.316          0.324         26.942          0.031        -53.494       -56.3797       3236.592       0.245426      0.1973957          0.011
