#------------------------------------------------------------------------------
# Created by    : vladimir.rabinovich
# Created on    : 09/19/2023 17:21:57
#------------------------------------------------------------------------------
~Version Information Section
VERS.           2.0     :   CWLS log ASCII Standard - VERSION 2.0
WRAP.           NO      :   One line per depth step
~Well Information Section
#MNEM       .UNIT                                         VALUE :DESCRIPTION
#------------------------------------------------------------------------------
STRT        .FT                                             570 :START DEPTH
STOP        .FT                                           10083 :STOP DEPTH
STEP        .FT                                             0.5 :STEP      
NULL        .                                           -999.25 :NULL      
COMP        .                                BP EXPLORATION INC :COMPANY   
WELL        .                               OCS G10548 ST00BP00 :WELL      
FLD         .                                           WILDCAT :FIELD     
LOC         .                                                   :LOCATION  
CNTY        .                                      WEST CAMERON :LOCATION  
STAT        .                                         LOUISIANA :STATE     
CTRY        .                                     UNITED STATES :COUNTRY   
SRVC        .                                                   :SERVICE COMPANY
DATE        .                             9/13/2023 11:18:09 AM :LOG DATE  
API         .                                    17700408010000 :API NUMBER
UWI         .                                    17700408010000 :UNIQUE WELL ID
XCOORD      .                                  1469734.01149431 :SURFACE X 
YCOORD      .                                  10675810.5973196 :SURFACE Y 
LAT         .                                        29.4157778 :LATITUDE  
LON         .                                        -93.536275 :LONGITUDE 
ELEV        .FT                                              80 :ELEVATION VALUE
ELEV_TYPE   .                                                KB :ELEVATION REFERENCE TYPE
~Curve Information Section
#MNEM       .UNIT                                      API CODE :CURVE DESCRIPTION
#------------------------------------------------------------------------------
DEPT        .FT                                                 :DEPTH     
CALI        .IN                                                 :          
DPHI        .%                                                  :          
GR          .GAPI                                               :          
GR_1        .GAPI                                               :          
GR_NORM     .GAPI                                               :GammaRay Normalized
ILD         .OHMM                                               :          
ILM         .OHMM                                               :          
NPHI        .%                                                  :          
SFL         .OHMM                                               :          
SP          .MV                                                 :          
SP_NORM     .MV                                                 :SP Normalized
VSH_GR      .V/V                                                :Volume of Shale from GR
VSH_SP      .V/V                                                :Volume of Shale from SP
~A        DEPTH           CALI           DPHI             GR           GR_1        GR_NORM            ILD            ILM           NPHI            SFL             SP        SP_NORM         VSH_GR         VSH_SP
# ...
      3135.0000        11.7901        41.0986        -999.25         83.255       89.07633         0.6447          0.601        52.5987          0.579       -87.7808        -2.3399              1      0.9852217
      3135.5000        11.7164        39.4451        -999.25        78.8896       82.97553         0.6472         0.6025        51.4165         0.5671        -87.863        -2.4436              1      0.9807131
      3136.0000        11.6956        38.3985        -999.25        74.7322       77.16518         0.6505         0.6071        50.4515         0.5566       -88.0118         -2.614      0.9396846      0.9733043
      3136.5000        11.7164        38.0721        -999.25        73.3446       75.22058         0.6546         0.6148        49.9859         0.5478       -88.3126        -2.9363      0.8983102      0.9592913
      3137.0000        11.7793        37.8566        -999.25        71.8016       73.05894         0.6579         0.6233        48.9052         0.5494       -89.0775        -3.7227       0.852318         0.9251
      3137.5000        11.8828        37.5583        -999.25        69.3862       69.67987         0.6606         0.6348        48.3242         0.5722       -90.4396        -5.1063      0.7804228      0.8649435
      3138.0000        11.9494        37.0015        -999.25        67.4779       67.00854         0.6623         0.6464        47.7346         0.6205       -92.3361        -7.0243      0.7235859      0.7815522
      3138.5000        11.9294        36.7471        -999.25         66.032       64.98244         0.6633         0.6579        47.1592          0.673       -94.2935        -9.0032      0.6804776      0.6955131
      3139.0000        11.7798        36.6893        -999.25        65.0016       63.53636         0.6611         0.6691        46.3535         0.7156        -95.984       -10.7152      0.6497098      0.6210783
      3139.5000         11.529         36.499        -999.25        63.5139       61.45205         0.6577         0.6798        45.2986         0.7439        -97.489       -12.2418      0.6053628      0.5547043
      3140.0000        11.3184        35.7921        -999.25        61.0774       58.04353         0.6514         0.6872         44.231         0.7422        -98.955       -13.7293       0.532841      0.4900305
      3140.5000        11.1772        34.8016        -999.25        58.2775       54.12766         0.6426         0.6897        43.0765         0.7352      -100.3885       -15.1843      0.4495247      0.4267696
      3141.0000        11.0699        33.6307        -999.25         56.266        51.3123         0.6318         0.6856        41.5129         0.7299      -101.8437        -16.661      0.3896234      0.3625652
      3141.5000        10.9957          32.59        -999.25        58.9103       54.99495         0.6116         0.6729        39.1949         0.7405      -103.4509       -18.2897      0.4679776      0.2917522
      3142.0000        10.9456        31.9789        -999.25        60.0862       56.62802         0.5845         0.6562        37.3234         0.7572      -105.0929       -19.9532      0.5027238      0.2194261
      3142.5000        10.9277        32.3593        -999.25        59.8193       56.24758         0.5528         0.6335        36.4742         0.7526      -106.5184       -21.4002      0.4946293      0.1565131
      3143.0000        10.9324         34.045        -999.25        58.1444       53.90198         0.5197         0.6035        36.3585         0.7029      -107.6664       -22.5697       0.444723      0.1056652
      3143.5000        10.9765        37.1511        -999.25        56.2604       51.26443         0.4901         0.5695         39.598         0.6209      -108.5436       -23.4685      0.3886048     0.06658695
      3144.0000         11.067        39.1078        -999.25        55.4528       50.12931         0.4628         0.5347        44.4198         0.5678      -109.2181       -24.1645      0.3644535     0.03632612
      3144.5000        11.1352        38.9521        -999.25        55.2617       49.85465         0.4369         0.5012        46.3197         0.5296      -109.7992       -24.7671      0.3586096     0.01012611
      3145.0000         11.186        37.3579        -999.25        55.3672        49.9938         0.4141         0.4687        45.8597         0.4956       -110.168       -25.1574      0.3615703              0
      3145.5000         11.224        35.9376        -999.25        52.9839       46.65952         0.3925         0.4374        43.9493         0.4587      -110.4288       -25.4397      0.2906281              0
      3146.0000        11.2945        36.9009        -999.25        49.5593       41.87193          0.373         0.4109        43.1188         0.4243        -110.46       -25.4924      0.1887645              0
      3146.5000        11.3897         38.684        -999.25         47.949       39.61636          0.356         0.3876        42.7408         0.4009      -110.3542       -25.4081      0.1407737              0
      3147.0000        11.5063        39.2452        -999.25        49.6612        41.9981         0.3451         0.3694         42.685         0.3928      -110.0696        -25.145      0.1914489              0
      3147.5000         11.618         39.117        -999.25        48.5209       40.39864         0.3368         0.3589        43.2945         0.4029      -109.6869       -24.7839      0.1574179    0.009395682
      3148.0000        11.7266        38.7725        -999.25        47.9199       39.55174         0.3304         0.3536        44.7809         0.4163      -109.6425        -24.761      0.1393988     0.01039132
      3148.5000        11.7911        38.9099        -999.25        48.5744       40.45726         0.3267         0.3529        46.3609         0.4166      -109.7993       -24.9393      0.1586651    0.002639107
      3149.0000        11.8206        39.2687        -999.25        50.8821       43.67012         0.3275         0.3576        48.1403         0.4081      -109.8962       -25.0577      0.2270238              0
      3149.5000        11.8512        39.8141        -999.25        53.0374       46.67012         0.3325         0.3648        50.0065         0.3975      -109.7396       -24.9226      0.2908537    0.003365226
      3150.0000        11.8825        40.0327        -999.25        52.9487       46.53837         0.3394         0.3734        51.5281         0.4022      -109.2228       -24.4273      0.2880505     0.02490002
      3150.5000        11.9292        40.1441        -999.25        52.5188       45.93042         0.3464          0.382         52.264         0.4279      -108.5436       -23.7696      0.2751154     0.05349566
      3151.0000        11.9762        39.7646        -999.25        53.0468       46.65924          0.353         0.3904        52.1278         0.4566      -107.8593       -23.1068      0.2906221     0.08231304
      3151.5000        12.0208        39.1649        -999.25        53.2315       46.90908          0.356         0.3957        51.3056         0.4847       -107.205       -22.4741      0.2959379      0.1098217
      3152.0000        12.0361        38.5236        -999.25          51.35       44.27515         0.3579         0.3998        50.6459         0.5023      -106.6033       -21.8939      0.2398967      0.1350478
      3152.5000        12.0452        38.0751        -999.25        49.5637       41.77409         0.3572         0.3969        50.2794         0.4988      -106.1777       -21.4898      0.1866829      0.1526174
      3153.0000        12.0274         38.733        -999.25        48.4642       40.23144         0.3549         0.3939        50.1601         0.4746      -106.6304        -21.964      0.1538604          0.132
      3153.5000        11.9727        39.4066        -999.25        48.0592       39.65824         0.3527          0.387         50.267         0.4434      -106.9586       -22.3137      0.1416646      0.1167957
