#------------------------------------------------------------------------------
# Created by    : vladimir.rabinovich
# Created on    : 09/19/2023 17:20:44
#------------------------------------------------------------------------------
~Version Information Section
VERS.           2.0     :   CWLS log ASCII Standard - VERSION 2.0
WRAP.           NO      :   One line per depth step
~Well Information Section
#MNEM       .UNIT                                         VALUE :DESCRIPTION
#------------------------------------------------------------------------------
STRT        .FT                                             194 :START DEPTH
STOP        .FT                                           14521 :STOP DEPTH
STEP        .FT                                             0.5 :STEP      
NULL        .                                           -999.25 :NULL      
COMP        .                             MAGNOLIA PETROLEUM CO :COMPANY   
WELL        .                                OCS 00043 ST00BP00 :WELL      
FLD         .                          EUGENE ISLAND BLOCK 0089 :FIELD     
LOC         .                                                   :LOCATION  
CNTY        .                                     EUGENE ISLAND :LOCATION  
STAT        .                                         LOUISIANA :STATE     
CTRY        .                                     UNITED STATES :COUNTRY   
SRVC        .                                                   :SERVICE COMPANY
DATE        .                             9/13/2023 11:18:42 AM :LOG DATE  
API         .                                    17709003920000 :API NUMBER
UWI         .                                    17709003920000 :UNIQUE WELL ID
XCOORD      .                                  2056408.80151155 :SURFACE X 
YCOORD      .                                  10562022.8372996 :SURFACE Y 
LAT         .                                        29.0974849 :LATITUDE  
LON         .                                       -91.6970667 :LONGITUDE 
ELEV        .FT                                              50 :ELEVATION VALUE
ELEV_TYPE   .                                                KB :ELEVATION REFERENCE TYPE
~Curve Information Section
#MNEM       .UNIT                                      API CODE :CURVE DESCRIPTION
#------------------------------------------------------------------------------
DEPT        .FT                                                 :DEPTH     
ASN         .OHMM                                               :          
LAT         .OHMM                                               :          
LN          .OHMM                                               :          
SP          .MV                                                 :          
SP_NORM     .MV                                                 :SP Normalized
VSH_SP      .V/V                                                :Volume of Shale from SP
~A        DEPTH            ASN            LAT             LN             SP        SP_NORM         VSH_SP
# ...
      3044.0000         0.2586         0.0413         0.1827      -106.7008      -17.32131     0.03992283
      3044.5000         0.2589         0.0402         0.1832      -107.0352      -17.65869     0.02007698
      3045.0000         0.2592         0.0401         0.1838      -107.1979      -17.82436     0.01033155
      3045.5000         0.2595         0.0399         0.1844      -107.2854      -17.91483    0.005009819
      3046.0000           0.26         0.0398         0.1849       -107.373      -18.00541              0
      3046.5000         0.2605         0.0397         0.1855      -107.4607      -18.09608              0
      3047.0000          0.261         0.0395         0.1861      -107.5483      -18.18666              0
      3047.5000         0.2615         0.0394         0.1866       -107.636      -18.27734              0
      3048.0000          0.262         0.0392         0.1872       -107.709       -18.3533              0
      3048.5000         0.2619         0.0391         0.1877      -107.6997      -18.34698              0
      3049.0000         0.2615         0.0394         0.1883      -107.6904      -18.34065              0
      3049.5000         0.2611         0.0397         0.1888      -107.6812      -18.33443              0
      3050.0000         0.2607           0.04         0.1894      -107.6719       -18.3281              0
      3050.5000         0.2603         0.0404         0.1899      -107.6626      -18.32177              0
      3051.0000           0.26         0.0407         0.1905      -107.6532      -18.31535              0
      3051.5000         0.2599         0.0411          0.191      -107.6439      -18.30902              0
      3052.0000         0.2598         0.0414         0.1913      -107.7311       -18.3992              0
      3052.5000         0.2598         0.0424         0.1915       -107.844      -18.51508              0
      3053.0000         0.2598         0.0446         0.1917      -107.9569      -18.63094              0
      3053.5000         0.2598         0.0468          0.192      -108.0698      -18.74682              0
      3054.0000         0.2597          0.049         0.1922      -108.1827      -18.86269              0
      3054.5000           0.26         0.0512         0.1924      -108.2957      -18.97867              0
      3055.0000          0.261         0.0534         0.1927      -108.4086      -19.09454              0
      3055.5000          0.262         0.0556         0.1929      -108.5215      -19.21041              0
      3056.0000         0.2631         0.0578         0.1931      -108.6345      -19.32639              0
      3056.5000         0.2641         0.0582         0.1934      -108.7386      -19.43346              0
      3057.0000         0.2651         0.0581         0.1937      -108.8198      -19.51764              0
      3057.5000          0.266         0.0579          0.194       -108.901      -19.60181              0
      3058.0000         0.2663         0.0578         0.1943      -108.9822      -19.68598              0
      3058.5000         0.2666         0.0577         0.1946      -109.0634      -19.77016              0
      3059.0000         0.2669         0.0575         0.1949      -109.1444      -19.85413              0
      3059.5000         0.2671         0.0574         0.1952      -109.2256      -19.93831              0
      3060.0000         0.2674         0.0576         0.1955      -109.3068      -20.02248              0
      3060.5000         0.2677          0.058          0.195      -109.3879      -20.10655              0
      3061.0000         0.2679         0.0584         0.1931      -109.4691      -20.19073              0
      3061.5000         0.2681         0.0588         0.1912       -109.474       -20.1986              0
      3062.0000         0.2683         0.0592         0.1894      -109.4174      -20.14497              0
      3062.5000         0.2684         0.0596         0.1875      -109.3607      -20.09125              0
      3063.0000         0.2686           0.06         0.1856      -109.3042      -20.03772              0
      3063.5000         0.2687         0.0604         0.1838      -109.2476      -19.98409              0
      3064.0000         0.2689         0.0608         0.1819       -109.191      -19.93047              0
      3064.5000         0.2691         0.0612         0.1799      -109.1344      -19.87685              0
      3065.0000         0.2693         0.0616         0.1769      -109.0778      -19.82321              0
      3065.5000         0.2697          0.062          0.174      -109.0212      -19.76959              0
      3066.0000           0.27         0.0623         0.1711      -108.8304      -19.58176              0
      3066.5000         0.2703          0.063         0.1682      -108.6036      -19.35794              0
      3067.0000         0.2706         0.0642         0.1653      -108.3767      -19.13402              0
      3067.5000          0.271         0.0654         0.1624      -108.1498      -18.91009              0
      3068.0000         0.2709         0.0666         0.1574       -107.923      -18.68626              0
      3068.5000         0.2707         0.0679         0.1518       -107.696      -18.46223              0
      3069.0000         0.2705         0.0691         0.1462      -107.5729      -18.34211              0
      3069.5000         0.2703           0.07         0.1405      -107.4519      -18.22408              0
      3070.0000         0.2714          0.071         0.1349      -107.3309      -18.10606              0
      3070.5000          0.273          0.072         0.1292      -107.2101      -17.98823   0.0006924798
      3071.0000         0.2753         0.0744         0.1228      -107.0892      -17.87031    0.007628946
      3071.5000         0.2845         0.0769         0.1164      -107.0021      -17.78618     0.01257773
      3072.0000         0.2936         0.0795           0.11       -106.968      -17.75506     0.01440834
      3072.5000         0.2892         0.0821         0.1035       -106.934      -17.72402       0.016234
      3073.0000         0.2822         0.0847         0.0971      -106.8999       -17.6929     0.01806461
      3073.5000          0.273         0.0889         0.0907      -106.8657      -17.66167      0.0199015
      3074.0000         0.2638         0.0939         0.0846      -106.8591      -17.65805     0.02011468
      3074.5000         0.2605          0.099         0.0788      -106.9551      -17.75703     0.01429255
      3075.0000         0.2603         0.1042         0.0729       -107.051       -17.8559    0.008476706
      3075.5000         0.2659           0.11          0.067      -107.1471      -17.95497    0.002648746
      3076.0000         0.2716         0.1157         0.0611       -107.243      -18.05384              0
      3076.5000         0.2772         0.1214         0.0553      -107.3391      -18.15292              0
      3077.0000         0.2828         0.1268         0.0494      -107.4351      -18.25189              0
      3077.5000          0.286          0.132         0.0467      -107.5524      -18.37216              0
      3078.0000         0.2892         0.1372         0.0443      -107.6729      -18.49564              0
      3078.5000         0.2924         0.1423         0.0419      -107.7933      -18.61901              0
      3079.0000         0.2956         0.1454         0.0395      -107.9137      -18.74239              0
      3079.5000         0.2988          0.147         0.0371      -108.0342      -18.86587              0
      3080.0000         0.2992         0.1485         0.0347      -107.9098      -18.74443              0
      3080.5000         0.2996         0.1501         0.0323      -107.5553      -18.39291              0
      3081.0000         0.2999         0.1517         0.0301      -107.2008      -18.04138              0
      3081.5000         0.2989         0.1533         0.0295      -106.9995      -17.84306    0.009232016
