#------------------------------------------------------------------------------
# Created by    : vladimir.rabinovich
# Created on    : 09/19/2023 17:21:14
#------------------------------------------------------------------------------
~Version Information Section
VERS.           2.0     :   CWLS log ASCII Standard - VERSION 2.0
WRAP.           NO      :   One line per depth step
~Well Information Section
#MNEM       .UNIT                                         VALUE :DESCRIPTION
#------------------------------------------------------------------------------
STRT        .FT                                            3520 :START DEPTH
STOP        .FT                                            8510 :STOP DEPTH
STEP        .FT                                             0.5 :STEP      
NULL        .                                           -999.25 :NULL      
COMP        .                      SPINNAKER EXPLORATION CO LLC :COMPANY   
WELL        .                               OCS G21537 ST00BP00 :WELL      
FLD         .                                           WILDCAT :FIELD     
LOC         .                                                   :LOCATION  
CNTY        .                                      WEST CAMERON :LOCATION  
STAT        .                                         LOUISIANA :STATE     
CTRY        .                                     UNITED STATES :COUNTRY   
SRVC        .                                                   :SERVICE COMPANY
DATE        .                             9/13/2023 11:18:49 AM :LOG DATE  
API         .                                    17700410830000 :API NUMBER
UWI         .                                    17700410830000 :UNIQUE WELL ID
XCOORD      .                                   1446389.6294369 :SURFACE X 
YCOORD      .                                  10699667.6074025 :SURFACE Y 
LAT         .                                        29.4810902 :LATITUDE  
LON         .                                       -93.6100108 :LONGITUDE 
ELEV        .FT                                              91 :ELEVATION VALUE
ELEV_TYPE   .                                                KB :ELEVATION REFERENCE TYPE
~Curve Information Section
#MNEM       .UNIT                                      API CODE :CURVE DESCRIPTION
#------------------------------------------------------------------------------
DEPT        .FT                                                 :DEPTH     
CAL         .IN                                                 :          
CNC         .%                                                  :          
GR          .GAPI                                               :          
GR_NORM     .GAPI                                               :GammaRay Normalized
M0C6        .MMHO                                               :          
M2R1        .OHMM                                               :          
M2R2        .OHMM                                               :          
M2R3        .OHMM                                               :          
M2R6        .OHMM                                               :          
M2R9        .OHMM                                               :          
M2RX        .OHMM                                               :          
PORZ        .%                                                  :          
SP          .MV                                                 :          
SP_NORM     .MV                                                 :SP Normalized
TEN         .LB/F                                               :          
VSH_GR      .V/V                                                :Volume of Shale from GR
VSH_SP      .V/V                                                :Volume of Shale from SP
ZCOR        .G/CC                                               :          
~A        DEPTH            CAL            CNC             GR        GR_NORM           M0C6           M2R1           M2R2           M2R3           M2R6           M2R9           M2RX           PORZ             SP        SP_NORM            TEN         VSH_GR         VSH_SP           ZCOR
# ...
      4850.0000         10.671         43.713         96.277       69.60065       1530.354          0.731          0.709          0.692          0.691           0.69          0.701         26.843        -13.513       -11.6082        572.774      0.7787372      0.5996583          0.044
      4850.5000           10.7         43.445          100.2       73.86187       1468.229          0.718          0.717          0.708          0.709          0.708           0.72         27.607        -10.104        -8.1992        578.542      0.8694015         0.7417           0.06
      4851.0000         10.717         42.115         99.778       73.40241       1412.387          0.712          0.721          0.717          0.719          0.718          0.733          29.05         -9.966        -8.0612        570.775      0.8596258        0.74745          0.056
      4851.5000         10.743         40.288         97.624       71.06119       1364.385          0.743           0.75          0.749          0.752          0.752          0.769          29.29         -11.88        -9.9752        566.553      0.8098125         0.6677          0.034
      4852.0000         10.792         38.637         96.363       69.69018       1324.328          0.801          0.803          0.803          0.806          0.807          0.827         28.858        -13.484       -11.5792        577.076      0.7806421      0.6008667          0.012
      4852.5000         10.855         37.963         95.164       68.38654       1291.419          0.838          0.837          0.838          0.842          0.844          0.868         27.767        -13.811       -11.9062        582.328       0.752905      0.5872416          0.007
      4853.0000         10.918         37.786         93.252       66.30824       1264.588          0.828          0.832          0.834          0.839          0.843          0.868         26.102        -13.709       -11.8042        573.439      0.7086859      0.5914916          0.016
      4853.5000         11.001         37.784         92.367       65.34573           1243          0.803           0.82          0.824           0.83          0.835          0.863         25.167        -13.757       -11.8522         565.04      0.6882069      0.5894917          0.026
      4854.0000         11.143         38.683         93.415       66.48337       1226.225          0.799          0.832           0.84          0.848          0.856          0.886         24.525        -13.487       -11.5822        561.393      0.7124121      0.6007417          0.029
      4854.5000         11.326         39.417         95.811       69.08556       1214.201          0.803          0.852          0.867          0.877          0.887          0.919         23.981        -12.364       -10.4592         557.67       0.767778      0.6475334          0.029
      4855.0000         11.489         38.855         98.954       72.49934       1206.948          0.785          0.847          0.867          0.879           0.89          0.923         23.789        -10.281        -8.3762        557.672      0.8404115       0.734325          0.028
      4855.5000         11.604         39.076        101.274       75.01897       1204.366          0.752          0.818          0.842          0.855          0.868          0.901         23.836         -7.946        -6.0412        560.764      0.8940206      0.8316166          0.029
      4856.0000         11.675         42.865        102.583       76.44017       1206.019          0.733          0.799          0.827          0.841          0.855          0.887         24.044         -6.497        -4.5922        563.884      0.9242589      0.8919917          0.039
      4856.5000         11.657         47.117         102.68       76.54458        1211.12           0.74          0.805          0.836          0.852          0.867          0.899         24.451         -6.322        -4.4172        566.735      0.9264804      0.8992833          0.048
      4857.0000         11.546         46.615        101.234       74.97256       1218.607          0.748          0.813          0.848          0.865          0.882          0.913         24.877         -6.616        -4.7112        565.759      0.8930333      0.8870333          0.047
      4857.5000         11.413         45.263        100.865       74.57069       1227.331          0.723          0.787          0.825          0.843           0.86          0.889         25.284         -6.354        -4.4492        562.992      0.8844827        0.89795          0.039
      4858.0000         11.317         47.769        103.551       77.48795       1236.218          0.678          0.744          0.783          0.802          0.818          0.844         25.803         -5.399        -3.4942        565.435      0.9465522      0.9377417          0.029
      4858.5000         11.233         51.094        105.802        79.9326       1244.406          0.645          0.716          0.757          0.776          0.792          0.816         26.226         -4.423        -2.5182        571.854       0.998566      0.9784083          0.023
      4859.0000         11.139         51.327        105.953       80.09569       1251.342          0.628          0.706          0.749          0.769          0.785          0.807         26.303         -3.903        -1.9982        573.015              1              1          0.022
      4859.5000          11.07         50.206        107.045       81.28112       1256.736          0.623          0.705           0.75          0.771          0.787          0.808          26.12         -3.667        -1.7622        568.294              1              1          0.024
      4860.0000         11.043         49.132        109.533       83.98327       1260.518          0.625          0.709          0.756          0.777          0.794          0.813         25.843         -3.268        -1.3632        564.559              1              1          0.027
      4860.5000         11.034         47.642        110.487       85.01878       1262.713          0.632          0.715          0.761          0.783          0.799          0.818         25.442         -2.604        -0.6992        565.413              1              1          0.037
      4861.0000         11.035         47.094        109.214       83.63474        1263.39          0.641          0.721          0.766          0.788          0.805          0.822         24.872         -2.216        -0.3112        564.796              1              1          0.045
      4861.5000         11.073         48.868        108.794       83.17744       1262.606           0.65          0.727          0.771          0.793          0.809          0.826         24.221         -2.346        -0.4412        561.125              1              1          0.043
      4862.0000         11.132         51.495        111.032       85.60797       1260.455          0.654          0.729          0.771          0.794          0.809          0.825         23.834         -2.551        -0.6462        563.743              1              1          0.033
      4862.5000         11.149         51.132        113.541       88.33292        1257.07          0.653          0.726          0.767          0.789          0.803          0.819         23.966         -2.579        -0.6742        570.164              1              1          0.029
      4863.0000           11.1         48.619        113.249        88.0147       1252.664          0.652          0.723          0.762          0.783          0.797          0.812         24.316          -2.61        -0.7052        567.474              1              1          0.041
      4863.5000         11.035         47.249        109.298        83.7211       1247.536          0.664          0.732           0.77          0.791          0.804          0.819         24.528         -2.954        -1.0492        560.292              1              1          0.057
