#------------------------------------------------------------------------------
# Created by    : vladimir.rabinovich
# Created on    : 09/19/2023 17:21:14
#------------------------------------------------------------------------------
~Version Information Section
VERS.           2.0     :   CWLS log ASCII Standard - VERSION 2.0
WRAP.           NO      :   One line per depth step
~Well Information Section
#MNEM       .UNIT                                         VALUE :DESCRIPTION
#------------------------------------------------------------------------------
STRT        .FT                                            2600 :START DEPTH
STOP        .FT                                          9205.5 :STOP DEPTH
STEP        .FT                                             0.5 :STEP      
NULL        .                                           -999.25 :NULL      
COMP        .                              MCMORAN OIL & GAS CO :COMPANY   
WELL        .                                OCS 00757 ST00BP00 :WELL      
FLD         .                           WEST CAMERON BLOCK 0118 :FIELD     
LOC         .                                                   :LOCATION  
CNTY        .                                      WEST CAMERON :LOCATION  
STAT        .                                         LOUISIANA :STATE     
CTRY        .                                     UNITED STATES :COUNTRY   
SRVC        .                                                   :SERVICE COMPANY
DATE        .                             9/13/2023 11:18:49 AM :LOG DATE  
API         .                                    17700410700000 :API NUMBER
UWI         .                                    17700410700000 :UNIQUE WELL ID
XCOORD      .                                  1436864.54905534 :SURFACE X 
YCOORD      .                                  10703419.9985863 :SURFACE Y 
LAT         .                                        29.4912718 :LATITUDE  
LON         .                                       -93.6400205 :LONGITUDE 
ELEV        .FT                                             118 :ELEVATION VALUE
ELEV_TYPE   .                                                KB :ELEVATION REFERENCE TYPE
~Curve Information Section
#MNEM       .UNIT                                      API CODE :CURVE DESCRIPTION
#------------------------------------------------------------------------------
DEPT        .FT                                                 :DEPTH     
CAL         .IN                                                 :          
CNC         .%                                                  :          
DT24        .US/F                                               :          
GR          .GAPI                                               :          
GR_NORM     .GAPI                                               :GammaRay Normalized
M0C6        .MMHO                                               :          
M2R1        .OHMM                                               :          
M2R2        .OHMM                                               :          
M2R3        .OHMM                                               :          
M2R6        .OHMM                                               :          
M2R9        .OHMM                                               :          
M2RX        .OHMM                                               :          
PORZ        .%                                                  :          
RWAZ        .OHMM                                               :          
SP          .MV                                                 :          
SP_NORM     .MV                                                 :SP Normalized
TTEN        .LB/F                                               :          
VSH_GR      .V/V                                                :Volume of Shale from GR
VSH_SP      .V/V                                                :Volume of Shale from SP
ZCOR        .G/CC                                               :          
~A        DEPTH            CAL            CNC           DT24             GR        GR_NORM           M0C6           M2R1           M2R2           M2R3           M2R6           M2R9           M2RX           PORZ           RWAZ             SP        SP_NORM           TTEN         VSH_GR         VSH_SP           ZCOR
# ...
      6994.0000         10.296         33.281        103.207         64.107       65.87495       1124.527          0.852          0.884          0.902          0.912           0.91          0.923         18.688           0.04        -12.678       -10.7732       3113.135      0.6994669      0.8839821          0.046
      6994.5000         10.316         32.396         96.765         61.835       63.09591       1109.114          0.911          0.938          0.953          0.963           0.96          0.974          18.36          0.041         -13.24       -11.3352       3117.673      0.6403384       0.875594          0.036
      6995.0000          10.32         31.809         93.461         57.591       57.90298       1098.797          1.004          1.034          1.049          1.057          1.055           1.07         17.682          0.042        -13.885       -11.9802       3121.733      0.5298506      0.8659672          0.043
      6995.5000         10.314         31.337          93.59         57.094        57.2967       1093.881          1.044          1.084          1.102           1.11          1.108          1.124         17.029           0.04        -14.207       -12.3022       3121.125       0.516951      0.8611612          0.039
      6996.0000          10.31         30.562          98.66         61.284       62.42768       1094.466          0.954          1.007           1.03          1.038          1.037          1.052         17.515           0.04        -13.751       -11.8462       3119.657      0.6261209      0.8679672          0.021
      6996.5000         10.309          29.86        105.086         64.952        66.9197       1100.362          0.837          0.899          0.927          0.935          0.936           0.95         18.967          0.043        -12.814       -10.9092       3121.615      0.7216958      0.8819522          0.021
      6997.0000         10.307         30.673        109.438         66.267       68.53145       1111.055          0.783          0.858          0.893          0.902          0.904          0.917          20.13          0.047        -12.091       -10.1862       3123.091      0.7559882      0.8927433          0.041
      6997.5000         10.308         33.637        109.466          68.61       71.40156       1125.682          0.774          0.862          0.905          0.916           0.92          0.932         20.304          0.049        -11.648        -9.7432       3115.252      0.8170545      0.8993552          0.058
      6998.0000         10.311         37.107        106.945         72.823        76.5607       1143.094           0.75          0.847          0.895          0.908          0.913          0.925         19.923          0.047        -11.129        -9.2242       3100.928      0.9268234      0.9071015          0.065
      6998.5000         10.304         39.537        106.842         75.975       80.42109       1161.932            0.7          0.796          0.846           0.86          0.866          0.877         19.883          0.044        -10.534        -8.6292       3093.672              1      0.9159821          0.064
      6999.0000         10.299         40.579        108.865         76.374       80.91158       1180.746          0.655          0.748          0.797          0.812          0.819          0.829         20.467          0.044        -10.128        -8.2232       3098.236              1      0.9220418          0.057
      6999.5000         10.314         39.307        111.406         75.419       79.74466       1198.103          0.634          0.722          0.772          0.788          0.796          0.806         21.019          0.045         -9.944        -8.0392       3105.407      0.9945672      0.9247881          0.052
      7000.0000         10.339         37.151        112.427         73.999       78.00854       1212.674          0.634          0.722          0.773          0.791          0.799          0.809          20.87          0.045         -9.791        -7.8862       3109.743      0.9576286      0.9270716          0.054
      7000.5000         10.361         36.648        112.077         72.158       75.75709        1223.28          0.648          0.738           0.79           0.81          0.818          0.828         20.287          0.043         -9.523        -7.6182       3112.731      0.9097252      0.9310716          0.055
      7001.0000         10.375         37.283        112.579         72.097        75.6845       1228.932          0.648          0.737          0.789           0.81          0.819          0.828         20.182          0.043         -9.151        -7.2462       3114.849      0.9081809      0.9366239          0.051
      7001.5000         10.376          37.17        114.263         73.573       77.49333       1228.925           0.62          0.702          0.752          0.773           0.78          0.789         20.887          0.044         -8.833        -6.9282       3114.751      0.9466667      0.9413701          0.047
      7002.0000         10.366         38.248        115.934         73.569       77.49063       1222.992           0.59          0.664           0.71           0.73          0.737          0.744         21.822          0.045         -8.735        -6.8302       3113.304      0.9466092      0.9428328          0.043
      7002.5000         10.371          42.05        114.765         72.483       76.16336       1211.509           0.59          0.661          0.704          0.724           0.73          0.737         22.249          0.047         -8.825        -6.9202       3112.329      0.9183694      0.9414896          0.039
      7003.0000         10.414         44.051        109.959         72.793       76.54491        1195.62          0.635          0.707          0.751          0.772          0.777          0.784         21.668          0.047         -8.974        -7.0692       3114.477      0.9264876      0.9392657          0.038
      7003.5000         10.473         40.984        103.489         74.753        78.9462       1177.208          0.716          0.795           0.84          0.862          0.867          0.875         20.055          0.045         -9.199        -7.2942       3116.995      0.9775787      0.9359075          0.042
      7004.0000         10.498         39.136         96.266         76.875       81.54578       1158.631          0.798          0.884           0.93          0.954          0.958          0.966         18.045          0.039         -9.608        -7.7032       3116.023              1       0.929803          0.048
      7004.5000          10.47         40.359         92.775         77.243       81.99832        1142.29          0.845          0.935          0.982          1.006          1.008          1.016         16.559          0.034        -10.106        -8.2012       3112.933              1      0.9223701          0.054
      7005.0000         10.418         40.795         95.462         74.967       79.21439        1130.11          0.849          0.942          0.989           1.01          1.012           1.02         16.149          0.033        -10.353        -8.4482       3111.948       0.983285      0.9186836          0.053
      7005.5000         10.384         38.206        101.409          72.14       75.75598       1123.142          0.823          0.916          0.963          0.982          0.983           0.99         16.523          0.033        -10.155        -8.2502       3114.477      0.9097017      0.9216388          0.047
      7006.0000          10.38         35.736        106.179         70.279       73.48005       1121.354          0.786          0.879          0.926          0.942          0.943           0.95          17.18          0.035          -9.78        -7.8752       3116.995      0.8612776      0.9272358          0.046
      7006.5000         10.378         35.195        108.995         69.395       72.40003       1123.737          0.758           0.85          0.896          0.911          0.911          0.917         18.093          0.037         -9.653        -7.7482       3116.023      0.8382986      0.9291313          0.052
