#------------------------------------------------------------------------------
# Created by    : vladimir.rabinovich
# Created on    : 09/19/2023 17:21:58
#------------------------------------------------------------------------------
~Version Information Section
VERS.           2.0     :   CWLS log ASCII Standard - VERSION 2.0
WRAP.           NO      :   One line per depth step
~Well Information Section
#MNEM       .UNIT                                         VALUE :DESCRIPTION
#------------------------------------------------------------------------------
STRT        .FT                                            3382 :START DEPTH
STOP        .FT                                           10910 :STOP DEPTH
STEP        .FT                                             0.5 :STEP      
NULL        .                                           -999.25 :NULL      
COMP        .                               B P EXPLORATION INC :COMPANY   
WELL        .                               OCS G07597 ST00BP00 :WELL      
FLD         .                           WEST CAMERON BLOCK 0045 :FIELD     
LOC         .                                                   :LOCATION  
CNTY        .                                      WEST CAMERON :LOCATION  
STAT        .                                         LOUISIANA :STATE     
CTRY        .                                     UNITED STATES :COUNTRY   
SRVC        .                                                   :SERVICE COMPANY
DATE        .                             9/13/2023 11:18:09 AM :LOG DATE  
API         .                                    17700407640000 :API NUMBER
UWI         .                                    17700407640000 :UNIQUE WELL ID
XCOORD      .                                  1473636.79229916 :SURFACE X 
YCOORD      .                                   10762774.556795 :SURFACE Y 
LAT         .                                        29.6550545 :LATITUDE  
LON         .                                       -93.5252479 :LONGITUDE 
ELEV        .FT                                              90 :ELEVATION VALUE
ELEV_TYPE   .                                                KB :ELEVATION REFERENCE TYPE
~Curve Information Section
#MNEM       .UNIT                                      API CODE :CURVE DESCRIPTION
#------------------------------------------------------------------------------
DEPT        .FT                                                 :DEPTH     
CALI        .IN                                                 :          
DRHO        .G/C3                                               :          
DT          .US/F                                               :          
GR          .GAPI                                               :          
GR_1        .GAPI                                               :          
GR_NORM     .GAPI                                               :GammaRay Normalized
ILD         .OHMM                                               :          
ILM         .OHMM                                               :          
NPHI        .%                                                  :          
RHOB        .G/C3                                               :          
SFL         .OHMM                                               :          
SP          .MV                                                 :          
SP_NORM     .MV                                                 :SP Normalized
VSH_GR      .V/V                                                :Volume of Shale from GR
VSH_SP      .V/V                                                :Volume of Shale from SP
~A        DEPTH           CALI           DRHO             DT             GR           GR_1        GR_NORM            ILD            ILM           NPHI           RHOB            SFL             SP        SP_NORM         VSH_GR         VSH_SP
# ...
      9417.0000        10.9412        -0.0327         97.955        29.9059        39.4726        31.8202         0.3548         0.3877        33.4944         2.1503         0.7182      -114.9634       -78.7729              0      0.1763815
      9417.5000        10.9555        -0.0355        98.7942        31.2014         38.265       33.72776         0.3621         0.3853        33.7398         2.1498          0.838      -115.5408       -79.3503     0.01548434      0.1701054
      9418.0000         10.964        -0.0376        98.7198        32.4171        37.4293       35.51777         0.3559         0.3717        33.5765         2.1472         0.6624      -116.2981       -80.1076     0.05356955      0.1618739
      9418.5000        10.9536        -0.0387        98.2821        33.1627        38.9263       36.61613         0.3397         0.3596        32.9434         2.1456         0.4872      -116.7935        -80.603     0.07693888      0.1564892
      9419.0000        10.9452        -0.0402        97.6179        33.2308        39.3599       36.71737         0.3201         0.3503        32.4805         2.1471         0.4107      -115.2094       -79.0189     0.07909288      0.1737076
      9419.5000         10.946        -0.0421        96.8492        33.0801        37.6885       36.49678         0.3111         0.3508        32.0322         2.1501         0.3897      -111.2781       -75.0876      0.0743995      0.2164391
      9420.0000        10.9639        -0.0441        96.2798          32.68        36.5765       35.90919         0.3318         0.3775        31.6771         2.1529         0.3968      -107.2021       -71.0116      0.0618976      0.2607435
      9420.5000        10.9977        -0.0447        96.2773         31.179        35.1643       33.70142         0.3774          0.446        31.4196         2.1606         0.4646      -105.1718       -68.9813     0.01492383      0.2828119
      9421.0000        11.0312        -0.0432        97.1727        29.1834        33.5848       30.76598         0.4442         0.4791        31.2024         2.1677         0.5982      -103.6819       -67.4914              0      0.2990065
      9421.5000        11.0287          -0.04        98.6388        28.5089        35.9055       29.77445         0.4885         0.4945         31.118         2.1839         0.7937      -101.0934       -64.9029              0      0.3271424
      9422.0000        11.0325        -0.0344       100.6041        34.4252        39.1564       38.48175         0.5098          0.507        31.1571         2.2027         0.6956       -95.8417       -59.6512       0.116633      0.3842261
      9422.5000        11.0609        -0.0251       102.7368        38.5309         41.637       44.52453         0.5299         0.5246        31.2281         2.2056         0.6027       -71.4862       -35.2957      0.2452028      0.6489598
      9423.0000        11.1234        -0.0134       104.9064        42.6266        46.1428       50.55273         0.5465         0.5472        31.3086         2.2157         0.5924       -69.1842       -32.9937      0.3734624      0.6739815
      9423.5000        11.2063         0.0012       107.2727        47.8037        52.3636       58.17212         0.5621         0.5732        31.4377         2.2204         0.5992        -40.611        -4.4205      0.5355771      0.9845598
      9424.0000        11.3132         0.0138       109.0414        53.6683        57.2278       66.80335         0.5839         0.6079        31.6742         2.2139         0.6315       -39.0788        -2.8883      0.7192203              1
      9424.5000        11.4148         0.0251       110.1016        58.0182        64.1851       73.20547         0.6143         0.6675        32.5465         2.2332         0.6977       -38.0685         -1.878      0.8554356              1
      9425.0000        11.4895         0.0343       109.1226        60.5444        68.4825       76.92408         0.6586         0.7529        37.6028         2.2607            0.9       -37.5559        -1.3654      0.9345549              1
      9425.5000        11.5216         0.0389       104.9457         60.826        71.0164       77.33951         0.7003         0.8415        39.1025         2.2814         1.1522       -37.6948        -1.5043      0.9433938              1
      9426.0000        11.5207         0.0355        99.1307        58.2275        74.0686       73.51685         0.7757         0.8768        41.4531         2.2924         1.1232          -38.2        -2.0095      0.8620607              1
      9426.5000        11.5079         0.0205        95.0031         54.914        74.8511        68.6419         0.7945         0.8869        41.3621         2.2788         1.0126       -38.9592        -2.7687      0.7583383              1
      9427.0000        11.5155         0.0056        93.6951         52.617         72.431       65.26295         0.7878         0.8551        40.4641         2.2479          0.942       -39.8168        -3.6263      0.6864457      0.9931924
      9427.5000        11.6167        -0.0014        97.3989        50.8581        67.0532       62.67564         0.7618         0.8069        41.0936           2.24         0.9008       -40.2454        -4.0549      0.6313966      0.9885337
      9428.0000        11.7305        -0.0145       102.6876        50.8357        63.9719       62.64389         0.7334         0.7675        42.1119         2.2343           0.88       -40.7268        -4.5363       0.630721      0.9833011
      9428.5000        11.7486        -0.0223       104.2065        53.8378        65.4739       67.06264         0.7073         0.7421        43.2784         2.1967         0.8525       -41.2643        -5.0738       0.724737      0.9774587
      9429.0000        11.7658        -0.0255       104.5865         55.142        67.7509       68.98302         0.6829         0.7154        44.8572          2.206         0.8233       -41.3585         -5.168      0.7655963      0.9764348
      9429.5000        11.7109        -0.0177       105.3394         55.018        69.9117       68.80157         0.6535         0.6884        46.0311         2.2251         0.7612       -40.9006        -4.7101      0.7617355      0.9814119
      9430.0000         11.614        -0.0047       107.1202        54.9149        72.2034       68.65104         0.6374         0.6768        45.4985         2.2404          0.711       -40.7654        -4.5749      0.7585328      0.9828815
      9430.5000         11.467         0.0097       109.1766        57.3107        71.9344       72.17774         0.6342         0.6709        45.3424         2.2506         0.7334       -40.8057        -4.6152       0.833569      0.9824435
      9431.0000        11.3187         0.0208       109.8405        58.9052        70.9849       74.52516         0.6371         0.6803        45.5733         2.2616         0.7742       -40.8422        -4.6517      0.8835141      0.9820467
      9431.5000        11.1862         0.0356       109.8475         61.556         72.431       78.42698         0.6398         0.6898         46.048         2.2653         0.7806       -40.6944        -4.5039      0.9665315      0.9836532
      9432.0000        11.0714         0.0459       109.8071        63.4868        75.8419       81.25327         0.6422         0.6967        46.6885         2.2444         0.7689       -40.5692        -4.3787              1      0.9850141
      9432.5000        11.0125         0.0508       109.6102        64.8619        77.3523       83.15649         0.6425         0.7011         47.183         2.2406         0.7561       -40.6985         -4.508              1      0.9836087
      9433.0000        11.0312          0.052       108.7806        66.3145          76.76       85.16678         0.6338         0.6964        47.0667         2.2441         0.7504       -40.8557        -4.6652              1         0.9819
      9433.5000        11.0528         0.0529        108.012        67.6348        77.6538       86.99418         0.6261         0.6887        46.7758         2.2482         0.7512       -40.9549        -4.7644              1      0.9808217
