#------------------------------------------------------------------------------
# Created by    : vladimir.rabinovich
# Created on    : 09/19/2023 17:21:14
#------------------------------------------------------------------------------
~Version Information Section
VERS.           2.0     :   CWLS log ASCII Standard - VERSION 2.0
WRAP.           NO      :   One line per depth step
~Well Information Section
#MNEM       .UNIT                                         VALUE :DESCRIPTION
#------------------------------------------------------------------------------
STRT        .FT                                            2600 :START DEPTH
STOP        .FT                                          9205.5 :STOP DEPTH
STEP        .FT                                             0.5 :STEP      
NULL        .                                           -999.25 :NULL      
COMP        .                              MCMORAN OIL & GAS CO :COMPANY   
WELL        .                                OCS 00757 ST00BP00 :WELL      
FLD         .                           WEST CAMERON BLOCK 0118 :FIELD     
LOC         .                                                   :LOCATION  
CNTY        .                                      WEST CAMERON :LOCATION  
STAT        .                                         LOUISIANA :STATE     
CTRY        .                                     UNITED STATES :COUNTRY   
SRVC        .                                                   :SERVICE COMPANY
DATE        .                             9/13/2023 11:18:49 AM :LOG DATE  
API         .                                    17700410700000 :API NUMBER
UWI         .                                    17700410700000 :UNIQUE WELL ID
XCOORD      .                                  1436864.54905534 :SURFACE X 
YCOORD      .                                  10703419.9985863 :SURFACE Y 
LAT         .                                        29.4912718 :LATITUDE  
LON         .                                       -93.6400205 :LONGITUDE 
ELEV        .FT                                             118 :ELEVATION VALUE
ELEV_TYPE   .                                                KB :ELEVATION REFERENCE TYPE
~Curve Information Section
#MNEM       .UNIT                                      API CODE :CURVE DESCRIPTION
#------------------------------------------------------------------------------
DEPT        .FT                                                 :DEPTH     
CAL         .IN                                                 :          
CNC         .%                                                  :          
DT24        .US/F                                               :          
GR          .GAPI                                               :          
GR_NORM     .GAPI                                               :GammaRay Normalized
M0C6        .MMHO                                               :          
M2R1        .OHMM                                               :          
M2R2        .OHMM                                               :          
M2R3        .OHMM                                               :          
M2R6        .OHMM                                               :          
M2R9        .OHMM                                               :          
M2RX        .OHMM                                               :          
PORZ        .%                                                  :          
RWAZ        .OHMM                                               :          
SP          .MV                                                 :          
SP_NORM     .MV                                                 :SP Normalized
TTEN        .LB/F                                               :          
VSH_GR      .V/V                                                :Volume of Shale from GR
VSH_SP      .V/V                                                :Volume of Shale from SP
ZCOR        .G/CC                                               :          
~A        DEPTH            CAL            CNC           DT24             GR        GR_NORM           M0C6           M2R1           M2R2           M2R3           M2R6           M2R9           M2RX           PORZ           RWAZ             SP        SP_NORM           TTEN         VSH_GR         VSH_SP           ZCOR
# ...
      4368.0000        -999.25        -999.25        138.581         91.492       91.99853       1174.623          0.655          0.736          0.789          0.822          0.837           0.85        -999.25        -999.25         -9.512        -4.9349       2267.798              1        0.91205        -999.25
      4368.5000        -999.25        -999.25        138.363         92.568       93.21118       1170.787           0.65          0.728          0.781          0.813          0.828           0.84        -999.25        -999.25         -9.728        -5.1425       2267.386              1      0.9026136        -999.25
      4369.0000        -999.25        -999.25        137.684         94.103       94.94342       1164.719          0.657          0.734          0.786          0.819          0.833          0.846        -999.25        -999.25         -9.698        -5.1041       2267.396              1      0.9043591        -999.25
      4369.5000        -999.25        -999.25         136.52         93.831        94.6306       1156.444          0.672          0.749          0.801          0.834          0.848           0.86        -999.25        -999.25         -9.394        -4.7917       2269.545              1      0.9185591        -999.25
      4370.0000        -999.25        -999.25        135.386         89.431         89.646       1146.289          0.687          0.765          0.816           0.85          0.864          0.877        -999.25        -999.25          -9.15        -4.5394       2271.185              1      0.9300272        -999.25
      4370.5000        -999.25        -999.25        133.933         83.526       82.95802       1134.865          0.705          0.784          0.836          0.871          0.885          0.898        -999.25        -999.25         -9.178         -4.559       2270.242              1      0.9291363        -999.25
      4371.0000        -999.25        -999.25         132.91         80.759       79.82153       1123.005           0.73          0.812          0.866          0.903          0.916          0.931        -999.25        -999.25          -9.31        -4.6826       2267.525      0.9962026      0.9235182        -999.25
      4371.5000        -999.25        -999.25        132.946         81.279       80.40504        1111.57          0.751          0.839          0.896          0.934          0.948          0.963        -999.25        -999.25         -9.308        -4.6722       2264.871              1      0.9239909        -999.25
      4372.0000        -999.25        -999.25        133.309         83.228       82.60581        1101.27          0.756          0.848          0.907          0.945           0.96          0.975        -999.25        -999.25         -9.182        -4.5378       2265.849              1         0.9301        -999.25
      4372.5000        -999.25        -999.25        134.166         85.469       85.13695        1092.48          0.742          0.835          0.895          0.933          0.947          0.964        -999.25        -999.25         -9.137        -4.4845       2271.457              1      0.9325227        -999.25
      4373.0000        -999.25        -999.25        134.893         86.456       86.24898       1085.196          0.727           0.82           0.88          0.918          0.932          0.948        -999.25        -999.25         -9.295        -4.6341       2275.976              1      0.9257227        -999.25
      4373.5000        -999.25        -999.25        134.472          85.07       84.67542       1079.059          0.724          0.817          0.879          0.916          0.931          0.948        -999.25        -999.25         -9.501        -4.8317       2277.729              1      0.9167409        -999.25
      4374.0000        -999.25        -999.25        133.565         83.587       82.99208       1073.496          0.728          0.823          0.885          0.923          0.938          0.956        -999.25        -999.25         -9.508        -4.8303       2279.767              1      0.9168046        -999.25
      4374.5000        -999.25        -999.25        132.902          84.24         83.726       1067.887          0.729          0.823          0.885          0.923          0.938          0.956        -999.25        -999.25         -9.313        -4.6269       2280.238              1        0.92605        -999.25
      4375.0000        -999.25        -999.25        132.427         86.352       86.11125       1061.748          0.724          0.817          0.878          0.916          0.931          0.949        -999.25        -999.25         -9.148        -4.4536       2275.508              1      0.9339273        -999.25
      4375.5000        -999.25        -999.25        131.518         88.126       88.11397       1054.862          0.723          0.814          0.873           0.91          0.925          0.943        -999.25        -999.25         -9.265        -4.5622       2269.416              1      0.9289909        -999.25
      4376.0000        -999.25        -999.25         130.06         88.516       88.55036        1047.37          0.728          0.817          0.875          0.912          0.926          0.944        -999.25        -999.25         -9.614        -4.9028       2266.317              1      0.9135091        -999.25
      4376.5000        -999.25        -999.25        128.269         87.061        86.8986        1039.75          0.745          0.832          0.889          0.926           0.94          0.959        -999.25        -999.25         -9.845        -5.1254       2266.826              1      0.9033909        -999.25
      4377.0000        -999.25        -999.25        126.709         84.134       83.58103        1032.68          0.785          0.874          0.931          0.968          0.983          1.003        -999.25        -999.25         -9.796         -5.068       2268.372              1          0.906        -999.25
      4377.5000        -999.25        -999.25        128.059          80.05       78.95405       1026.811          0.847          0.942          1.001           1.04          1.056          1.077        -999.25        -999.25         -9.815        -5.0787       2268.942      0.9777457      0.9055136        -999.25
      4378.0000        -999.25        -999.25        131.359         77.244       75.77343       1022.464          0.895          0.995          1.057          1.098          1.114          1.136        -999.25        -999.25        -10.198        -5.4533       2270.019       0.910073      0.8884864        -999.25
      4378.5000        -999.25        -999.25        134.527         78.845       77.58035       1019.397          0.883          0.985          1.047          1.086          1.102          1.124        -999.25        -999.25        -10.615        -5.8619       2271.458      0.9485182      0.8699136        -999.25
      4379.0000        -999.25        -999.25        137.156         83.635       82.99627       1016.666           0.82          0.917          0.976          1.012          1.027          1.047        -999.25        -999.25        -10.561        -5.7995       2270.868              1        0.87275        -999.25
      4379.5000        -999.25        -999.25         137.09         86.031       85.70293       1012.691          0.756          0.845          0.901          0.934          0.947          0.966        -999.25        -999.25        -10.078        -5.3081       2269.321              1      0.8950863        -999.25
      4380.0000        -999.25        -999.25        136.332         84.985       84.51415       1005.812          0.722          0.804          0.858          0.889          0.902           0.92        -999.25        -999.25         -9.686        -4.9078       2269.215              1      0.9132818        -999.25
      4380.5000        -999.25        -999.25        134.616         84.409       83.85718        994.528          0.721          0.798           0.85           0.88          0.893          0.912        -999.25        -999.25         -9.647        -4.8604       2270.075              1      0.9154363        -999.25
