#------------------------------------------------------------------------------
# Created by    : vladimir.rabinovich
# Created on    : 09/19/2023 17:22:24
#------------------------------------------------------------------------------
~Version Information Section
VERS.           2.0     :   CWLS log ASCII Standard - VERSION 2.0
WRAP.           NO      :   One line per depth step
~Well Information Section
#MNEM       .UNIT                                         VALUE :DESCRIPTION
#------------------------------------------------------------------------------
STRT        .FT                                             955 :START DEPTH
STOP        .FT                                            8851 :STOP DEPTH
STEP        .FT                                             0.5 :STEP      
NULL        .                                           -999.25 :NULL      
COMP        .                                SHELL OFFSHORE INC :COMPANY   
WELL        .                               OCS G08627 ST00BP00 :WELL      
FLD         .                                           WILDCAT :FIELD     
LOC         .                                                   :LOCATION  
CNTY        .                                 WEST CAMERON WEST :LOCATION  
STAT        .                                         LOUISIANA :STATE     
CTRY        .                                     UNITED STATES :COUNTRY   
SRVC        .                                                   :SERVICE COMPANY
DATE        .                             9/13/2023 11:18:15 AM :LOG DATE  
API         .                                    17701402000000 :API NUMBER
UWI         .                                    17701402000000 :UNIQUE WELL ID
XCOORD      .                                  1405165.89752093 :SURFACE X 
YCOORD      .                                  10654404.2103889 :SURFACE Y 
LAT         .                                        29.3559214 :LATITUDE  
LON         .                                       -93.7387067 :LONGITUDE 
ELEV        .FT                                             100 :ELEVATION VALUE
ELEV_TYPE   .                                                KB :ELEVATION REFERENCE TYPE
~Curve Information Section
#MNEM       .UNIT                                      API CODE :CURVE DESCRIPTION
#------------------------------------------------------------------------------
DEPT        .FT                                                 :DEPTH     
CALX        .IN                                                 :          
DRHO        .G/C3                                               :          
DT          .US/F                                               :          
GR          .GAPI                                               :          
GR_NORM     .GAPI                                               :GammaRay Normalized
ILD         .OHMM                                               :          
ILM         .OHMM                                               :          
LL          .OHMM                                               :          
NPHI        .%                                                  :          
RHOB        .G/C3                                               :          
SP          .MV                                                 :          
SP_NORM     .MV                                                 :SP Normalized
VSH_GR      .V/V                                                :Volume of Shale from GR
VSH_SP      .V/V                                                :Volume of Shale from SP
~A        DEPTH           CALX           DRHO             DT             GR        GR_NORM            ILD            ILM             LL           NPHI           RHOB             SP        SP_NORM         VSH_GR         VSH_SP
# ...
      3601.0000        10.9367         0.0375       132.0608        78.8324       74.11713         0.8786         0.8427         0.7248        49.9561         2.0589       -88.9469     -0.1050797      0.8748326              1
      3601.5000        10.9467          0.039       132.6165        79.0557       74.35818         0.8813         0.8426         0.7237          50.09         2.0518       -88.6432      0.1746979      0.8799614              1
      3602.0000        10.9936         0.0404       133.8345         79.559       74.90357         0.8799         0.8349         0.7327        50.1496         2.0559       -88.5781       0.215889      0.8915654              1
      3602.5000        11.0858         0.0446       134.5923          80.91       76.37034           0.87         0.8249         0.7793        49.7821         2.0637       -88.6682      0.1018753      0.9227732              1
      3603.0000        11.1964         0.0501       135.1021        82.0883       77.64938         0.8551         0.8154         0.9347        49.5101         2.0725       -88.7175     0.02866364      0.9499869              1
      3603.5000        11.2962         0.0547       135.3987        81.9844       77.53478          0.839         0.8034         0.7403        49.5117         2.0792       -88.7899    -0.06765747      0.9475486              1
      3604.0000        11.4419         0.0553       136.0168        79.5994       74.94083         0.8257         0.7899         0.6924        50.2088         2.0821       -88.9998     -0.3014679      0.8923582              1
      3604.5000        11.8372          0.053       138.2271        77.7856       72.96772         0.8134         0.7759         0.7078        51.0018         2.0672        -89.068     -0.3935776       0.850377              1
      3605.0000        11.8423         0.0502       141.6404        76.7361       71.82533         0.7986          0.763         0.7109         51.633           2.04       -88.3823      0.2682037      0.8260709              1
      3605.5000        11.2453         0.0503       145.8726         76.075       71.10511          0.786          0.752         0.6614        52.9222         2.0098       -88.1447      0.4818954       0.810747              1
      3606.0000        10.9395         0.0515       148.8728         76.115       71.14693         0.7762         0.7413         0.6229        54.2518         2.0048        -88.157      0.4456787      0.8116367              1
      3606.5000        10.8943         0.0513       149.4497        79.4327       74.75134         0.7717         0.7315         0.6327        55.9391         2.0024        -88.087      0.4917679      0.8883263              1
      3607.0000        10.9531         0.0486       148.2942        81.3673       76.85242         0.7711         0.7244         0.6417        57.6213         1.9995       -88.2034      0.3514481      0.9330303              1
      3607.5000        11.0016         0.0439       148.2334         81.873       77.40041         0.7702         0.7222         0.6447         58.295         1.9985       -88.3678      0.1631393      0.9446896              1
      3608.0000        10.9885         0.0386        148.667        81.6443       77.15017         0.7742         0.7246         0.6371        57.4521         2.0047       -88.5184   -0.004432678      0.9393653              1
      3608.5000        10.8694         0.0184        148.386        80.7155       76.13898         0.7818         0.7287         0.6347        56.3791         2.0185       -88.2968      0.2027206      0.9178507              1
      3609.0000        11.0356         0.0115       147.2932        80.1876       75.56353         0.7943           0.74          0.645        55.0205         2.0354       -88.7175     -0.2324295       0.905607              1
      3609.5000        11.6976         0.0094       145.9556        81.0405        76.4889         0.8046         0.7482         0.6569        53.6902         2.0508       -88.2582      0.2124176      0.9252957              1
      3610.0000        11.6236         0.0135       144.7258        84.7898       80.56242         0.8091         0.7539         0.6666        52.5629         2.0594       -87.7924       0.663765              1              1
      3610.5000        11.3161         0.0182       143.5232        88.8549       84.97918         0.8115         0.7562         0.6475        53.1799          2.064       -88.0991      0.3426132              1              1
      3611.0000        11.0558          0.023       142.0981        90.6903       86.97245         0.8122         0.7605         0.6456        53.5795         2.0671       -88.4264   0.0008621216              1              1
      3611.5000        10.9111         0.0271       140.6079        89.3995       85.56779         0.8112         0.7637          0.674        53.7084         2.0692       -89.0341     -0.6212921              1              1
      3612.0000         11.058         0.0312       139.5894        86.6377       82.56428         0.8081         0.7636          0.677        53.4338         2.0686          -88.8     -0.4016495              1              1
      3612.5000        11.0164         0.0326       139.2412        84.2762       79.99586         0.8029          0.758         0.6775         52.822         2.0628       -88.5645     -0.1805954       0.999912              1
      3613.0000        10.8977         0.0273       140.4299        82.9879       78.59393         0.7983          0.756         0.6782        51.9074         2.0546       -88.8514     -0.4819489      0.9700835              1
      3613.5000        11.0792         0.0203       141.6814        82.0441       77.56643         0.7945         0.7545         0.6775        50.8538          2.045       -88.9987     -0.6436996      0.9482219              1
      3614.0000        11.3968          0.014       142.7854        82.6541       78.22778         0.7916         0.7525         0.6651        50.2051         2.0274       -88.4873     -0.1467514      0.9622933              1
      3614.5000        11.4816         0.0078       143.4387        83.7943       79.46542         0.7925         0.7486          0.653        51.4406         2.0121       -87.7279      0.5981979      0.9886261              1
      3615.0000        11.4111         0.0063       143.8455        84.3822       80.10277         0.7902         0.7441         0.6507        52.1569         2.0095       -87.3623      0.9493484              1              1
      3615.5000         11.688         0.0066       144.4158        84.5009       80.23012         0.7879         0.7402         0.6596        52.0772         2.0218       -87.6392      0.6579971              1              1
      3616.0000        11.9611         0.0093       144.8164        84.2551       79.96129         0.7834         0.7358         0.6658         51.724         2.0404       -88.1393      0.1434402      0.9991763              1
      3616.5000        11.7739          0.012       144.9956         85.406       81.21056         0.7807         0.7301         0.6716        51.2337         2.0525       -88.2141     0.05418396              1              1
      3617.0000        11.7302         0.0133       144.7017        85.7471       81.57964          0.778         0.7247         0.6728        50.9179         2.0604       -88.4309      -0.177063              1              1
      3617.5000         11.697         0.0138       144.2527        85.7375       81.56755         0.7717         0.7193         0.6667        52.1557          2.064       -88.6229      -0.383522              1              1
      3618.0000        11.6986         0.0138       143.7585        86.1431       82.00674         0.7662         0.7145         0.6703        54.1257         2.0642        -88.321    -0.09606934              1              1
      3618.5000        11.7003         0.0135       143.3933        86.8086       82.72842         0.7593         0.7101         0.6579        55.1186         2.0624        -87.609      0.6014786              1              1
