#------------------------------------------------------------------------------
# Created by    : vladimir.rabinovich
# Created on    : 09/19/2023 17:21:57
#------------------------------------------------------------------------------
~Version Information Section
VERS.           2.0     :   CWLS log ASCII Standard - VERSION 2.0
WRAP.           NO      :   One line per depth step
~Well Information Section
#MNEM       .UNIT                                         VALUE :DESCRIPTION
#------------------------------------------------------------------------------
STRT        .FT                                             570 :START DEPTH
STOP        .FT                                           10083 :STOP DEPTH
STEP        .FT                                             0.5 :STEP      
NULL        .                                           -999.25 :NULL      
COMP        .                                BP EXPLORATION INC :COMPANY   
WELL        .                               OCS G10548 ST00BP00 :WELL      
FLD         .                                           WILDCAT :FIELD     
LOC         .                                                   :LOCATION  
CNTY        .                                      WEST CAMERON :LOCATION  
STAT        .                                         LOUISIANA :STATE     
CTRY        .                                     UNITED STATES :COUNTRY   
SRVC        .                                                   :SERVICE COMPANY
DATE        .                             9/13/2023 11:18:09 AM :LOG DATE  
API         .                                    17700408010000 :API NUMBER
UWI         .                                    17700408010000 :UNIQUE WELL ID
XCOORD      .                                  1469734.01149431 :SURFACE X 
YCOORD      .                                  10675810.5973196 :SURFACE Y 
LAT         .                                        29.4157778 :LATITUDE  
LON         .                                        -93.536275 :LONGITUDE 
ELEV        .FT                                              80 :ELEVATION VALUE
ELEV_TYPE   .                                                KB :ELEVATION REFERENCE TYPE
~Curve Information Section
#MNEM       .UNIT                                      API CODE :CURVE DESCRIPTION
#------------------------------------------------------------------------------
DEPT        .FT                                                 :DEPTH     
CALI        .IN                                                 :          
DPHI        .%                                                  :          
GR          .GAPI                                               :          
GR_1        .GAPI                                               :          
GR_NORM     .GAPI                                               :GammaRay Normalized
ILD         .OHMM                                               :          
ILM         .OHMM                                               :          
NPHI        .%                                                  :          
SFL         .OHMM                                               :          
SP          .MV                                                 :          
SP_NORM     .MV                                                 :SP Normalized
VSH_GR      .V/V                                                :Volume of Shale from GR
VSH_SP      .V/V                                                :Volume of Shale from SP
~A        DEPTH           CALI           DPHI             GR           GR_1        GR_NORM            ILD            ILM           NPHI            SFL             SP        SP_NORM         VSH_GR         VSH_SP
# ...
     10070.0000         3.1543        48.6384        -999.25        98.5049        82.0763         0.6852         0.6516        54.3411         0.5946       -51.0927       1.128794              1              1
     10070.5000         3.1549        48.6384        -999.25         98.509        82.0804         0.6745          0.634         54.341          0.597       -51.0396       1.541871              1              1
     10071.0000         3.1554        48.6383        -999.25        98.5132        82.0846         0.6648         0.6209        54.3408         0.5965       -50.9931      -1.125527              1              1
     10071.5000          3.156        48.6383        -999.25        98.5172        82.0886         0.6608         0.6105        54.3407         0.5903       -51.0724        1.92181              1              1
     10072.0000         3.1565        48.6382        -999.25        98.5214        82.0928         0.6579         0.5982        54.3406         0.5818       -51.1935       2.940025              1              1
     10072.5000          3.157        48.6382        -999.25        98.5254        82.0968         0.6548         0.5908        54.3404         0.5715        -51.428       2.799507              1              1
     10073.0000         3.1576        48.6381        -999.25        98.5295        82.1009         0.6516         0.5867        54.3403         0.5602       -51.6524       1.420483              1              1
     10073.5000         3.1581        48.6381        -999.25        98.5336         82.105         0.6481         0.5867        54.3401         0.5555       -51.7411       2.813467              1              1
     10074.0000         3.1587         48.638        -999.25        98.5377        82.1091         0.6473         0.5871          54.34         0.5532       -51.8297    -0.08940594              1              1
     10074.5000         3.1592         48.638        -999.25        98.5417        82.1131         0.6473         0.5885        54.3398         0.5523       -51.9263       1.763028              1              1
     10075.0000         3.1597        48.6379        -999.25        98.5459        82.1173         0.6474         0.5893        54.3397         0.5518       -52.0238       1.707199              1              1
     10075.5000         3.1603        48.6379        -999.25          98.55        82.1214         0.6474         0.5893        54.3395         0.5517        -52.056       2.495852              1              1
     10076.0000         3.1608        48.6378        -999.25        98.5541        82.1255         0.6477         0.5893        54.3394         0.5522       -52.0342     -0.7356462              1              1
     10076.5000         3.1613        48.6378        -999.25        98.5582        82.1296         0.6487         0.5894        54.3392         0.5526       -51.9791       3.456692              1              1
     10077.0000         3.1619        48.6378        -999.25        98.5623        82.1337         0.6475         0.5894        54.3391         0.5508       -51.8712       1.666756              1              1
     10077.5000         3.1624        48.6377        -999.25        98.5664        82.1378         0.6475         0.5894        54.3389         0.5497       -51.7615      0.8450362              1              1
     10078.0000          3.163        48.6376        -999.25        98.5704        82.1418         0.6476         0.5894        54.3388         0.5497       -51.6372      0.3768954              1              1
     10078.5000         3.1635        48.6376        -999.25        98.5746         82.146         0.6476         0.5894        54.3386         0.5497       -51.5031    -0.05115847              1              1
     10079.0000          3.164        48.6375        -999.25        98.5786          82.15         0.6476         0.5894        54.3385         0.5491       -51.4474       1.865286              1              1
     10079.5000         3.1646        48.6375        -999.25        98.5828        82.1542         0.6476         0.5894        54.3384         0.5479       -51.4441       3.409646              1              1
     10080.0000         3.1651        48.6375        -999.25        98.5869        82.1583         0.6476         0.5894        54.3382         0.5492       -51.4899       1.284147              1              1
     10080.5000         3.1657        48.6374        -999.25        98.5909        82.1623         0.6476         0.5894        54.3381         0.5487       -51.5558       1.057271              1              1
     10081.0000         3.1662        48.6373        -999.25        98.5951        82.1665         0.6477         0.5894        54.3379          0.547       -51.6135       3.072642              1              1
     10081.5000         3.1667        48.6373        -999.25        98.5991        82.1705         0.6477         0.5895        54.3378         0.5462       -51.6716       2.470525              1              1
     10082.0000         3.1673        48.6373        -999.25        98.6033        82.1747         0.6477         0.5895        54.3376         0.5459       -51.7496       1.666206              1              1
     10082.5000         3.1678        48.6372        -999.25        98.6073        82.1787         0.6477         0.5895        54.3375         0.5465       -51.8276      0.6964743              1              1
     10083.0000         3.1684        48.6371        -999.25        98.6115        82.1829         0.6477         0.5895        54.3373         0.5489       -51.8966       0.668211              1              1
