#------------------------------------------------------------------------------
# Created by    : vladimir.rabinovich
# Created on    : 09/19/2023 17:22:04
#------------------------------------------------------------------------------
~Version Information Section
VERS.           2.0     :   CWLS log ASCII Standard - VERSION 2.0
WRAP.           NO      :   One line per depth step
~Well Information Section
#MNEM       .UNIT                                         VALUE :DESCRIPTION
#------------------------------------------------------------------------------
STRT        .FT                                            4308 :START DEPTH
STOP        .FT                                           11086 :STOP DEPTH
STEP        .FT                                             0.5 :STEP      
NULL        .                                           -999.25 :NULL      
COMP        .                                     GULF OIL CORP :COMPANY   
WELL        .                               OCS G01859 ST00BP00 :WELL      
FLD         .                           WEST CAMERON BLOCK 0045 :FIELD     
LOC         .                                                   :LOCATION  
CNTY        .                                      WEST CAMERON :LOCATION  
STAT        .                                         LOUISIANA :STATE     
CTRY        .                                     UNITED STATES :COUNTRY   
SRVC        .                                                   :SERVICE COMPANY
DATE        .                             9/13/2023 11:18:18 AM :LOG DATE  
API         .                                    17700402800000 :API NUMBER
UWI         .                                    17700402800000 :UNIQUE WELL ID
XCOORD      .                                  1464540.60646957 :SURFACE X 
YCOORD      .                                  10776790.0411311 :SURFACE Y 
LAT         .                                        29.6934919 :LATITUDE  
LON         .                                       -93.5541052 :LONGITUDE 
ELEV        .FT                                              79 :ELEVATION VALUE
ELEV_TYPE   .                                                KB :ELEVATION REFERENCE TYPE
~Curve Information Section
#MNEM       .UNIT                                      API CODE :CURVE DESCRIPTION
#------------------------------------------------------------------------------
DEPT        .FT                                                 :DEPTH     
CALI        .IN                                                 :          
DRHO        .G/C3                                               :          
DT          .US/F                                               :          
GR          .GAPI                                               :          
GR_NORM     .GAPI                                               :GammaRay Normalized
ILD         .OHMM                                               :          
NPHI        .%                                                  :          
RHOB        .G/C3                                               :          
SFLU        .OHMM                                               :          
SP          .MV                                                 :          
SP_NORM     .MV                                                 :SP Normalized
VSH_GR      .V/V                                                :Volume of Shale from GR
VSH_SP      .V/V                                                :Volume of Shale from SP
~A        DEPTH           CALI           DRHO             DT             GR        GR_NORM            ILD           NPHI           RHOB           SFLU             SP        SP_NORM         VSH_GR         VSH_SP
# ...
      8811.0000        10.0637         0.0075       120.6925        71.6699       78.57166         0.7617        37.5941          2.293         0.6191       -42.8275        -1.0559      0.9696099      0.9991899
      8811.5000        10.0905         0.0001       123.0399        70.1304       75.14967         0.7446        35.4883         2.3257         0.6755       -43.8632        -2.0923      0.8968014      0.9841695
      8812.0000        10.0967         0.0035       122.1428        69.7639       74.33421         0.7349         33.472         2.3338         1.1796       -45.7486        -3.9784      0.8794512      0.9568348
      8812.5000         10.071         0.0556       114.4677        71.7496       78.74498         0.7314         31.429         2.3666         1.5599       -46.8913        -5.1218      0.9732974      0.9402637
      8813.0000        10.0052          0.097       100.9716        73.2272       82.02678         0.7326         32.455         2.3221         1.3952       -46.8328         -5.064              1      0.9411014
      8813.5000          9.948         0.1022        90.6151        74.0759       83.91121         0.7395        34.7158         2.2822         0.9039       -46.3091        -4.5411              1      0.9486797
      8814.0000         9.9361          0.081        87.6721        73.9111       83.54392         0.7572        38.1519         2.2843         0.6667       -45.7996        -4.0323              1      0.9560536
      8814.5000         9.9392         0.0773        89.4888        72.9435       81.39264         0.7829          39.15         2.3058         0.7182       -45.3467        -3.5801              1      0.9626073
      8815.0000         9.9592         0.0908        101.465        72.3987       80.18079         0.8042        38.8879         2.3146         0.8208       -45.0917        -3.3258              1      0.9662927
      8815.5000         9.9683         0.0968       106.4088        72.3768       80.13101         0.8194        38.7171          2.323         0.8813       -45.0872         -3.322              1      0.9663478
      8816.0000         9.9761          0.088       109.6633        73.1266       81.79568         0.8322          38.77         2.3127         0.8298       -45.2637        -3.4993              1      0.9637783
      8816.5000         9.9812         0.0865       107.8567        73.7651       83.21306         0.8417        39.3584         2.3102         0.8118        -45.092        -3.3283              1      0.9662565
      8817.0000         9.9795          0.095       106.6527         73.921       83.55836         0.8459        40.1011         2.3231         0.8684       -44.5462        -2.7832              1      0.9741565
      8817.5000         9.9737         0.1017        106.526        73.8019       83.29238         0.8493        40.6484         2.3285         0.8441       -43.9807        -2.2184              1       0.982342
      8818.0000         9.9693         0.0955        107.301        73.5063       82.63426         0.8595        40.9735         2.3175         0.7893       -43.5407        -1.7792              1      0.9887072
      8818.5000         9.9703         0.0832       108.7014        73.0764       81.67793         0.8646        41.0812          2.314         0.7768       -43.3252        -1.5644              1      0.9918203
      8819.0000         9.9802         0.0575       109.6246         72.515       80.42921         0.8563        40.7942         2.3048         0.8155       -43.3438        -1.5837              1      0.9915406
      8819.5000         9.9382         0.0419       109.8508        71.9106       79.08493         0.8457        40.4321         2.2902         0.7849       -43.0281        -1.2687      0.9805304      0.9961058
      8820.0000         9.7498         0.0264       109.7623        71.8993       79.05872         0.8411        40.0317         2.2718         0.7778       -42.5974        -0.8387      0.9799727              1
      8820.5000         9.6947         0.0275       109.2347        72.2291       79.79018         0.8471        39.7144          2.279         0.8498       -42.2128        -0.4549      0.9955359              1
      8821.0000         9.7614         0.0333       108.4473        72.5958       80.60364         0.8616        39.7554         2.2857         0.8969       -42.2657        -0.5085              1              1
      8821.5000         9.9108         0.0398       107.8043        72.4016       80.17101         0.8808        39.8311         2.2939          0.845       -42.5284        -0.7719              1              1
      8822.0000        10.1189         0.0456       107.6411        71.7275       78.67187         0.8879        39.2898         2.3064         0.8086       -42.8207        -1.0649      0.9717419      0.9990594
      8822.5000        10.2245         0.0462       107.8354        71.8324       78.90362         0.8926        38.3442          2.316         0.8788       -43.1229        -1.3678      0.9766727      0.9946696
      8823.0000        10.2046         0.0433       108.2592         72.868       81.20332         0.8935        37.4598         2.2987         0.8483       -43.1862        -1.4319              1      0.9937406
      8823.5000        10.2159         0.0217        108.927        72.9681       81.42463           0.89        37.6769         2.2795         0.8171        -43.186        -1.4324              1      0.9937333
      8824.0000        10.2301         0.0235        109.616        72.7312       80.89692         0.8886        38.0199         2.2766         0.8274       -43.2296        -1.4767              1      0.9930913
      8824.5000        10.2559         0.0264       109.1475        72.7949       81.03712         0.8933        38.2397          2.276         0.8136       -43.5062         -1.754              1      0.9890724
      8825.0000        10.2952          0.021       109.1115        72.8363       81.12801         0.8956           38.2         2.2761         0.7998       -43.7967        -2.0452              1      0.9848522
      8825.5000         10.289         0.0164       109.5612        72.1544       79.61153         0.8967         37.788         2.2765          0.797       -43.9327         -2.182      0.9917346      0.9828696
      8826.0000        10.2589         0.0149       110.3174         71.853       78.94053         0.8944        37.1788          2.277         0.8112       -43.6312        -1.8812      0.9774581       0.987229
      8826.5000        10.2364         0.0166       111.0906        71.9141       79.07516         0.8876        37.0776         2.2812         0.8661        -43.233        -1.4837      0.9803227      0.9929898
      8827.0000        10.2276         0.0231         111.42        72.2284       79.77217         0.8778        37.8044         2.2932         0.9283       -43.0064        -1.2578      0.9951526      0.9962637
      8827.5000        10.2301         0.0526       109.5461        72.6479       80.70295         0.8661        38.9199         2.3216          0.962        -42.837        -1.0891              1      0.9987087
      8828.0000        10.2328          0.062       107.6224        72.8331       81.11333         0.8408        40.2726         2.3375         0.9138       -42.5654        -0.8183              1              1
      8828.5000        10.2356         0.0429       105.8258         72.953       81.37843         0.8104        41.0167         2.3317         0.7495       -42.2251        -0.4787              1              1
      8829.0000        10.2321         0.0485       107.0044        72.8101       81.05959         0.7732        41.0823         2.3393         0.7237       -41.9036        -0.1579              1              1
      8829.5000        10.2239         0.0586       108.8859        72.4056       80.15947         0.7377        40.6484         2.3378         0.7194       -41.7756        -0.0306              1              1
