#------------------------------------------------------------------------------
# Created by    : vladimir.rabinovich
# Created on    : 09/19/2023 17:21:14
#------------------------------------------------------------------------------
~Version Information Section
VERS.           2.0     :   CWLS log ASCII Standard - VERSION 2.0
WRAP.           NO      :   One line per depth step
~Well Information Section
#MNEM       .UNIT                                         VALUE :DESCRIPTION
#------------------------------------------------------------------------------
STRT        .FT                                            2600 :START DEPTH
STOP        .FT                                          9205.5 :STOP DEPTH
STEP        .FT                                             0.5 :STEP      
NULL        .                                           -999.25 :NULL      
COMP        .                              MCMORAN OIL & GAS CO :COMPANY   
WELL        .                                OCS 00757 ST00BP00 :WELL      
FLD         .                           WEST CAMERON BLOCK 0118 :FIELD     
LOC         .                                                   :LOCATION  
CNTY        .                                      WEST CAMERON :LOCATION  
STAT        .                                         LOUISIANA :STATE     
CTRY        .                                     UNITED STATES :COUNTRY   
SRVC        .                                                   :SERVICE COMPANY
DATE        .                             9/13/2023 11:18:49 AM :LOG DATE  
API         .                                    17700410700000 :API NUMBER
UWI         .                                    17700410700000 :UNIQUE WELL ID
XCOORD      .                                  1436864.54905534 :SURFACE X 
YCOORD      .                                  10703419.9985863 :SURFACE Y 
LAT         .                                        29.4912718 :LATITUDE  
LON         .                                       -93.6400205 :LONGITUDE 
ELEV        .FT                                             118 :ELEVATION VALUE
ELEV_TYPE   .                                                KB :ELEVATION REFERENCE TYPE
~Curve Information Section
#MNEM       .UNIT                                      API CODE :CURVE DESCRIPTION
#------------------------------------------------------------------------------
DEPT        .FT                                                 :DEPTH     
CAL         .IN                                                 :          
CNC         .%                                                  :          
DT24        .US/F                                               :          
GR          .GAPI                                               :          
GR_NORM     .GAPI                                               :GammaRay Normalized
M0C6        .MMHO                                               :          
M2R1        .OHMM                                               :          
M2R2        .OHMM                                               :          
M2R3        .OHMM                                               :          
M2R6        .OHMM                                               :          
M2R9        .OHMM                                               :          
M2RX        .OHMM                                               :          
PORZ        .%                                                  :          
RWAZ        .OHMM                                               :          
SP          .MV                                                 :          
SP_NORM     .MV                                                 :SP Normalized
TTEN        .LB/F                                               :          
VSH_GR      .V/V                                                :Volume of Shale from GR
VSH_SP      .V/V                                                :Volume of Shale from SP
ZCOR        .G/CC                                               :          
~A        DEPTH            CAL            CNC           DT24             GR        GR_NORM           M0C6           M2R1           M2R2           M2R3           M2R6           M2R9           M2RX           PORZ           RWAZ             SP        SP_NORM           TTEN         VSH_GR         VSH_SP           ZCOR
# ...
      3068.0000        -999.25        -999.25        154.229         70.285       82.02228       1499.903           0.48          0.535           0.58          0.617          0.637          0.663        -999.25        -999.25         -5.777        -2.2875       1833.687              1              1        -999.25
      3068.5000        -999.25        -999.25        155.556         70.285       80.89051       1473.537          0.482          0.535          0.579          0.617          0.636          0.662        -999.25        -999.25         -6.009        -2.5247       1826.152              1              1        -999.25
      3069.0000        -999.25        -999.25        157.059         70.984       79.75893       1438.769          0.489           0.54          0.582           0.62          0.639          0.665        -999.25        -999.25         -6.124         -2.645       1827.793      0.9948708              1        -999.25
      3069.5000        -999.25        -999.25        155.875         72.028       78.62732       1396.471          0.515          0.561          0.602          0.642          0.661          0.687        -999.25        -999.25         -6.465        -2.9912       1837.104       0.970794              1        -999.25
      3070.0000        -999.25        -999.25        150.008         69.352       77.49557       1348.209          0.574          0.616          0.657          0.699          0.718          0.747        -999.25        -999.25         -7.487        -4.0184       1844.275      0.9467142      0.9622815        -999.25
      3070.5000        -999.25        -999.25        140.391         62.257       76.36397        1296.04          0.675          0.712          0.753          0.801           0.82          0.852        -999.25        -999.25         -9.331        -5.8677       1843.957      0.9226376      0.8937889        -999.25
      3071.0000        -999.25        -999.25        130.011          55.83       61.01054       1242.088          0.792          0.819          0.859          0.911          0.931          0.967        -999.25        -999.25        -11.611        -8.1529       1838.841      0.5959688      0.8091519        -999.25
      3071.5000        -999.25        -999.25        122.583          53.72       57.39532        1188.17          0.866          0.881          0.917           0.97          0.989          1.027        -999.25        -999.25        -13.705       -10.2521       1837.185      0.5190495      0.7314037        -999.25
      3072.0000        -999.25        -999.25        119.213         54.267       58.31704       1135.507          0.888          0.893          0.925          0.976          0.992           1.03        -999.25        -999.25        -15.284       -11.8363       1841.112      0.5386605      0.6727296        -999.25
      3072.5000        -999.25        -999.25        120.522         54.858       59.31409       1084.738          0.898          0.899          0.928          0.978          0.992          1.029        -999.25        -999.25        -16.361       -12.9186       1844.734      0.5598743      0.6326444        -999.25
      3073.0000        -999.25        -999.25        123.653         54.425       58.56243       1036.125          0.916          0.921          0.951              1          1.013           1.05        -999.25        -999.25        -16.961       -13.5238       1844.426      0.5438815      0.6102296        -999.25
      3073.5000        -999.25        -999.25        126.152         53.497       56.96553        989.921          0.944          0.959          0.993          1.042          1.055          1.094        -999.25        -999.25        -17.169        -13.737       1843.363      0.5099049      0.6023333        -999.25
      3074.0000        -999.25        -999.25        130.066         53.598       57.12588        946.712          0.988          1.022          1.062          1.115          1.129          1.172        -999.25        -999.25        -17.409       -13.9823       1842.422      0.5133165      0.5932481        -999.25
      3074.5000        -999.25        -999.25        135.928         53.326       56.64912        907.577          1.062          1.126           1.18           1.24          1.259          1.307        -999.25        -999.25         -18.21       -14.7885       1842.609      0.5031729      0.5633889        -999.25
      3075.0000        -999.25        -999.25         141.89         50.697       52.14784         873.99          1.148          1.256          1.331          1.403          1.428          1.485        -999.25        -999.25        -19.644       -16.2277       1845.506      0.4074009      0.5100852        -999.25
      3075.5000        -999.25        -999.25        146.128         47.666       46.95997        847.466          1.184          1.335          1.434          1.518          1.552          1.616        -999.25        -999.25        -21.239        -17.828       1848.375      0.2970207      0.4508148        -999.25
      3076.0000        -999.25        -999.25        147.775         46.913       45.66189        829.185          1.138          1.311          1.428          1.518          1.561          1.629        -999.25        -999.25        -22.447       -19.0412       1848.849       0.269402      0.4058815        -999.25
      3076.5000        -999.25        -999.25        146.114         48.618       48.56114         819.66          1.055          1.225           1.35          1.443          1.493          1.562        -999.25        -999.25        -23.156       -19.7554       1848.275       0.331088      0.3794296        -999.25
      3077.0000        -999.25        -999.25        144.437         50.298       51.41753        818.605           0.98          1.136          1.262          1.354          1.409          1.478        -999.25        -999.25         -23.55       -20.1546       1847.389      0.3918623      0.3646444        -999.25
      3077.5000        -999.25        -999.25        145.573         50.485       51.72455        825.097          0.924          1.067          1.189           1.28           1.34          1.408        -999.25        -999.25        -23.772       -20.3819       1845.982      0.3983946      0.3562259        -999.25
      3078.0000        -999.25        -999.25        147.524         49.268       49.63435        837.919          0.891          1.022           1.14          1.229          1.293          1.361        -999.25        -999.25        -24.006       -20.6211       1845.234      0.3539222      0.3473667        -999.25
      3078.5000        -999.25        -999.25        148.992         47.919       47.31856        855.984          0.877              1          1.114          1.201          1.269          1.337        -999.25        -999.25        -24.322       -20.9423       1845.329      0.3046502      0.3354703        -999.25
      3079.0000        -999.25        -999.25        148.595         47.766       47.04518        878.624          0.876          0.993          1.102          1.185          1.255          1.323        -999.25        -999.25        -24.392       -21.0176       1846.882      0.2988336      0.3326815        -999.25
      3079.5000        -999.25        -999.25        145.751         49.019       49.17245        905.721          0.878          0.989          1.091          1.169          1.239          1.304        -999.25        -999.25         -24.08       -20.7108        1850.34      0.3440947      0.3440444        -999.25
      3080.0000        -999.25        -999.25         143.48         49.875       50.62182        937.651          0.878          0.979          1.072          1.142          1.209           1.27        -999.25        -999.25        -23.828        -20.464       1851.683      0.3749323      0.3531851        -999.25
      3080.5000        -999.25        -999.25        145.973         49.419       49.83105        975.122          0.874          0.963          1.043          1.104          1.165           1.22        -999.25        -999.25        -23.834       -20.4753       1847.908      0.3581074      0.3527667        -999.25
