#------------------------------------------------------------------------------
# Created by    : vladimir.rabinovich
# Created on    : 09/19/2023 17:21:57
#------------------------------------------------------------------------------
~Version Information Section
VERS.           2.0     :   CWLS log ASCII Standard - VERSION 2.0
WRAP.           NO      :   One line per depth step
~Well Information Section
#MNEM       .UNIT                                         VALUE :DESCRIPTION
#------------------------------------------------------------------------------
STRT        .FT                                             570 :START DEPTH
STOP        .FT                                           10083 :STOP DEPTH
STEP        .FT                                             0.5 :STEP      
NULL        .                                           -999.25 :NULL      
COMP        .                                BP EXPLORATION INC :COMPANY   
WELL        .                               OCS G10548 ST00BP00 :WELL      
FLD         .                                           WILDCAT :FIELD     
LOC         .                                                   :LOCATION  
CNTY        .                                      WEST CAMERON :LOCATION  
STAT        .                                         LOUISIANA :STATE     
CTRY        .                                     UNITED STATES :COUNTRY   
SRVC        .                                                   :SERVICE COMPANY
DATE        .                             9/13/2023 11:18:09 AM :LOG DATE  
API         .                                    17700408010000 :API NUMBER
UWI         .                                    17700408010000 :UNIQUE WELL ID
XCOORD      .                                  1469734.01149431 :SURFACE X 
YCOORD      .                                  10675810.5973196 :SURFACE Y 
LAT         .                                        29.4157778 :LATITUDE  
LON         .                                        -93.536275 :LONGITUDE 
ELEV        .FT                                              80 :ELEVATION VALUE
ELEV_TYPE   .                                                KB :ELEVATION REFERENCE TYPE
~Curve Information Section
#MNEM       .UNIT                                      API CODE :CURVE DESCRIPTION
#------------------------------------------------------------------------------
DEPT        .FT                                                 :DEPTH     
CALI        .IN                                                 :          
DPHI        .%                                                  :          
GR          .GAPI                                               :          
GR_1        .GAPI                                               :          
GR_NORM     .GAPI                                               :GammaRay Normalized
ILD         .OHMM                                               :          
ILM         .OHMM                                               :          
NPHI        .%                                                  :          
SFL         .OHMM                                               :          
SP          .MV                                                 :          
SP_NORM     .MV                                                 :SP Normalized
VSH_GR      .V/V                                                :Volume of Shale from GR
VSH_SP      .V/V                                                :Volume of Shale from SP
~A        DEPTH           CALI           DPHI             GR           GR_1        GR_NORM            ILD            ILM           NPHI            SFL             SP        SP_NORM         VSH_GR         VSH_SP
# ...
      2508.0000        -999.25        -999.25         62.832        -999.25       80.94989         0.8755         0.8455        -999.25         0.7652      -104.3428        -3.4251              1      0.9491036
      2508.5000        -999.25        -999.25        62.1541        -999.25       80.14229         0.8723         0.8454        -999.25         0.7537      -104.3225        -3.4147              1       0.949475
      2509.0000        -999.25        -999.25        59.9478        -999.25       77.52906         0.8496         0.8287        -999.25          0.735      -104.5679          -3.67      0.9474268      0.9403571
      2509.5000        -999.25        -999.25        56.7496        -999.25       73.74387         0.8171          0.798        -999.25         0.7167      -105.0834        -4.1953      0.8668909      0.9215964
      2510.0000        -999.25        -999.25        52.8498        -999.25       69.12997         0.7762         0.7534        -999.25         0.7007      -106.0791        -5.2009      0.7687227      0.8856822
      2510.5000        -999.25        -999.25         49.426        -999.25       65.07839         0.7186         0.7104        -999.25         0.6855      -107.1892        -6.3208       0.682519      0.8456857
      2511.0000        -999.25        -999.25        47.7608        -999.25        63.1043         0.6541         0.6789        -999.25         0.6776         -107.8        -6.9415      0.6405171      0.8235179
      2511.5000        -999.25        -999.25        47.0176        -999.25       62.21955         0.6102         0.6521        -999.25         0.6773      -108.1305        -7.2819      0.6216927      0.8113607
      2512.0000        -999.25        -999.25        49.4783        -999.25       65.11987         0.5783         0.6298        -999.25          0.677      -107.5403        -6.7015      0.6834014      0.8320893
      2512.5000        -999.25        -999.25        56.5577        -999.25       73.47654         0.5629         0.6111        -999.25         0.6688      -106.7863        -5.9574       0.861203      0.8586643
      2513.0000        -999.25        -999.25        60.9589        -999.25       78.66933          0.553         0.6014        -999.25         0.6379      -106.0813        -5.2622      0.9716878      0.8834929
      2513.5000        -999.25        -999.25        62.9801        -999.25       81.05043         0.5521         0.5959        -999.25         0.6094        -105.55        -4.7408              1      0.9021143
      2514.0000        -999.25        -999.25        64.0223        -999.25       82.27493         0.5513         0.5951        -999.25         0.5953      -105.1466        -4.3472              1      0.9161714
      2514.5000        -999.25        -999.25        64.7123        -999.25       83.08324         0.5668          0.597        -999.25         0.5939      -104.7896        -4.0001              1      0.9285678
      2515.0000        -999.25        -999.25        66.2024        -999.25       84.83689         0.5835         0.6015        -999.25          0.597      -104.5128        -3.7332              1         0.9381
      2515.5000        -999.25        -999.25        67.9298        -999.25       86.87088         0.5988         0.6055        -999.25         0.6066      -104.2061        -3.4363              1      0.9487036
      2516.0000        -999.25        -999.25        68.4911        -999.25       87.52715         0.6109         0.6095        -999.25          0.617      -103.9841        -3.2242              1      0.9562786
      2516.5000        -999.25        -999.25        67.3995        -999.25       86.23081         0.6198         0.6139        -999.25         0.6245      -103.8655        -3.1154              1      0.9601643
      2517.0000        -999.25        -999.25         67.158        -999.25       85.93878         0.6212         0.6187        -999.25         0.6284      -103.8488        -3.1086              1      0.9604071
      2517.5000        -999.25        -999.25         68.531        -999.25       87.55397          0.613         0.6245        -999.25         0.6233      -103.9059        -3.1756              1      0.9580143
      2518.0000        -999.25        -999.25        71.1935        -999.25       90.69269         0.6137         0.6369        -999.25         0.6035      -104.0424        -3.3219              1      0.9527893
      2518.5000        -999.25        -999.25        72.3064        -999.25       92.00071         0.6365         0.6527        -999.25          0.593      -104.3162        -3.6056              1      0.9426571
      2519.0000        -999.25        -999.25         71.401        -999.25       90.92423         0.6651         0.6718        -999.25         0.5904       -104.585        -3.8842              1      0.9327071
      2519.5000        -999.25        -999.25        69.6586        -999.25       88.85905         0.6961         0.6957        -999.25         0.6129      -104.7595        -4.0686              1      0.9261214
      2520.0000        -999.25        -999.25        68.6035        -999.25       87.60583         0.7266          0.724        -999.25          0.654      -104.8535        -4.1724              1      0.9224143
      2520.5000        -999.25        -999.25        68.8418        -999.25       87.88051         0.7564         0.7518        -999.25         0.7088      -104.6183        -3.9471              1      0.9304607
      2521.0000        -999.25        -999.25        70.0472        -999.25       89.29781         0.7885         0.7773        -999.25         0.7613      -104.2694        -3.6081              1      0.9425679
      2521.5000        -999.25        -999.25          70.54        -999.25       89.87327         0.8406          0.804        -999.25          0.809      -103.8516        -3.2001              1      0.9571393
      2522.0000        -999.25        -999.25        65.5482        -999.25       83.96916          0.883         0.8297        -999.25         0.8325      -103.4974        -2.8558              1      0.9694357
      2522.5000        -999.25        -999.25        60.9059        -999.25       78.47807         0.9114         0.8515        -999.25         0.8286      -103.2893        -2.6575      0.9676184      0.9765179
      2523.0000        -999.25        -999.25        59.5971        -999.25       76.92514         0.9412          0.869        -999.25         0.8059      -103.1788        -2.5569      0.9345775      0.9801107
      2523.5000        -999.25        -999.25         59.822        -999.25       77.18398         0.9687         0.8806        -999.25          0.757       -103.441         -2.829      0.9400848      0.9703929
      2524.0000        -999.25        -999.25        58.9828        -999.25       76.18581         0.9812         0.8709        -999.25         0.7297      -103.9673        -3.3651      0.9188471      0.9512464
      2524.5000        -999.25        -999.25        52.8922        -999.25       68.98372         0.9627         0.8353        -999.25         0.7201       -105.121        -4.5287      0.7656111      0.9096893
      2525.0000        -999.25        -999.25        48.6187        -999.25       63.92832         0.8838         0.7851        -999.25         0.7197       -106.988        -6.4055      0.6580493      0.8426607
      2525.5000        -999.25        -999.25        44.7812        -999.25       59.38787         0.7677         0.7379        -999.25         0.7205      -108.8376         -8.265      0.5614442        0.77625
      2526.0000        -999.25        -999.25        43.2325        -999.25       57.55153         0.6787         0.6938        -999.25         0.7031      -110.7794       -10.2167       0.522373      0.7065464
      2526.5000        -999.25        -999.25        42.9086        -999.25       57.16215         0.6079         0.6495        -999.25         0.6462      -113.1572       -12.6043      0.5140883       0.621275
