#------------------------------------------------------------------------------
# Created by    : vladimir.rabinovich
# Created on    : 09/19/2023 17:22:04
#------------------------------------------------------------------------------
~Version Information Section
VERS.           2.0     :   CWLS log ASCII Standard - VERSION 2.0
WRAP.           NO      :   One line per depth step
~Well Information Section
#MNEM       .UNIT                                         VALUE :DESCRIPTION
#------------------------------------------------------------------------------
STRT        .FT                                            4308 :START DEPTH
STOP        .FT                                           11086 :STOP DEPTH
STEP        .FT                                             0.5 :STEP      
NULL        .                                           -999.25 :NULL      
COMP        .                                     GULF OIL CORP :COMPANY   
WELL        .                               OCS G01859 ST00BP00 :WELL      
FLD         .                           WEST CAMERON BLOCK 0045 :FIELD     
LOC         .                                                   :LOCATION  
CNTY        .                                      WEST CAMERON :LOCATION  
STAT        .                                         LOUISIANA :STATE     
CTRY        .                                     UNITED STATES :COUNTRY   
SRVC        .                                                   :SERVICE COMPANY
DATE        .                             9/13/2023 11:18:18 AM :LOG DATE  
API         .                                    17700402800000 :API NUMBER
UWI         .                                    17700402800000 :UNIQUE WELL ID
XCOORD      .                                  1464540.60646957 :SURFACE X 
YCOORD      .                                  10776790.0411311 :SURFACE Y 
LAT         .                                        29.6934919 :LATITUDE  
LON         .                                       -93.5541052 :LONGITUDE 
ELEV        .FT                                              79 :ELEVATION VALUE
ELEV_TYPE   .                                                KB :ELEVATION REFERENCE TYPE
~Curve Information Section
#MNEM       .UNIT                                      API CODE :CURVE DESCRIPTION
#------------------------------------------------------------------------------
DEPT        .FT                                                 :DEPTH     
CALI        .IN                                                 :          
DRHO        .G/C3                                               :          
DT          .US/F                                               :          
GR          .GAPI                                               :          
GR_NORM     .GAPI                                               :GammaRay Normalized
ILD         .OHMM                                               :          
NPHI        .%                                                  :          
RHOB        .G/C3                                               :          
SFLU        .OHMM                                               :          
SP          .MV                                                 :          
SP_NORM     .MV                                                 :SP Normalized
VSH_GR      .V/V                                                :Volume of Shale from GR
VSH_SP      .V/V                                                :Volume of Shale from SP
~A        DEPTH           CALI           DRHO             DT             GR        GR_NORM            ILD           NPHI           RHOB           SFLU             SP        SP_NORM         VSH_GR         VSH_SP
# ...
      5201.0000        -999.25        -0.0151       128.0708        48.4966       38.95312         0.3433        41.5171         2.0504         0.9299      -106.4305       -65.9512      0.1266621              0
      5201.5000        -999.25        -0.0234       126.7018         48.483       38.92285         0.3407        40.5964         2.0432         0.9216      -106.1091       -65.6259      0.1260181              0
      5202.0000        -999.25        -0.0223       125.9379        48.4863       38.92862         0.3376        40.2297         2.0541         0.9128      -105.6901       -65.2029      0.1261408              0
      5202.5000        -999.25        -0.0142       125.8445         48.325       38.58377         0.3343         40.296         2.0652         0.9035      -105.4561       -64.9649      0.1188036   0.0005484819
      5203.0000        -999.25        -0.0111        125.701        48.0819       38.06439         0.3311        40.4598         2.0651         0.8949      -105.4476       -64.9524      0.1077529   0.0007437468
      5203.5000        -999.25        -0.0101       125.5403        47.7599       37.37685         0.3281        40.0179         2.0673          0.887      -105.5984       -65.0993     0.09312439              0
      5204.0000        -999.25        -0.0105       124.9792        47.4406       36.69528         0.3257        38.4098         2.0574         0.8791      -105.8475       -65.3444     0.07862294              0
      5204.5000        -999.25        -0.0014       123.4949        47.1578       36.09128         0.3233        37.4279         2.0394         0.8713      -106.0656       -65.5585     0.06577187              0
      5205.0000        -999.25          0.008       119.5143        47.0201       35.79653         0.3217        36.6459         2.0169         0.8638      -106.1886       -65.6775     0.05950068              0
      5205.5000        -999.25         0.0154       119.1249        47.2041       36.18761         0.3204        36.4567          1.991         0.8607      -106.2863       -65.7712     0.06782158              0
      5206.0000        21.2573         0.0339       122.3342        47.7718       37.39624         0.3194        37.5539         1.9884         0.8657      -106.2117       -65.6927     0.09353703              0
      5206.5000        21.4318         0.0481       124.5961        48.7706       39.52365         0.3185        39.4453         1.9823         0.8915      -105.7469       -65.2239      0.1388012              0
      5207.0000        21.3427         0.0326       125.4641           49.9       41.92962         0.3198        39.6815         1.9655         0.9223      -104.7734       -64.2464      0.1899919     0.01177502
      5207.5000        20.5922         0.0391       124.2006        51.9103       46.21278          0.324         41.195         1.9862         0.9332      -103.0997       -62.5687      0.2811229     0.03798908
      5208.0000         19.485         0.0628       123.2411        53.9279       50.51151         0.3331        43.0573         1.9953         0.8574       -99.9862       -59.4512      0.3725852     0.08670002
      5208.5000        17.6163         0.0245       124.0504        56.2948       55.55467         0.3449        44.7936         2.0036         0.7762        -96.464       -55.9251      0.4798866      0.1417953
      5209.0000        16.9655         0.0213        130.417        59.0437       61.41219          0.357         45.226         2.1279         0.7173       -93.2617       -52.7188      0.6045146      0.1918938
      5209.5000        15.9353         0.0529       138.4426        62.2159       68.17165         0.3792        44.9409         2.2802         0.6715       -88.2947       -47.7478      0.7483329      0.2695656
      5210.0000        12.8262         0.0594       144.1072        64.0765       72.13576         0.4215        43.7089         2.3206         0.6438       -83.7831       -43.2322      0.8326757      0.3401219
      5210.5000        12.6147         0.0572       145.2363        65.0504        74.2103         0.4797        40.9058         2.3242         0.6462       -75.4169        -34.862       0.876815      0.4709063
      5211.0000        12.6154         0.0561        136.895        65.3162       74.77554         0.5424        37.9073         2.3128         0.6696       -68.2593       -27.7005      0.8888412      0.5828047
      5211.5000        12.5768         0.0528       131.7512        65.1558       74.43238         0.6269        36.8889         2.2975         0.7063       -63.4252       -22.8624        0.88154         0.6584
      5212.0000        12.4902         0.0601       129.9954        64.8982       73.88231         0.6959        36.6314          2.299         0.7456       -59.4402       -18.8734      0.8698364      0.7207281
      5212.5000        12.4653         0.0508       128.9302        64.3838       72.78473         0.7881        36.6609          2.287         0.7949       -55.5833       -15.0125      0.8464836      0.7810547
      5213.0000        12.4997         0.0339       127.4408        63.6481       71.21548         0.8772        36.8315         2.2701         0.8345        -52.007       -11.4322      0.8130953      0.8369969
      5213.5000        12.5686         0.0296       127.5518        62.8969       69.61343         0.9234        37.2028         2.2668         0.8587       -50.8519       -10.2732      0.7790092      0.8551062
      5214.0000        12.7062         0.0114       128.9263        62.1567       68.03461         0.9532        37.8491         2.2631         0.8746       -51.5116       -10.9289      0.7454174      0.8448609
      5214.5000        12.7878        -0.0081        130.231        61.4791       66.58921         0.9778        37.9945         2.2582         0.8867       -51.7165       -11.1298       0.714664      0.8417219
      5215.0000        12.7995        -0.0191       130.7996        60.9492       65.45879         0.9907        37.6352         2.2526         0.8942       -52.0272       -11.4365      0.6906125      0.8369297
      5215.5000        12.7772        -0.0214         130.02         60.467       64.42981         0.9912         37.354         2.2433         0.8884       -54.7957       -14.2011      0.6687194      0.7937328
      5216.0000        12.7351        -0.0176       129.3262        60.1653       63.78555         0.9827        37.4943         2.2299         0.8749       -57.3653       -16.7667      0.6550117      0.7536453
      5216.5000        12.7939        -0.0162       129.4956        60.2529       63.97096         0.9799         39.033          2.214          0.862       -59.1276        -18.525      0.6589566      0.7261719
      5217.0000        12.9034        -0.0187       131.2378        60.2864       64.04128         0.9787        40.0558         2.1961          0.853       -61.5422       -20.9356      0.6604528      0.6885062
      5217.5000         12.874        -0.0228       134.4224        60.1354       63.71819         0.9791        40.8685         2.1759          0.851       -63.5027       -22.8921      0.6535784      0.6579359
      5218.0000        12.8133        -0.0244       137.3687        59.8962       63.20712         0.9802        41.5529         2.1893         0.8485       -64.0408       -23.4263      0.6427046      0.6495891
      5218.5000        12.8199        -0.0124       139.7249        60.0126       63.45413         0.9843        42.0725         2.2108         0.8441       -64.3007       -23.6822      0.6479602      0.6455906
      5219.0000         13.365        -0.0056       140.7175        60.2794       64.02147         0.9881        42.3856          2.212         0.8389       -64.3134       -23.6909      0.6600313      0.6454547
      5219.5000        13.6857        -0.0047       141.8589         60.524        64.5415          0.991        41.9689         2.2025         0.8306       -63.8408       -23.2143      0.6710957      0.6529015
