#------------------------------------------------------------------------------
# Created by    : vladimir.rabinovich
# Created on    : 09/19/2023 17:20:47
#------------------------------------------------------------------------------
~Version Information Section
VERS.           2.0     :   CWLS log ASCII Standard - VERSION 2.0
WRAP.           NO      :   One line per depth step
~Well Information Section
#MNEM       .UNIT                                         VALUE :DESCRIPTION
#------------------------------------------------------------------------------
STRT        .FT                                             612 :START DEPTH
STOP        .FT                                            9868 :STOP DEPTH
STEP        .FT                                             0.5 :STEP      
NULL        .                                           -999.25 :NULL      
COMP        .                                      SHELL OIL CO :COMPANY   
WELL        .                               OCS G00950 ST00BP00 :WELL      
FLD         .                                           WILDCAT :FIELD     
LOC         .                                                   :LOCATION  
CNTY        .                                      EAST CAMERON :LOCATION  
STAT        .                                         LOUISIANA :STATE     
CTRY        .                                     UNITED STATES :COUNTRY   
SRVC        .                                                   :SERVICE COMPANY
DATE        .                             9/13/2023 11:18:15 AM :LOG DATE  
API         .                                    17703002450000 :API NUMBER
UWI         .                                    17703002450000 :UNIQUE WELL ID
XCOORD      .                                  1691932.89207312 :SURFACE X 
YCOORD      .                                   10460306.475122 :SURFACE Y 
LAT         .                                        28.8238717 :LATITUDE  
LON         .                                       -92.8390619 :LONGITUDE 
ELEV        .FT                                              75 :ELEVATION VALUE
ELEV_TYPE   .                                                KB :ELEVATION REFERENCE TYPE
~Curve Information Section
#MNEM       .UNIT                                      API CODE :CURVE DESCRIPTION
#------------------------------------------------------------------------------
DEPT        .FT                                                 :DEPTH     
ASN         .OHMM                                               :          
GR          .GAPI                                               :          
GR_NORM     .GAPI                                               :GammaRay Normalized
ILD         .OHMM                                               :          
SP          .MV                                                 :          
SP_NORM     .MV                                                 :SP Normalized
VSH_GR      .V/V                                                :Volume of Shale from GR
VSH_SP      .V/V                                                :Volume of Shale from SP
~A        DEPTH            ASN             GR        GR_NORM            ILD             SP        SP_NORM         VSH_GR         VSH_SP
# ...
      1851.0000         0.6813         66.999       66.16866         0.6281        -49.191        -5.8953      0.7057161      0.5130875
      1851.5000         0.6668        61.3733       59.05716         0.5669       -50.1161        -6.8283      0.5544077      0.3964625
      1852.0000         0.6285        56.5162       52.91746         0.5089       -50.9802        -7.7003      0.4237757      0.2874625
      1852.5000         0.6034        48.4791       42.75748         0.4793       -51.7021        -8.4301       0.207606      0.1962374
      1853.0000         0.5837        43.9625       37.04811         0.4675       -52.1054        -8.8413      0.0861301      0.1448375
      1853.5000         0.5702        43.4404       36.38859         0.4581       -52.3523        -9.0961     0.07209761      0.1129875
      1854.0000         0.5664        45.2164        38.6343          0.451        -52.455        -9.2067      0.1198788     0.09916246
      1854.5000         0.5682        48.8358       43.21045         0.4467       -52.4431        -9.2026      0.2172435     0.09967506
      1855.0000         0.5638         52.136       47.38305         0.4442       -52.3196         -9.087      0.3060224       0.114125
      1855.5000         0.5607        55.8451        52.0726         0.4428       -52.1785        -8.9538         0.4058       0.130775
      1856.0000          0.559         58.509        55.4408         0.4435       -52.1641        -8.9473      0.4774638      0.1315875
      1856.5000         0.5573        58.8572        55.8815         0.4413        -52.301        -9.0921      0.4868404      0.1134875
      1857.0000         0.5579        59.2854       56.42346         0.4368       -52.3657        -9.1647      0.4983715      0.1044126
      1857.5000           0.56        59.6956       56.94254         0.4348       -52.2712        -9.0781      0.5094156      0.1152375
      1858.0000          0.564        60.1929       57.57173         0.4369       -52.0779        -8.8927      0.5228028      0.1384125
      1858.5000         0.5711        60.9084       58.47676         0.4412       -51.8787        -8.7014      0.5420588       0.162325
      1859.0000          0.583        60.4418        57.8874          0.452       -51.6746        -8.5051      0.5295191      0.1868625
      1859.5000         0.5791         59.669       56.91094         0.4643       -51.5429        -8.3813      0.5087433      0.2023375
      1860.0000         0.5566        59.6488        56.8859         0.4874       -51.4875        -8.3338      0.5082107       0.208275
      1860.5000         0.5314        60.7194       58.23986         0.5019        -51.774        -8.6282      0.5370182      0.1714751
      1861.0000         0.5475        65.3779       64.12963         0.4995       -52.0856        -8.9477      0.6623326      0.1315376
      1861.5000         0.5535        67.4636       66.76699         0.4942       -52.3254        -9.1954      0.7184466       0.100575
      1862.0000         0.5412         69.601        69.4696         0.4929       -52.4626        -9.3405      0.7759489     0.08243752
      1862.5000         0.5273        67.6267        66.9742         0.4937       -52.4489        -9.3347      0.7228553     0.08316255
      1863.0000         0.5306        65.3849       64.14063         0.4912       -52.3487        -9.2424      0.6625665     0.09469998
      1863.5000         0.5436        63.6131       61.90122         0.4884       -52.2653        -9.1669      0.6149196      0.1041375
      1864.0000         0.5567        62.2562       60.18634         0.4883       -52.1818        -9.0912      0.5784329         0.1136
      1864.5000         0.5579        57.4149       54.06649         0.4891       -52.1245        -9.0418      0.4482232      0.1197751
      1865.0000         0.5524        53.9669       49.70804         0.4852        -52.117        -9.0422      0.3554902       0.119725
      1865.5000         0.5545        50.8283       45.74074         0.4812         -52.16        -9.0931      0.2710795      0.1133626
      1866.0000         0.5585        49.2758       43.77857         0.4774       -52.2365        -9.1775      0.2293313      0.1028125
      1866.5000         0.5644        47.8304       41.95181         0.4739       -52.2652        -9.2141      0.1904641     0.09823751
      1867.0000         0.5608        47.6554       41.73121         0.4693       -52.1947        -9.1515      0.1857704      0.1060625
      1867.5000         0.5497        48.2424        42.4738         0.4644        -52.183        -9.1477      0.2015702      0.1065375
      1868.0000         0.5392        49.4207       43.96391          0.461          -52.3        -9.2726      0.2332746     0.09092498
      1868.5000          0.543        50.8554       45.77816         0.4584       -52.3815        -9.3619      0.2718757     0.07976246
      1869.0000         0.5471        51.3728       46.43276         0.4551       -52.2212        -9.2095      0.2858034     0.09881246
      1869.5000         0.5484        51.5893       46.70696         0.4508       -52.0378         -9.034      0.2916375        0.12075
      1870.0000         0.5489        51.8438       47.02921         0.4468       -51.8378        -8.8419      0.2984937      0.1447625
      1870.5000         0.5477        52.4705       47.82199         0.4458       -51.7123        -8.7243      0.3153614      0.1594625
      1871.0000         0.5465        53.6643       49.33169         0.4447       -51.7252        -8.7451      0.3474827      0.1568625
      1871.5000         0.5487        53.7988       49.50236         0.4436       -52.0163        -9.0441      0.3511141      0.1194875
      1872.0000         0.5523        52.1636       47.43565         0.4424        -52.399        -9.4347      0.3071414      0.0706625
      1872.5000         0.5603        47.9194       42.07065          0.432       -52.4987        -9.5423      0.1929925     0.05721247
      1873.0000         0.5622        45.3416        38.8123         0.4123       -52.2589        -9.3103       0.123666     0.08621252
      1873.5000         0.5561        43.2421       36.15863          0.406       -52.1798        -9.2391      0.0672049     0.09511244
      1874.0000         0.5637        43.6675       36.69692         0.4042       -52.1649        -9.2321     0.07865784     0.09598756
      1874.5000         0.5847         44.166       37.32763         0.4164       -52.2188        -9.2939     0.09207714     0.08826256
      1875.0000         0.5967        45.6677       39.22658         0.4259       -52.2253        -9.3083      0.1324804      0.0864625
      1875.5000         0.5893         48.826        43.2198          0.441       -52.2816        -9.3725      0.2174426     0.07843745
      1876.0000         0.5786        55.7603       51.98663         0.4698       -52.2471        -9.3459      0.4039708     0.08176255
      1876.5000         0.5776        61.8127       59.63857         0.4988       -51.6595        -8.7662      0.5667781       0.154225
      1877.0000         0.5975        69.7828       69.71498         0.5293       -50.3877        -7.5023      0.7811698      0.3122125
      1877.5000         0.6381        73.2495       74.09808         0.5649       -48.9854        -6.1078      0.8744271       0.486525
      1878.0000         0.6981        76.6812       78.43694         0.6041       -47.7455        -4.8758      0.9667433       0.640525
      1878.5000         0.7111        78.2263       80.39075         0.6448       -47.0376        -4.1758              1       0.728025
      1879.0000          0.691         79.606       82.13546         0.6872       -46.6139          -3.76              1           0.78
      1879.5000          0.716        80.2258       82.91953         0.7283       -46.4902        -3.6442              1       0.794475
      1880.0000         0.7543        73.7737       74.76331         0.7669       -45.9664        -3.1283       0.888581      0.8589625
