#------------------------------------------------------------------------------
# Created by    : vladimir.rabinovich
# Created on    : 09/19/2023 17:20:42
#------------------------------------------------------------------------------
~Version Information Section
VERS.           2.0     :   CWLS log ASCII Standard - VERSION 2.0
WRAP.           NO      :   One line per depth step
~Well Information Section
#MNEM       .UNIT                                         VALUE :DESCRIPTION
#------------------------------------------------------------------------------
STRT        .FT                                            1866 :START DEPTH
STOP        .FT                                            8637 :STOP DEPTH
STEP        .FT                                             0.5 :STEP      
NULL        .                                           -999.25 :NULL      
COMP        .                           GENERAL AMERICAN OIL CO :COMPANY   
WELL        .                               OCS G01862 ST00BP00 :WELL      
FLD         .                           WEST CAMERON BLOCK 0045 :FIELD     
LOC         .                                                   :LOCATION  
CNTY        .                                      WEST CAMERON :LOCATION  
STAT        .                                         LOUISIANA :STATE     
CTRY        .                                     UNITED STATES :COUNTRY   
SRVC        .                                                   :SERVICE COMPANY
DATE        .                             9/13/2023 11:18:18 AM :LOG DATE  
API         .                                    17700004060000 :API NUMBER
UWI         .                                    17700004060000 :UNIQUE WELL ID
XCOORD      .                                  1439968.94212662 :SURFACE X 
YCOORD      .                                  10754878.8884152 :SURFACE Y 
LAT         .                                        29.6328727 :LATITUDE  
LON         .                                       -93.6311393 :LONGITUDE 
ELEV        .FT                                              51 :ELEVATION VALUE
ELEV_TYPE   .                                                KB :ELEVATION REFERENCE TYPE
~Curve Information Section
#MNEM       .UNIT                                      API CODE :CURVE DESCRIPTION
#------------------------------------------------------------------------------
DEPT        .FT                                                 :DEPTH     
ASN         .OHMM                                               :          
CALI        .IN                                                 :          
DRHO        .G/C3                                               :          
DT          .US/F                                               :          
GR          .GAPI                                               :          
GR_NORM     .GAPI                                               :GammaRay Normalized
ILD         .OHMM                                               :          
RHOB        .G/C3                                               :          
SP          .MV                                                 :          
SP_NORM     .MV                                                 :SP Normalized
VSH_GR      .V/V                                                :Volume of Shale from GR
VSH_SP      .V/V                                                :Volume of Shale from SP
~A        DEPTH            ASN           CALI           DRHO             DT             GR        GR_NORM            ILD           RHOB             SP        SP_NORM         VSH_GR         VSH_SP
# ...
      6827.0000         0.5344        11.7495          0.027       113.8635        49.4469       52.61113         0.5199         2.0759       -54.5652       -19.8121       0.417258      0.7322689
      6827.5000         0.5098        11.5047         0.0065       115.8186        52.4748       55.66331         0.4779         2.1181       -54.1558       -19.4046      0.4821982      0.7377757
      6828.0000         0.5224        11.4749         0.0053       116.5858        57.6172       60.84697         0.4508          2.203       -56.2454       -21.4962      0.5924886      0.7095108
      6828.5000         0.5554        11.6668         0.0083       112.9479        64.7278        68.0146         0.4354         2.2246       -66.8497       -32.1024      0.7449914      0.5661837
      6829.0000         0.5695        11.7002         0.0161       111.3777        67.8217       71.13331         0.4256         2.2353       -76.7266       -41.9813       0.811347      0.4326851
      6829.5000         0.5744        11.4879         0.0184       106.7263        69.9778       73.30671         0.3969         2.2474       -85.4967       -50.7533      0.8575895      0.3141446
      6830.0000         0.5949         11.554         0.0099       104.7813        73.0691       76.42281          0.375         2.2607       -94.4563       -59.7149      0.9238895      0.1930419
      6830.5000         0.6331        11.6047         0.0183       103.5491        77.9381       81.33086         0.3547         2.2672       -93.9495         -59.21              1      0.1998649
      6831.0000         0.6509        11.6451         0.0225       105.4052        79.1456       82.54805         0.3391         2.2578       -97.2449       -62.5074              1      0.1553054
      6831.5000         0.6253        11.6331          0.028       107.1667        76.8051       80.20083         0.3313         2.2618      -102.3986        -67.663              1     0.08563511
      6832.0000         0.5975        11.5894         0.0349       107.4847         72.947       76.06355          0.331         2.2654      -105.5565       -70.8229      0.9162456      0.0429338
      6832.5000         0.5676        11.4307         0.0418       105.6884        68.2635       71.04113         0.3346          2.241      -106.8087        -72.077      0.8093857     0.02598644
      6833.0000         0.5401         11.422         0.0535        104.046        57.3096       59.29456         0.3457         2.2143      -107.3035       -72.5738      0.5594588     0.01927298
      6833.5000         0.5154         11.602         0.0715       104.6399        51.3076       52.85825         0.3545          2.194      -107.2006       -72.4728      0.4225159     0.02063782
      6834.0000         0.4958        11.4834         0.0871       105.5989        40.9689        41.7714         0.3561         2.2002      -107.1638        -72.438      0.1866256     0.02110806
      6834.5000         0.4932        12.2961         0.0754       104.9106        37.1084       37.63154         0.3581         2.1859      -107.1841       -72.4602     0.09854345     0.02080814
      6835.0000         0.4988        12.9286         0.0821       105.4523         34.813       35.17004         0.3618         2.1665      -107.2009        -72.479     0.04617107      0.0205541
      6835.5000         0.4855        13.1534          0.104       103.9926        33.9365       34.23012         0.3662         2.1593      -107.0371       -72.3171     0.02617272     0.02274188
      6836.0000         0.4471        13.3262         0.1179       105.6486         33.022       33.24944         0.3743          2.118      -106.8342       -72.1161    0.005307218     0.02545816
      6836.5000          0.429        12.9784         0.1241       105.8804        32.8865       33.10414         0.3823         2.1037      -106.5614       -71.8453    0.002215771     0.02911758
      6837.0000         0.4278        13.0645         0.1148         107.24        34.4248       34.75375         0.3977         2.0985      -105.5231        -70.809     0.03731391     0.04312165
      6837.5000         0.4264        13.2317         0.1004       107.4326        35.4693       35.87384         0.4152         2.0822      -102.4469       -67.7347     0.06114546     0.08466618
      6838.0000         0.4262         12.828         0.0848       107.0533        34.2979       34.61767         0.4298         2.0551       -99.2351       -64.5248     0.03441847      0.1280432
      6838.5000         0.4262        13.3058         0.1023       106.3854        31.7388       31.87339         0.4096           2.07       -97.4528       -62.7445              0      0.1521014
      6839.0000         0.4327        13.5195         0.1259       105.3591         30.187       30.20929         0.3687         2.0665       -96.6248       -61.9184              0      0.1632649
      6839.5000         0.4411        13.4991         0.1523        105.425        31.6289       31.75553         0.3358         2.0554       -97.3043       -62.5999              0      0.1540554
      6840.0000         0.4266        12.9956         0.1306       108.4935        33.8632       34.15151         0.3174         2.0383       -98.8489       -64.1464     0.02450026      0.1331567
      6840.5000         0.4063          12.87         0.0986       111.4254        36.8691       37.37493         0.3161         2.0255       -99.9841       -65.2836     0.09308357      0.1177892
      6841.0000         0.3858          13.02         0.1103       112.9064        39.5184       40.21594         0.3178         2.0634       -99.8027       -65.1041      0.1535306      0.1202148
      6841.5000         0.3798        12.9004         0.1068       111.4938        41.6721       42.52549         0.3209         2.0843      -100.0287       -65.3321      0.2026701      0.1171338
      6842.0000         0.3683         12.607         0.0805       110.2253        45.7451       46.89322         0.3244         2.0936       -99.6918       -64.9971      0.2956005      0.1216608
      6842.5000           0.37        12.2006         0.0668       107.8302        48.6045       49.95955         0.3252         2.1149       -98.7914       -64.0987      0.3608414      0.1338013
      6843.0000         0.3798        11.9728         0.0568        106.446        50.3052       51.78331         0.3249         2.1401       -99.8514       -65.1606      0.3996448      0.1194514
      6843.5000         0.3748        12.2727          0.063       105.8287        50.3016       51.77944         0.3191          2.159      -102.0941       -67.4053      0.3995626     0.08911762
      6844.0000         0.3647        12.2028         0.0665       106.1306        50.7472       52.25729         0.3116         2.1483      -103.7233       -69.0364      0.4097296     0.06707568
      6844.5000         0.3817        12.0073         0.0348       110.9857        51.4548       53.01609         0.3083         2.1043      -104.6664       -69.9815      0.4258744     0.05430407
      6845.0000         0.3868        11.6935         0.0163       112.9088         51.459        53.0206          0.308         2.0798      -103.9023       -69.2193      0.4259703     0.06460407
      6845.5000         0.3807        11.3268         0.0056       111.9734        49.8089       51.25109         0.3108         2.0753      -102.9379       -68.2569      0.3883211      0.0776095
      6846.0000         0.4052        11.4398         0.0241       113.7386        49.2693       50.67245         0.3148         2.0715      -103.0339       -68.3548      0.3760095     0.07628652
      6846.5000         0.4324        11.7704         0.0381       112.7946        49.7747       51.21442         0.3117         2.0701      -103.1256       -68.4485      0.3875408     0.07502025
      6847.0000         0.4324        12.6923         0.0676       111.1993        48.0087       49.32063         0.3074         2.0915      -102.9502        -68.275      0.3472473     0.07736485
