#------------------------------------------------------------------------------
# Created by    : vladimir.rabinovich
# Created on    : 09/19/2023 17:20:44
#------------------------------------------------------------------------------
~Version Information Section
VERS.           2.0     :   CWLS log ASCII Standard - VERSION 2.0
WRAP.           NO      :   One line per depth step
~Well Information Section
#MNEM       .UNIT                                         VALUE :DESCRIPTION
#------------------------------------------------------------------------------
STRT        .FT                                             194 :START DEPTH
STOP        .FT                                           14521 :STOP DEPTH
STEP        .FT                                             0.5 :STEP      
NULL        .                                           -999.25 :NULL      
COMP        .                             MAGNOLIA PETROLEUM CO :COMPANY   
WELL        .                                OCS 00043 ST00BP00 :WELL      
FLD         .                          EUGENE ISLAND BLOCK 0089 :FIELD     
LOC         .                                                   :LOCATION  
CNTY        .                                     EUGENE ISLAND :LOCATION  
STAT        .                                         LOUISIANA :STATE     
CTRY        .                                     UNITED STATES :COUNTRY   
SRVC        .                                                   :SERVICE COMPANY
DATE        .                             9/13/2023 11:18:42 AM :LOG DATE  
API         .                                    17709003920000 :API NUMBER
UWI         .                                    17709003920000 :UNIQUE WELL ID
XCOORD      .                                  2056408.80151155 :SURFACE X 
YCOORD      .                                  10562022.8372996 :SURFACE Y 
LAT         .                                        29.0974849 :LATITUDE  
LON         .                                       -91.6970667 :LONGITUDE 
ELEV        .FT                                              50 :ELEVATION VALUE
ELEV_TYPE   .                                                KB :ELEVATION REFERENCE TYPE
~Curve Information Section
#MNEM       .UNIT                                      API CODE :CURVE DESCRIPTION
#------------------------------------------------------------------------------
DEPT        .FT                                                 :DEPTH     
ASN         .OHMM                                               :          
LAT         .OHMM                                               :          
LN          .OHMM                                               :          
SP          .MV                                                 :          
SP_NORM     .MV                                                 :SP Normalized
VSH_SP      .V/V                                                :Volume of Shale from SP
~A        DEPTH            ASN            LAT             LN             SP        SP_NORM         VSH_SP
# ...
      6844.0000        -999.25         0.0598         0.1266       -92.4136      -25.86692       0.353327
      6844.5000        -999.25         0.0598         0.1294       -91.3534       -24.8107      0.3797325
      6845.0000        -999.25         0.0588         0.1322       -90.2235      -23.68478      0.4078806
      6845.5000        -999.25         0.0578         0.1349       -89.0891      -22.55435      0.4361412
      6846.0000         0.2854         0.0569         0.1377       -87.9415      -21.41072       0.464732
      6846.5000         0.2995         0.0559         0.1404       -86.7927      -20.26591      0.4933523
      6847.0000         0.3197         0.0549         0.1432        -85.644      -19.12118      0.5219706
      6847.5000         0.3437         0.0544         0.1459         -84.71      -18.19115      0.5452211
      6848.0000          0.369         0.0585         0.1484       -83.8169      -17.30203      0.5674492
      6848.5000         0.3964         0.0625          0.148       -82.9237       -16.4128      0.5896799
      6849.0000         0.4243         0.0665         0.1477       -82.0306      -15.52368       0.611908
      6849.5000          0.453         0.0706         0.1474       -81.1099      -14.60696      0.6348261
      6850.0000         0.4862         0.0806         0.1471        -80.177      -13.67803      0.6580492
      6850.5000         0.5182         0.0967         0.1467       -79.2429       -12.7479      0.6813024
      6851.0000         0.5318         0.1129         0.1464       -78.3134      -11.82238      0.7044405
      6851.5000         0.5239         0.1291         0.1461       -77.4103      -10.92326      0.7269184
      6852.0000         0.5142         0.1469         0.1458       -76.5072      -10.02414      0.7493965
      6852.5000         0.5037         0.1689         0.1454       -75.6041      -9.125015      0.7718746
      6853.0000         0.4973          0.191          0.145       -74.6058      -8.130684      0.7967329
      6853.5000         0.4919          0.213         0.1446       -73.5323      -7.061165      0.8234709
      6854.0000         0.4893         0.2348         0.1442       -72.5453       -6.07814      0.8480465
      6854.5000         0.4885         0.2506         0.1438       -71.9576      -5.494415      0.8626396
      6855.0000         0.4876         0.2663         0.1435       -71.5061       -5.04689      0.8738278
      6855.5000         0.4892         0.2821         0.1431        -71.625      -5.169762       0.870756
      6856.0000         0.4943         0.2976         0.1426       -72.5132      -6.061935      0.8484516
      6856.5000         0.4994         0.3123         0.1421       -73.4062      -6.958908      0.8260273
      6857.0000         0.5044         0.3249         0.1417       -74.0747      -7.631393      0.8092152
      6857.5000         0.5089          0.336         0.1412       -74.5754       -8.13607      0.7965983
      6858.0000         0.5113         0.3421         0.1407       -75.0757      -8.640343      0.7839915
      6858.5000         0.5054         0.3433         0.1402       -75.5764       -9.14502      0.7713745
      6859.0000         0.4504         0.3376         0.1447        -74.774      -8.346596      0.7913351
      6859.5000         0.3966         0.3182         0.1518       -73.9142      -7.490768      0.8127308
      6860.0000         0.3427         0.2832          0.159       -73.0554      -6.635941      0.8341015
      6860.5000         0.3154          0.244         0.1662       -70.8254       -4.40992       0.889752
      6861.0000         0.2968          0.199         0.1714       -68.5125       -2.10099      0.9474753
      6861.5000         0.2865         0.1545         0.1755       -66.5868     -0.1792679      0.9955183
      6862.0000         0.2762         0.0969         0.1797       -64.9977       1.405853              1
      6862.5000         0.2713         0.0668         0.1838       -63.5767       2.822876              1
      6863.0000         0.2664         0.0492         0.1872       -62.5851       3.810501              1
      6863.5000         0.2614         0.0317         0.1881       -61.7816       4.610023              1
      6864.0000         0.2598         0.0214          0.189       -61.0999        5.28775              1
      6864.5000         0.2583         0.0157         0.1899       -62.1978       4.185875              1
      6865.0000         0.2567         0.0097         0.1908       -65.9073      0.4723969              1
      6865.5000         0.2565         0.0037         0.1894        -67.512      -1.136276      0.9715931
      6866.0000         0.2584              0         0.1874       -68.4694      -2.097649      0.9475588
      6866.5000         0.2603              0         0.1854       -69.1743      -2.806526      0.9298369
      6867.0000         0.2623         0.0009         0.1834       -69.0852      -2.721397      0.9319651
      6867.5000         0.2642         0.0064         0.1813       -68.6232      -2.263374      0.9434156
      6868.0000         0.2661         0.0139          0.184       -68.2308      -1.874954      0.9531261
      6868.5000         0.2708         0.0214         0.1878       -68.6132       -2.26133      0.9434668
      6869.0000         0.2765         0.0288         0.1917       -70.7214      -4.373505      0.8906624
      6869.5000         0.2821         0.0387         0.1955       -72.6028      -6.258881       0.843528
      6870.0000         0.2937         0.0493         0.1994       -73.7405      -7.400558      0.8149861
      6870.5000         0.3165         0.0599         0.2032        -74.991      -8.655029      0.7836243
      6871.0000         0.3393         0.0756         0.2077       -76.8713      -10.53931      0.7365173
      6871.5000          0.371         0.1003         0.2155       -77.4158      -11.08778      0.7228054
      6872.0000         0.4048          0.125         0.2232       -76.8724      -10.54836      0.7362911
      6872.5000         0.4321         0.1497          0.231       -76.4579      -10.13783      0.7465542
      6873.0000         0.4593         0.1772         0.2388       -76.0435      -9.727409      0.7568148
      6873.5000          0.495         0.2056         0.2465        -75.629      -9.316887      0.7670778
      6874.0000         0.5273         0.2341         0.2548       -75.3911      -9.082962       0.772926
      6874.5000           0.55         0.2596         0.2659       -76.7883      -10.48414      0.7378966
      6875.0000         0.5726         0.2816         0.2771       -77.9448      -11.64462      0.7088846
      6875.5000         0.5877         0.2849         0.2882       -79.0846      -12.78839      0.6802902
      6876.0000         0.6018         0.2882         0.2994        -79.674      -13.38177      0.6654558
      6876.5000         0.6092         0.2915         0.3105       -80.2389      -13.95064       0.651234
      6877.0000         0.6157         0.2914         0.3217        -80.804      -14.51971      0.6370071
      6877.5000         0.6222         0.2898         0.3285       -81.0592      -14.77888      0.6305279
      6878.0000         0.6299         0.2882         0.3338       -81.2958      -15.01946      0.6245134
      6878.5000         0.6408         0.2867         0.3391       -81.1287      -14.85635      0.6285914
      6879.0000         0.6516         0.2851         0.3445       -80.6174      -14.34902      0.6412745
      6879.5000         0.6643         0.2835         0.3498       -80.1084      -13.84399      0.6539001
      6880.0000         0.6778         0.2789         0.3551       -79.5988      -13.33837      0.6665407
      6880.5000         0.6928          0.273         0.3604       -79.0891      -12.83265      0.6791838
      6881.0000         0.7113         0.2671         0.3591       -78.3676      -12.11512       0.697122
      6881.5000         0.7087         0.2611         0.3572       -77.6393      -11.39079      0.7152302
