#------------------------------------------------------------------------------
# Created by    : vladimir.rabinovich
# Created on    : 09/19/2023 17:22:13
#------------------------------------------------------------------------------
~Version Information Section
VERS.           2.0     :   CWLS log ASCII Standard - VERSION 2.0
WRAP.           NO      :   One line per depth step
~Well Information Section
#MNEM       .UNIT                                         VALUE :DESCRIPTION
#------------------------------------------------------------------------------
STRT        .FT                                            4265 :START DEPTH
STOP        .FT                                           12768 :STOP DEPTH
STEP        .FT                                             0.5 :STEP      
NULL        .                                           -999.25 :NULL      
COMP        .                                SHELL OFFSHORE INC :COMPANY   
WELL        .                               OCS G04749 ST00BP02 :WELL      
FLD         .                                           WILDCAT :FIELD     
LOC         .                                                   :LOCATION  
CNTY        .                                      WEST CAMERON :LOCATION  
STAT        .                                         LOUISIANA :STATE     
CTRY        .                                     UNITED STATES :COUNTRY   
SRVC        .                                                   :SERVICE COMPANY
DATE        .                             9/13/2023 11:19:06 AM :LOG DATE  
API         .                                    17700406070000 :API NUMBER
UWI         .                                    17700406070000 :UNIQUE WELL ID
XCOORD      .                                   1486969.7252092 :SURFACE X 
YCOORD      .                                  10728694.6404599 :SURFACE Y 
LAT         .                                        29.5614647 :LATITUDE  
LON         .                                       -93.4828123 :LONGITUDE 
ELEV        .FT                                              98 :ELEVATION VALUE
ELEV_TYPE   .                                                KB :ELEVATION REFERENCE TYPE
~Curve Information Section
#MNEM       .UNIT                                      API CODE :CURVE DESCRIPTION
#------------------------------------------------------------------------------
DEPT        .FT                                                 :DEPTH     
CALI        .IN                                                 :          
DRHO        .G/C3                                               :          
DT          .US/F                                               :          
GR          .GAPI                                               :          
GR_1        .GAPI                                               :          
GR_NORM     .GAPI                                               :GammaRay Normalized
ILD         .OHMM                                               :          
ILM         .OHMM                                               :          
NPHI        .%                                                  :          
RHOB        .G/C3                                               :          
SFL         .OHMM                                               :          
SP          .MV                                                 :          
SP_NORM     .MV                                                 :SP Normalized
VSH_GR      .V/V                                                :Volume of Shale from GR
VSH_SP      .V/V                                                :Volume of Shale from SP
~A        DEPTH           CALI           DRHO             DT             GR           GR_1        GR_NORM            ILD            ILM           NPHI           RHOB            SFL             SP        SP_NORM         VSH_GR         VSH_SP
# ...
     12748.0000         8.7332        -0.0569        -999.25        -999.25        43.2953       60.46947         0.4637         0.4757        30.1333          2.244         0.5367       -68.5685        -5.8213      0.5844567       0.863525
     12748.5000         8.7382        -0.0538        -999.25        -999.25        42.9816       60.05109          0.466         0.4756        30.6899         2.2181         0.5099       -68.8149        -6.0194      0.5755552        0.85645
     12749.0000          8.749        -0.0599        -999.25        -999.25        41.5539       58.08189          0.466         0.4694        31.4141          2.181         0.5175       -68.9662        -6.1225      0.5336573      0.8527679
     12749.5000          8.755         -0.069        -999.25        -999.25         40.453       56.56766         0.4594         0.4611        32.2689         2.1719         0.5466       -69.0587        -6.2016      0.5014395      0.8499429
     12750.0000          8.749        -0.0683        -999.25        -999.25        40.4962       56.64631         0.4487          0.446        32.5636         2.1768          0.568       -69.0509        -6.1938      0.5031129      0.8502215
     12750.5000         8.7372        -0.0668        -999.25        -999.25        41.5689       58.15831         0.4349         0.4284        32.3985         2.1942          0.552        -68.782        -5.9249      0.5352832       0.859825
     12751.0000         8.7217        -0.0696        -999.25        -999.25          47.39       66.28133         0.4189         0.4129        32.1815         2.1988         0.5218       -68.4308        -5.5737      0.7081133      0.8723679
     12751.5000         8.7087        -0.0722        -999.25        -999.25        50.4589       70.57256         0.3997         0.3991        32.0488         2.2027         0.4982       -68.3329        -5.4758      0.7994162      0.8758643
     12752.0000         8.7018        -0.0696        -999.25        -999.25        49.2535       68.91283         0.3749         0.3869        31.9862         2.2156         0.4819        -68.584        -5.7269      0.7641029      0.8668965
     12752.5000         8.6983        -0.0673        -999.25        -999.25        46.0975       64.53738         0.3548         0.3759        32.0552         2.2242         0.4681       -69.1517        -6.2946       0.671008      0.8466215
     12753.0000         8.6975         -0.071        -999.25        -999.25        42.7111       59.84114         0.3446         0.3678        32.1885         2.2179         0.4543       -69.8452        -6.9881      0.5710881      0.8218536
     12753.5000         8.7041        -0.0759        -999.25        -999.25        40.9878       57.46037         0.3389          0.363        32.1807         2.2094         0.4398       -69.9775        -7.1204      0.5204333      0.8171286
     12754.0000          8.712        -0.0765        -999.25        -999.25        41.3084       57.92525         0.3363          0.363        32.1107         2.2104         0.4377        -69.397        -6.5399      0.5303244      0.8378607
     12754.5000         8.7187        -0.0697        -999.25        -999.25        43.7781        61.3821         0.3419         0.3704        32.0099         2.2133         0.4483       -67.9354        -5.0783      0.6038745      0.8900607
     12755.0000         8.7222        -0.0593        -999.25        -999.25        45.3912       63.64646         0.3497          0.388         31.837         2.2159         0.4629       -65.7045        -2.8474      0.6520523      0.9697357
     12755.5000         8.7263        -0.0499        -999.25        -999.25        45.5903       63.94218         0.3588         0.4084        31.5876         2.2226         0.5172       -61.7953         1.0618      0.6583443              1
     12756.0000         8.7379        -0.0443        -999.25        -999.25         44.532       62.48728         0.3674         0.4321        31.5846         2.2431         0.5861       -57.3732         5.4839      0.6273889              1
     12756.5000         8.7532        -0.0443        -999.25        -999.25        44.2064       62.05247         0.3757         0.4592        31.8107         2.2768         0.6434       -54.3754         8.4817      0.6181378              1
     12757.0000         8.7961        -0.0551        -999.25        -999.25        45.1282       63.35437         0.3835         0.4828        31.8513         2.2963         0.6715        -51.507        11.3501      0.6458376              1
     12757.5000         8.8815        -0.0649        -999.25        -999.25        45.7005       64.16968         0.3892         0.5048        31.5801         2.3204         0.6617       -47.2742        15.5829      0.6631846              1
     12758.0000         9.0383        -0.0689        -999.25        -999.25        44.8802       63.04612         0.3924         0.5295        31.1467         2.3341         0.6253       -44.6971          18.16      0.6392791              1
     12758.5000         9.2757        -0.0697        -999.25        -999.25        43.2621       60.81183         0.3947         0.5542        30.7844         2.3493         0.5945       -43.4496        19.4075       0.591741              1
     12759.0000         9.4492        -0.0703        -999.25        -999.25        42.5899       59.89446         0.3961         0.5733        30.8359         2.3643         0.5711       -42.6915        20.1656      0.5722225              1
     12759.5000         9.4871        -0.0752        -999.25        -999.25        43.1794       60.73372        -999.25        -999.25        30.5217         2.3619        -999.25        -999.25        -999.25      0.5900792        -999.25
     12760.0000         9.4796        -0.0863        -999.25        -999.25        44.1062       62.04258        -999.25        -999.25        29.8246         2.3485        -999.25        -999.25        -999.25      0.6179273        -999.25
     12760.5000         9.4977        -0.0931        -999.25        -999.25        44.9478       63.23282        -999.25        -999.25        29.4107         2.3452        -999.25        -999.25        -999.25      0.6432515        -999.25
     12761.0000         9.4561        -0.0928        -999.25        -999.25        45.3755       63.84683        -999.25        -999.25        30.0049         2.3511        -999.25        -999.25        -999.25      0.6563155        -999.25
     12761.5000         9.3644        -0.0738        -999.25        -999.25        45.2271       63.65858        -999.25        -999.25        30.9469         2.3817        -999.25        -999.25        -999.25      0.6523103        -999.25
     12762.0000         9.2141         -0.063        -999.25        -999.25        44.4894       62.65003        -999.25        -999.25        31.8182         2.4008        -999.25        -999.25        -999.25      0.6308517        -999.25
     12762.5000         8.9065        -0.0659        -999.25        -999.25         43.574       61.39407        -999.25        -999.25        32.5183         2.4073        -999.25        -999.25        -999.25      0.6041291        -999.25
     12763.0000         8.5569         -0.082        -999.25        -999.25        43.1437        60.8135        -999.25        -999.25        33.0111         2.3859        -999.25        -999.25        -999.25      0.5917766        -999.25
     12763.5000         8.4255        -0.1058        -999.25        -999.25        43.1193       60.79805        -999.25        -999.25        32.9225         2.3667        -999.25        -999.25        -999.25      0.5914478        -999.25
     12764.0000         8.3908        -0.1346        -999.25        -999.25        42.9916       60.63877        -999.25        -999.25        32.4094         2.3413        -999.25        -999.25        -999.25      0.5880589        -999.25
     12764.5000         8.3648        -0.1599        -999.25        -999.25        43.1406       60.86472        -999.25        -999.25        31.9857         2.3125        -999.25        -999.25        -999.25      0.5928665        -999.25
