#------------------------------------------------------------------------------
# Created by    : vladimir.rabinovich
# Created on    : 09/19/2023 17:20:43
#------------------------------------------------------------------------------
~Version Information Section
VERS.           2.0     :   CWLS log ASCII Standard - VERSION 2.0
WRAP.           NO      :   One line per depth step
~Well Information Section
#MNEM       .UNIT                                         VALUE :DESCRIPTION
#------------------------------------------------------------------------------
STRT        .FT                                            2986 :START DEPTH
STOP        .FT                                           10006 :STOP DEPTH
STEP        .FT                                             0.5 :STEP      
NULL        .                                           -999.25 :NULL      
COMP        .                                        CONOCO INC :COMPANY   
WELL        .                                OCS 00764 ST00BP00 :WELL      
FLD         .                           WEST CAMERON BLOCK 0192 :FIELD     
LOC         .                                                   :LOCATION  
CNTY        .                                      WEST CAMERON :LOCATION  
STAT        .                                         LOUISIANA :STATE     
CTRY        .                                     UNITED STATES :COUNTRY   
SRVC        .                                                   :SERVICE COMPANY
DATE        .                             9/13/2023 11:18:18 AM :LOG DATE  
API         .                                    17700003670000 :API NUMBER
UWI         .                                    17700003670000 :UNIQUE WELL ID
XCOORD      .                                  1596137.97932418 :SURFACE X 
YCOORD      .                                  10614860.5046116 :SURFACE Y 
LAT         .                                         29.249106 :LATITUDE  
LON         .                                        -93.138896 :LONGITUDE 
ELEV        .FT                                              84 :ELEVATION VALUE
ELEV_TYPE   .                                                KB :ELEVATION REFERENCE TYPE
~Curve Information Section
#MNEM       .UNIT                                      API CODE :CURVE DESCRIPTION
#------------------------------------------------------------------------------
DEPT        .FT                                                 :DEPTH     
ASN         .OHMM                                               :          
CALI        .IN                                                 :          
CALI_1      .IN                                                 :          
DRHO        .G/C3                                               :          
DT          .US/F                                               :          
GR          .GAPI                                               :          
ILD         .OHMM                                               :          
RHOB        .G/C3                                               :          
SP          .MV                                                 :          
SP_NORM     .MV                                                 :SP Normalized
VSH_SP      .V/V                                                :Volume of Shale from SP
~A        DEPTH            ASN           CALI         CALI_1           DRHO             DT             GR            ILD           RHOB             SP        SP_NORM         VSH_SP
# ...
      9488.5000          1.279        10.3729         12.931         0.0335       101.2261        72.0377         1.2515         2.2933       -43.3759      -1.617661              1
      9489.0000         1.2766        10.4193        12.9255         0.0483       103.3755        71.1798         1.2466         2.2991       -43.4883      -1.730061              1
      9489.5000         1.2728         10.391        12.9649         0.0396       103.0955        72.1281         1.2419         2.3116        -43.568      -1.809761              1
      9490.0000         1.2675        10.4576        13.2096         0.0404        102.798        75.2767         1.2259         2.3075       -43.5095      -1.751259              1
      9490.5000          1.261        10.5533        13.4025         0.0408       101.3802        76.4884         1.2069         2.3057       -43.3347      -1.576462              1
      9491.0000         1.2481        10.6559        13.5494           0.04       101.6042        76.3232         1.1868         2.3097         -43.18      -1.421761              1
      9491.5000         1.2324        10.8252        13.5183         0.0444       102.1021        75.4476         1.1659          2.313        -43.144      -1.385761              1
      9492.0000         1.2173        11.1977        13.6749         0.0507       103.2225        73.8341          1.145         2.3064       -43.1897      -1.431461              1
      9492.5000         1.2024        11.3804        14.0808          0.063       103.9863        72.6371         1.1291         2.3058        -43.274      -1.515759              1
      9493.0000         1.1872        11.5082        14.2911         0.0752       104.7142        72.4254          1.114         2.3076       -43.2479      -1.489658              1
      9493.5000         1.1739        11.6456         13.925         0.0795       105.4164        73.4646         1.0959         2.3143       -43.1296      -1.371361              1
      9494.0000         1.1674         11.679        13.6228         0.0707       106.3887        75.9095         1.0761          2.301       -43.0229       -1.26466              1
      9494.5000         1.1639        11.2856        13.4636         0.0514       107.8411        76.1335         1.0566         2.2802       -43.0238       -1.26556              1
      9495.0000         1.1559        11.0984        13.2455         0.0397       108.9194        75.3287         1.0372         2.2538       -43.2169       -1.45866              1
      9495.5000         1.1433        11.0562        12.8165          0.028       109.9979        74.8522         1.0205          2.241       -43.4417       -1.68346              1
      9496.0000         1.1237        11.0534        13.0902         0.0222       109.6295         74.851         1.0059          2.223       -43.6542      -1.895962              1
      9496.5000         1.1007        11.0651        13.3634         0.0259       109.1606        75.3376         0.9913         2.2157       -43.7433      -1.985062              1
      9497.0000         1.0757        11.0777        13.6145         0.0347       109.3119        74.7991         0.9862         2.2328       -43.6103      -1.852058              1
      9497.5000         1.0582         11.062         13.662          0.027       109.8486        73.7142         0.9812         2.2372        -43.467      -1.708759              1
      9498.0000         1.0465        11.0567        13.6852         0.0405       110.3175        73.1914         0.9763         2.2571       -43.3763      -1.618061              1
      9498.5000         1.0403        11.1084        13.8734         0.0507       109.4463        74.2762         0.9717         2.2888        -43.339      -1.580761              1
      9499.0000         1.0376        11.0601        14.0523         0.0323       109.0897        75.5872         0.9671         2.2845       -43.3712      -1.612961              1
      9499.5000          1.037        11.0601        14.0655         0.0159       109.1453        76.9531         0.9626         2.2907       -43.3934      -1.635159              1
      9500.0000         1.0302        11.1664        14.0585         0.0207       108.2902        79.7303         0.9579         2.3133       -43.3912      -1.632961              1
      9500.5000         1.0218        11.2745        14.1741         0.0297       108.4037        81.7488         0.9532         2.3301       -43.4222       -1.66396              1
      9501.0000         1.0238        11.3827        14.2858         0.0301       107.6213        82.0859         0.9506         2.3354        -43.508       -1.74976              1
      9501.5000         1.0297        11.3805        14.3448          0.029       106.7145        82.0317         0.9545         2.3229       -43.6354      -1.877159              1
      9502.0000         1.0321        11.2203        14.4068         0.0201       108.8318        81.7114          0.959         2.3092       -43.7411      -1.982861              1
      9502.5000         1.0291        11.1721        14.4868         0.0238       109.7693        80.8329         0.9746         2.3148       -43.8273      -2.069061      0.9937217
      9503.0000          1.021        11.2043        14.5531         0.0326       109.7422        81.8667         0.9901         2.3222       -43.8132      -2.054962      0.9950035
      9503.5000         1.0113        11.2138        14.6057         0.0313       109.6909        79.9897         0.9862          2.326        -43.775      -2.016762      0.9984762
      9504.0000          1.014        11.3073        14.6318         0.0123       109.7325        77.9457         0.9821         2.3074       -43.7291       -1.97086              1
      9504.5000          1.018         11.448        14.6162         0.0118       109.8734        76.6622         0.9787         2.3082       -43.6285      -1.870262              1
      9505.0000         1.0187        11.5891        14.6118         0.0137       109.7325        77.9515         0.9772         2.3174       -43.5991      -1.840858              1
      9505.5000         1.0124        11.4583        14.6269         0.0161       108.8245        77.4386         0.9752         2.3117       -43.6616      -1.903358              1
      9506.0000         1.0059        11.4465        14.6783         0.0147       107.8423        75.0604         0.9637         2.3022       -43.7643      -2.006062       0.999449
      9506.5000         1.0006        11.7519        14.7222         0.0238       109.1847        73.6553          0.951         2.2931       -43.8062      -2.047958      0.9956402
      9507.0000         0.9972        12.2856        14.5402         0.0409       111.2084        72.3915         0.9366         2.3201       -43.8182      -2.059959      0.9945492
      9507.5000         0.9961        12.3725        14.2326         0.0575       112.1794        71.6716           0.92         2.3315       -43.7369      -1.978661              1
      9508.0000         0.9952        12.5831         14.026         0.0533       112.7667        72.2263         0.8964         2.3099       -43.6464      -1.888161              1
      9508.5000         0.9924         12.648        14.1821         0.0429       112.5619        71.1459         0.8728         2.2922       -43.5393      -1.781059              1
      9509.0000         0.9868        12.6402        14.1806         0.0331       111.9098        72.0062         0.8527         2.2822       -43.4528      -1.694561              1
      9509.5000         0.9791        12.5276        14.2081         0.0301       112.4583        72.0377          0.835         2.2935       -43.3954      -1.637161              1
      9510.0000         0.9698         12.373        14.0025         0.0521       113.2109        69.3097         0.8216         2.3188       -43.3698      -1.611561              1
      9510.5000         0.9606        12.3282        13.6946         0.0741       113.6589        65.8191         0.8144         2.3327       -43.3684      -1.610161              1
