#------------------------------------------------------------------------------
# Created by    : vladimir.rabinovich
# Created on    : 09/19/2023 17:22:07
#------------------------------------------------------------------------------
~Version Information Section
VERS.           2.0     :   CWLS log ASCII Standard - VERSION 2.0
WRAP.           NO      :   One line per depth step
~Well Information Section
#MNEM       .UNIT                                         VALUE :DESCRIPTION
#------------------------------------------------------------------------------
STRT        .FT                                            4421 :START DEPTH
STOP        .FT                                           11895 :STOP DEPTH
STEP        .FT                                             0.5 :STEP      
NULL        .                                           -999.25 :NULL      
COMP        .                MURPHY EXPLORATION & PRODUCTION CO :COMPANY   
WELL        .                               OCS G02828 ST00BP00 :WELL      
FLD         .                           WEST CAMERON BLOCK 0116 :FIELD     
LOC         .                                                   :LOCATION  
CNTY        .                                      WEST CAMERON :LOCATION  
STAT        .                                         LOUISIANA :STATE     
CTRY        .                                     UNITED STATES :COUNTRY   
SRVC        .                                                   :SERVICE COMPANY
DATE        .                             9/13/2023 11:18:31 AM :LOG DATE  
API         .                                    17700404120000 :API NUMBER
UWI         .                                    17700404120000 :UNIQUE WELL ID
XCOORD      .                                  1472413.58592246 :SURFACE X 
YCOORD      .                                  10706677.6123634 :SURFACE Y 
LAT         .                                         29.500724 :LATITUDE  
LON         .                                        -93.528296 :LONGITUDE 
ELEV        .FT                                              75 :ELEVATION VALUE
ELEV_TYPE   .                                                KB :ELEVATION REFERENCE TYPE
~Curve Information Section
#MNEM       .UNIT                                      API CODE :CURVE DESCRIPTION
#------------------------------------------------------------------------------
DEPT        .FT                                                 :DEPTH     
CALI        .IN                                                 :          
DRHO        .G/C3                                               :          
DT          .US/F                                               :          
GR          .GAPI                                               :          
GR_1        .GAPI                                               :          
GR_NORM     .GAPI                                               :GammaRay Normalized
ILD         .OHMM                                               :          
NPHI        .%                                                  :          
RHOB        .G/C3                                               :          
SFL         .OHMM                                               :          
SP          .MV                                                 :          
SP_NORM     .MV                                                 :SP Normalized
VSH_GR      .V/V                                                :Volume of Shale from GR
VSH_SP      .V/V                                                :Volume of Shale from SP
~A        DEPTH           CALI           DRHO             DT             GR           GR_1        GR_NORM            ILD           NPHI           RHOB            SFL             SP        SP_NORM         VSH_GR         VSH_SP
# ...
     11387.0000        12.1316         0.0035        84.4706        72.3031        -999.25       70.60311         1.2197        31.9624         2.3151         1.4548       -45.3216        -4.7937      0.8000662      0.9450188
     11387.5000        12.5842         0.0126        82.5831        71.9542        -999.25       70.17084         1.2317        33.5049         2.3237         1.5159       -45.2326        -4.7092      0.7908689      0.9462435
     11388.0000        12.6512         0.0358        82.4846        71.7582        -999.25       69.92768         1.2408        34.8906         2.3543         1.5555       -44.9937        -4.4747      0.7856953       0.949642
     11388.5000        12.6262         0.0561        87.7577        71.8876        -999.25       70.08678         1.2448        35.7202         2.3645         1.4848       -44.6394        -4.1249      0.7890804      0.9547116
     11389.0000        12.6421         0.0764        91.4341        72.5476        -999.25       70.90164          1.234        36.2777         2.4076           1.36       -44.0455        -3.5355      0.8064179      0.9632536
     11389.5000        12.6379         0.0984        90.6726        73.2222        -999.25       71.73466         1.2222         36.254         2.4198          1.277       -43.4673        -2.9618      0.8241418      0.9715681
     11390.0000        12.5953         0.1123        86.6538        73.8221        -999.25       72.47523         1.2019        35.2795         2.4341          1.213       -42.2731        -1.7721      0.8398986      0.9888101
     11390.5000        12.4849         0.0699        87.3191        73.9871        -999.25       72.67833         1.1733        34.3079         2.4186         1.2288       -42.5292        -2.0326      0.8442198      0.9850348
     11391.0000        12.4179         0.0549        90.1774        73.8197        -999.25       72.47054         1.1428         33.703         2.3906          1.255       -42.9092        -2.4171      0.8397986      0.9794623
     11391.5000         12.766         0.0407        93.0455        73.5879        -999.25       72.18301         1.1296        33.0864         2.3597         1.2537       -42.9888        -2.5012      0.8336812      0.9782435
     11392.0000        13.0415         0.0335        94.3909        73.4235        -999.25       71.97893         1.1459        32.4549         2.3348         1.2322       -43.0652        -2.5821      0.8293389       0.977071
     11392.5000        13.3569         0.0359        94.3146        73.9028        -999.25       72.57054         1.1581        33.5137         2.3264         1.2322       -43.4324        -2.9538      0.8419264       0.971684
     11393.0000        13.5627         0.0407        92.9717        75.2936        -999.25       74.28876         1.1692        34.5608         2.3269         1.2599       -43.8702         -3.396      0.8784844      0.9652753
     11393.5000        13.5486         0.0477        90.9955        76.9263        -999.25       76.30614         1.1874        34.9749         2.3192         1.3378       -44.1033        -3.6336      0.9214072      0.9618319
     11394.0000        13.7448         0.0496        88.7581        77.6522        -999.25       77.20246         1.2326        34.8118         2.3314         1.4298       -44.7422         -4.277      0.9404779      0.9525073
     11394.5000        14.1732         0.0369        85.7322        77.6002        -999.25       77.13731         1.2571        33.7474         2.3461         1.5296       -45.5306        -5.0699      0.9390918       0.941016
     11395.0000        13.8797         0.0498        83.7683        77.2422        -999.25       76.69392         1.2508        32.4431         2.3649         1.6377       -45.5729        -5.1167      0.9296578      0.9403377
     11395.5000        13.3905         0.0643         83.464        77.0704        -999.25       76.48056         1.2349        31.7961         2.3999         1.6896       -45.1947        -4.7429      0.9251183      0.9457551
     11396.0000        13.2607         0.0643        86.1313        76.9385        -999.25       76.31664         1.2147        33.1913         2.4188         1.4687       -44.7065        -4.2592      0.9216307      0.9527652
     11396.5000        13.2248         0.0551        91.9269        76.2249        -999.25       75.43368         1.1899        35.6522         2.4156         1.2235       -44.6241        -4.1813      0.9028442      0.9538942
     11397.0000        13.2626         0.0667        92.7054        77.9186        -999.25       77.52632         1.1729        36.5543         2.4101          1.167       -44.5655        -4.1272      0.9473686      0.9546782
     11397.5000        13.4313         0.0752        90.7688        79.3729        -999.25       79.32317         1.1573        35.5841         2.4452         1.1884       -44.3145        -3.8806      0.9855993      0.9582522
     11398.0000        13.5911          0.097        88.9995        80.2343        -999.25       80.38712         1.1364        33.2742         2.4531         1.2789        -43.683        -3.2536              1      0.9673392
     11398.5000        13.7275         0.0894        88.6274        78.2559        -999.25       77.94056         1.1537        31.1742         2.4587         1.3608       -43.0638        -2.6389      0.9561821      0.9762478
     11399.0000        13.8236         0.0891        90.2217        77.6522        -999.25       77.19344         1.1782         29.373         2.4626         1.3188       -43.0361        -2.6157      0.9402859      0.9765841
     11399.5000        13.8982         0.1011         91.009        77.1597        -999.25       76.58377         1.1979        28.4627         2.4612         1.2489       -43.1696        -2.7537      0.9273143       0.974584
     11400.0000        13.9643         0.1031         89.926         77.071        -999.25       76.47314         1.1616         29.719         2.4512          1.211       -43.3227        -2.9112      0.9249604      0.9723014
     11400.5000        14.0056         0.0598        89.8348        78.5466        -999.25       78.29631         1.1017        31.2556         2.4362         1.1996       -43.3066        -2.8996      0.9637513      0.9724696
     11401.0000        14.0338         0.0537        91.0841        79.3761        -999.25        79.3207          1.046        32.0748         2.4211         1.1841       -43.2067        -2.8042      0.9855468      0.9738522
     11401.5000        14.0564         0.0475        92.3088        79.8556        -999.25       79.91255         1.0012         32.483          2.409         1.1583       -43.1553        -2.7573      0.9981394      0.9745319
     11402.0000        14.0681         0.0235        93.2242        80.2703        -999.25       80.42432         0.9743        32.7018         2.3902         1.1226         -43.14        -2.7465              1      0.9746884
     11402.5000        14.0738         0.0181        93.3856        80.6373        -999.25       80.87698         0.9611        32.8438         2.3877         1.0956       -43.2185        -2.8294              1       0.973487
     11403.0000        14.0518         0.0148        93.1373        81.0911        -999.25       81.43708         0.9515        32.8859         2.3879         1.0826       -43.1584        -2.7738              1      0.9742928
     11403.5000        14.0337         0.0306        92.8029        82.4531        -999.25       83.11983         0.9431         32.847         2.4032         1.0771       -42.8266        -2.4465              1      0.9790362
     11404.0000        14.0488         0.0317        92.3772        83.1738        -999.25       84.00972          0.941        32.7369         2.3966         1.0754       -42.9932        -2.6176              1      0.9765565
     11404.5000        14.1025         0.0349        91.8517        81.9327        -999.25       82.47469         0.9429        32.5377         2.4128           1.07       -43.1038        -2.7327              1      0.9748884
