#------------------------------------------------------------------------------
# Created by    : vladimir.rabinovich
# Created on    : 09/19/2023 17:20:44
#------------------------------------------------------------------------------
~Version Information Section
VERS.           2.0     :   CWLS log ASCII Standard - VERSION 2.0
WRAP.           NO      :   One line per depth step
~Well Information Section
#MNEM       .UNIT                                         VALUE :DESCRIPTION
#------------------------------------------------------------------------------
STRT        .FT                                             194 :START DEPTH
STOP        .FT                                           14521 :STOP DEPTH
STEP        .FT                                             0.5 :STEP      
NULL        .                                           -999.25 :NULL      
COMP        .                             MAGNOLIA PETROLEUM CO :COMPANY   
WELL        .                                OCS 00043 ST00BP00 :WELL      
FLD         .                          EUGENE ISLAND BLOCK 0089 :FIELD     
LOC         .                                                   :LOCATION  
CNTY        .                                     EUGENE ISLAND :LOCATION  
STAT        .                                         LOUISIANA :STATE     
CTRY        .                                     UNITED STATES :COUNTRY   
SRVC        .                                                   :SERVICE COMPANY
DATE        .                             9/13/2023 11:18:42 AM :LOG DATE  
API         .                                    17709003920000 :API NUMBER
UWI         .                                    17709003920000 :UNIQUE WELL ID
XCOORD      .                                  2056408.80151155 :SURFACE X 
YCOORD      .                                  10562022.8372996 :SURFACE Y 
LAT         .                                        29.0974849 :LATITUDE  
LON         .                                       -91.6970667 :LONGITUDE 
ELEV        .FT                                              50 :ELEVATION VALUE
ELEV_TYPE   .                                                KB :ELEVATION REFERENCE TYPE
~Curve Information Section
#MNEM       .UNIT                                      API CODE :CURVE DESCRIPTION
#------------------------------------------------------------------------------
DEPT        .FT                                                 :DEPTH     
ASN         .OHMM                                               :          
LAT         .OHMM                                               :          
LN          .OHMM                                               :          
SP          .MV                                                 :          
SP_NORM     .MV                                                 :SP Normalized
VSH_SP      .V/V                                                :Volume of Shale from SP
~A        DEPTH            ASN            LAT             LN             SP        SP_NORM         VSH_SP
# ...
     11632.0000         0.9374         0.8881         0.8413        -50.803    -0.01674652      0.9995813
     11632.5000         0.9438         0.8886         0.8417        -50.838    -0.05337524      0.9986656
     11633.0000         0.9487         0.8891         0.8421       -50.8721    -0.08909988      0.9977725
     11633.5000         0.9518         0.8895         0.8425       -50.9062     -0.1248283      0.9968793
     11634.0000         0.9549           0.89         0.8429       -50.9403      -0.160553      0.9959862
     11634.5000         0.9573         0.8905         0.8432       -50.9744     -0.1962814       0.995093
     11635.0000          0.956          0.891         0.8436       -51.0085     -0.2320061      0.9941999
     11635.5000         0.9548         0.8915          0.844       -51.0426     -0.2677345      0.9933066
     11636.0000         0.9535         0.8919         0.8444       -51.0314     -0.2581635      0.9935459
     11636.5000         0.9522         0.8924         0.8448       -50.8869     -0.1152916      0.9971177
     11637.0000         0.9481         0.8929         0.8452       -50.7423     0.02768326              1
     11637.5000         0.9441         0.8934         0.8455        -50.598      0.1703568              1
     11638.0000           0.94         0.8937         0.8459       -50.4535      0.3132286              1
     11638.5000          0.936         0.8939         0.8462       -50.3089      0.4562035              1
     11639.0000         0.9319         0.8941         0.8464       -50.1646      0.5988731              1
     11639.5000         0.9278         0.8943         0.8466       -50.0201      0.7417488              1
     11640.0000         0.9238         0.8945         0.8469       -49.8755      0.8847198              1
     11640.5000         0.9205         0.8947         0.8471        -49.731       1.027596              1
     11641.0000         0.9171          0.895         0.8473       -49.6492       1.107765              1
     11641.5000         0.9138         0.8952         0.8475       -49.5723       1.183037              1
     11642.0000         0.9105         0.8954         0.8477       -49.4955       1.258213              1
     11642.5000         0.9072         0.8956          0.848       -49.4186       1.333485              1
     11643.0000         0.9068         0.8958         0.8482       -49.3418       1.408657              1
     11643.5000         0.9066         0.8961         0.8484       -49.2649       1.483929              1
     11644.0000         0.9064         0.8963         0.8486       -49.1879       1.559303              1
     11644.5000         0.9061         0.8965         0.8488       -49.2183       1.527275              1
     11645.0000          0.907         0.8965          0.849       -49.2597       1.484249              1
     11645.5000         0.9141         0.8957         0.8493        -49.301       1.441322              1
     11646.0000         0.9212          0.895         0.8493       -49.3425       1.398197              1
     11646.5000         0.9282         0.8942         0.8491       -49.3839       1.355167              1
     11647.0000         0.9341         0.8935         0.8489       -49.4393       1.298138              1
     11647.5000          0.937         0.8927         0.8486       -49.5528       1.183014              1
     11648.0000         0.9358          0.892         0.8484       -49.6663       1.067883              1
     11648.5000         0.9293         0.8912         0.8482       -49.7795      0.9530602              1
     11649.0000         0.9228         0.8904          0.848       -49.8876      0.8433304              1
     11649.5000         0.9163         0.8897         0.8477       -49.9825      0.7468071              1
     11650.0000         0.9103         0.8889         0.8475       -50.0773      0.6503754              1
     11650.5000          0.905         0.8882         0.8473       -50.1724      0.5536499              1
     11651.0000         0.8996         0.8874         0.8471       -50.2635      0.4609222              1
     11651.5000         0.8943         0.8867         0.8468       -50.3482      0.3745956              1
     11652.0000          0.889         0.8859         0.8466       -50.4979      0.2232704              1
     11652.5000         0.8883         0.8849         0.8464       -50.6652     0.05434036              1
     11653.0000         0.8883         0.8836          0.846       -50.8381     -0.1201859      0.9969953
     11653.5000         0.8883         0.8823         0.8453       -51.0389     -0.3226128      0.9919347
     11654.0000         0.8884         0.8811         0.8445       -51.2509     -0.5362396       0.986594
     11654.5000         0.8884         0.8798         0.8438       -51.2051     -0.4920692      0.9876983
     11655.0000         0.8899         0.8786          0.843       -51.1583     -0.4468918      0.9888277
     11655.5000         0.8931         0.8773         0.8423         -51.08      -0.370224      0.9907444
     11656.0000         0.8963         0.8761         0.8416       -50.8769     -0.1687469      0.9957813
     11656.5000         0.8996         0.8748         0.8408       -50.6738     0.03272247              1
     11657.0000         0.9028         0.8735         0.8401       -50.4702      0.2346992              1
     11657.5000          0.906         0.8723         0.8394        -50.267      0.4362717              1
     11658.0000         0.9093          0.871         0.8386       -50.0639      0.6377411              1
     11658.5000         0.9113         0.8698         0.8379       -49.8608      0.8392143              1
     11659.0000         0.9126         0.8685         0.8371       -49.7301      0.9682884              1
     11659.5000         0.9139         0.8675         0.8364       -49.6111       1.085663              1
     11660.0000         0.9152          0.867         0.8358       -49.4918       1.203335              1
     11660.5000         0.9134         0.8664         0.8354       -49.3727       1.320808              1
     11661.0000         0.9092         0.8659         0.8349       -49.2537       1.438179              1
     11661.5000          0.905         0.8654         0.8344       -49.1346       1.555653              1
     11662.0000         0.9008         0.8649         0.8339       -49.0156       1.673027              1
     11662.5000         0.8966         0.8644         0.8334       -48.8963       1.790699              1
     11663.0000         0.8968         0.8639          0.833       -48.7845       1.900871              1
     11663.5000         0.8987         0.8634         0.8325       -48.6743       2.009445              1
     11664.0000         0.9006         0.8628          0.832       -48.5644       2.117718              1
     11664.5000         0.9025         0.8623         0.8315       -48.4545        2.22599              1
     11665.0000         0.9044         0.8618         0.8311       -48.3447       2.334164              1
     11665.5000         0.9063         0.8613         0.8306       -48.2348       2.442436              1
     11666.0000          0.911         0.8608         0.8301       -48.1246        2.55101              1
     11666.5000         0.9156         0.8608         0.8297       -48.0147       2.659279              1
     11667.0000         0.9203          0.861         0.8297       -47.9048       2.767555              1
     11667.5000          0.925         0.8613         0.8297        -47.795       2.875729              1
     11668.0000         0.9296         0.8616         0.8298       -47.7025       2.966602              1
     11668.5000         0.9319         0.8619         0.8298       -47.6274       3.040073              1
     11669.0000         0.9299         0.8621         0.8299       -47.5522       3.113647              1
     11669.5000         0.9279         0.8624         0.8299        -47.477       3.187218              1
