#------------------------------------------------------------------------------
# Created by    : vladimir.rabinovich
# Created on    : 09/19/2023 17:22:24
#------------------------------------------------------------------------------
~Version Information Section
VERS.           2.0     :   CWLS log ASCII Standard - VERSION 2.0
WRAP.           NO      :   One line per depth step
~Well Information Section
#MNEM       .UNIT                                         VALUE :DESCRIPTION
#------------------------------------------------------------------------------
STRT        .FT                                             955 :START DEPTH
STOP        .FT                                            8851 :STOP DEPTH
STEP        .FT                                             0.5 :STEP      
NULL        .                                           -999.25 :NULL      
COMP        .                                SHELL OFFSHORE INC :COMPANY   
WELL        .                               OCS G08627 ST00BP00 :WELL      
FLD         .                                           WILDCAT :FIELD     
LOC         .                                                   :LOCATION  
CNTY        .                                 WEST CAMERON WEST :LOCATION  
STAT        .                                         LOUISIANA :STATE     
CTRY        .                                     UNITED STATES :COUNTRY   
SRVC        .                                                   :SERVICE COMPANY
DATE        .                             9/13/2023 11:18:15 AM :LOG DATE  
API         .                                    17701402000000 :API NUMBER
UWI         .                                    17701402000000 :UNIQUE WELL ID
XCOORD      .                                  1405165.89752093 :SURFACE X 
YCOORD      .                                  10654404.2103889 :SURFACE Y 
LAT         .                                        29.3559214 :LATITUDE  
LON         .                                       -93.7387067 :LONGITUDE 
ELEV        .FT                                             100 :ELEVATION VALUE
ELEV_TYPE   .                                                KB :ELEVATION REFERENCE TYPE
~Curve Information Section
#MNEM       .UNIT                                      API CODE :CURVE DESCRIPTION
#------------------------------------------------------------------------------
DEPT        .FT                                                 :DEPTH     
CALX        .IN                                                 :          
DRHO        .G/C3                                               :          
DT          .US/F                                               :          
GR          .GAPI                                               :          
GR_NORM     .GAPI                                               :GammaRay Normalized
ILD         .OHMM                                               :          
ILM         .OHMM                                               :          
LL          .OHMM                                               :          
NPHI        .%                                                  :          
RHOB        .G/C3                                               :          
SP          .MV                                                 :          
SP_NORM     .MV                                                 :SP Normalized
VSH_GR      .V/V                                                :Volume of Shale from GR
VSH_SP      .V/V                                                :Volume of Shale from SP
~A        DEPTH           CALX           DRHO             DT             GR        GR_NORM            ILD            ILM             LL           NPHI           RHOB             SP        SP_NORM         VSH_GR         VSH_SP
# ...
      1513.0000        13.2063         0.0242       158.3062        35.0146       35.36269         0.4799          0.558         0.7378        46.3616          1.954      -145.9487      -8.781036        0.05027      0.4218964
      1513.5000        13.3558         0.0717       159.7336        33.4124       33.51007         0.4764         0.5569         0.7201        44.4901         2.0047      -146.3914      -9.238373     0.01085265      0.3761627
      1514.0000        13.2372         0.0894       159.9202        31.9441       31.81229         0.4738         0.5508         0.7147        45.2292         1.9911      -146.7952      -9.656784              0      0.3343216
      1514.5000        12.7155         0.0972       159.1062        33.1567       33.21441         0.4723         0.5444         0.7145         46.202         1.9528      -146.6506       -9.52681    0.004561891       0.347319
      1515.0000         12.433         0.0858       158.4382         36.767       37.38898         0.4704         0.5385         0.7174        46.5992         1.9395      -146.1348       -9.02562     0.09338257       0.397438
      1515.5000        12.3044         0.0602       158.6299        39.3713       40.40032          0.468         0.5287         0.7199        45.6136         1.9551      -145.3943      -8.299759      0.1574536      0.4700241
      1516.0000        12.2412         0.0338       159.1497         40.683       41.91703         0.4652         0.5242         0.7201        44.2684         1.9816      -144.7446      -7.664673       0.189724      0.5335327
      1516.5000        12.1835         0.0188       159.4504        41.5939        42.9703         0.4632         0.5212         0.7244        43.2644         1.9926      -144.3574      -7.292099       0.212134      0.5707901
      1517.0000        12.1063         0.0178       159.2166         42.421       43.92667          0.461         0.5185         0.7268        42.5823         1.9956      -144.5027      -7.452011      0.2324824      0.5547989
      1517.5000        11.8034         0.0211       158.7566        42.9576       44.54714         0.4593          0.515         0.7208        42.4793         1.9872      -144.5464       -7.51033      0.2456838       0.548967
      1518.0000        11.3261         0.0266       158.8481        42.4199        43.9254         0.4592         0.5115          0.711        42.9814         1.9746      -144.2759      -7.254456      0.2324553      0.5745544
      1518.5000        11.1976         0.0432       159.2222        41.6133       42.99273         0.4597         0.5119         0.6929        44.3993         1.9523      -144.2314      -7.224579      0.2126113      0.5775421
      1519.0000        11.1221         0.0621       159.8286        40.8297       42.08666           0.46         0.5147         0.6784        46.1953         1.9348      -144.1494      -7.157196      0.1933332      0.5842804
      1519.5000        11.0697         0.0721       160.2485        40.6091       41.83158          0.463         0.5187         0.6836        47.6904         1.9293       -144.478      -7.500412      0.1879061      0.5499588
      1520.0000        11.0525         0.0761       160.1619        40.5475       41.76035         0.4682         0.5238         0.6952        48.6545         1.9324      -144.6443      -7.681335      0.1863904      0.5318664
      1520.5000        11.0593         0.0701       159.7891        39.4386       40.47814         0.4731         0.5322         0.7147        48.7952         1.9403      -143.9922      -7.043869      0.1591093      0.5956131
      1521.0000        11.1216         0.0554        159.208        37.4581        38.1881          0.476         0.5404         0.7314        47.7511         1.9495      -144.0332      -7.099487       0.110385      0.5900513
      1521.5000         11.381         0.0335       158.6907        35.7795       36.24714         0.4812         0.5499         0.7533        46.3761         1.9608      -144.2217      -7.302597     0.06908806      0.5697403
      1522.0000        11.9161         0.0209       158.4551        35.0687       35.42524         0.4866         0.5614         0.7609        44.7103         1.9784      -144.0327       -7.12822     0.05160092      0.5871781
      1522.5000         12.165         0.0196       158.1926        37.5646       38.31124         0.4902         0.5689         0.7488        43.4642         2.0018      -143.8596      -6.969742      0.1130052      0.6030258
      1523.0000        12.1456         0.0179       157.7285         39.069       40.05077         0.4914         0.5645         0.7524        43.3011         2.0227      -143.7036      -6.828369      0.1500165      0.6171631
      1523.5000        11.8103         0.0158       157.2991        40.3817       41.56864         0.4904         0.5593         0.7587        43.6154         2.0406      -143.3188      -6.458191      0.1823114      0.6541809
      1524.0000        10.4884         0.0133       156.9836        41.5593       42.93029         0.4894         0.5553          0.755        43.6571         2.0525      -143.0459      -6.199905      0.2112828      0.6800095
      1524.5000        10.4213         0.0139       156.7297        42.3535       43.84862         0.4886         0.5571         0.7422        42.6694         2.0586      -143.1174      -6.286026      0.2308217      0.6713974
      1525.0000        10.6678         0.0163       156.8345        43.0926       44.70324         0.4901         0.5579         0.7369        41.0095         2.0572      -143.3938      -6.577042      0.2490051      0.6422958
      1525.5000        11.2379         0.0169       157.4363        43.6954       45.40025         0.4955         0.5603         0.7406        39.2948         2.0509      -143.4863      -6.684174      0.2638351      0.6315826
      1526.0000        11.9684          0.013       157.3164        43.7785       45.49634         0.4999          0.563         0.7448        38.1418         2.0437      -143.4021      -6.614594      0.2658795      0.6385406
      1526.5000         12.087         0.0091       157.0496        43.0551       44.65988         0.5022         0.5677         0.7468        39.1498         2.0434      -143.1099      -6.337006      0.2480825      0.6662995
      1527.0000        11.1529         0.0089       156.6509        42.1439       43.60626         0.5044          0.575         0.7569        41.3678         2.0466      -142.5859      -5.827637      0.2256652      0.7172363
      1527.5000        11.6293         0.0122       156.1475        41.3401       42.67683         0.5062         0.5817         0.7573        42.2772         2.0511      -142.3359      -5.592255        0.20589      0.7407745
      1528.0000        12.1021         0.0114       155.6968        40.6214        41.8458         0.5059         0.5836         0.7515        42.5502         2.0485      -142.4585      -5.729477      0.1882086      0.7270523
      1528.5000        12.0522         0.0069       155.7993        40.0767       41.21597         0.5056         0.5846         0.7614        41.9167         2.0444      -142.0581      -5.343704      0.1748078      0.7656296
      1529.0000           11.8         0.0014       156.5505        39.5794       40.64094         0.5048         0.5828         0.7716        41.0494         2.0416      -141.6704      -4.970612      0.1625732      0.8029388
      1529.5000        11.7403        -0.0037       156.7949         39.152       40.14675          0.504         0.5766         0.7777        40.0914         2.0429      -141.7185       -5.03334      0.1520585       0.796666
      1530.0000        11.8622         0.0006       155.8721        39.4666       40.51051         0.5036         0.5699         0.7694        39.4297         2.0514      -141.3386       -4.66806      0.1597982       0.833194
      1530.5000        12.0456          0.007       155.0808        39.8354       40.93695         0.5024         0.5619         0.7683        39.1879         2.0626      -140.5574      -3.901489      0.1688714      0.9098511
