#------------------------------------------------------------------------------
# Created by    : vladimir.rabinovich
# Created on    : 09/19/2023 17:22:25
#------------------------------------------------------------------------------
~Version Information Section
VERS.           2.0     :   CWLS log ASCII Standard - VERSION 2.0
WRAP.           NO      :   One line per depth step
~Well Information Section
#MNEM       .UNIT                                         VALUE :DESCRIPTION
#------------------------------------------------------------------------------
STRT        .FT                                            2996 :START DEPTH
STOP        .FT                                            8909 :STOP DEPTH
STEP        .FT                                             0.5 :STEP      
NULL        .                                           -999.25 :NULL      
COMP        .                             PHILLIPS PETROLEUM CO :COMPANY   
WELL        .                                OCS 00299 ST00BP00 :WELL      
FLD         .                           WEST CAMERON BLOCK 0045 :FIELD     
LOC         .                                                   :LOCATION  
CNTY        .                                      WEST CAMERON :LOCATION  
STAT        .                                         LOUISIANA :STATE     
CTRY        .                                     UNITED STATES :COUNTRY   
SRVC        .                                                   :SERVICE COMPANY
DATE        .                             9/13/2023 11:18:09 AM :LOG DATE  
API         .                                    17700407290000 :API NUMBER
UWI         .                                    17700407290000 :UNIQUE WELL ID
XCOORD      .                                  1446390.31791034 :SURFACE X 
YCOORD      .                                  10761453.0604348 :SURFACE Y 
LAT         .                                        29.6510516 :LATITUDE  
LON         .                                       -93.6110308 :LONGITUDE 
ELEV        .FT                                              99 :ELEVATION VALUE
ELEV_TYPE   .                                                KB :ELEVATION REFERENCE TYPE
~Curve Information Section
#MNEM       .UNIT                                      API CODE :CURVE DESCRIPTION
#------------------------------------------------------------------------------
DEPT        .FT                                                 :DEPTH     
CALX        .IN                                                 :          
CDL         .%                                                  :          
CILD        .MMHO                                               :          
CNS         .%                                                  :          
DRHO        .G/C3                                               :          
GR_NORM     .GAPI                                               :GammaRay Normalized
RILD        .OHMM                                               :          
RILM        .OHMM                                               :          
RLL         .OHMM                                               :          
SP          .MV                                                 :          
SP_NORM     .MV                                                 :SP Normalized
TENS        .LB                                                 :          
VSH_GR      .V/V                                                :Volume of Shale from GR
VSH_SP      .V/V                                                :Volume of Shale from SP
~A        DEPTH           CALX            CDL           CILD            CNS           DRHO        GR_NORM           RILD           RILM            RLL             SP        SP_NORM           TENS         VSH_GR         VSH_SP
# ...
      4202.0000          19.16        60.1176       3006.786          56.16        -0.0041       39.77062         0.3353            0.4         0.7627           -9.6       -10.0314       1794.297      0.1440558      0.2187334
      4202.5000           19.4          50.58           2928          55.38         0.0255       40.87912         0.3448         0.4113         0.7849           -9.7       -10.1332       1816.327      0.1676408      0.2074223
      4203.0000          19.46        46.2941           2896          54.84         0.0431       41.09887         0.3513          0.419            0.8           -9.8        -10.235       1816.327      0.1723163      0.1961111
      4203.5000          19.44        45.0588           2912        53.7647         0.0373       40.87419         0.3513          0.419          0.822        -10.102       -10.5387       1816.327      0.1675359      0.1623667
      4204.0000          19.42        46.9412           2992        51.7059         0.0245       41.31615         0.3416         0.4152          0.822       -10.4082       -10.8467       1816.327      0.1769394      0.1281445
      4204.5000           19.4          49.26           3120          49.02         0.0118         41.758         0.3292            0.4          0.822       -10.7143       -11.1546       1816.327      0.1863405     0.09393331
      4205.0000          19.38        51.2353       3215.686        46.2353         -0.002       41.97775         0.3201          0.389          0.822       -10.8163       -11.2583       1795.918       0.191016     0.08241113
      4205.5000          19.38          49.44       3294.118        46.2941        -0.0112       41.97529         0.3085         0.3783         0.7627       -11.0204       -11.4642       1816.327      0.1909637     0.05953333
      4206.0000          19.36        44.9412       3388.235        46.4706        -0.0082       41.97282            0.3         0.3714         0.6812       -11.1224       -11.5679       1836.735      0.1909111     0.04801114
      4206.5000          19.34          38.64        3450.98        41.8824         0.0078       41.08162         0.2916         0.3646         0.7067       -11.2245       -11.6718       1857.143      0.1719493      0.0364667
      4207.0000          19.38          37.38       3482.353           37.2         0.0314       39.74598         0.2916         0.3646         0.7412       -11.1224       -11.5715       1795.918      0.1435316     0.04761113
      4207.5000          19.36          38.94       3498.039        39.1176         0.0373       38.63255         0.2916         0.3714         0.7203       -11.3265       -11.7773       1755.102      0.1198416     0.02474446
      4208.0000          19.36        41.5294       3498.039        41.4706         0.0412       37.74134         0.2889         0.3748         0.7203       -11.3265       -11.7791       1734.694      0.1008796      0.0245444
      4208.5000          19.36        51.2359        3450.98        43.1176         0.0176       35.73918         0.2916         0.3854         0.7924       -11.3265       -11.7809       1755.102     0.05828046     0.02434444
      4209.0000          19.36        60.2967       3372.549        43.6471        -0.0146       34.40366            0.3         0.3963         0.7849       -11.3265       -11.7826       1795.918     0.02986502     0.02415551
      4209.5000          19.36        61.9067       3278.431        43.8824        -0.0299       35.28993         0.3056         0.4037            0.8       -11.2245       -11.6824       1795.918     0.04872196     0.03528892
      4210.0000          19.38        63.9961       3231.373        44.1176         -0.043       37.28717         0.3113         0.4037          0.822       -11.0204       -11.4801       1755.102     0.09121647      0.0577667
      4210.5000          19.38        66.0683           3200        48.1765        -0.0541       38.39567         0.3231         0.4037         0.7272       -10.8163       -11.2777       1755.102      0.1148014     0.08025551
      4211.0000          19.38        68.3453           3184        50.8824        -0.0561       37.06004         0.3201            0.4          0.651       -10.6122       -11.0754        1775.51     0.08638374      0.1027333
      4211.5000           19.4        67.4603       3215.686        54.2941         -0.037        35.7244         0.3142            0.4         0.6222       -10.3061        -10.771       1795.918     0.05796587      0.1365556
      4212.0000          19.38        62.6464       3231.373             60         -0.011       35.72193         0.3113         0.3926         0.6165       -10.2041       -10.6708       1816.327     0.05791336      0.1476889
      4212.5000           19.4        60.0588       3231.373        61.2353         0.0098       35.05293         0.3113         0.3926         0.6165       -10.2041       -10.6726       1755.102     0.04367942      0.1474889
      4213.0000           19.4        60.5882       3231.373             63          0.001       33.93951         0.3113          0.389         0.5774       -10.2041       -10.6743       1795.918     0.01998958         0.1473
      4213.5000          19.38        61.1176           3200           64.2         -0.014        30.9908         0.3172         0.3963         0.5399       -10.2041       -10.6761       1795.918              0         0.1471
      4214.0000          19.36        60.7059           3184          63.18         -0.026       30.53508         0.3172            0.4          0.561       -10.2041       -10.6779       1816.327              0         0.1469
      4214.5000          19.36             60           3184          59.28         -0.012       31.21251         0.3201         0.4075          0.611       -10.2041       -10.6796       1795.918              0      0.1467111
      4215.0000          19.36        54.8235           3184        55.7059         0.0196       34.59618         0.3172         0.4113          0.669       -10.3061       -10.7834       1795.918     0.03396136      0.1351778
      4215.5000          19.36        50.6471           3184          52.14         0.0422       36.81563         0.3142         0.4037         0.7272       -10.5102       -10.9892        1775.51     0.08118366      0.1123112
      4216.0000          19.36           46.5       3215.686          51.06          0.062       36.81317         0.3113         0.3963         0.7924       -10.7143       -11.1951        1775.51     0.08113123     0.08943335
      4216.5000          19.34        40.5882       3309.804        50.8235          0.062       35.03321         0.3056         0.3854         0.7774       -10.7143       -11.1969        1775.51     0.04325989     0.08923329
      4217.0000          19.34          38.76       3435.294        50.0588           0.06       33.69316         0.2972         0.3748         0.6874       -10.6122       -11.0965       1755.102     0.01474803      0.1003888
      4217.5000          19.34        40.2353       3592.157        49.0588          0.055       32.55753         0.2862         0.3646         0.7067       -10.7143       -11.2004       1755.102              0      0.0888444
      4218.0000          19.34        43.5882       3717.647        48.0588           0.05        32.1018          0.273         0.3646         0.7555       -10.9184       -11.4063       1755.102              0     0.06596671
      4218.5000          19.36        48.5294       3856.471           47.4         0.0412       31.41943         0.2654          0.348         0.7849       -11.3265       -11.8161       1793.489              0     0.02043332
      4219.0000          19.36          53.46       3962.353        50.1765         0.0314        30.2838         0.2556         0.3385         0.7483       -11.4286         -11.92       1809.717              0    0.008888881
      4219.5000          19.38        54.8824       3989.804          53.64         0.0245       28.92153         0.2508         0.3322            0.7       -11.6327       -12.1259        1805.64              0              0
