#------------------------------------------------------------------------------
# Created by    : vladimir.rabinovich
# Created on    : 09/19/2023 17:21:58
#------------------------------------------------------------------------------
~Version Information Section
VERS.           2.0     :   CWLS log ASCII Standard - VERSION 2.0
WRAP.           NO      :   One line per depth step
~Well Information Section
#MNEM       .UNIT                                         VALUE :DESCRIPTION
#------------------------------------------------------------------------------
STRT        .FT                                            3382 :START DEPTH
STOP        .FT                                           10910 :STOP DEPTH
STEP        .FT                                             0.5 :STEP      
NULL        .                                           -999.25 :NULL      
COMP        .                               B P EXPLORATION INC :COMPANY   
WELL        .                               OCS G07597 ST00BP00 :WELL      
FLD         .                           WEST CAMERON BLOCK 0045 :FIELD     
LOC         .                                                   :LOCATION  
CNTY        .                                      WEST CAMERON :LOCATION  
STAT        .                                         LOUISIANA :STATE     
CTRY        .                                     UNITED STATES :COUNTRY   
SRVC        .                                                   :SERVICE COMPANY
DATE        .                             9/13/2023 11:18:09 AM :LOG DATE  
API         .                                    17700407640000 :API NUMBER
UWI         .                                    17700407640000 :UNIQUE WELL ID
XCOORD      .                                  1473636.79229916 :SURFACE X 
YCOORD      .                                   10762774.556795 :SURFACE Y 
LAT         .                                        29.6550545 :LATITUDE  
LON         .                                       -93.5252479 :LONGITUDE 
ELEV        .FT                                              90 :ELEVATION VALUE
ELEV_TYPE   .                                                KB :ELEVATION REFERENCE TYPE
~Curve Information Section
#MNEM       .UNIT                                      API CODE :CURVE DESCRIPTION
#------------------------------------------------------------------------------
DEPT        .FT                                                 :DEPTH     
CALI        .IN                                                 :          
DRHO        .G/C3                                               :          
DT          .US/F                                               :          
GR          .GAPI                                               :          
GR_1        .GAPI                                               :          
GR_NORM     .GAPI                                               :GammaRay Normalized
ILD         .OHMM                                               :          
ILM         .OHMM                                               :          
NPHI        .%                                                  :          
RHOB        .G/C3                                               :          
SFL         .OHMM                                               :          
SP          .MV                                                 :          
SP_NORM     .MV                                                 :SP Normalized
VSH_GR      .V/V                                                :Volume of Shale from GR
VSH_SP      .V/V                                                :Volume of Shale from SP
~A        DEPTH           CALI           DRHO             DT             GR           GR_1        GR_NORM            ILD            ILM           NPHI           RHOB            SFL             SP        SP_NORM         VSH_GR         VSH_SP
# ...
      9910.0000         7.9932         -0.056        88.2266        65.2045        65.1479       75.02263          0.457         0.4977        29.7292         2.4256         1.1179       -39.5993        -3.4088      0.8940985      0.9937108
      9910.5000         7.9942        -0.0405         84.442        66.4862        64.1831       76.45416         0.9416         0.9583        29.8347         2.4072         1.0507       -42.5732        -6.3827      0.9245567      0.9479585
      9911.0000         8.0189        -0.0402        77.7671        67.4521        62.3641        77.5317         0.9726         0.9478        30.8708         2.3522          1.256       -43.5023        -7.3118       0.947483      0.9336646
      9911.5000         8.0468         -0.043        76.8135        67.3231        61.8847       77.38258         0.8241         0.8525        31.7002         2.3263         1.1629       -40.8724        -4.6819      0.9443103      0.9741246
      9912.0000         8.0793        -0.0325        83.3892        65.9565        66.4863       75.84663         0.7133         0.7394        34.0611         2.3356         0.9842       -39.7252        -3.5347      0.9116305      0.9917738
      9912.5000         8.1583        -0.0368        89.3688         64.995        67.6571       74.76469         0.6957         0.7113        35.0034         2.3333         0.7676       -39.4088        -3.2183      0.8886105      0.9966415
      9913.0000         8.2672        -0.0444        93.9281         64.931        69.5099       74.68829         0.7239         0.7404        35.4921         2.3394         0.8331       -39.4217        -3.2312      0.8869848      0.9964431
      9913.5000         8.3691        -0.0526        97.6083        65.5166         70.073       75.33983         0.7716         0.7859        35.8043         2.3535           0.92       -40.0343        -3.8438      0.9008474      0.9870185
      9914.0000         8.4473        -0.0581        99.5999        65.9844         68.139       75.85927         0.8047         0.8182        36.0556         2.3768         1.0606       -41.5889        -5.3984      0.9118993      0.9631016
      9914.5000         8.5361        -0.0616       100.1139        65.8933        66.1152       75.75262         0.8074         0.8236         36.493         2.3783         1.0091       -37.8641        -1.6736      0.9096301              1
      9915.0000         8.6541        -0.0679         98.979         65.347        67.2958       75.13591         0.7899         0.8094        37.0221         2.3905           0.98       -32.8305           3.36      0.8965088              1
      9915.5000         8.7517        -0.0734        98.1143        65.1028        66.7477       74.85758         0.7669         0.7789        37.6464         2.3989         0.9428       -26.4501         9.7404      0.8905869              1
      9916.0000         8.8125        -0.0753        98.8871         65.819        67.0669       75.65546         0.7354         0.7418        38.3044         2.3821         0.8722       -38.7194        -2.5289      0.9075631              1
      9916.5000         8.8517        -0.0706       100.3348        67.6844        67.6161       77.74091         0.7003         0.7119        38.5161         2.3749         0.7853        23.5039        59.6944      0.9519343              1
      9917.0000         8.8623        -0.0652       101.9192        69.2808        67.5693       79.52506         0.6774         0.6876        38.4913         2.3665         0.7439        23.4965         59.687      0.9898949              1
      9917.5000         8.8537        -0.0591       103.7444        70.2213        68.5437       80.57415         0.6607         0.6723        38.4421         2.3444          0.717         8.1875         44.378              1              1
      9918.0000         8.8341        -0.0505          105.5        69.9812         72.731       80.30053         0.6482         0.6624        38.4112         2.3378         0.6953       -46.5647       -10.3742              1      0.8865508
      9918.5000         8.8157        -0.0413       106.6299        69.3815        73.3848       79.62386          0.639         0.6618        38.3981         2.3389         0.6841       -46.1973       -10.0068      0.9919971      0.8922031
      9919.0000         8.7931        -0.0326       106.8311        69.1957        73.3102       79.41109         0.6484         0.6908        38.4221         2.3378         0.7122       -46.4172       -10.2267      0.9874701        0.88882
      9919.5000         8.7662        -0.0245        106.075        72.4377        75.0052       83.03896         0.6811         0.7147        38.5315         2.3337         0.7625       -53.7906       -17.6001              1      0.7753831
      9920.0000         8.7189        -0.0196       105.3835        77.5991         76.558       88.81758          0.656         0.6633        38.7268          2.328         0.7687       -54.9777       -18.7872              1        0.75712
      9920.5000         8.6737        -0.0195       105.5522        81.6078        77.3337       93.30455         0.6349         0.6425        38.9162         2.3172         0.6931       -47.8034       -11.6129              1      0.8674939
      9921.0000         8.6253         -0.024       106.9055        81.8192        78.2505       93.53681         0.6211         0.6339        39.0565          2.309         0.6508       -43.5096        -7.3191              1      0.9335523
      9921.5000         8.5554        -0.0343       108.3484        80.9049         78.572       92.50765         0.6123         0.6294        39.2144         2.3069         0.6363       -43.0466        -6.8561              1      0.9406754
      9922.0000         8.5054         -0.041       109.8829        79.2852        75.7858       90.68823         0.6162         0.6302        39.4551         2.3057         0.6423       -43.0273        -6.8368              1      0.9409723
      9922.5000         8.4661        -0.0489        111.651        74.4041        75.0944       85.21448         0.6287         0.6387        39.7471          2.302         0.6536       -42.6458        -6.4553              1      0.9468415
      9923.0000         8.4382        -0.0572       112.7797        72.1404        76.3207       82.67336         0.6497         0.6571        40.0585          2.299         0.6575       -41.0814        -4.8909              1      0.9709092
      9923.5000         8.4291         -0.061       112.9014         71.999        77.0289       82.51033         0.6644         0.7061        40.1791         2.2943         0.6569       -38.2991        -2.1086              1              1
      9924.0000         8.4361        -0.0613       111.8894        72.8556        77.8578       83.46542         0.6909         0.8116         39.879          2.298         0.6584       -42.8878        -6.6973              1      0.9431185
      9924.5000         8.4385        -0.0599       110.4591        74.0433        79.4999       84.79162          0.819         0.9015        38.6334         2.3158          0.673       -36.7433        -0.5528              1              1
      9925.0000         8.3616        -0.0599       108.4949        74.4741        78.5131       85.26962         0.8585          0.889        36.9686         2.3352         0.7152       -40.4988        -4.3083              1      0.9798723
      9925.5000          8.289         -0.063       105.3262        74.2197        76.4749       84.97999         0.7959         0.8379        35.7412         2.3586         0.8042       -43.4852        -7.2947              1      0.9339277
      9926.0000         8.2739        -0.0703       103.5854        71.7397         71.854       82.19649         0.7525         0.7803        35.3705         2.3624          0.897       -43.5181        -7.3276              1      0.9334216
      9926.5000         8.3304        -0.0686       102.2644        71.3219        69.3171       81.72374         0.7057         0.7353        35.3628         2.3753         0.9116       -43.9422        -7.7517              1      0.9268969
