#------------------------------------------------------------------------------
# Created by    : vladimir.rabinovich
# Created on    : 09/19/2023 17:20:43
#------------------------------------------------------------------------------
~Version Information Section
VERS.           2.0     :   CWLS log ASCII Standard - VERSION 2.0
WRAP.           NO      :   One line per depth step
~Well Information Section
#MNEM       .UNIT                                         VALUE :DESCRIPTION
#------------------------------------------------------------------------------
STRT        .FT                                            2986 :START DEPTH
STOP        .FT                                           10006 :STOP DEPTH
STEP        .FT                                             0.5 :STEP      
NULL        .                                           -999.25 :NULL      
COMP        .                                        CONOCO INC :COMPANY   
WELL        .                                OCS 00764 ST00BP00 :WELL      
FLD         .                           WEST CAMERON BLOCK 0192 :FIELD     
LOC         .                                                   :LOCATION  
CNTY        .                                      WEST CAMERON :LOCATION  
STAT        .                                         LOUISIANA :STATE     
CTRY        .                                     UNITED STATES :COUNTRY   
SRVC        .                                                   :SERVICE COMPANY
DATE        .                             9/13/2023 11:18:18 AM :LOG DATE  
API         .                                    17700003670000 :API NUMBER
UWI         .                                    17700003670000 :UNIQUE WELL ID
XCOORD      .                                  1596137.97932418 :SURFACE X 
YCOORD      .                                  10614860.5046116 :SURFACE Y 
LAT         .                                         29.249106 :LATITUDE  
LON         .                                        -93.138896 :LONGITUDE 
ELEV        .FT                                              84 :ELEVATION VALUE
ELEV_TYPE   .                                                KB :ELEVATION REFERENCE TYPE
~Curve Information Section
#MNEM       .UNIT                                      API CODE :CURVE DESCRIPTION
#------------------------------------------------------------------------------
DEPT        .FT                                                 :DEPTH     
ASN         .OHMM                                               :          
CALI        .IN                                                 :          
CALI_1      .IN                                                 :          
DRHO        .G/C3                                               :          
DT          .US/F                                               :          
GR          .GAPI                                               :          
ILD         .OHMM                                               :          
RHOB        .G/C3                                               :          
SP          .MV                                                 :          
SP_NORM     .MV                                                 :SP Normalized
VSH_SP      .V/V                                                :Volume of Shale from SP
~A        DEPTH            ASN           CALI         CALI_1           DRHO             DT             GR            ILD           RHOB             SP        SP_NORM         VSH_SP
# ...
      9848.5000         1.5898        10.4303        10.6673         0.0103        96.5964        71.2722         1.2689         2.4198       -41.2012      -1.406342              1
      9849.0000         1.5905        10.5112        10.6752           0.03        97.2443        70.8363         1.2469         2.4362       -40.8989      -1.119278              1
      9849.5000         1.5813        10.6044        10.7272         0.0434        97.9994        71.5581         1.2232         2.4428       -40.6071     -0.8427162              1
      9850.0000         1.5615        10.7198        10.7847         0.0456        98.7089        73.4567          1.196         2.4488         -40.47     -0.7208519              1
      9850.5000         1.5377        10.8011        10.8067         0.0717        99.2852        75.1155         1.1805         2.4683       -40.3386     -0.6046867              1
      9851.0000         1.5136        10.8426        10.7988         0.0586         99.807        76.7723         1.1673         2.4591        -40.235     -0.5163231              1
      9851.5000         1.4907        10.8629        10.8226         0.0552        99.6282          78.04         1.1468         2.4514         -40.16     -0.4565582              1
      9852.0000         1.4758        10.8557        10.8542          0.054        98.9186        78.5687         1.1445         2.4476       -40.1239     -0.4356956              1
      9852.5000         1.4656        10.7486        10.8918         0.0348        98.2018        77.2107         1.1487         2.4214       -40.1428     -0.4698334              1
      9853.0000         1.4607        10.6048        10.9367         0.0386        98.8735        75.2571           1.13         2.4139       -40.1896     -0.5318718              1
      9853.5000         1.4546        10.4835        10.9106         0.0468        99.5405          74.01          1.104         2.4131       -40.2217     -0.5792046              1
      9854.0000         1.4484        10.4453        10.8749         0.0559       100.6486        73.7393         1.0646         2.4111       -40.1763     -0.5490417              1
      9854.5000         1.4481        10.4781        10.8402         0.0545       101.6691        73.7621         1.0465         2.4007       -40.0415     -0.4294777              1
      9855.0000         1.4434        10.5681        10.8018         0.0575       102.3137         73.953         1.0334         2.3974       -39.9008     -0.3040123              1
      9855.5000         1.4355        10.5104        10.7772         0.0451       101.8134        74.8384         1.0332         2.3986       -39.7802     -0.1986504              1
      9856.0000         1.4284        10.4012        10.8028         0.0292       101.0471        75.9567         1.0404           2.39       -39.6172    -0.05088425              1
      9856.5000         1.4261         10.353        10.8417         0.0339       100.3401        77.1006         1.0528         2.3927        -39.456      0.1044388              1
      9857.0000         1.4302         10.369         10.894         0.0251         99.649        78.2424         1.0676         2.3856       -39.3123      0.2481384              1
      9857.5000         1.4348        10.3742         10.761         0.0282         99.026        78.3329         1.0834         2.4117       -39.1946      0.3658409              1
      9858.0000         1.4395        10.4497        10.5796         0.0375        98.1388        76.8293         1.0931         2.4326       -39.1276      0.4328384              1
      9858.5000         1.4445        10.3673        10.4222         0.0325        97.0406         75.936         1.1007         2.4393        -39.121      0.4394417              1
      9859.0000         1.4479        10.2955        10.4192         0.0382        97.3441        73.5471         1.0958         2.4411       -39.1686      0.3918419              1
      9859.5000          1.448        10.2993        10.3934         0.0439        97.6349        70.9508         1.0866         2.4311        -39.363      0.1974411              1
      9860.0000         1.4437         10.359        10.3055         0.0355        98.1635         69.974         1.0617         2.4178       -39.6116    -0.05115891              1
      9860.5000         1.4373        10.3469        10.1988         0.0537        99.5381        69.3116         1.0238         2.4067       -39.9005     -0.3400612              1
      9861.0000         1.4236        10.2961          10.23         0.0647       100.6696        70.8348         0.9863         2.4031       -40.1964     -0.6359596              1
      9861.5000         1.4068        10.3904         10.303         0.0671       102.1885        73.8104         0.9552         2.4072       -40.3647     -0.8042603              1
      9862.0000         1.3887        10.4377        10.3666         0.0532       104.1874        76.3458         0.9305         2.4119       -40.2688     -0.7083588              1
      9862.5000         1.3703        10.3741        10.4303         0.0523       105.4386        78.8812         0.9184         2.4085       -40.1113     -0.5508614              1
      9863.0000          1.352         10.409        10.4609         0.0486       105.8853        79.5377         0.9079         2.4079       -39.9182     -0.3577614              1
      9863.5000         1.3359        10.4658        10.4781         0.0606       104.6366         78.386         0.9112         2.4105       -39.7109     -0.1504593              1
      9864.0000         1.3244        10.4907        10.4999         0.0695       103.5076        77.3502          0.915         2.4034        -39.598    -0.03755951              1
      9864.5000         1.3187          10.46        10.5237         0.0525       102.5216        76.4795         0.9281         2.4072       -39.5684   -0.007961273              1
      9865.0000         1.3181        10.4435        10.5487         0.0637       101.5358        75.6029         0.9447         2.4123       -39.5555    0.004940033              1
      9865.5000         1.3244         10.464         10.606         0.0614       101.5298        74.8069         0.9646         2.4177       -39.5554    0.005039215              1
      9866.0000          1.336        10.4184        10.5894         0.0513       101.7584        74.0208         0.9733         2.4326       -39.4982      0.0622406              1
      9866.5000         1.3399        10.3689        10.5426         0.0588       101.7097        73.2631         0.9785         2.4489        -39.351      0.2094383              1
      9867.0000          1.344        10.4005          10.53         0.0696       101.1237         72.816         0.9815         2.4651         -39.22      0.3404388              1
      9867.5000         1.3503        10.4444        10.5457         0.0805       100.5289        72.6951          0.983         2.4636       -39.0933      0.4671402              1
      9868.0000         1.3566        10.4825        10.5654         0.0691       100.8459        76.0864         0.9856         2.4562       -38.9614       0.599041              1
      9868.5000         1.3628        10.5206        10.5845         0.0539       102.0824        78.8538         0.9907         2.4487       -38.8444      0.7160416              1
      9869.0000         1.3655        10.5588        10.6025         0.0414       102.7148        78.0675         0.9954         2.4412       -38.7458        0.81464              1
      9869.5000         1.3599        10.5969        10.6289         0.0425       102.7343        76.7114         0.9969         2.4351       -38.7121      0.8483391              1
      9870.0000         1.3495        10.5542        10.6458         0.0516       102.6796        77.1615         0.9984         2.4333       -38.6919      0.8685417              1
      9870.5000         1.3502        10.5069        10.6376          0.068        102.099         78.213         0.9985         2.4242       -38.7164      0.8440399              1
