#------------------------------------------------------------------------------
# Created by    : vladimir.rabinovich
# Created on    : 09/19/2023 17:22:11
#------------------------------------------------------------------------------
~Version Information Section
VERS.           2.0     :   CWLS log ASCII Standard - VERSION 2.0
WRAP.           NO      :   One line per depth step
~Well Information Section
#MNEM       .UNIT                                         VALUE :DESCRIPTION
#------------------------------------------------------------------------------
STRT        .FT                                             714 :START DEPTH
STOP        .FT                                            7955 :STOP DEPTH
STEP        .FT                                             0.5 :STEP      
NULL        .                                           -999.25 :NULL      
COMP        .                                ODECO OIL & GAS CO :COMPANY   
WELL        .                               OCS G04756 ST00BP00 :WELL      
FLD         .                           WEST CAMERON BLOCK 0165 :FIELD     
LOC         .                                                   :LOCATION  
CNTY        .                                      WEST CAMERON :LOCATION  
STAT        .                                         LOUISIANA :STATE     
CTRY        .                                     UNITED STATES :COUNTRY   
SRVC        .                                                   :SERVICE COMPANY
DATE        .                             9/13/2023 11:19:06 AM :LOG DATE  
API         .                                    17700406200000 :API NUMBER
UWI         .                                    17700406200000 :UNIQUE WELL ID
XCOORD      .                                  1451757.14487559 :SURFACE X 
YCOORD      .                                  10673474.8616073 :SURFACE Y 
LAT         .                                        29.4091131 :LATITUDE  
LON         .                                       -93.5927176 :LONGITUDE 
ELEV        .FT                                             113 :ELEVATION VALUE
ELEV_TYPE   .                                                KB :ELEVATION REFERENCE TYPE
~Curve Information Section
#MNEM       .UNIT                                      API CODE :CURVE DESCRIPTION
#------------------------------------------------------------------------------
DEPT        .FT                                                 :DEPTH     
CALI        .IN                                                 :          
CILD        .MMHO                                               :          
DRHO        .G/C3                                               :          
DT          .US/F                                               :          
GR          .GAPI                                               :          
GR_NORM     .GAPI                                               :GammaRay Normalized
ILD         .OHMM                                               :          
NPSS        .%                                                  :Neutron Porosity Sandstone
RFOC        .OHMM                                               :          
RHOB        .G/C3                                               :          
RILD        .OHMM                                               :          
RILM        .OHMM                                               :          
SN          .OHMM                                               :          
SP          .MV                                                 :          
SP_NORM     .MV                                                 :SP Normalized
VSH_GR      .V/V                                                :Volume of Shale from GR
VSH_SP      .V/V                                                :Volume of Shale from SP
~A        DEPTH           CALI           CILD           DRHO             DT             GR        GR_NORM            ILD           NPSS           RFOC           RHOB           RILD           RILM             SN             SP        SP_NORM         VSH_GR         VSH_SP
# ...
      1704.0000        -999.25           1520        -999.25          168.2        71.8367       56.88032         0.6543        -999.25        -999.25        -999.25        -999.25        -999.25         0.8601       -29.0196       -11.5416      0.5080919       0.775221
      1704.5000        -999.25           1496        -999.25          167.4        72.8571       58.21494         0.6671        -999.25        -999.25        -999.25        -999.25        -999.25         0.8447       -28.2353       -10.7425      0.5364882        0.79625
      1705.0000        -999.25           1472        -999.25          166.8        73.6735       59.28248         0.6801        -999.25        -999.25        -999.25        -999.25        -999.25         0.8447       -28.0392       -10.5316      0.5592017         0.8018
      1705.5000        -999.25           1448        -999.25          166.6        74.0816        59.8153         0.6933        -999.25        -999.25        -999.25        -999.25        -999.25         0.8447       -28.2353       -10.7129      0.5705382       0.797029
      1706.0000        -999.25           1432        -999.25          165.8        74.0816       59.81346         0.7126        -999.25        -999.25        -999.25        -999.25        -999.25         0.8371       -28.2353       -10.6981      0.5704992      0.7974184
      1706.5000        -999.25           1416        -999.25          164.2        74.6939        60.6137         0.7254        -999.25        -999.25        -999.25        -999.25        -999.25         0.8371       -27.8431       -10.2912      0.5875255      0.8081263
      1707.0000        -999.25           1392        -999.25          163.2        75.9184       62.21577          0.745        -999.25        -999.25        -999.25        -999.25        -999.25         0.8371       -26.8627         -9.296      0.6216121      0.8343158
      1707.5000        -999.25           1352        -999.25            162        78.5714        65.6888         0.7584        -999.25        -999.25        -999.25        -999.25        -999.25         0.8371       -26.0784        -8.4969      0.6955063      0.8553448
      1708.0000        -999.25           1312        -999.25          160.2        82.1154       70.32865         0.7789        -999.25        -999.25        -999.25        -999.25        -999.25         0.8371       -25.4902        -7.8939      0.7942266      0.8712131
      1708.5000        -999.25       1273.262        -999.25          157.6        84.2308       73.09755         0.7929        -999.25        -999.25        -999.25        -999.25        -999.25         0.8371        -24.902        -7.2909      0.8531393      0.8870816
      1709.0000        -999.25       1235.221        -999.25          155.6             85       74.10328         0.8073        -999.25        -999.25        -999.25        -999.25        -999.25         0.8447       -24.7059          -7.08      0.8745378      0.8926316
      1709.5000        -999.25       1213.205        -999.25          155.2           82.5       70.82714         0.8295        -999.25        -999.25        -999.25        -999.25        -999.25         0.8601       -24.5098        -6.8692      0.8048328      0.8981789
      1710.0000        -999.25       1191.031        -999.25          155.8        79.1837       66.48196         0.8447        -999.25        -999.25        -999.25        -999.25        -999.25          0.868       -23.9216        -6.2662      0.7123822      0.9140474
      1710.5000        -999.25       1159.184        -999.25          154.6        76.9388       63.54003          0.868        -999.25        -999.25        -999.25        -999.25        -999.25            0.9       -23.7255        -6.0553      0.6497878      0.9195974
      1711.0000        -999.25        1151.02        -999.25          153.4         75.102       61.13262         0.8759        -999.25        -999.25        -999.25        -999.25        -999.25         0.9262       -23.9216        -6.2366      0.5985664      0.9148263
      1711.5000        -999.25       1142.857        -999.25            154        73.6735       59.25984         0.8759        -999.25        -999.25        -999.25        -999.25        -999.25         0.9532       -24.5098          -6.81      0.5587201      0.8997368
      1712.0000        -999.25       1134.694        -999.25          157.6        70.6122       55.24865         0.8759        -999.25        -999.25        -999.25        -999.25        -999.25          0.981       -25.4902        -7.7757      0.4733755      0.8743237
      1712.5000        -999.25        1151.02        -999.25          161.6        69.5918       53.91051         0.8759        -999.25        -999.25        -999.25        -999.25        -999.25          0.981       -25.8824        -8.1531      0.4449044      0.8643921
      1713.0000        -999.25       1167.347        -999.25          165.2        71.2245       56.04706         0.8759        -999.25        -999.25        -999.25        -999.25        -999.25          0.981       -26.4706        -8.7265       0.490363      0.8493026
      1713.5000        -999.25       1191.837        -999.25          168.4        72.0408        57.1145         0.8524        -999.25        -999.25        -999.25        -999.25        -999.25          0.981       -27.2549         -9.496      0.5130745      0.8290526
      1714.0000        -999.25           1216        -999.25          168.2        70.6122       55.24171         0.8295        -999.25        -999.25        -999.25        -999.25        -999.25         0.9717       -27.8431       -10.0694      0.4732278      0.8139632
      1714.5000        -999.25           1256        -999.25            160        70.4082       54.97282         0.8073        -999.25        -999.25        -999.25        -999.25        -999.25         0.9717       -28.4314       -10.6429      0.4675068       0.798871
      1715.0000        -999.25           1296        -999.25          147.6        72.8571       58.17841         0.7859        -999.25        -999.25        -999.25        -999.25        -999.25         0.9442       -28.0392       -10.2359      0.5357108      0.8095816
      1715.5000        -999.25           1336        -999.25            135        76.7347       63.25531         0.7652        -999.25        -999.25        -999.25        -999.25        -999.25         0.9174       -27.6471        -9.8291      0.6437301      0.8202869
      1716.0000        -999.25           1376        -999.25          145.6        79.5918       66.99564          0.745        -999.25        -999.25        -999.25        -999.25        -999.25         0.9174       -28.0392       -10.2064      0.7233114      0.8103579
      1716.5000        -999.25           1408        -999.25          159.8        82.1154       70.29904         0.7254        -999.25        -999.25        -999.25        -999.25        -999.25         0.9174       -29.0196        -11.172      0.7935966      0.7849474
      1717.0000        -999.25           1440        -999.25            171        83.2692       71.80852         0.7063        -999.25        -999.25        -999.25        -999.25        -999.25            0.9       -29.8039       -11.9415      0.8257132      0.7646974
      1717.5000        -999.25           1464        -999.25            166        82.6923       71.05123         0.6866        -999.25        -999.25        -999.25        -999.25        -999.25         0.8838          -30.2       -12.3228      0.8096007      0.7546632
      1718.0000        -999.25           1480        -999.25          155.4        82.3077       70.54579         0.6671        -999.25        -999.25        -999.25        -999.25        -999.25         0.8601          -30.2       -12.3081      0.7988466        0.75505
      1718.5000        -999.25           1496        -999.25          146.2        83.0769        71.5514         0.6671        -999.25        -999.25        -999.25        -999.25        -999.25         0.8524       -29.6078       -11.7011      0.8202425      0.7710237
