#------------------------------------------------------------------------------
# Created by    : vladimir.rabinovich
# Created on    : 09/19/2023 17:21:14
#------------------------------------------------------------------------------
~Version Information Section
VERS.           2.0     :   CWLS log ASCII Standard - VERSION 2.0
WRAP.           NO      :   One line per depth step
~Well Information Section
#MNEM       .UNIT                                         VALUE :DESCRIPTION
#------------------------------------------------------------------------------
STRT        .FT                                            2600 :START DEPTH
STOP        .FT                                          9205.5 :STOP DEPTH
STEP        .FT                                             0.5 :STEP      
NULL        .                                           -999.25 :NULL      
COMP        .                              MCMORAN OIL & GAS CO :COMPANY   
WELL        .                                OCS 00757 ST00BP00 :WELL      
FLD         .                           WEST CAMERON BLOCK 0118 :FIELD     
LOC         .                                                   :LOCATION  
CNTY        .                                      WEST CAMERON :LOCATION  
STAT        .                                         LOUISIANA :STATE     
CTRY        .                                     UNITED STATES :COUNTRY   
SRVC        .                                                   :SERVICE COMPANY
DATE        .                             9/13/2023 11:18:49 AM :LOG DATE  
API         .                                    17700410700000 :API NUMBER
UWI         .                                    17700410700000 :UNIQUE WELL ID
XCOORD      .                                  1436864.54905534 :SURFACE X 
YCOORD      .                                  10703419.9985863 :SURFACE Y 
LAT         .                                        29.4912718 :LATITUDE  
LON         .                                       -93.6400205 :LONGITUDE 
ELEV        .FT                                             118 :ELEVATION VALUE
ELEV_TYPE   .                                                KB :ELEVATION REFERENCE TYPE
~Curve Information Section
#MNEM       .UNIT                                      API CODE :CURVE DESCRIPTION
#------------------------------------------------------------------------------
DEPT        .FT                                                 :DEPTH     
CAL         .IN                                                 :          
CNC         .%                                                  :          
DT24        .US/F                                               :          
GR          .GAPI                                               :          
GR_NORM     .GAPI                                               :GammaRay Normalized
M0C6        .MMHO                                               :          
M2R1        .OHMM                                               :          
M2R2        .OHMM                                               :          
M2R3        .OHMM                                               :          
M2R6        .OHMM                                               :          
M2R9        .OHMM                                               :          
M2RX        .OHMM                                               :          
PORZ        .%                                                  :          
RWAZ        .OHMM                                               :          
SP          .MV                                                 :          
SP_NORM     .MV                                                 :SP Normalized
TTEN        .LB/F                                               :          
VSH_GR      .V/V                                                :Volume of Shale from GR
VSH_SP      .V/V                                                :Volume of Shale from SP
ZCOR        .G/CC                                               :          
~A        DEPTH            CAL            CNC           DT24             GR        GR_NORM           M0C6           M2R1           M2R2           M2R3           M2R6           M2R9           M2RX           PORZ           RWAZ             SP        SP_NORM           TTEN         VSH_GR         VSH_SP           ZCOR
# ...
      3939.0000         10.445         38.207        126.447         70.463       68.77223       1435.426          0.851          0.772          0.736          0.723          0.721           0.73         29.466          0.085        -16.579       -14.6742       2124.446      0.7611113      0.5676222         -0.005
      3939.5000         10.433         37.866        126.717         70.151       68.33194       1412.573          0.856          0.781          0.747          0.735          0.733          0.742         29.661          0.088        -15.989       -14.0842       2127.642      0.7517434      0.5894741         -0.008
      3940.0000         10.454         38.546        126.937         70.984         69.485       1390.733          0.852          0.783          0.751           0.74          0.738          0.748         30.026          0.091         -15.69       -13.7852       2128.342      0.7762766      0.6005481         -0.009
      3940.5000         10.501         38.273        128.163          72.91       72.15903       1370.308          0.846          0.782          0.753          0.742           0.74           0.75         30.056          0.091        -15.656       -13.7512       2130.544      0.8331708      0.6018074         -0.009
      3941.0000         10.562         37.288        129.569         73.075       72.38238       1351.047          0.837          0.778          0.751          0.741          0.739           0.75         29.631          0.088        -15.757       -13.8522       2133.563      0.8379229      0.5980667         -0.009
      3941.5000         10.604         37.281        129.445         71.648        70.3905       1332.262          0.829          0.774          0.749          0.739          0.737          0.748         29.025          0.084         -15.77       -13.8652       2135.105      0.7955425      0.5975852         -0.008
      3942.0000         10.611         37.598        129.335         72.161       71.09824       1313.221          0.831          0.779          0.754          0.745          0.744          0.755         28.395          0.081        -15.377       -13.4722       2134.618      0.8106009      0.6121407         -0.012
      3942.5000         10.605         38.301        129.409         74.839       74.81874       1293.451          0.848          0.796          0.772          0.763          0.762          0.774          27.52          0.078        -14.506       -12.6012       2130.257      0.8897604         0.6444         -0.013
      3943.0000         10.616          40.24        129.829         76.972       77.78068       1272.954          0.872          0.822          0.799           0.79           0.79          0.803         26.381          0.074        -13.537       -11.6322       2126.263      0.9527804      0.6802889         -0.007
      3943.5000         10.646          44.03        130.974         76.895       77.66742        1252.21          0.897           0.85          0.828          0.821          0.821          0.834         25.516          0.071        -12.821       -10.9162       2127.741      0.9503706      0.7068074         -0.002
      3944.0000         10.675         46.987        131.949         75.262       75.38885       1232.024          0.916          0.875          0.855           0.85           0.85          0.864         25.073          0.071         -12.23       -10.3252       2132.598      0.9018904      0.7286963         -0.004
      3944.5000         10.697         46.271        131.185         74.752       74.67304       1213.303          0.924          0.893          0.877          0.873          0.874          0.889         24.567           0.07        -11.519        -9.6142       2134.912      0.8866605      0.7550296         -0.001
      3945.0000         10.725         43.788        129.843         76.173        76.6442       1196.791          0.919          0.899          0.888          0.886          0.888          0.902         23.973          0.068        -10.761        -8.8562        2137.27      0.9286001      0.7831037          0.011
      3945.5000         10.747         42.269        129.681         77.224       78.10062       1182.918            0.9          0.891          0.886          0.885          0.888          0.902         23.811          0.067        -10.176        -8.2712       2140.859      0.9595878      0.8047704          0.023
      3946.0000         10.738         41.469        129.288         75.882         76.227       1171.732          0.876          0.877          0.876          0.877          0.881          0.894         24.062          0.067         -9.708        -7.8032       2139.686      0.9197233      0.8221037          0.025
      3946.5000         10.708         40.147        130.007         74.288       74.00273       1162.976          0.859          0.867          0.871          0.874          0.878          0.891          24.31          0.069         -9.119        -7.2142       2133.948      0.8723986      0.8439185          0.024
      3947.0000         10.703          37.92        131.676         75.362       75.49114       1156.219          0.851          0.865          0.873          0.878          0.883          0.895         24.415           0.07         -8.321        -6.4162       2132.761      0.9040669      0.8734741          0.031
      3947.5000         10.766         36.387        131.276         79.462       81.19032       1151.023          0.847          0.868          0.879          0.886          0.892          0.904         24.306           0.07         -7.518        -5.6132       2136.541              1      0.9032148          0.043
      3948.0000         10.879         36.697        131.838         83.512       86.82003       1147.063          0.847          0.874           0.89          0.898          0.906          0.917         23.974          0.069         -6.921        -5.0162       2137.591              1      0.9253259          0.042
      3948.5000         10.969         38.763        133.525         83.242       86.43819       1144.207           0.84          0.874          0.893          0.904          0.913          0.924         23.772          0.068         -6.408        -4.5032       2134.628              1      0.9443259          0.031
      3949.0000         11.007         41.549        133.421         78.764       80.20061       1142.504           0.82          0.859          0.882          0.895          0.904          0.915         24.041          0.069         -5.683        -3.7782       2129.415              1      0.9711778          0.029
      3949.5000         11.036         43.675        133.498          75.05       75.02607       1142.162          0.799          0.844           0.87          0.884          0.894          0.904         24.489          0.071         -4.783        -2.8782       2124.433      0.8941717              1          0.033
      3950.0000         11.068         44.494        133.681         75.532       75.69069       1143.456          0.792           0.84          0.869          0.886          0.897          0.906         24.575          0.071         -4.108        -2.2032       2128.044      0.9083126              1          0.033
      3950.5000         11.074         45.698        133.462         77.684       78.67923       1146.653          0.795          0.847          0.879          0.898           0.91          0.918         24.176           0.07         -3.927        -2.0222        2141.28      0.9718985              1          0.042
      3951.0000         11.036          46.08        133.958          78.97       80.46266       1151.944          0.798          0.854          0.889          0.909          0.922           0.93         23.773          0.068         -4.076        -2.1712       2148.815              1              1          0.056
      3951.5000         10.951          44.76        135.159         79.241        80.8335        1159.39           0.79          0.848          0.886          0.907          0.921          0.928         23.943          0.069         -4.158        -2.2532        2141.67              1              1          0.054
