#------------------------------------------------------------------------------
# Created by    : vladimir.rabinovich
# Created on    : 09/19/2023 17:20:43
#------------------------------------------------------------------------------
~Version Information Section
VERS.           2.0     :   CWLS log ASCII Standard - VERSION 2.0
WRAP.           NO      :   One line per depth step
~Well Information Section
#MNEM       .UNIT                                         VALUE :DESCRIPTION
#------------------------------------------------------------------------------
STRT        .FT                                            2986 :START DEPTH
STOP        .FT                                           10006 :STOP DEPTH
STEP        .FT                                             0.5 :STEP      
NULL        .                                           -999.25 :NULL      
COMP        .                                        CONOCO INC :COMPANY   
WELL        .                                OCS 00764 ST00BP00 :WELL      
FLD         .                           WEST CAMERON BLOCK 0192 :FIELD     
LOC         .                                                   :LOCATION  
CNTY        .                                      WEST CAMERON :LOCATION  
STAT        .                                         LOUISIANA :STATE     
CTRY        .                                     UNITED STATES :COUNTRY   
SRVC        .                                                   :SERVICE COMPANY
DATE        .                             9/13/2023 11:18:18 AM :LOG DATE  
API         .                                    17700003670000 :API NUMBER
UWI         .                                    17700003670000 :UNIQUE WELL ID
XCOORD      .                                  1596137.97932418 :SURFACE X 
YCOORD      .                                  10614860.5046116 :SURFACE Y 
LAT         .                                         29.249106 :LATITUDE  
LON         .                                        -93.138896 :LONGITUDE 
ELEV        .FT                                              84 :ELEVATION VALUE
ELEV_TYPE   .                                                KB :ELEVATION REFERENCE TYPE
~Curve Information Section
#MNEM       .UNIT                                      API CODE :CURVE DESCRIPTION
#------------------------------------------------------------------------------
DEPT        .FT                                                 :DEPTH     
ASN         .OHMM                                               :          
CALI        .IN                                                 :          
CALI_1      .IN                                                 :          
DRHO        .G/C3                                               :          
DT          .US/F                                               :          
GR          .GAPI                                               :          
ILD         .OHMM                                               :          
RHOB        .G/C3                                               :          
SP          .MV                                                 :          
SP_NORM     .MV                                                 :SP Normalized
VSH_SP      .V/V                                                :Volume of Shale from SP
~A        DEPTH            ASN           CALI         CALI_1           DRHO             DT             GR            ILD           RHOB             SP        SP_NORM         VSH_SP
# ...
      9398.5000         1.0312        12.5912        15.3524         0.0764       105.2806        71.1061         0.9332         2.4233       -42.7156     -0.9573593              1
      9399.0000         1.0281        12.4718        15.3535         0.0902        105.962        73.0106         0.9404         2.4103       -42.7806      -1.022362              1
      9399.5000         1.0257        12.3561        15.6659          0.079       105.9957        73.6592          0.954         2.4094       -42.7769      -1.018661              1
      9400.0000          1.024        12.3203        15.7533         0.0675       105.6459        73.1196         0.9677         2.4041        -42.672     -0.9137611              1
      9400.5000          1.025        12.3129        15.3714         0.0784        106.121        72.6774         0.9718          2.408       -42.5914     -0.8331604              1
      9401.0000         1.0288        12.2837        15.4094         0.0764       107.2006        71.4697         0.9737          2.403       -42.5709     -0.8126602              1
      9401.5000         1.0314        12.2217         15.717         0.0787       107.5925        71.5542         0.9741         2.4133       -42.5262     -0.7679596              1
      9402.0000         1.0315        12.1101        15.9612         0.0634       107.7528        73.8497         0.9731         2.4108       -42.5057     -0.7474594              1
      9402.5000         1.0335        12.2092        15.7248          0.048       108.6023        74.9592         0.9716         2.3966         -42.52     -0.7617607              1
      9403.0000         1.0345        12.3059        15.1893         0.0327       110.1521        75.7385         0.9654         2.3736       -42.5709     -0.8126602              1
      9403.5000         1.0345        12.3585        15.0952         0.0252       110.8381        76.3518         0.9572         2.3535       -42.6169     -0.8586617              1
      9404.0000          1.032        12.3999        15.1868         0.0536       110.4939        76.2958         0.9418         2.3603       -42.6602     -0.9019585              1
      9404.5000         1.0217        12.3718        15.1617         0.0714        109.666        76.1442         0.9163         2.3686       -42.6077     -0.8494606              1
      9405.0000           1.01        12.2001        15.1384         0.0556       108.5332        75.8132         0.8924         2.3544       -42.4691     -0.7108612              1
      9405.5000         1.0012        12.3288        15.1565         0.0542       108.0061         74.577         0.8707         2.3425       -42.3381     -0.5798607              1
      9406.0000         0.9953        12.3372         15.196         0.0735       108.4554        73.4724         0.8573         2.3789       -42.2499     -0.4916611              1
      9406.5000         0.9909         11.931        15.2282         0.0606       109.1206        72.3679         0.8622         2.3797       -42.2124     -0.4541588              1
      9407.0000         0.9866         11.721        15.2604         0.0442       109.6758        71.2633         0.8692         2.3716       -42.1599     -0.4016609              1
      9407.5000         0.9819        11.6573        15.4133         0.0471       110.2244        71.1415         0.8778         2.3771        -42.108      -0.349762              1
      9408.0000         0.9792        11.8522        15.5907         0.0544       110.4189        72.6096         0.8813         2.3842       -42.0857     -0.3274612              1
      9408.5000         0.9824        11.9745        15.7246         0.0651       109.8264        74.0188         0.8817         2.3818       -42.0949     -0.3366585              1
      9409.0000         0.9871        11.7706        15.6907         0.0683       109.1317        75.0192         0.8816         2.3818       -42.1497     -0.3914604              1
      9409.5000         0.9916        11.5811        15.6845         0.0738       108.2075        75.0291         0.8806         2.3898        -42.254     -0.4957619              1
      9410.0000         0.9913          11.53         15.649         0.0774       109.4636        73.0597         0.8797         2.3867       -42.3569     -0.5986595              1
      9410.5000         0.9902         11.663        15.5807         0.0543       110.3199        70.7444         0.8795         2.3783       -42.4592     -0.7009621              1
      9411.0000         0.9883         11.776        15.6344         0.0499       110.8727        70.2491         0.8799         2.3672       -42.3826     -0.6243591              1
      9411.5000         0.9856        11.8594        15.7666         0.0616       110.1743        71.7684         0.8782         2.3794       -42.2201     -0.4618607              1
      9412.0000         0.9825        11.9351        15.6271         0.0492         109.64        71.9119          0.874         2.3825        -42.108      -0.349762              1
      9412.5000         0.9797        11.9946        15.8978         0.0681       109.9929        69.5731         0.8698         2.3549       -42.0206     -0.2623596              1
      9413.0000         0.9777        11.9704         15.888         0.0524       109.7363         67.187         0.8617         2.3518       -41.9552     -0.1969604              1
      9413.5000         0.9759        11.7382        15.8452         0.0331       109.4146        66.4215         0.8534         2.3409       -41.9526     -0.1943588              1
      9414.0000         0.9739         11.533        15.9233         0.0226       108.5505        67.6824         0.8482         2.3444       -41.9552     -0.1969604              1
      9414.5000         0.9719        11.5279        15.8161         0.0346       108.6635        69.5023         0.8536         2.3686       -41.9664     -0.2081604              1
      9415.0000         0.9691        11.5901         15.802         0.0524        109.347        70.7189         0.8591         2.3786       -41.9798     -0.2215614              1
      9415.5000         0.9676        11.9008         15.647         0.0613       110.0769        73.1541         0.8619          2.385       -42.0189     -0.2606621              1
      9416.0000         0.9693        12.2006        15.4796         0.0551        110.985        75.0841         0.8642         2.3836       -42.1025     -0.3442612              1
      9416.5000         0.9713        12.4424        15.7376         0.0449       111.7142        76.5522         0.8623         2.3694         -42.23     -0.4717598              1
      9417.0000         0.9703        12.3401        15.8806         0.0587       112.3657        75.6501         0.8595         2.3646        -42.425     -0.6667595              1
      9417.5000         0.9652        12.1544        16.0712         0.0736       112.3621        73.8046         0.8588         2.3783       -42.4847     -0.7264595              1
      9418.0000         0.9576        12.2121        15.8324         0.0883       111.8413        72.1104         0.8611          2.389       -42.3771     -0.6188622              1
      9418.5000         0.9531        12.2463         15.608         0.0828       111.0035        71.3026         0.8645         2.3812       -42.0951     -0.3368607              1
      9419.0000         0.9507        12.1969        15.5728          0.061       109.5858        72.3207         0.8705         2.3685       -41.8175    -0.05926132              1
      9419.5000         0.9495        12.1156        15.4379         0.0379       109.2291        75.2767         0.8752         2.3527       -41.8957     -0.1374588              1
      9420.0000         0.9501        12.3971        15.5347         0.0391       109.6147        76.6486         0.8742         2.3443       -42.0628     -0.3045616              1
      9420.5000         0.9498        12.4059        15.5441         0.0719       109.7996        75.4614         0.8731         2.3631       -42.1736     -0.4153595              1
