#------------------------------------------------------------------------------
# Created by    : vladimir.rabinovich
# Created on    : 09/19/2023 17:20:42
#------------------------------------------------------------------------------
~Version Information Section
VERS.           2.0     :   CWLS log ASCII Standard - VERSION 2.0
WRAP.           NO      :   One line per depth step
~Well Information Section
#MNEM       .UNIT                                         VALUE :DESCRIPTION
#------------------------------------------------------------------------------
STRT        .FT                                            1866 :START DEPTH
STOP        .FT                                            8637 :STOP DEPTH
STEP        .FT                                             0.5 :STEP      
NULL        .                                           -999.25 :NULL      
COMP        .                           GENERAL AMERICAN OIL CO :COMPANY   
WELL        .                               OCS G01862 ST00BP00 :WELL      
FLD         .                           WEST CAMERON BLOCK 0045 :FIELD     
LOC         .                                                   :LOCATION  
CNTY        .                                      WEST CAMERON :LOCATION  
STAT        .                                         LOUISIANA :STATE     
CTRY        .                                     UNITED STATES :COUNTRY   
SRVC        .                                                   :SERVICE COMPANY
DATE        .                             9/13/2023 11:18:18 AM :LOG DATE  
API         .                                    17700004060000 :API NUMBER
UWI         .                                    17700004060000 :UNIQUE WELL ID
XCOORD      .                                  1439968.94212662 :SURFACE X 
YCOORD      .                                  10754878.8884152 :SURFACE Y 
LAT         .                                        29.6328727 :LATITUDE  
LON         .                                       -93.6311393 :LONGITUDE 
ELEV        .FT                                              51 :ELEVATION VALUE
ELEV_TYPE   .                                                KB :ELEVATION REFERENCE TYPE
~Curve Information Section
#MNEM       .UNIT                                      API CODE :CURVE DESCRIPTION
#------------------------------------------------------------------------------
DEPT        .FT                                                 :DEPTH     
ASN         .OHMM                                               :          
CALI        .IN                                                 :          
DRHO        .G/C3                                               :          
DT          .US/F                                               :          
GR          .GAPI                                               :          
GR_NORM     .GAPI                                               :GammaRay Normalized
ILD         .OHMM                                               :          
RHOB        .G/C3                                               :          
SP          .MV                                                 :          
SP_NORM     .MV                                                 :SP Normalized
VSH_GR      .V/V                                                :Volume of Shale from GR
VSH_SP      .V/V                                                :Volume of Shale from SP
~A        DEPTH            ASN           CALI           DRHO             DT             GR        GR_NORM            ILD           RHOB             SP        SP_NORM         VSH_GR         VSH_SP
# ...
      6724.5000          3.273        11.2704         0.0967       108.8141        48.2895       49.62175         0.4942         2.1629      -102.5629       -67.4104      0.3536542     0.08904865
      6725.0000         3.7056        11.3576         0.1332        96.2516        40.5245       41.29485         0.4712         2.1466       -103.506       -68.3554      0.1764861     0.07627837
      6725.5000          2.836        11.4741         0.1205        82.7947        36.9179       37.42726         0.4307         2.1223      -104.4825       -69.3339     0.09419705      0.0630554
      6726.0000         1.3695         11.643         0.0317        69.3376        35.7642       36.19007         0.3631         2.2232       -105.421       -70.2743     0.06787393      0.0503473
      6726.5000         0.9302        12.1897        -0.0025        55.9006        34.1391       34.44738         0.3103         2.3655      -106.0107        -70.866     0.03079532     0.04235139
      6727.0000          0.635        13.2712         0.0004        60.2637        31.7986       31.93751         0.2817         2.5061      -105.8297       -70.6869              0     0.04477166
      6727.5000          0.516        13.9582         0.0131        68.6818         31.234       31.33206         0.2818         2.5291      -105.2882       -70.1474              0     0.05206216
      6728.0000         0.4805        12.6496         0.0302        83.4506        32.3151       32.49139         0.2833         2.4191      -104.4388       -69.2999              0     0.06351492
      6728.5000         0.4979        11.5875         0.0842        98.2394        33.6355       33.90733         0.2851         2.3885       -104.566       -69.4291     0.01930496     0.06176892
      6729.0000          0.483        11.4989         0.1381       108.8837        34.3003       34.62025         0.2814         2.2966      -105.0961       -69.9611     0.03447334     0.05457976
      6729.5000         0.4666        11.4423         0.1494       109.5695        35.1122       35.49089         0.2784         2.1703      -105.7218       -70.5888     0.05299775     0.04609732
      6730.0000         0.4754        11.4288         0.1103       110.0266        35.8466       36.27844         0.2803         2.0996      -106.0513       -70.9202     0.06975401     0.04161897
      6730.5000         0.4631          11.47         0.1488       112.1659        35.4443       35.84702         0.2822         2.1267      -106.1962        -71.067     0.06057496     0.03963512
      6731.0000         0.4341        12.1005         0.2047       112.3914        35.1632       35.54559         0.2901         2.1077      -105.5398       -70.4126      0.0541614     0.04847841
      6731.5000           0.42        12.3106         0.1746       113.7585         35.204       35.58934         0.2966         2.0516      -104.8706       -69.7453     0.05509226     0.05749594
      6732.0000         0.4363         12.611         0.1457       112.4541         35.672       36.09121         0.3014         2.0201      -104.7086       -69.5853     0.06577034     0.05965815
      6732.5000          0.456        13.9988         0.1259       111.1752        35.9058       36.34192         0.2939         2.0118      -105.2413       -70.1199     0.07110474     0.05243374
      6733.0000         0.4721        14.3596         0.1021       111.0006        34.7288       35.07975         0.2833         2.0076      -105.7241       -70.6047        0.04425     0.04588246
      6733.5000         0.4685        13.6201          0.061       113.1001        34.6934       35.04179         0.2788         2.0509      -106.1678       -71.0503     0.04344234      0.0398608
      6734.0000         0.4447        14.0553         0.0693       115.1046        36.1118       36.56283         0.2789         2.1082      -106.6013       -71.4858     0.07580493     0.03397565
      6734.5000         0.4522        14.3019         0.0849       113.5076        36.2968       36.76122         0.2854         2.1395      -107.0195       -71.9059     0.08002586     0.02829866
      6735.0000         0.4693        13.8818         0.0982       111.8938        36.6752       37.16699         0.2978         2.1332      -107.0078       -71.8962     0.08865941      0.0284297
      6735.5000         0.4697        12.9272         0.1089       112.6616         36.512       36.99199         0.3162         2.1201      -106.6398       -71.5301     0.08493594     0.03337706
      6736.0000         0.4813        12.8397         0.0835       112.2131        36.0669       36.51468         0.3332         2.1026      -106.2295       -71.1218      0.0747804     0.03889455
      6736.5000          0.512        13.3193         0.0477       109.5496        36.9448       37.45611         0.3442         2.0729      -105.6703       -70.5645     0.09481081     0.04642569
      6737.0000         0.5161        13.9046         0.0573       111.5981        38.6882       39.32566         0.3554         2.0899       -105.137       -70.0332      0.1345886     0.05360536
      6737.5000         0.5014        14.4756         0.0909       111.4677        37.6944       38.25995         0.3696         2.1082      -104.7764       -69.6745      0.1119139     0.05845271
      6738.0000         0.5014        13.2211          0.123       114.3822        36.7519       37.24925         0.3834         2.1093      -105.0646       -69.9647     0.09040962      0.0545311
      6738.5000         0.4973        12.8419         0.1547       111.8578        37.7726       38.34381         0.3933         2.1005       -105.104        -70.006       0.113698     0.05397302
      6739.0000          0.493        12.6048         0.1764       111.4254        35.8289       36.25946         0.3891         2.1207       -104.788        -69.692     0.06935014      0.0582162
      6739.5000         0.4854        12.9222         0.1208       108.0587        34.2368       34.55215         0.3784         2.0918      -103.3658       -68.2717      0.0330244     0.07740948
      6740.0000         0.4987        12.9421         0.1262       104.5703        34.5054       34.84018         0.3643          2.129      -100.5754       -65.4833     0.03915275      0.1150905
      6740.5000         0.5184        13.4367         0.1385        102.339        36.5126       36.99263         0.3446         2.1454       -98.0499       -62.9597     0.08494966      0.1491932
      6741.0000         0.5223        14.0583         0.0963       103.4969        39.6454       41.97041          0.327         2.1233       -99.9628       -64.8746      0.1908598      0.1233162
      6741.5000         0.5159        13.6999         0.0321       108.0488        42.2802       44.68055         0.3111         2.1218      -101.5344       -66.4481      0.2485223      0.1020527
      6742.0000         0.5366        13.2377        -0.0014        112.874        42.3619       44.76458         0.2956         2.1462      -102.0115       -66.9272      0.2503103     0.09557837
      6742.5000         0.5501         13.461         0.0297       115.3115        41.3107       43.68333         0.2882         2.1765      -102.9685       -67.8861      0.2273048     0.08262026
      6743.0000         0.5623        13.0645          0.069       113.3088        40.0972       42.43513         0.2882         2.1957      -104.3479       -69.2675      0.2007474     0.06395268
      6743.5000          0.584        12.5436         0.0953       113.1101        38.1046       40.38555         0.2924          2.167      -105.6345        -70.556      0.1571394     0.04654054
      6744.0000         0.5942        11.8407         0.1207       116.3252        35.8826       38.10002          0.297         2.1493      -106.1478       -71.0712       0.108511     0.03957841
      6744.5000         0.6029        11.8516         0.1418       113.5673        34.0146       36.17861         0.2998         2.1459      -106.4237       -71.3491     0.06763004       0.035823
