#------------------------------------------------------------------------------
# Created by    : vladimir.rabinovich
# Created on    : 09/19/2023 17:22:07
#------------------------------------------------------------------------------
~Version Information Section
VERS.           2.0     :   CWLS log ASCII Standard - VERSION 2.0
WRAP.           NO      :   One line per depth step
~Well Information Section
#MNEM       .UNIT                                         VALUE :DESCRIPTION
#------------------------------------------------------------------------------
STRT        .FT                                            4421 :START DEPTH
STOP        .FT                                           11895 :STOP DEPTH
STEP        .FT                                             0.5 :STEP      
NULL        .                                           -999.25 :NULL      
COMP        .                MURPHY EXPLORATION & PRODUCTION CO :COMPANY   
WELL        .                               OCS G02828 ST00BP00 :WELL      
FLD         .                           WEST CAMERON BLOCK 0116 :FIELD     
LOC         .                                                   :LOCATION  
CNTY        .                                      WEST CAMERON :LOCATION  
STAT        .                                         LOUISIANA :STATE     
CTRY        .                                     UNITED STATES :COUNTRY   
SRVC        .                                                   :SERVICE COMPANY
DATE        .                             9/13/2023 11:18:31 AM :LOG DATE  
API         .                                    17700404120000 :API NUMBER
UWI         .                                    17700404120000 :UNIQUE WELL ID
XCOORD      .                                  1472413.58592246 :SURFACE X 
YCOORD      .                                  10706677.6123634 :SURFACE Y 
LAT         .                                         29.500724 :LATITUDE  
LON         .                                        -93.528296 :LONGITUDE 
ELEV        .FT                                              75 :ELEVATION VALUE
ELEV_TYPE   .                                                KB :ELEVATION REFERENCE TYPE
~Curve Information Section
#MNEM       .UNIT                                      API CODE :CURVE DESCRIPTION
#------------------------------------------------------------------------------
DEPT        .FT                                                 :DEPTH     
CALI        .IN                                                 :          
DRHO        .G/C3                                               :          
DT          .US/F                                               :          
GR          .GAPI                                               :          
GR_1        .GAPI                                               :          
GR_NORM     .GAPI                                               :GammaRay Normalized
ILD         .OHMM                                               :          
NPHI        .%                                                  :          
RHOB        .G/C3                                               :          
SFL         .OHMM                                               :          
SP          .MV                                                 :          
SP_NORM     .MV                                                 :SP Normalized
VSH_GR      .V/V                                                :Volume of Shale from GR
VSH_SP      .V/V                                                :Volume of Shale from SP
~A        DEPTH           CALI           DRHO             DT             GR           GR_1        GR_NORM            ILD           NPHI           RHOB            SFL             SP        SP_NORM         VSH_GR         VSH_SP
# ...
     10883.0000        17.6617         0.0149       101.2949        86.8856        -999.25       89.54624         0.7333        37.0896         2.3902         0.7831       -48.6081        -1.1347              1      0.9982949
     10883.5000        17.8423         0.0187        99.9641        86.9846        -999.25       89.66775         0.7461        36.5372         2.3919         0.8582       -49.6788        -2.2187              1      0.9845734
     10884.0000        18.5499         0.0215        99.0052        87.6733        -999.25        90.5182         0.7663        36.2067         2.3888         0.9098       -49.0165        -1.5697              1      0.9927886
     10884.5000         18.329         0.0243        98.2426        87.3214        -999.25       90.08223         0.7943        35.4362         2.3864         0.9127       -48.3275        -0.8941              1              1
     10885.0000        17.5913         0.0266         98.015        86.7766        -999.25       89.40792         0.8205        33.6646         2.3869         0.8823        -47.921        -0.5009              1              1
     10885.5000        17.4722         0.0111        98.1633        86.6698        -999.25       89.27503         0.8566        32.2508         2.3753         0.8771       -47.8984        -0.4916              1              1
     10886.0000         17.655         0.0123        98.3722        86.6571        -999.25       89.25834         0.8856         31.602         2.3852         0.8986       -48.0764        -0.6829              1              1
     10886.5000        17.6768         0.0284        98.8187         86.517        -999.25        89.0843         0.8896        32.3484         2.3917         0.9106       -46.6138         0.7664              1              1
     10887.0000        17.5671         0.0365        99.5397        84.5765        -999.25       86.68459         0.7964        33.6025         2.3951         0.8657       -45.1365         2.2304              1              1
     10887.5000        17.1585         0.0429       100.3372        83.6073        -999.25       85.48566         0.7409        34.4654          2.397         0.8257       -45.1692         2.1844              1              1
     10888.0000        16.1011         0.0501       100.1232        83.9961        -999.25       85.96541         0.7156        34.7471         2.3664         0.8033       -45.7473          1.593              1              1
     10888.5000        14.0022         0.0309        99.6094        84.6359        -999.25        86.7553         0.7232        34.6979         2.3577         0.8169       -46.0305         1.2965              1              1
     10889.0000        14.8026         0.0192         99.037        85.0642        -999.25       87.28387         0.7325         34.448         2.3666         0.8566       -46.0997          1.214              1              1
     10889.5000        16.3007         0.0172        98.7576        85.0116        -999.25       87.21797         0.7382        34.7294         2.3809         0.8897       -46.1006         1.1998              1              1
     10890.0000        16.4416         0.0251        99.1251        84.2467        -999.25       86.27147         0.7379        35.4924         2.3966         0.8834       -46.3176         0.9695              1              1
     10890.5000        16.4403         0.0311        99.5254        84.0896        -999.25       86.07641         0.7423        35.7742         2.4083          0.869       -46.6313         0.6425              1              1
     10891.0000         16.511         0.0349        99.7327        83.6698        -999.25       85.55663         0.7461        35.8699         2.4157         0.8554       -46.9532         0.3073              1              1
     10891.5000        16.5647         0.0357         99.895        83.1602        -999.25       84.92569         0.7492        35.9943         2.4144         0.8509       -47.1754         0.0718              1              1
     10892.0000        16.5325          0.026        99.9948        82.5576        -999.25       84.17994         0.7531        35.9272          2.402         0.8542       -47.3408         -0.107              1              1
     10892.5000        16.3294         0.0308       100.0052         83.594        -999.25       85.46008         0.7578        35.6004         2.4014         0.8593        -47.403        -0.1825              1              1
     10893.0000        15.7503         0.0417        99.8942        84.1261        -999.25       86.11696         0.7631         35.661         2.4045         0.8627       -47.1234         0.0838              1              1
     10893.5000        15.4571         0.0398        99.6002        83.9276        -999.25       85.87071         0.7692        36.2466         2.3942         0.8657       -46.4796         0.7143              1              1
     10894.0000        15.6708         0.0239        98.9685        81.1987        -999.25       82.49645          0.777        36.8515         2.3808         0.8718       -46.4235         0.7571              1              1
     10894.5000        15.2256         0.0495        98.2261        79.8666        -999.25       80.84893         0.7885        37.0529         2.3957         0.8763       -46.4235         0.7438              1              1
     10895.0000        14.9625         0.0595        97.9846        78.8279        -999.25       79.56409         0.8028        36.5816          2.415         0.8815       -45.8384         1.3156      0.9907254              1
     10895.5000        14.9464         0.0651        99.9543        78.6091        -999.25       79.29263         0.8202        36.5794         2.4135         0.8513       -45.1384         2.0023      0.9849496              1
     10896.0000        14.6969         0.0202       101.6227        77.8356        -999.25       78.33562         0.8517         36.941         2.3865         0.8044       -44.5533         2.5741      0.9645876              1
     10896.5000        14.6374         0.0124       102.7405        75.7898        -999.25       75.80588         0.9184         36.989         2.3694         0.8167       -44.2432         2.8709      0.9107634              1
     10897.0000        14.3955         0.0065       101.2264        74.8573        -999.25       74.65219         0.9787        36.2407         2.3596          0.951       -44.8533         2.2475      0.8862168              1
     10897.5000        14.2542         0.0063        95.7419        74.6324        -999.25       74.37331         1.0402        35.9039         2.3715         1.1244       -46.6304         0.4571      0.8802833              1
     10898.0000        14.0916          0.021        91.0646        73.0059        -999.25       72.36176          1.131        35.6529          2.393         1.3521       -50.4128        -3.3386      0.8374842      0.9661072
     10898.5000        13.6287         0.0188        83.8433        70.6741        -999.25       69.47847          1.211        35.1833         2.4043         1.6511       -53.9893        -6.9285      0.7761377      0.9140797
     10899.0000        13.4693          0.001        79.2198        67.3892        -999.25       65.41703         1.2925        34.3271            2.4         1.9447       -56.5244        -9.4769       0.689724      0.8771464
     10899.5000        13.3887         0.0227        79.8217        63.2096        -999.25        60.2495         1.3576        31.1091         2.3987         1.7276       -57.6944       -10.6602      0.5797767      0.8599971
     10900.0000         13.312         0.0368        85.1741         62.184        -999.25       58.98087         1.4324        27.2227         2.4017         1.5344       -58.4551       -11.4342      0.5527844      0.8487797
     10900.5000        12.8806         0.0512        90.8494        62.1941        -999.25       58.99248         1.5075        25.4318         2.4062         1.3755       -59.0107       -12.0031      0.5530315      0.8405348
