#------------------------------------------------------------------------------
# Created by    : vladimir.rabinovich
# Created on    : 09/19/2023 17:22:04
#------------------------------------------------------------------------------
~Version Information Section
VERS.           2.0     :   CWLS log ASCII Standard - VERSION 2.0
WRAP.           NO      :   One line per depth step
~Well Information Section
#MNEM       .UNIT                                         VALUE :DESCRIPTION
#------------------------------------------------------------------------------
STRT        .FT                                            4308 :START DEPTH
STOP        .FT                                           11086 :STOP DEPTH
STEP        .FT                                             0.5 :STEP      
NULL        .                                           -999.25 :NULL      
COMP        .                                     GULF OIL CORP :COMPANY   
WELL        .                               OCS G01859 ST00BP00 :WELL      
FLD         .                           WEST CAMERON BLOCK 0045 :FIELD     
LOC         .                                                   :LOCATION  
CNTY        .                                      WEST CAMERON :LOCATION  
STAT        .                                         LOUISIANA :STATE     
CTRY        .                                     UNITED STATES :COUNTRY   
SRVC        .                                                   :SERVICE COMPANY
DATE        .                             9/13/2023 11:18:18 AM :LOG DATE  
API         .                                    17700402800000 :API NUMBER
UWI         .                                    17700402800000 :UNIQUE WELL ID
XCOORD      .                                  1464540.60646957 :SURFACE X 
YCOORD      .                                  10776790.0411311 :SURFACE Y 
LAT         .                                        29.6934919 :LATITUDE  
LON         .                                       -93.5541052 :LONGITUDE 
ELEV        .FT                                              79 :ELEVATION VALUE
ELEV_TYPE   .                                                KB :ELEVATION REFERENCE TYPE
~Curve Information Section
#MNEM       .UNIT                                      API CODE :CURVE DESCRIPTION
#------------------------------------------------------------------------------
DEPT        .FT                                                 :DEPTH     
CALI        .IN                                                 :          
DRHO        .G/C3                                               :          
DT          .US/F                                               :          
GR          .GAPI                                               :          
GR_NORM     .GAPI                                               :GammaRay Normalized
ILD         .OHMM                                               :          
NPHI        .%                                                  :          
RHOB        .G/C3                                               :          
SFLU        .OHMM                                               :          
SP          .MV                                                 :          
SP_NORM     .MV                                                 :SP Normalized
VSH_GR      .V/V                                                :Volume of Shale from GR
VSH_SP      .V/V                                                :Volume of Shale from SP
~A        DEPTH           CALI           DRHO             DT             GR        GR_NORM            ILD           NPHI           RHOB           SFLU             SP        SP_NORM         VSH_GR         VSH_SP
# ...
     10616.0000         9.9072        -0.0091       106.1133        58.5229        49.4918         2.3906        21.3496         2.1755           3.43       -93.2789       -59.2131      0.3508893      0.1563319
     10616.5000         9.8932        -0.0215       107.1526        56.5137       45.38347         2.3643        21.7043         2.1698         3.6166       -94.2032       -60.1452      0.2634781      0.1428232
     10617.0000         9.8763         -0.032       108.1858        55.5994       43.51318         2.3465        22.2479         2.1689         3.8368       -93.9349       -59.8846      0.2236846         0.1466
     10617.5000         9.8524        -0.0367       108.5769         54.799       41.87572         2.3428        22.7551         2.1699         4.0557       -93.3319       -59.2893      0.1888451      0.1552276
     10618.0000         9.8219          -0.04       108.6429         54.506       41.27574         2.3458        23.3477         2.1657         4.2058       -92.7053       -58.6705      0.1760796      0.1641956
     10618.5000         9.7912         -0.042       109.3269        54.6288       41.52555         2.3487        23.6385         2.1704         4.3006       -91.9951        -57.968      0.1813947      0.1743768
     10619.0000           9.77        -0.0429       109.9631        55.0579       42.40151         2.3845        23.3173         2.1767          3.603       -91.2468       -57.2275      0.2000321      0.1851087
     10619.5000         9.7653        -0.0434       110.2621        55.5779       43.46349         2.4576        22.4814          2.184         3.2063       -90.6572       -56.6456      0.2226275       0.193542
     10620.0000         9.7669        -0.0448       109.6605        55.3412       42.97839         2.5704        20.6907           2.18         3.0729       -90.3046       -56.3007      0.2123061      0.1985406
     10620.5000         9.7735        -0.0471       108.9808         53.608       39.43407         2.6963        19.8749         2.1569         2.9681       -90.6511        -56.655      0.1368951      0.1934058
     10621.0000         9.7822        -0.0491       108.2764        53.0628       38.31852         2.8296        19.5265         2.1444         3.0822       -91.6542       -57.6658      0.1131599      0.1787565
     10621.5000         9.8045        -0.0503       108.0977        52.6767       37.52801         2.9512        19.4964          2.139         3.3358       -93.5029       -59.5223     0.09634066      0.1518507
     10622.0000         9.8228        -0.0522       108.7203        52.4659       37.09584         3.0089        19.8839         2.1354         3.6719       -95.1548       -61.1819     0.08714562      0.1277986
     10622.5000         9.8382        -0.0561       109.4373        52.4048       36.96992         2.9085        20.5881         2.1346         3.9859       -96.3438       -62.3786     0.08446632      0.1104551
     10623.0000         9.8421        -0.0627       109.7448        52.3964       36.95152         2.6657         21.299         2.1389         4.0758       -97.8085       -63.8511     0.08407495     0.08911448
     10623.5000          9.838         -0.065         109.66        52.4993       37.16064         2.2391        21.8277          2.149         4.0882       -99.3888       -65.4391     0.08852435     0.06609997
     10624.0000         9.8278        -0.0649       109.8888        52.5676       37.29904         1.8624        22.4651         2.1531         3.9542      -100.2787       -66.3368     0.09146897     0.05308986
     10624.5000         9.8197        -0.0572       110.5969        52.3416       36.83603         1.5378        22.9655         2.1576         3.7251      -100.7631       -66.8289     0.08161756     0.04595792
     10625.0000         9.8108         -0.047       111.2258        51.8903       35.91222         1.2994        23.2942         2.1617         3.1375      -100.9248       -66.9983     0.06196213     0.04350292
     10625.5000         9.8002        -0.0386       111.3108        51.9081       35.94739         1.1166        23.7062         2.1563         2.4209      -100.7384       -66.8197     0.06271037     0.04609127
     10626.0000         9.7879         -0.051       111.0082         52.599       37.35874         0.9824        24.1888          2.141         2.0186      -100.3636       -66.4526     0.09273919     0.05141161
     10626.5000         9.7526        -0.0665       110.3291        53.3292       38.85023         0.8958        24.6722         2.1362         1.9279       -99.7643       -65.8611      0.1244729     0.05998407
     10627.0000         9.7235        -0.0665       109.3926        53.7316       39.67161         0.8362        25.0522         2.1488         1.8125       -99.0897       -65.1942      0.1419491     0.06964929
     10627.5000         9.7167        -0.0631       109.0726        54.0045       40.22845         0.8158         25.321         2.1764         1.6585       -98.3131       -64.4253      0.1537969     0.08079275
     10628.0000         9.7232        -0.0622        109.973        54.4188       41.07418         0.8249        25.5263         2.1679         1.5271       -97.0847       -63.2047      0.1717911      0.0984826
     10628.5000         9.7112        -0.0633       110.7358        55.5047        43.2928         0.8471        25.5623         2.1686         1.7515       -94.0494       -60.1771      0.2189958      0.1423609
     10629.0000         9.6932        -0.0652        111.098         56.857       46.05622         0.8899        24.8061         2.1937          2.021       -88.8799       -55.0154      0.2777919      0.2171681
     10629.5000         9.6698        -0.0652       110.2385        58.1974       48.79513         0.9416        23.7679         2.2059         2.1267       -83.1885       -49.3317      0.3360665      0.2995406
     10630.0000         9.6453         -0.065       109.0229        59.2863       51.01988         0.9956         23.328         2.2217         1.9538       -79.1365       -45.2874      0.3834018      0.3581536
     10630.5000         9.6458         -0.065       107.7914        59.8577       52.18694         1.0546        23.4065         2.2455         1.8092       -77.0046       -43.1633      0.4082328      0.3889377
     10631.0000         9.6497        -0.0656       107.1278        59.6354       51.73128         1.1124        24.0044         2.2472         1.8488       -76.3384       -42.5048      0.3985379      0.3984812
     10631.5000         9.6542        -0.0653       106.4183        59.0962        50.6278          1.164        24.6573         2.2495         2.0648       -76.3541       -42.5283      0.3750597      0.3981405
     10632.0000         9.6501         -0.066       105.4546        58.6656       49.74632         1.2065         24.587         2.2607          2.033       -75.1387       -41.3206      0.3563047      0.4156435
     10632.5000         9.6477        -0.0639       104.3123        58.5353       49.47892         1.2461        24.6506         2.2868         2.1331        -73.423       -39.6126      0.3506152      0.4403971
     10633.0000         9.6494         -0.055       102.1963        58.8143       50.04805         1.2844        25.0091         2.2989           2.37       -72.6353       -38.8327      0.3627245         0.4517
     10633.5000         9.6667        -0.0464        99.9142        59.2907       51.02071         1.3208        25.7059         2.2918         2.5392       -71.8917       -38.0968      0.3834193      0.4623652
     10634.0000         9.7179        -0.0393        98.2273        60.0379       52.54715         1.3583        26.3826         2.2959         2.2934       -70.2301        -36.443      0.4158967      0.4863333
     10634.5000          9.783        -0.0361        95.3052        61.9227       56.39893         1.3974          26.28         2.3193         2.0136        -67.089       -33.3096      0.4978496      0.5317449
