#------------------------------------------------------------------------------
# Created by    : vladimir.rabinovich
# Created on    : 09/19/2023 17:22:04
#------------------------------------------------------------------------------
~Version Information Section
VERS.           2.0     :   CWLS log ASCII Standard - VERSION 2.0
WRAP.           NO      :   One line per depth step
~Well Information Section
#MNEM       .UNIT                                         VALUE :DESCRIPTION
#------------------------------------------------------------------------------
STRT        .FT                                            4308 :START DEPTH
STOP        .FT                                           11086 :STOP DEPTH
STEP        .FT                                             0.5 :STEP      
NULL        .                                           -999.25 :NULL      
COMP        .                                     GULF OIL CORP :COMPANY   
WELL        .                               OCS G01859 ST00BP00 :WELL      
FLD         .                           WEST CAMERON BLOCK 0045 :FIELD     
LOC         .                                                   :LOCATION  
CNTY        .                                      WEST CAMERON :LOCATION  
STAT        .                                         LOUISIANA :STATE     
CTRY        .                                     UNITED STATES :COUNTRY   
SRVC        .                                                   :SERVICE COMPANY
DATE        .                             9/13/2023 11:18:18 AM :LOG DATE  
API         .                                    17700402800000 :API NUMBER
UWI         .                                    17700402800000 :UNIQUE WELL ID
XCOORD      .                                  1464540.60646957 :SURFACE X 
YCOORD      .                                  10776790.0411311 :SURFACE Y 
LAT         .                                        29.6934919 :LATITUDE  
LON         .                                       -93.5541052 :LONGITUDE 
ELEV        .FT                                              79 :ELEVATION VALUE
ELEV_TYPE   .                                                KB :ELEVATION REFERENCE TYPE
~Curve Information Section
#MNEM       .UNIT                                      API CODE :CURVE DESCRIPTION
#------------------------------------------------------------------------------
DEPT        .FT                                                 :DEPTH     
CALI        .IN                                                 :          
DRHO        .G/C3                                               :          
DT          .US/F                                               :          
GR          .GAPI                                               :          
GR_NORM     .GAPI                                               :GammaRay Normalized
ILD         .OHMM                                               :          
NPHI        .%                                                  :          
RHOB        .G/C3                                               :          
SFLU        .OHMM                                               :          
SP          .MV                                                 :          
SP_NORM     .MV                                                 :SP Normalized
VSH_GR      .V/V                                                :Volume of Shale from GR
VSH_SP      .V/V                                                :Volume of Shale from SP
~A        DEPTH           CALI           DRHO             DT             GR        GR_NORM            ILD           NPHI           RHOB           SFLU             SP        SP_NORM         VSH_GR         VSH_SP
# ...
     10179.0000        11.5797         0.0404       103.5706        70.2762         75.717         1.0408        39.1993         2.3602         0.9316        -45.175         -5.175      0.9088724      0.9394928
     10179.5000        11.7086         0.0325       100.9263        69.4707       74.13658         1.0338        39.2957         2.3424         0.9373       -45.0351        -5.0351      0.8752464      0.9415203
     10180.0000        11.6878         0.0199        99.1353        68.1627       71.57067          1.025        39.6136         2.3316         0.9418       -44.8455        -4.8455      0.8206526      0.9442681
     10180.5000         11.304         0.0302        99.6189        67.4937       70.25771         1.0226        40.2992         2.3264         0.9454       -44.7335        -4.7335      0.7927173      0.9458913
     10181.0000        11.2861         0.0513       102.0177        67.5989       70.46301         1.0232        41.1143         2.3153         0.9482       -44.6178        -4.6178      0.7970852      0.9475681
     10181.5000        11.3136         0.0444       104.3892         68.046       71.33851         1.0345        41.6407         2.2776         0.9504       -44.2987        -4.2987      0.8157129      0.9521928
     10182.0000        11.3641         0.0363       106.0984        68.4606       72.15029          1.046        40.9388         2.2746          0.953       -43.3743        -3.3743      0.8329849      0.9655899
     10182.5000         11.436         0.0359        107.214        68.7603       72.73695         1.0598        39.7727         2.2929         0.9557       -43.0035        -3.0035      0.8454669      0.9709638
     10183.0000        11.5634         0.0634       107.2983        68.9186       73.04617         1.0828        38.2051         2.3198         0.9645       -43.6402        -3.6402      0.8520463      0.9617363
     10183.5000        11.6319         0.0921       106.9728        68.6431        72.5048         1.1093        37.6567         2.3515         0.9763       -44.2212        -4.2212      0.8405277      0.9533159
     10184.0000        11.2594         0.1045       106.6416        67.3971       70.06065         1.1365        37.9106         2.3733         0.9907       -44.6181        -4.6181      0.7885244      0.9475638
     10184.5000        10.9574         0.0636       106.2893        66.9763       69.23434         1.1646         38.426         2.3352         1.0054       -44.8514        -4.8514      0.7709435      0.9441826
     10185.0000        10.8856         0.0138       104.9821        67.5597       70.37712         1.1934        38.8238         2.3215         1.0182       -44.5929        -4.5929      0.7952579       0.947929
     10185.5000        10.8786         0.0014       103.5309         67.978       71.19633         1.2229        38.6699         2.3162         1.0313       -44.4027        -4.4027       0.812688      0.9506855
     10186.0000        10.8793         0.0027       102.2062        68.0405       71.31773           1.24        38.3479         2.3099         1.0387       -44.4009        -4.4009      0.8152708      0.9507116
     10186.5000        10.7718        -0.0082       100.9758        68.2026       71.63438         1.2492        38.2886         2.3068         1.0461       -44.6344        -4.6344      0.8220082      0.9473276
     10187.0000        10.8094        -0.0065        99.7827        68.8781       72.95775         1.2508        38.4221         2.3231         1.0505       -44.7787        -4.7787      0.8501648      0.9452362
     10187.5000        10.8722         0.0034        99.0248        69.5055       74.18698         1.2468        38.5628         2.3609         1.0537       -44.6877        -4.6877      0.8763188      0.9465551
     10188.0000        11.1934         0.0141        98.6936        69.8291       74.82033          1.241        38.6807         2.3587         1.0547       -44.3885        -4.3885      0.8897942      0.9508913
     10188.5000        11.3237          0.013        98.7594        69.9965       75.14739         1.2318        39.0573          2.341          1.055       -44.0956        -4.0956       0.896753      0.9551362
     10189.0000        11.4289         0.0176        99.5482        70.0221        75.1966         1.2177        39.7831         2.3492         1.0518       -43.8961        -3.8961         0.8978      0.9580275
     10189.5000        11.5377         0.0241       100.3483        69.9705       75.09425         1.2077        40.3669         2.3611         1.0487       -43.8058        -3.8058      0.8956224      0.9593362
     10190.0000        11.4661          0.025       101.1693        69.9573       75.06719         1.2047        40.4529          2.367         1.0443       -43.5134        -3.5134      0.8950467      0.9635739
     10190.5000        11.6644         0.0251       101.9891        69.9279       75.00856         1.2019        40.1415         2.3739         1.0415       -43.2192        -3.2192      0.8937991      0.9678377
     10191.0000        11.6486         0.0255       102.5597        69.8473       74.84934         1.1998        38.8714         2.3753          1.043       -42.9017        -2.9017      0.8904116      0.9724391
     10191.5000        11.5821         0.0234       103.1005        69.7527       74.66268         1.1966        37.8585         2.3717         1.0446       -42.7805        -2.7805        0.88644      0.9741957
     10192.0000        11.5742         0.0123       103.3271        69.9949        75.1366         1.1923        37.8533         2.3634         1.0465       -42.7589        -2.7589      0.8965235      0.9745087
     10192.5000        11.7304         0.0055       103.3994        69.1161       73.41225          1.188        38.1348         2.3546         1.0484       -42.8632        -2.8632      0.8598352      0.9729971
     10193.0000        11.8214         0.0072        103.031        68.3623       71.93302         1.1833        37.8414         2.3489         1.0501       -43.1731        -3.1731      0.8283622      0.9685058
     10193.5000        11.8257         0.0098       102.6614        68.0522       71.32399         1.1787        36.4828         2.3473         1.0493       -43.5146        -3.5146      0.8154041      0.9635565
     10194.0000        11.7565         0.0076       102.0983          67.77       70.76949          1.174        35.5622         2.3471         1.0426       -43.6082        -3.6082      0.8036061         0.9622
     10194.5000        11.7276         0.0019       101.5663        67.5221        70.2822         1.1697        35.9407         2.3482         1.0356       -43.6718        -3.6718      0.7932384      0.9612783
     10195.0000        11.7129         0.0002       101.0441        67.5424       70.32083         1.1656        36.8279         2.3399         1.0316       -43.6911        -3.6911      0.7940602      0.9609985
     10195.5000        11.6885        -0.0008       100.5244        67.6644       70.55909         1.1578        37.2032         2.3203         1.0276       -43.7438        -3.7438      0.7991295      0.9602348
     10196.0000        11.6374        -0.0031       100.5715        67.7068       70.64103         1.1457         37.399         2.3076         1.0219       -43.8068        -3.8068       0.800873      0.9593217
     10196.5000        11.5902        -0.0069       101.2487        67.7511       70.72672         1.1337        37.6771         2.2965          1.016       -43.7327        -3.7327      0.8026962      0.9603956
     10197.0000        11.5508        -0.0108       102.5089        68.4835       72.16186         1.1252        38.3945         2.3039         1.0091       -43.4845        -3.4845       0.833231      0.9639928
     10197.5000        11.5109        -0.0093       105.2078        69.8964       74.93111         1.1175         38.449         2.3168         1.0017       -43.1743        -3.1743      0.8921514      0.9684884
