#------------------------------------------------------------------------------
# Created by    : vladimir.rabinovich
# Created on    : 09/19/2023 17:22:11
#------------------------------------------------------------------------------
~Version Information Section
VERS.           2.0     :   CWLS log ASCII Standard - VERSION 2.0
WRAP.           NO      :   One line per depth step
~Well Information Section
#MNEM       .UNIT                                         VALUE :DESCRIPTION
#------------------------------------------------------------------------------
STRT        .FT                                             714 :START DEPTH
STOP        .FT                                            7955 :STOP DEPTH
STEP        .FT                                             0.5 :STEP      
NULL        .                                           -999.25 :NULL      
COMP        .                                ODECO OIL & GAS CO :COMPANY   
WELL        .                               OCS G04756 ST00BP00 :WELL      
FLD         .                           WEST CAMERON BLOCK 0165 :FIELD     
LOC         .                                                   :LOCATION  
CNTY        .                                      WEST CAMERON :LOCATION  
STAT        .                                         LOUISIANA :STATE     
CTRY        .                                     UNITED STATES :COUNTRY   
SRVC        .                                                   :SERVICE COMPANY
DATE        .                             9/13/2023 11:19:06 AM :LOG DATE  
API         .                                    17700406200000 :API NUMBER
UWI         .                                    17700406200000 :UNIQUE WELL ID
XCOORD      .                                  1451757.14487559 :SURFACE X 
YCOORD      .                                  10673474.8616073 :SURFACE Y 
LAT         .                                        29.4091131 :LATITUDE  
LON         .                                       -93.5927176 :LONGITUDE 
ELEV        .FT                                             113 :ELEVATION VALUE
ELEV_TYPE   .                                                KB :ELEVATION REFERENCE TYPE
~Curve Information Section
#MNEM       .UNIT                                      API CODE :CURVE DESCRIPTION
#------------------------------------------------------------------------------
DEPT        .FT                                                 :DEPTH     
CALI        .IN                                                 :          
CILD        .MMHO                                               :          
DRHO        .G/C3                                               :          
DT          .US/F                                               :          
GR          .GAPI                                               :          
GR_NORM     .GAPI                                               :GammaRay Normalized
ILD         .OHMM                                               :          
NPSS        .%                                                  :Neutron Porosity Sandstone
RFOC        .OHMM                                               :          
RHOB        .G/C3                                               :          
RILD        .OHMM                                               :          
RILM        .OHMM                                               :          
SN          .OHMM                                               :          
SP          .MV                                                 :          
SP_NORM     .MV                                                 :SP Normalized
VSH_GR      .V/V                                                :Volume of Shale from GR
VSH_SP      .V/V                                                :Volume of Shale from SP
~A        DEPTH           CALI           CILD           DRHO             DT             GR        GR_NORM            ILD           NPSS           RFOC           RHOB           RILD           RILM             SN             SP        SP_NORM         VSH_GR         VSH_SP
# ...
       744.0000        -999.25            912        -999.25          232.8        91.1765       82.26167         1.1085        -999.25        -999.25        -999.25        -999.25        -999.25         1.2999       -35.4902        -6.6995              1      0.7956739
       744.5000        -999.25            912        -999.25          231.8        90.9804       81.83063         1.1083        -999.25        -999.25        -999.25        -999.25        -999.25         1.2992       -36.0784         -7.251              1      0.7716957
       745.0000        -999.25            920        -999.25          229.4        90.5882       81.14261         1.0977        -999.25        -999.25        -999.25        -999.25        -999.25          1.298       -36.8627        -7.9985              1      0.7391956
       745.5000        -999.25            920        -999.25          226.8        89.8077       79.98993         1.0872        -999.25        -999.25        -999.25        -999.25        -999.25          1.309       -37.0588        -8.1579      0.9997857      0.7322652
       746.0000        -999.25            936        -999.25          224.2        88.6538       78.47692         1.0869        -999.25        -999.25        -999.25        -999.25        -999.25         1.2958        -37.451        -8.5134      0.9675941      0.7168087
       746.5000        -999.25            944        -999.25          224.2        88.8462       78.72708         1.0767        -999.25        -999.25        -999.25        -999.25        -999.25         1.2834       -38.6275        -9.6531      0.9729166      0.6672565
       747.0000        -999.25            952        -999.25          225.8        89.8077        79.9847          1.057        -999.25        -999.25        -999.25        -999.25        -999.25         1.2599            -40       -10.9889      0.9996746      0.6091782
       747.5000        -999.25            960        -999.25          232.8        90.5882       81.00523         1.0473        -999.25        -999.25        -999.25        -999.25        -999.25         1.2483            -40       -10.9522              1      0.6107739
       748.0000        -999.25            968        -999.25          234.4        91.5686       82.28759         1.0377        -999.25        -999.25        -999.25        -999.25        -999.25         1.2255       -39.6078       -10.5232              1      0.6294261
       748.5000        -999.25       968.5648        -999.25       234.0286        92.7237       83.79864         1.0363        -999.25        -999.25        -999.25        -999.25        -999.25         1.2352       -40.0295       -10.9082              1      0.6126869
       749.0000        -999.25       961.3289        -999.25       233.0762        92.6877       83.74978          1.034        -999.25        -999.25        -999.25        -999.25        -999.25         1.2325       -40.2692       -11.1112              1      0.6038609
       749.5000        -999.25       962.1302        -999.25       233.3333        91.4598       82.13986         1.0313        -999.25        -999.25        -999.25        -999.25        -999.25         1.2407       -40.3173       -11.1225              1      0.6033695
       750.0000        -999.25       946.6449        -999.25        233.381        88.8654       78.74019         1.0482        -999.25        -999.25        -999.25        -999.25        -999.25          1.261       -40.3654       -11.1339      0.9731955      0.6028739
       750.5000        -999.25       938.7755        -999.25          232.4        86.3462       75.43887         1.0668        -999.25        -999.25        -999.25        -999.25        -999.25         1.2716          -38.6        -9.3318      0.9029546      0.6812261
       751.0000        -999.25        922.449        -999.25          229.8        84.8077       73.42215         1.0767        -999.25        -999.25        -999.25        -999.25        -999.25         1.2716          -35.6         -6.295      0.8600457      0.8132609
       751.5000        -999.25       914.2857        -999.25          223.6        83.2692       71.40542         1.0968        -999.25        -999.25        -999.25        -999.25        -999.25         1.2716          -33.4        -4.0583      0.8171366      0.9105087
       752.0000        -999.25       906.1224        -999.25          217.6        81.9231       69.64056          1.107        -999.25        -999.25        -999.25        -999.25        -999.25         1.2716          -33.8        -4.4216      0.7795863       0.894713
       752.5000        -999.25       889.7959        -999.25          214.4           82.5       70.39444          1.107        -999.25        -999.25        -999.25        -999.25        -999.25         1.2716            -35        -5.5848      0.7956264      0.8441392
       753.0000        -999.25       889.7959        -999.25          213.6        83.6538       71.90392         1.1173        -999.25        -999.25        -999.25        -999.25        -999.25         1.2599          -37.6        -8.1481      0.8277429      0.7326913
       753.5000        -999.25       906.1224        -999.25          213.6        84.0385       72.40591          1.107        -999.25        -999.25        -999.25        -999.25        -999.25         1.2834       -41.1538       -11.6652      0.8384237      0.5797739
       754.0000        -999.25       914.2857        -999.25          213.6        81.1538       68.62605         1.0867        -999.25        -999.25        -999.25        -999.25        -999.25         1.2953       -46.5385       -17.0131      0.7580011      0.3472565
       754.5000        -999.25       946.9388        -999.25          212.2        72.0408       56.68877         1.0668        -999.25        -999.25        -999.25        -999.25        -999.25         1.3195        -50.625       -21.0629      0.5040163      0.1711782
       755.0000        -999.25       963.2653        -999.25          210.8        67.0833       50.19406         1.0473        -999.25        -999.25        -999.25        -999.25        -999.25         1.3074       -55.4167       -25.8179      0.3658311              0
       755.5000        -999.25       987.7551        -999.25            210        62.0833       43.64357         1.0093        -999.25        -999.25        -999.25        -999.25        -999.25         1.2953       -57.7083       -28.0727       0.226459              0
       756.0000        -999.25       1012.245        -999.25          210.2           57.6       37.76994         0.9826        -999.25        -999.25        -999.25        -999.25        -999.25         1.2716        -58.125       -28.4527      0.1014882              0
       756.5000        -999.25       1044.898        -999.25          210.6           55.8       35.41073         0.9655        -999.25        -999.25        -999.25        -999.25        -999.25         1.2483       -57.0833       -27.3743      0.0512921              0
       757.0000        -999.25       1077.551        -999.25          212.6           54.8       34.09916          0.924        -999.25        -999.25        -999.25        -999.25        -999.25         1.2255            -55       -25.2542     0.02338637              0
       757.5000        -999.25       1110.204        -999.25          219.8           54.8       34.09746         0.9079        -999.25        -999.25        -999.25        -999.25        -999.25         1.2142       -54.1667       -24.3842     0.02335025     0.02677395
       758.0000        -999.25       1118.367        -999.25          220.4           54.6       33.83381            0.9        -999.25        -999.25        -999.25        -999.25        -999.25          1.192       -56.4583       -26.6391     0.01774061              0
       758.5000        -999.25       1118.367        -999.25          220.8           53.6       32.52238            0.9        -999.25        -999.25        -999.25        -999.25        -999.25          1.181       -58.5417       -28.6857              0              0
