#------------------------------------------------------------------------------
# Created by    : vladimir.rabinovich
# Created on    : 09/19/2023 17:22:13
#------------------------------------------------------------------------------
~Version Information Section
VERS.           2.0     :   CWLS log ASCII Standard - VERSION 2.0
WRAP.           NO      :   One line per depth step
~Well Information Section
#MNEM       .UNIT                                         VALUE :DESCRIPTION
#------------------------------------------------------------------------------
STRT        .FT                                            4265 :START DEPTH
STOP        .FT                                           12768 :STOP DEPTH
STEP        .FT                                             0.5 :STEP      
NULL        .                                           -999.25 :NULL      
COMP        .                                SHELL OFFSHORE INC :COMPANY   
WELL        .                               OCS G04749 ST00BP02 :WELL      
FLD         .                                           WILDCAT :FIELD     
LOC         .                                                   :LOCATION  
CNTY        .                                      WEST CAMERON :LOCATION  
STAT        .                                         LOUISIANA :STATE     
CTRY        .                                     UNITED STATES :COUNTRY   
SRVC        .                                                   :SERVICE COMPANY
DATE        .                             9/13/2023 11:19:06 AM :LOG DATE  
API         .                                    17700406070000 :API NUMBER
UWI         .                                    17700406070000 :UNIQUE WELL ID
XCOORD      .                                   1486969.7252092 :SURFACE X 
YCOORD      .                                  10728694.6404599 :SURFACE Y 
LAT         .                                        29.5614647 :LATITUDE  
LON         .                                       -93.4828123 :LONGITUDE 
ELEV        .FT                                              98 :ELEVATION VALUE
ELEV_TYPE   .                                                KB :ELEVATION REFERENCE TYPE
~Curve Information Section
#MNEM       .UNIT                                      API CODE :CURVE DESCRIPTION
#------------------------------------------------------------------------------
DEPT        .FT                                                 :DEPTH     
CALI        .IN                                                 :          
DRHO        .G/C3                                               :          
DT          .US/F                                               :          
GR          .GAPI                                               :          
GR_1        .GAPI                                               :          
GR_NORM     .GAPI                                               :GammaRay Normalized
ILD         .OHMM                                               :          
ILM         .OHMM                                               :          
NPHI        .%                                                  :          
RHOB        .G/C3                                               :          
SFL         .OHMM                                               :          
SP          .MV                                                 :          
SP_NORM     .MV                                                 :SP Normalized
VSH_GR      .V/V                                                :Volume of Shale from GR
VSH_SP      .V/V                                                :Volume of Shale from SP
~A        DEPTH           CALI           DRHO             DT             GR           GR_1        GR_NORM            ILD            ILM           NPHI           RHOB            SFL             SP        SP_NORM         VSH_GR         VSH_SP
# ...
      6118.0000        -999.25        -999.25       101.2247        -999.25        67.4561       74.74358         0.9033         0.9686        -999.25        -999.25         1.0988        -31.271         0.4988      0.8881612              1
      6118.5000        -999.25        -999.25       103.3094        -999.25        65.7278       72.48048         0.9006         0.9756        -999.25        -999.25         1.1465        -31.938        -0.1545      0.8400103              1
      6119.0000        -999.25        -999.25       108.0398        -999.25        65.1117       71.64722         0.8953         0.9623        -999.25        -999.25         1.1471       -33.6438        -1.8467      0.8222814              1
      6119.5000        -999.25        -999.25       110.5166        -999.25        66.3176       73.15665         0.8797         0.9462        -999.25        -999.25         1.1023       -34.5974        -2.7867      0.8543968      0.9892233
      6120.0000        -999.25        -999.25        111.861        -999.25        68.0284       75.31519         0.8517         0.9107        -999.25        -999.25         1.0257       -33.9528        -2.1284      0.9003231      0.9982411
      6120.5000        -999.25        -999.25       112.0459        -999.25        69.9779       77.78053         0.8235         0.8807        -999.25        -999.25         0.9542       -33.0625        -1.2245      0.9527771              1
      6121.0000        -999.25        -999.25       110.6934        -999.25         69.668       77.34108         0.8062         0.8573        -999.25        -999.25         0.9028        -32.879        -1.0274      0.9434272              1
      6121.5000        -999.25        -999.25       109.9811        -999.25        68.5732       75.89248           0.79         0.8461        -999.25        -999.25         0.8735       -33.2719        -1.4066      0.9126059              1
      6122.0000        -999.25        -999.25       111.1411        -999.25        68.3683       75.58789         0.7768          0.846        -999.25        -999.25         0.8663       -33.9154        -2.0365      0.9061253         0.9995
      6122.5000        -999.25        -999.25       112.4943        -999.25        70.1978       77.89906         0.7672         0.8472        -999.25        -999.25         0.8715       -34.7135         -2.821      0.9552991      0.9887534
      6123.0000        -999.25        -999.25       113.6649        -999.25        72.1123       80.31952         0.7614         0.8562        -999.25        -999.25         0.8889       -35.5291        -3.6229              1      0.9777685
      6123.5000        -999.25        -999.25       112.9733        -999.25        72.5043       80.78239         0.7698         0.8654        -999.25        -999.25         0.9118       -36.4137        -4.4939              1       0.965837
      6124.0000        -999.25        -999.25       110.3597        -999.25        72.2115       80.36491         0.7892         0.8789        -999.25        -999.25         0.9143       -37.4841        -5.5506              1      0.9513617
      6124.5000        -999.25        -999.25       108.2103        -999.25        71.1975       79.02019         0.8124         0.8937        -999.25        -999.25         0.9006        -38.841        -6.8939      0.9791529      0.9329603
      6125.0000        -999.25        -999.25       103.9465        -999.25         67.511       74.23932         0.8253         0.9259        -999.25        -999.25         0.9389       -40.5506        -8.5899      0.8774323      0.9097274
      6125.5000        -999.25        -999.25        95.9656        -999.25        62.4625       67.70744         0.8255         0.9691        -999.25        -999.25         1.0865       -43.8701       -11.8957      0.7384562      0.8644425
      6126.0000        -999.25        -999.25        91.2228        -999.25        57.6138       61.43245         0.8299         1.0036        -999.25        -999.25          1.274       -46.7933       -14.8053      0.6049457       0.824585
      6126.5000        -999.25        -999.25        90.8992        -999.25        56.4654       59.91481          0.839         1.0224        -999.25        -999.25         1.4105       -49.9507       -17.9491      0.5726556      0.7815192
      6127.0000        -999.25        -999.25        97.7565        -999.25          55.78       58.99259         0.8552          1.025        -999.25        -999.25         1.3889       -52.4827       -20.4674      0.5530339      0.7470219
      6127.5000        -999.25        -999.25       101.1249        -999.25        55.2177       58.22861         0.8922         1.0237        -999.25        -999.25         1.3178       -54.1262       -22.0973       0.536779      0.7246946
      6128.0000        -999.25        -999.25       101.9933        -999.25        55.6157        58.6992         0.9091         1.0394        -999.25        -999.25         1.3325         -54.14       -22.0975      0.5467916      0.7246918
      6128.5000        -999.25        -999.25       102.6812        -999.25        57.4564       61.02475         0.9197         1.0539        -999.25        -999.25         1.4102       -53.0484       -20.9922      0.5962713      0.7398329
      6129.0000        -999.25        -999.25        104.403        -999.25        59.2709       63.31665         0.9183         1.0624        -999.25        -999.25         1.4689       -50.2398         -18.17       0.645035      0.7784932
      6129.5000        -999.25        -999.25       106.6753        -999.25        60.6686       65.07253         0.9169           1.03        -999.25        -999.25         1.3887       -46.9203       -14.8369      0.6823943      0.8241521
      6130.0000        -999.25        -999.25       109.8506        -999.25        59.8482       63.97673         0.9122         0.9824        -999.25        -999.25         1.2376       -44.1566       -12.0595      0.6590794      0.8621987
      6130.5000        -999.25        -999.25       112.9081        -999.25        58.6804       62.43427         0.9074         0.9465        -999.25        -999.25         1.1063       -41.4976        -9.3869      0.6262611      0.8988096
      6131.0000        -999.25        -999.25       114.5829        -999.25        58.9235       62.70569         0.9016         0.9211        -999.25        -999.25         0.9766       -39.7793         -7.655      0.6320359      0.9225342
      6131.5000        -999.25        -999.25       114.6155        -999.25        62.6274       67.42678         0.8952         0.9055        -999.25        -999.25         0.8684       -38.8796        -6.7416      0.7324847      0.9350466
      6132.0000        -999.25        -999.25       111.3104        -999.25        65.3079       70.83209         0.8895         0.8975        -999.25        -999.25          0.819       -38.4807        -6.3291      0.8049381      0.9406973
      6132.5000        -999.25        -999.25       103.3145        -999.25         65.774       71.39021         0.8856         0.8929        -999.25        -999.25         0.8273       -38.4429        -6.2777      0.8168131      0.9414014
      6133.0000        -999.25        -999.25        97.3501        -999.25        63.4297       68.33513         0.8806         0.8919        -999.25        -999.25         0.8727       -37.9663        -5.7874      0.7518113      0.9481178
      6133.5000        -999.25        -999.25        94.6038        -999.25        62.0245       66.48744         0.8738          0.893        -999.25        -999.25         0.9408        -37.271        -5.0785      0.7124988      0.9578288
      6134.0000        -999.25        -999.25         95.158        -999.25        62.0544       66.48475         0.8671         0.8882        -999.25        -999.25         0.9765       -36.5321        -4.3259      0.7124414      0.9681383
      6134.5000        -999.25        -999.25       105.5568        -999.25         63.011       67.67364         0.8605         0.8807        -999.25        -999.25         0.9784       -36.0511        -3.8313      0.7377369      0.9749137
