#------------------------------------------------------------------------------
# Created by    : vladimir.rabinovich
# Created on    : 09/19/2023 17:22:07
#------------------------------------------------------------------------------
~Version Information Section
VERS.           2.0     :   CWLS log ASCII Standard - VERSION 2.0
WRAP.           NO      :   One line per depth step
~Well Information Section
#MNEM       .UNIT                                         VALUE :DESCRIPTION
#------------------------------------------------------------------------------
STRT        .FT                                            4421 :START DEPTH
STOP        .FT                                           11895 :STOP DEPTH
STEP        .FT                                             0.5 :STEP      
NULL        .                                           -999.25 :NULL      
COMP        .                MURPHY EXPLORATION & PRODUCTION CO :COMPANY   
WELL        .                               OCS G02828 ST00BP00 :WELL      
FLD         .                           WEST CAMERON BLOCK 0116 :FIELD     
LOC         .                                                   :LOCATION  
CNTY        .                                      WEST CAMERON :LOCATION  
STAT        .                                         LOUISIANA :STATE     
CTRY        .                                     UNITED STATES :COUNTRY   
SRVC        .                                                   :SERVICE COMPANY
DATE        .                             9/13/2023 11:18:31 AM :LOG DATE  
API         .                                    17700404120000 :API NUMBER
UWI         .                                    17700404120000 :UNIQUE WELL ID
XCOORD      .                                  1472413.58592246 :SURFACE X 
YCOORD      .                                  10706677.6123634 :SURFACE Y 
LAT         .                                         29.500724 :LATITUDE  
LON         .                                        -93.528296 :LONGITUDE 
ELEV        .FT                                              75 :ELEVATION VALUE
ELEV_TYPE   .                                                KB :ELEVATION REFERENCE TYPE
~Curve Information Section
#MNEM       .UNIT                                      API CODE :CURVE DESCRIPTION
#------------------------------------------------------------------------------
DEPT        .FT                                                 :DEPTH     
CALI        .IN                                                 :          
DRHO        .G/C3                                               :          
DT          .US/F                                               :          
GR          .GAPI                                               :          
GR_1        .GAPI                                               :          
GR_NORM     .GAPI                                               :GammaRay Normalized
ILD         .OHMM                                               :          
NPHI        .%                                                  :          
RHOB        .G/C3                                               :          
SFL         .OHMM                                               :          
SP          .MV                                                 :          
SP_NORM     .MV                                                 :SP Normalized
VSH_GR      .V/V                                                :Volume of Shale from GR
VSH_SP      .V/V                                                :Volume of Shale from SP
~A        DEPTH           CALI           DRHO             DT             GR           GR_1        GR_NORM            ILD           NPHI           RHOB            SFL             SP        SP_NORM         VSH_GR         VSH_SP
# ...
      6959.0000        12.1456         0.0401        99.8035        65.8583        -999.25       68.70812         0.9001        36.6758         2.3621         0.9228       -58.3549        -6.9263      0.7597473      0.9249836
      6959.5000        12.6106         0.0404        94.8707        66.4867        -999.25       69.48006         0.8985        34.8113         2.3499         0.9888       -59.0776         -7.649      0.7761714      0.9158354
      6960.0000        12.3342         0.0398         89.147        67.5778        -999.25       70.82093         0.9584         34.743         2.3501         1.0404       -59.9042        -8.4756      0.8047007      0.9053721
      6960.5000        12.7019          0.038        87.0105        68.9371        -999.25       72.49157         1.0714        34.8167         2.3561         1.0971       -60.6194        -9.1908      0.8402461       0.896319
      6961.0000        13.3913         0.0355        88.5304        70.8719        -999.25       74.86971         1.1259         35.017         2.3527         1.1361       -61.2318        -9.8032      0.8908449      0.8885671
      6961.5000        13.8327         0.0333        92.8024        72.1553        -999.25       76.44702          1.111        36.2078         2.3504         1.0877       -61.4984       -10.0698      0.9244047      0.8851924
      6962.0000        13.5386         0.0321        98.1035        73.0934        -999.25       77.59977          1.087        37.7695         2.3489         1.0208       -61.1444        -9.7158      0.9489313      0.8896734
      6962.5000        13.1689         0.0308       101.2994        72.6892        -999.25       77.10203         1.0643        38.8955         2.3369         0.9458       -60.4678        -9.0392       0.938341       0.898238
      6963.0000        12.8154         0.0295       103.6699        70.6196        -999.25       74.55654         1.0322        39.2123         2.3419         0.9976       -59.6614        -8.2328      0.8841817      0.9084456
      6963.5000        12.4265          0.029       105.5812        69.6185        -999.25       73.32486         0.9997        38.8278         2.3505         1.0603        -58.936        -7.5074      0.8579757      0.9176279
      6964.0000        12.2247         0.0293       106.8782        69.0259        -999.25       72.59547         0.9735         38.295           2.36         1.1165       -58.6295        -7.2009      0.8424569      0.9215076
      6964.5000        12.2367         0.0292         111.01        68.5801        -999.25       72.04658         0.9583        37.7864         2.3672         1.1693       -58.7244        -7.2958      0.8307782      0.9203063
      6965.0000        12.3615         0.0216       115.6725        68.2012        -999.25       71.57996         0.9435        37.4196         2.3698         1.1944       -58.7791        -7.3314      0.8208501      0.9198557
      6965.5000        12.3176         0.0148        120.335        67.8062        -999.25       71.09353         0.9116        37.5756         2.3557         1.1912       -58.3963        -6.9239      0.8105006      0.9250139
      6966.0000        12.2102         0.0045       124.1254        67.2281        -999.25       70.38196         0.8857         38.044         2.3297         1.0052       -58.0189        -6.5218      0.7953608      0.9301038
      6966.5000        11.9708              0       124.2704        65.8046        -999.25        68.6309         0.8565        39.0765         2.3353         0.8501       -57.7589        -6.2371      0.7581042      0.9337076
      6967.0000        11.7172        -0.0006       122.1528        63.6199        -999.25       65.94388         0.8273        38.7454         2.3677         0.7187         -58.16        -6.6135      0.7009336       0.928943
      6967.5000        11.5242              0       120.5831        60.6638        -999.25       62.30836          0.799        36.2784         2.3807         0.7336       -60.6875        -9.1163      0.6235821       0.897262
      6968.0000        11.6718         0.0093        115.589        57.3917        -999.25       58.28429         0.7717        32.6693         2.3812          0.744       -65.1742       -13.5784      0.5379636      0.8407797
      6968.5000        12.0474         0.0082       108.3472        54.8396        -999.25       55.14552         0.7453        30.4408         2.3859         0.7687       -69.3998       -17.7793      0.4711812      0.7876038
      6969.0000        12.4329        -0.0029       101.0956        53.8813        -999.25       53.96646         0.7198        26.6903          2.408         0.8719       -72.4302        -20.785      0.4460949       0.749557
      6969.5000         12.463        -0.0011        93.9618        53.3683        -999.25       53.33494         0.6952        24.9225         2.4382         1.2055       -75.5305       -23.8606      0.4326583      0.7106254
      6970.0000         12.414         0.0058        94.0453        53.6481        -999.25       53.67825         0.6714        23.5371         2.4182         1.4876       -78.0643       -26.3697      0.4399627      0.6788645
      6970.5000        12.3126        -0.0018        99.6019        54.8237        -999.25       55.12301         0.6528        24.6031         2.3113         1.1992       -81.0984       -29.3791      0.4707023      0.6407709
      6971.0000        12.2063         0.0008       103.8763        55.5634        -999.25        56.0318         0.6292        28.1946         2.2811         0.9704       -85.5043       -33.7604      0.4900384      0.5853114
      6971.5000        11.3875         0.0076       104.9473        55.8095        -999.25       56.33367         0.6109        31.0678         2.2709         1.0476       -89.9064       -38.1378       0.496461      0.5299013
      6972.0000        11.2597         0.0176       103.7019        55.5695        -999.25       56.03782         0.5898        30.4437         2.2722         1.1756       -94.1025       -42.3092      0.4901665      0.4770987
      6972.5000        11.2345         0.0246       102.0044        54.6473        -999.25       54.90316         0.5691        28.7967         2.2832         1.2454       -96.9556       -45.1376      0.4660248      0.4412962
      6973.0000        11.2255         0.0223        100.786        53.7809        -999.25        53.8371         0.5525        28.2662         2.2857         1.2287       -97.4994       -45.6567      0.4433427      0.4347253
      6973.5000        11.2174         0.0201       100.4061        53.4114        -999.25       53.38204         0.5446        28.1512         2.2825          1.211       -97.9636       -46.0962      0.4336604       0.429162
      6974.0000        11.2154         0.0158       100.2181        53.4362        -999.25       53.41167         0.5438        28.2859         2.2776         1.2198       -98.2155       -46.3234      0.4342909      0.4262861
      6974.5000        11.2173         0.0076       100.1238        54.6461        -999.25       54.89862         0.5506        28.7554         2.2736          1.243       -97.9485       -46.0318      0.4659281      0.4299772
      6975.0000         11.223         0.0026       100.0367        55.9075        -999.25       56.44888         0.5662        29.1139         2.2717         1.2386        -96.802       -44.8606      0.4989123      0.4448026
      6975.5000        11.2287         0.0131        99.4325        57.0219        -999.25        57.8184         0.5933         29.358          2.275         1.2121       -94.3527       -42.3866       0.528051       0.476119
      6976.0000        11.2419         0.0202        97.7473        57.9935        -999.25       59.01233         0.6262        29.4962         2.2919         1.1727       -91.6791       -39.6883      0.5534537      0.5102746
      6976.5000        11.2652         0.0084        94.8118        58.5721        -999.25       59.72302         0.6631        29.4805         2.3079         1.1321       -86.6664       -34.6509       0.568575      0.5740392
