#------------------------------------------------------------------------------
# Created by    : vladimir.rabinovich
# Created on    : 09/19/2023 17:20:42
#------------------------------------------------------------------------------
~Version Information Section
VERS.           2.0     :   CWLS log ASCII Standard - VERSION 2.0
WRAP.           NO      :   One line per depth step
~Well Information Section
#MNEM       .UNIT                                         VALUE :DESCRIPTION
#------------------------------------------------------------------------------
STRT        .FT                                            1866 :START DEPTH
STOP        .FT                                            8637 :STOP DEPTH
STEP        .FT                                             0.5 :STEP      
NULL        .                                           -999.25 :NULL      
COMP        .                           GENERAL AMERICAN OIL CO :COMPANY   
WELL        .                               OCS G01862 ST00BP00 :WELL      
FLD         .                           WEST CAMERON BLOCK 0045 :FIELD     
LOC         .                                                   :LOCATION  
CNTY        .                                      WEST CAMERON :LOCATION  
STAT        .                                         LOUISIANA :STATE     
CTRY        .                                     UNITED STATES :COUNTRY   
SRVC        .                                                   :SERVICE COMPANY
DATE        .                             9/13/2023 11:18:18 AM :LOG DATE  
API         .                                    17700004060000 :API NUMBER
UWI         .                                    17700004060000 :UNIQUE WELL ID
XCOORD      .                                  1439968.94212662 :SURFACE X 
YCOORD      .                                  10754878.8884152 :SURFACE Y 
LAT         .                                        29.6328727 :LATITUDE  
LON         .                                       -93.6311393 :LONGITUDE 
ELEV        .FT                                              51 :ELEVATION VALUE
ELEV_TYPE   .                                                KB :ELEVATION REFERENCE TYPE
~Curve Information Section
#MNEM       .UNIT                                      API CODE :CURVE DESCRIPTION
#------------------------------------------------------------------------------
DEPT        .FT                                                 :DEPTH     
ASN         .OHMM                                               :          
CALI        .IN                                                 :          
DRHO        .G/C3                                               :          
DT          .US/F                                               :          
GR          .GAPI                                               :          
GR_NORM     .GAPI                                               :GammaRay Normalized
ILD         .OHMM                                               :          
RHOB        .G/C3                                               :          
SP          .MV                                                 :          
SP_NORM     .MV                                                 :SP Normalized
VSH_GR      .V/V                                                :Volume of Shale from GR
VSH_SP      .V/V                                                :Volume of Shale from SP
~A        DEPTH            ASN           CALI           DRHO             DT             GR        GR_NORM            ILD           RHOB             SP        SP_NORM         VSH_GR         VSH_SP
# ...
      6622.0000         0.6589        13.0085         0.0337       110.7645        55.2951       57.13428         0.6471         2.2015       -60.4559       -24.9039      0.5134954      0.6322477
      6622.5000         0.6302        12.4563         0.0339       109.8353        56.0417       57.93492          0.642         2.2399       -51.7377       -16.1877      0.5305302      0.7663431
      6623.0000          0.645        12.0412         0.0278       111.9226        54.7554       56.55554         0.6482         2.2424       -46.8661        -11.318      0.5011817      0.8412616
      6623.5000         0.6547        11.8135         0.0211       112.3646        53.3428       55.04071         0.6541         2.2529       -42.4216        -6.8755      0.4689514      0.9096077
      6624.0000         0.6497         11.808         0.0281       114.7574        57.2754       59.25789          0.655          2.288       -40.1344        -4.5902      0.5586785      0.9447662
      6624.5000         0.6428        11.9136         0.0413       120.8945        63.4532       65.88274         0.6558         2.3274       -39.3558        -3.8136      0.6996327      0.9567139
      6625.0000          0.634        12.0647         0.0254       121.9834        67.5261       70.25036         0.6458         2.3251       -40.4185        -4.8782      0.7925608      0.9403354
      6625.5000         0.6126        12.0549         0.0222       122.7754         70.576       73.52097         0.6232         2.3186       -40.7512        -5.2129      0.8621482      0.9351861
      6626.0000         0.5933        11.8023         0.0264       122.8761        69.0693       71.90524         0.6039         2.3171       -39.0706        -3.5342      0.8277711      0.9610123
      6626.5000          0.579        11.5255         0.0291       121.8983        66.3793       69.02059         0.5882         2.3204       -38.0764         -2.542      0.7663956      0.9762769
      6627.0000         0.5818        11.4188         0.0342       122.5767        67.8265        70.5725         0.5799         2.3084       -38.0191        -2.4866      0.7994149      0.9771292
      6627.5000         0.5885        11.5347         0.0482       123.3445        74.8663       78.12173         0.5843         2.3172       -38.1417        -2.6112      0.9600368      0.9752123
      6628.0000         0.5994        11.6219         0.0669       123.9432        78.4851        82.0024         0.5888         2.3491       -38.9054        -3.3768              1      0.9634339
      6628.5000         0.6104        11.6274         0.0809       125.0166        79.3922       82.97513         0.5937          2.354       -40.9253        -5.3987              1      0.9323277
      6629.0000         0.5993         11.664         0.0756       122.3977        79.4641       83.05224         0.5985         2.3415       -42.7781        -7.2534              1      0.9037939
      6629.5000         0.5992        11.7019          0.057       120.2932        77.0835       80.49937         0.6043         2.3178       -41.6716        -6.1489              1      0.9207861
      6630.0000         0.5999        11.6861         0.0319       119.3497        72.7712       75.87502         0.6089         2.2925       -40.8796        -5.3588      0.9122344      0.9329416
      6630.5000         0.6066        11.5785         0.0309       119.3383        71.9116       74.95322         0.5992          2.284       -41.7997        -6.2809      0.8926216      0.9187554
      6631.0000         0.5919        11.5292         0.0341       119.6653        72.4452       75.52542         0.5877         2.2873       -42.6667        -7.1498      0.9047962      0.9053877
      6631.5000         0.5868        11.5896         0.0276       121.0735        69.7262       72.60966         0.5722         2.2885       -40.8528        -5.3379      0.8427587      0.9332631
      6632.0000          0.583        11.7073         0.0463       122.8972        66.9156       69.59569         0.5596         2.3111        -40.253          -4.74      0.7786316      0.9424616
      6632.5000         0.5865        11.7155         0.0547       123.7854        66.5031       69.15334         0.5604         2.3134       -41.9984        -6.4874      0.7692199      0.9155785
      6633.0000         0.5821        11.7224         0.0438       122.9348        69.1281       71.96828         0.5611         2.2994       -44.6012        -9.0921      0.8291124      0.8755062
      6633.5000          0.566        11.8008         0.0456       122.4027        71.2988       74.29607         0.5613         2.2983        -47.373       -11.8659      0.8786397      0.8328323
      6634.0000         0.5524        11.9161         0.0385       121.6276        71.9929       75.04039         0.5606         2.3006       -45.7504       -10.2452      0.8944764      0.8577662
      6634.5000         0.5546        11.9793         0.0281       120.4473        73.2229       76.35941         0.5599          2.281        -42.507        -7.0038      0.9225405      0.9076338
      6635.0000         0.5734        11.9944         0.0399       119.0236        77.4106       80.85014         0.5578         2.2968       -41.5731        -6.0718              1      0.9219723
      6635.5000         0.5863        11.8965         0.0272       117.7104        78.9014       82.44882         0.5557         2.3025       -43.2794        -7.7801              1      0.8956908
      6636.0000          0.587        11.8181         0.0157       117.9677        81.3787       85.10538         0.5556         2.2969       -45.5248       -10.0274              1      0.8611169
      6636.5000         0.5816        11.8168         0.0186         118.99        80.8732        84.5633         0.5614         2.2997       -47.2189       -11.7234              1      0.8350246
      6637.0000         0.5824        11.8687         0.0197       119.2745        77.0249       80.43652         0.5672         2.2922        -49.482       -13.9885              1      0.8001769
      6637.5000         0.5929        11.8487         0.0126       117.9005        73.5547       76.71522          0.574         2.2721       -50.4901       -14.9986       0.930111      0.7846369
      6638.0000         0.6168        11.8413          0.031       115.7737        73.4794       76.63447         0.5854         2.2888       -55.1908       -19.7012      0.9283929      0.7122892
      6638.5000         0.6151        11.8264         0.0652       113.8058        71.6406       74.66261         0.5968         2.3034       -60.5265       -25.0388      0.8864385      0.6301723
      6639.0000         0.6001        11.7511         0.0556       113.6387        69.6456       72.52324         0.6053         2.2795       -60.0438       -24.5581        0.84092      0.6375677
      6639.5000         0.5862        11.8138         0.0317       113.7883         67.448       70.16662         0.6116         2.2643        -55.926       -20.4422      0.7907791      0.7008892
      6640.0000         0.6003        11.9476         0.0138       112.0219        65.9915       68.60472         0.6097         2.2564       -51.7971       -16.3153      0.7575473        0.76438
      6640.5000         0.6337        12.0261         0.0219       111.8156        65.0941       67.64238          0.597          2.258       -50.5671       -15.0872      0.7370719      0.7832738
      6641.0000         0.6194         11.841          0.031       110.3794        64.4579       66.96014         0.5715         2.2848       -51.5706       -16.0927      0.7225561      0.7678046
      6641.5000         0.6136        11.6831         0.0323       110.3669        65.2333       67.79165         0.5087         2.2999       -53.9544       -18.4784      0.7402478      0.7311016
      6642.0000         0.6077        11.6752          0.042       112.8094        66.2344       68.86518         0.4447         2.3146        -56.056        -20.582      0.7630889      0.6987385
