#------------------------------------------------------------------------------
# Created by    : vladimir.rabinovich
# Created on    : 09/19/2023 17:22:13
#------------------------------------------------------------------------------
~Version Information Section
VERS.           2.0     :   CWLS log ASCII Standard - VERSION 2.0
WRAP.           NO      :   One line per depth step
~Well Information Section
#MNEM       .UNIT                                         VALUE :DESCRIPTION
#------------------------------------------------------------------------------
STRT        .FT                                            4265 :START DEPTH
STOP        .FT                                           12768 :STOP DEPTH
STEP        .FT                                             0.5 :STEP      
NULL        .                                           -999.25 :NULL      
COMP        .                                SHELL OFFSHORE INC :COMPANY   
WELL        .                               OCS G04749 ST00BP02 :WELL      
FLD         .                                           WILDCAT :FIELD     
LOC         .                                                   :LOCATION  
CNTY        .                                      WEST CAMERON :LOCATION  
STAT        .                                         LOUISIANA :STATE     
CTRY        .                                     UNITED STATES :COUNTRY   
SRVC        .                                                   :SERVICE COMPANY
DATE        .                             9/13/2023 11:19:06 AM :LOG DATE  
API         .                                    17700406070000 :API NUMBER
UWI         .                                    17700406070000 :UNIQUE WELL ID
XCOORD      .                                   1486969.7252092 :SURFACE X 
YCOORD      .                                  10728694.6404599 :SURFACE Y 
LAT         .                                        29.5614647 :LATITUDE  
LON         .                                       -93.4828123 :LONGITUDE 
ELEV        .FT                                              98 :ELEVATION VALUE
ELEV_TYPE   .                                                KB :ELEVATION REFERENCE TYPE
~Curve Information Section
#MNEM       .UNIT                                      API CODE :CURVE DESCRIPTION
#------------------------------------------------------------------------------
DEPT        .FT                                                 :DEPTH     
CALI        .IN                                                 :          
DRHO        .G/C3                                               :          
DT          .US/F                                               :          
GR          .GAPI                                               :          
GR_1        .GAPI                                               :          
GR_NORM     .GAPI                                               :GammaRay Normalized
ILD         .OHMM                                               :          
ILM         .OHMM                                               :          
NPHI        .%                                                  :          
RHOB        .G/C3                                               :          
SFL         .OHMM                                               :          
SP          .MV                                                 :          
SP_NORM     .MV                                                 :SP Normalized
VSH_GR      .V/V                                                :Volume of Shale from GR
VSH_SP      .V/V                                                :Volume of Shale from SP
~A        DEPTH           CALI           DRHO             DT             GR           GR_1        GR_NORM            ILD            ILM           NPHI           RHOB            SFL             SP        SP_NORM         VSH_GR         VSH_SP
# ...
      8294.0000        13.1337         0.0329        83.0485        -999.25        41.7567       41.47567         0.2223          0.324        29.5944          2.192         1.1011      -123.2052       -93.6006      0.1803335              0
      8294.5000        13.2083          0.034        88.2153        -999.25        41.2269       40.74599         0.2122         0.3076         29.563         2.1856         1.0337      -121.2582       -91.6475      0.1648082              0
      8295.0000        13.2784         0.0312        92.4921        -999.25         42.765       42.89523         0.2121         0.2981        29.3725          2.181         0.9296      -117.1183       -87.5014      0.2105367     0.02839314
      8295.5000        13.3252         0.0269        95.3115        -999.25        49.2603       51.94631         0.2226         0.3011        28.9858          2.182         0.8264      -111.0081       -81.3851       0.403113     0.09789658
      8296.0000        13.3658         0.0206        97.1344        -999.25        57.0967       62.86457         0.2353         0.3288        29.3345         2.1926         0.7694      -102.3004       -72.6712      0.6354164      0.1969181
      8296.5000        13.3947         0.0125        99.8236        -999.25        57.0292       62.77839         0.2471         0.3603        29.6489         2.1913         0.7818        -96.011       -66.3757      0.6335828      0.2684579
      8297.0000        13.4218         0.0068       107.4657        -999.25         54.327       59.02417         0.2599         0.3822        29.4795         2.1749         0.9185       -88.3979       -58.7565      0.5537056      0.3550398
      8297.5000        13.4463         0.0041       110.4379        -999.25        52.2841       56.18784         0.2743         0.3947        29.6378         2.1618         1.1559       -82.9048       -53.2572      0.4933584      0.4175318
      8298.0000        13.4733         0.0076       110.5205        -999.25        55.0751       60.08143          0.297         0.3975        29.4911         2.1636         1.2442       -77.4363       -47.7826      0.5762006      0.4797432
      8298.5000        13.5092         0.0206       109.0094        -999.25        60.6196       67.80878         0.3336          0.401        30.5011         2.1861         1.0897       -64.2853       -34.6255      0.7406123      0.6292557
      8299.0000        13.5674         0.0333       107.7236        -999.25        66.2391       75.64052         0.3945         0.4136        34.1161         2.2533         0.7814       -50.6218       -20.9558       0.907245      0.7845932
      8299.5000        13.6707         0.0481       104.2056        -999.25        67.1383       76.90024         0.4519         0.4487        38.0054         2.2968         0.5984       -42.2028       -12.5307      0.9340476      0.8803329
      8300.0000        13.9082         0.0633       100.2042        -999.25        67.0408       76.77245         0.4995         0.4994        39.4736         2.3231         0.5602       -36.5702        -6.8919      0.9313287      0.9444102
      8300.5000        14.1249         0.0766        97.8931        -999.25        67.8605       77.92161         0.5437         0.5454        39.3297         2.3036         0.6799       -32.5796        -2.8952      0.9557789      0.9898273
      8301.0000        13.7886         0.0579       103.6196        -999.25        70.2274       81.22488         0.5921         0.5782        39.8023         2.2637         0.8124       -30.1564        -0.4658              1              1
      8301.5000        13.5401         0.0425       109.6592        -999.25        71.2433       82.64708         0.6385         0.6029         41.515         2.2313         0.8033       -28.5592         1.1375              1              1
      8302.0000        13.3953         0.0369       116.1093        -999.25        72.1841       83.96485         0.6791          0.612        43.9355         2.2184         0.7155       -27.7711         1.9317              1              1
      8302.5000        13.4768         0.0417       118.0173        -999.25        74.2758       86.88499         0.6998         0.6086        44.6228         2.2277         0.6692       -27.9092         1.7998              1              1
      8303.0000        13.5837         0.0539       116.4198        -999.25        76.7502       90.33779         0.7042         0.5974        44.3302         2.2327         0.6524        -28.803         0.9121              1              1
      8303.5000        13.6061         0.0592       112.4435        -999.25        77.0731        90.7953         0.6873         0.5888        44.8243         2.2208         0.6481       -29.9275        -0.2062              1              1
      8304.0000        13.6567         0.0512       109.5039        -999.25        75.1915       88.18356          0.665         0.5819        45.5172         2.2179           0.66       -30.4804         -0.753              1              1
      8304.5000        13.7643         0.0477       108.2444        -999.25        73.3625       85.64491         0.6491         0.5785        44.5757         2.2113         0.6906        -30.886        -1.1525              1              1
      8305.0000        13.9154         0.0473        110.861        -999.25        71.9038       81.81845         0.6386         0.5751        42.9373         2.1898         0.7175         -32.48        -2.7403              1      0.9915875
      8305.5000        13.9292         0.0465       114.3916        -999.25         70.225       79.38786         0.6299         0.5733        42.9348         2.1519         0.7281       -35.1769        -5.4311      0.9869757      0.9610102
      8306.0000        13.9444         0.0446       116.7753        -999.25        69.8772       78.89071          0.624         0.5715         45.353         2.1365         0.7176       -38.4809        -8.7289      0.9763981      0.9235352
      8306.5000        14.0149          0.043       118.3928        -999.25        71.8638         81.785         0.6151         0.5743        47.0023         2.1632         0.6878       -41.9142       -12.1561              1      0.8845898
      8307.0000        14.1319          0.042       117.3862        -999.25        74.4709       85.58074          0.604         0.5774        46.5896          2.186          0.647       -44.9942         -15.23              1      0.8496591
      8307.5000         14.276         0.0481         113.37        -999.25        75.6338       87.27827         0.5896         0.5799        45.0457         2.2042         0.6052       -48.2932       -18.5228              1      0.8122409
      8308.0000        14.4204         0.0635       111.2854        -999.25        72.3392       82.50035         0.5649         0.5825        44.8167         2.2179         0.5666       -52.1345        -22.358              1      0.7686591
      8308.5000        14.4812         0.0779       111.7505        -999.25        66.3442       73.79942         0.5461         0.5859         46.436          2.209         0.5281       -58.9911       -29.2084      0.8680728      0.6908136
      8309.0000        14.2285         0.0493       110.2651        -999.25        58.0775        61.7982         0.5307         0.5915        46.9624          2.201         0.5016       -70.2761       -40.4873      0.6127277      0.5626443
      8309.5000        13.9207         0.0149       106.2538        -999.25        51.4471       52.17421         0.5185         0.6003        44.8288         2.2079         0.5439        -81.412       -51.6171      0.4079618      0.4361693
      8310.0000         13.655         0.0018        99.3029        -999.25        49.2928       49.05285         0.5004         0.6125        37.7312         2.2272         0.7698       -91.0948       -61.2937        0.34155      0.3262079
      8310.5000        13.3884        -0.0015        95.4318        -999.25        48.6624       48.14532         0.4776           0.61        32.2122         2.2491         1.0609       -98.5685       -68.7613      0.3222408      0.2413489
