#------------------------------------------------------------------------------
# Created by    : vladimir.rabinovich
# Created on    : 09/19/2023 17:20:14
#------------------------------------------------------------------------------
~Version Information Section
VERS.           2.0     :   CWLS log ASCII Standard - VERSION 2.0
WRAP.           NO      :   One line per depth step
~Well Information Section
#MNEM       .UNIT                                         VALUE :DESCRIPTION
#------------------------------------------------------------------------------
STRT        .FT                                             920 :START DEPTH
STOP        .FT                                            7860 :STOP DEPTH
STEP        .FT                                             0.5 :STEP      
NULL        .                                           -999.25 :NULL      
COMP        .                               ARCO OIL & GAS CORP :COMPANY   
WELL        .                               OCS G10568 ST00BP00 :WELL      
FLD         .                                           WILDCAT :FIELD     
LOC         .                                                   :LOCATION  
CNTY        .                                 WEST CAMERON WEST :LOCATION  
STAT        .                                         LOUISIANA :STATE     
CTRY        .                                     UNITED STATES :COUNTRY   
SRVC        .                                                   :SERVICE COMPANY
DATE        .                             9/13/2023 11:18:15 AM :LOG DATE  
API         .                                    17701402460000 :API NUMBER
UWI         .                                    17701402460000 :UNIQUE WELL ID
XCOORD      .                                  1443937.81344993 :SURFACE X 
YCOORD      .                                  10680295.6485051 :SURFACE Y 
LAT         .                                        29.4277648 :LATITUDE  
LON         .                                       -93.6173961 :LONGITUDE 
ELEV        .FT                                             100 :ELEVATION VALUE
ELEV_TYPE   .                                                KB :ELEVATION REFERENCE TYPE
~Curve Information Section
#MNEM       .UNIT                                      API CODE :CURVE DESCRIPTION
#------------------------------------------------------------------------------
DEPT        .FT                                                 :DEPTH     
ASFL        .OHMM                                               :          
CALI        .IN                                                 :          
DPHI        .%                                                  :          
DRHO        .G/CC                                               :          
DT          .US/F                                               :          
GR          .GAPI                                               :          
GR_1        .GAPI                                               :          
GR_NORM     .GAPI                                               :GammaRay Normalized
ILD         .OHMM                                               :          
ILM         .OHMM                                               :          
NPHI        .%                                                  :          
RFOC        .OHMM                                               :          
SP          .MV                                                 :          
SP_NORM     .MV                                                 :SP Normalized
VSH_GR      .V/V                                                :Volume of Shale from GR
VSH_SP      .V/V                                                :Volume of Shale from SP
~A        DEPTH           ASFL           CALI           DPHI           DRHO             DT             GR           GR_1        GR_NORM            ILD            ILM           NPHI           RFOC             SP        SP_NORM         VSH_GR         VSH_SP
# ...
      6024.0000        -999.25        13.6232        24.3431         0.0587       120.1339        110.347       104.0558       85.43223         0.7931         0.8374        39.6362         1.0469       -43.6011       1.207642              1              1
      6024.5000        -999.25        13.6361        24.4477         0.0609       120.8517       109.4481        102.825       84.20191         0.7848         0.8407        39.6956         1.0485       -43.8723      0.9364433              1              1
      6025.0000        -999.25        13.6497        24.4125         0.0641       119.4921       108.3236       101.1522       82.52959         0.7765         0.8426        39.4108         1.0581       -44.7126     0.09614182              1              1
      6025.5000        -999.25        13.6507        23.3756         0.0679       116.9296       105.8346        98.9836       80.36147         0.7716         0.8441         38.693         1.0804       -46.4135      -1.604759              1      0.9679048
      6026.0000        -999.25        13.6519        22.7132         0.0695       114.8306       100.6724        94.4655       75.84386         0.7687         0.8419        37.4781         1.1094        -47.864      -3.055256      0.9115714      0.9388949
      6026.5000        -999.25        13.6539        22.5699         0.0627        113.212          96.42        88.1289       69.50774         0.7657         0.8377        36.1883         1.1407       -48.9531      -4.144356      0.7767603      0.9171129
      6027.0000        -999.25        13.6535        22.5483         0.0588       112.5369        93.5323         84.632       66.01132         0.7621         0.8279        35.3953          1.174       -49.2494      -4.440659      0.7023686      0.9111868
      6027.5000        -999.25         13.653        22.5336         0.0621       114.1613        95.0474        83.4297        64.8095         0.7586          0.816        34.7921         1.1796       -48.9468      -4.138058      0.6767979      0.9172388
      6028.0000        -999.25        13.6526        22.5584         0.0705       116.0831        99.1296        85.6809       67.06118          0.753         0.8048        34.6069         1.1361       -47.6002      -2.791458      0.7247059      0.9441708
      6028.5000        -999.25        13.6521        22.8102         0.0809       117.3016       102.4138        88.9259       70.30666         0.7461         0.7938        35.7017         1.0972       -46.2316      -1.422859      0.7937588      0.9715428
      6029.0000        -999.25        13.6605        23.3768          0.087       117.5282       103.5007        91.0334       72.41464         0.7388         0.7868        36.1844         1.0818       -45.1807     -0.3719559      0.8386094      0.9925609
      6029.5000        -999.25        13.6681        23.8684         0.0931       117.5851       105.1602        92.5271       73.90882         0.7309         0.7802        36.3226         1.0856       -44.3941      0.4146423      0.8704004              1
      6030.0000        -999.25        13.6682        24.4712         0.0973       118.0142       107.6166         94.558        75.9402         0.7224         0.7725        36.1602         1.0866       -43.7645       1.044243      0.9136213              1
      6030.5000        -999.25        13.6628        24.9547         0.0937       121.4425       109.6093        96.8347       78.21738         0.7107         0.7628        36.0041         1.0688         -43.27       1.538742       0.962072              1
      6031.0000        -999.25        13.6624        25.3196         0.0864       124.1378       110.7869        98.6865       80.06966         0.6988         0.7486        36.1123         1.0364       -43.2686       1.540142              1              1
      6031.5000        -999.25        13.6634        25.6604         0.0795       125.1554       110.5576        99.7378       81.12145         0.6864         0.7356        36.7053         1.0187        -43.437       1.371742              1              1
      6032.0000        -999.25        13.6833        25.9723         0.0765       124.2681       110.0854        99.6962       81.08033         0.6748         0.7233        37.3904         1.0188       -43.6297       1.179043              1              1
      6032.5000        -999.25        13.7156        26.2197         0.0767       123.4589       109.7319        99.8173       81.20191          0.664         0.7122        37.6605         1.0245       -43.7973       1.011444              1              1
      6033.0000        -999.25        13.7424        26.4255         0.0767       123.7863       109.5831        100.343        81.7281         0.6562         0.7048        37.4839         1.0158       -43.7083       1.100441              1              1
      6033.5000        -999.25        13.7631        26.5868         0.0758       125.6014       109.7202       101.6157       83.00127         0.6493         0.7048         37.241         1.0022       -43.4846       1.324142              1              1
      6034.0000        -999.25        13.7779        26.5669         0.0703       127.2915       110.1769       102.6779       84.06396          0.649         0.7115        37.2515         0.9869       -43.1501       1.658642              1              1
      6034.5000        -999.25        13.7809        26.4129         0.0625       128.0271       111.1628       102.0966       83.48314         0.6493         0.7193        37.8064          0.996       -42.8211       1.987644              1              1
      6035.0000        -999.25        13.7765        26.2452         0.0586       126.3514       112.7174        101.924       83.31102         0.6552         0.7316        38.3035          1.004        -42.501       2.307743              1              1
      6035.5000        -999.25        13.7359           26.1         0.0583       124.3345       114.8278        102.241       83.62849         0.6632         0.7449        38.6567         1.0116       -42.2147       2.594044              1              1
      6036.0000        -999.25        13.6765        25.9778         0.0606        122.837       116.8888       102.8397       84.22768          0.675         0.7645        38.8462         1.0169       -41.9978       2.810944              1              1
      6036.5000        -999.25        13.6507        25.8715         0.0646       121.6769        118.074       102.8022       84.19066         0.6927         0.7914        38.8676         1.0191       -41.9134       2.895344              1              1
      6037.0000        -999.25        13.6995        25.7747         0.0652       120.6339       115.8879        101.903       83.29194         0.7164         0.8193        38.5838         1.0224       -41.9195       2.889244              1              1
      6037.5000        -999.25        13.7474         25.715         0.0624       119.5024       112.7629       101.4098       82.79922         0.7543         0.8481        37.8025         1.0457         -42.14       2.668743              1              1
      6038.0000        -999.25        13.7869        25.6631         0.0608       118.2915        111.782        101.257       82.64691         0.7805         0.8659        36.9393         1.0813        -42.441       2.367741              1              1
      6038.5000        -999.25         13.817        25.6018         0.0657       117.2421        114.098       101.3232       82.71358         0.8076         0.8846        36.3146         1.1094       -42.8174       1.991341              1              1
      6039.0000        -999.25        13.8387        25.3453         0.0717       116.0128       115.6931       101.4362       82.82707         0.8302         0.9027        36.9537         1.1296       -43.2704       1.538342              1              1
      6039.5000        -999.25        13.8604        24.4813         0.0777       114.7159       114.5133       101.6305       83.02185         0.8513         0.9196        36.7731         1.1443       -43.8423      0.9664421              1              1
