#------------------------------------------------------------------------------
# Created by    : vladimir.rabinovich
# Created on    : 09/19/2023 17:20:44
#------------------------------------------------------------------------------
~Version Information Section
VERS.           2.0     :   CWLS log ASCII Standard - VERSION 2.0
WRAP.           NO      :   One line per depth step
~Well Information Section
#MNEM       .UNIT                                         VALUE :DESCRIPTION
#------------------------------------------------------------------------------
STRT        .FT                                             194 :START DEPTH
STOP        .FT                                           14521 :STOP DEPTH
STEP        .FT                                             0.5 :STEP      
NULL        .                                           -999.25 :NULL      
COMP        .                             MAGNOLIA PETROLEUM CO :COMPANY   
WELL        .                                OCS 00043 ST00BP00 :WELL      
FLD         .                          EUGENE ISLAND BLOCK 0089 :FIELD     
LOC         .                                                   :LOCATION  
CNTY        .                                     EUGENE ISLAND :LOCATION  
STAT        .                                         LOUISIANA :STATE     
CTRY        .                                     UNITED STATES :COUNTRY   
SRVC        .                                                   :SERVICE COMPANY
DATE        .                             9/13/2023 11:18:42 AM :LOG DATE  
API         .                                    17709003920000 :API NUMBER
UWI         .                                    17709003920000 :UNIQUE WELL ID
XCOORD      .                                  2056408.80151155 :SURFACE X 
YCOORD      .                                  10562022.8372996 :SURFACE Y 
LAT         .                                        29.0974849 :LATITUDE  
LON         .                                       -91.6970667 :LONGITUDE 
ELEV        .FT                                              50 :ELEVATION VALUE
ELEV_TYPE   .                                                KB :ELEVATION REFERENCE TYPE
~Curve Information Section
#MNEM       .UNIT                                      API CODE :CURVE DESCRIPTION
#------------------------------------------------------------------------------
DEPT        .FT                                                 :DEPTH     
ASN         .OHMM                                               :          
LAT         .OHMM                                               :          
LN          .OHMM                                               :          
SP          .MV                                                 :          
SP_NORM     .MV                                                 :SP Normalized
VSH_SP      .V/V                                                :Volume of Shale from SP
~A        DEPTH            ASN            LAT             LN             SP        SP_NORM         VSH_SP
# ...
      2094.0000         0.7355          0.634         0.5064       -97.9319      -10.59427      0.8041986
      2094.5000         0.7636         0.6132         0.5038       -99.3737        -12.039      0.7747142
      2095.0000         0.7932         0.5823         0.4998      -101.4951      -14.16333      0.7313606
      2095.5000         0.7779         0.5514         0.4957      -105.5555      -18.22665      0.6484357
      2096.0000         0.7367         0.5279         0.4917      -117.2848      -29.95889      0.4090023
      2096.5000         0.7056         0.5068         0.4876       -121.905      -34.58201      0.3146529
      2097.0000         0.6865         0.4857         0.4836      -126.4858      -39.16574      0.2211073
      2097.5000           0.67         0.4646         0.4796      -128.0237      -40.70657      0.1896619
      2098.0000         0.6668         0.4435         0.4755      -129.0398      -41.72559      0.1688654
      2098.5000         0.6771         0.4307         0.4715       -128.875      -41.56373      0.1721688
      2099.0000         0.6874         0.4286         0.4674      -122.7833      -35.47496      0.2964294
      2099.5000         0.6963         0.4265         0.4632      -117.8413      -30.53589      0.3972268
      2100.0000         0.7048         0.4244         0.4589      -108.0955      -20.79301      0.5960609
      2100.5000         0.7133         0.4224         0.4546      -100.4711      -13.17155      0.7516011
      2101.0000         0.7217         0.4203         0.4503       -99.2532      -11.95657      0.7763965
      2101.5000         0.7174         0.4191          0.446      -100.1477        -12.854      0.7580816
      2102.0000         0.7031         0.4197         0.4417      -104.2421      -16.95133      0.6744626
      2102.5000         0.6889         0.4202         0.4374      -106.5818      -19.29396      0.6266539
      2103.0000         0.6694         0.4208         0.4331      -110.0299      -22.74499      0.5562248
      2103.5000         0.6538         0.4213         0.4288      -113.4359      -26.15392      0.4866548
      2104.0000          0.642         0.4219         0.4246      -116.1461      -28.86705      0.4312847
      2104.5000         0.6265         0.4224         0.4205      -119.6022      -32.32608      0.3606922
      2105.0000         0.5885          0.423         0.4176      -124.5623      -37.28911      0.2594059
      2105.5000         0.5701         0.4235         0.4146       -125.631      -38.36073      0.2375361
      2106.0000         0.5613         0.4229         0.4117      -126.4628      -39.19547      0.2205007
      2106.5000         0.5551          0.422         0.4088      -127.0842      -39.81979      0.2077593
      2107.0000           0.55          0.421         0.4059      -127.2068      -39.94533      0.2051974
      2107.5000         0.5478         0.4201          0.403       -127.136      -39.87745      0.2065827
      2108.0000         0.5457         0.4192         0.4001      -126.7361      -39.48048      0.2146842
      2108.5000         0.5488         0.4246         0.3972      -126.3363      -39.08361      0.2227835
      2109.0000         0.5525         0.4508         0.3943      -125.7318      -38.48203      0.2350606
      2109.5000         0.5597          0.477         0.3914       -124.577      -37.33017       0.258568
      2110.0000         0.5712         0.5033         0.3886      -123.4227      -36.17879      0.2820654
      2110.5000         0.5826         0.5403         0.3861      -120.8098      -33.56882      0.3353301
      2111.0000         0.5934          0.598         0.3835      -117.0867      -29.84866      0.4112519
      2111.5000         0.5991         0.6557          0.381      -112.4253      -25.19019      0.5063227
      2112.0000         0.5973         0.7324         0.3785      -103.8503      -16.61812      0.6812629
      2112.5000         0.5994         0.8226         0.3759       -98.7982      -11.56895      0.7843072
      2113.0000         0.6071         0.9059         0.3734        -96.316      -9.089668      0.8349047
      2113.5000         0.6147         0.9782         0.3708       -94.1454      -6.921997      0.8791429
      2114.0000         0.6264         1.0455         0.3683       -94.0303      -6.809822      0.8814322
      2114.5000         0.6385          1.096         0.3658        -94.568      -7.350456      0.8703989
      2115.0000         0.6505          1.073         0.3643        -95.106      -7.891388      0.8593594
      2115.5000         0.6691         0.9985         0.3629       -96.0679      -8.856216       0.839669
      2116.0000         0.6782          0.809         0.3615       -97.7424      -10.53365      0.8054358
      2116.5000         0.6673         0.6856           0.36       -99.5579      -12.35207       0.768325
      2117.0000         0.6489         0.5865         0.3586      -101.7189      -14.51601      0.7241631
      2117.5000         0.6369         0.5354         0.3572       -103.951      -16.75103      0.6785504
      2118.0000         0.6247         0.4993         0.3557      -106.0074      -18.81036      0.6365232
      2118.5000         0.6142         0.4646         0.3543      -110.6399      -23.44579      0.5419227
      2119.0000         0.6167         0.4461         0.3529      -115.2747      -28.08351      0.4472753
      2119.5000         0.6271         0.4276         0.3503      -119.9094      -32.72115      0.3526297
      2120.0000         0.6167         0.4091         0.3474      -124.5442      -37.35887      0.2579822
      2120.5000         0.5939         0.3906         0.3445      -126.6517      -39.46931      0.2149121
      2121.0000         0.5833         0.3799         0.3415       -128.925      -41.74554      0.1684584
      2121.5000         0.5933         0.3714         0.3386      -131.1748      -43.99827      0.1224843
      2122.0000         0.6093         0.3628         0.3357      -131.8713       -44.6977      0.1082102
      2122.5000         0.6262         0.3543         0.3328        -131.71      -44.53933      0.1114423
      2123.0000         0.6414         0.3459         0.3298      -130.9597      -43.79195      0.1266948
      2123.5000         0.6228         0.3418         0.3269      -129.7847      -42.61988      0.1506147
      2124.0000         0.6027         0.3376         0.3248      -129.3572       -42.1953      0.1592796
      2124.5000         0.5851         0.3334         0.3239      -128.9297      -41.77074      0.1679441
      2125.0000         0.5699         0.3293          0.323      -129.0369      -41.88086      0.1656967
      2125.5000         0.5571         0.3251          0.322      -129.6377      -42.48459      0.1533757
      2126.0000         0.5341         0.3209         0.3211      -130.2952      -43.14502      0.1398976
      2126.5000         0.4952         0.3168         0.3202      -130.4814      -43.33415      0.1360377
      2127.0000         0.4795         0.3186         0.3193      -130.1187      -42.97438        0.14338
      2127.5000         0.4851         0.3228         0.3183      -129.5376      -42.39621      0.1551794
      2128.0000         0.5024         0.3269         0.3174      -128.8264      -41.68794      0.1696338
      2128.5000         0.5226         0.3311         0.3165       -128.251      -41.11548      0.1813168
      2129.0000         0.5408         0.3353         0.3156      -129.8923       -42.7597      0.1477611
      2129.5000         0.5379         0.3394         0.3154      -134.0273      -46.89762     0.06331386
      2130.0000         0.5107         0.3436         0.3158      -137.1138      -49.98705   0.0002642262
      2130.5000         0.4752         0.3483         0.3161      -137.9836      -50.85978              0
      2131.0000         0.4628         0.3535         0.3165      -138.3728      -51.25191              0
      2131.5000         0.4598         0.3587         0.3168      -138.1565      -51.03854              0
