#------------------------------------------------------------------------------
# Created by    : vladimir.rabinovich
# Created on    : 09/19/2023 17:20:42
#------------------------------------------------------------------------------
~Version Information Section
VERS.           2.0     :   CWLS log ASCII Standard - VERSION 2.0
WRAP.           NO      :   One line per depth step
~Well Information Section
#MNEM       .UNIT                                         VALUE :DESCRIPTION
#------------------------------------------------------------------------------
STRT        .FT                                            1866 :START DEPTH
STOP        .FT                                            8637 :STOP DEPTH
STEP        .FT                                             0.5 :STEP      
NULL        .                                           -999.25 :NULL      
COMP        .                           GENERAL AMERICAN OIL CO :COMPANY   
WELL        .                               OCS G01862 ST00BP00 :WELL      
FLD         .                           WEST CAMERON BLOCK 0045 :FIELD     
LOC         .                                                   :LOCATION  
CNTY        .                                      WEST CAMERON :LOCATION  
STAT        .                                         LOUISIANA :STATE     
CTRY        .                                     UNITED STATES :COUNTRY   
SRVC        .                                                   :SERVICE COMPANY
DATE        .                             9/13/2023 11:18:18 AM :LOG DATE  
API         .                                    17700004060000 :API NUMBER
UWI         .                                    17700004060000 :UNIQUE WELL ID
XCOORD      .                                  1439968.94212662 :SURFACE X 
YCOORD      .                                  10754878.8884152 :SURFACE Y 
LAT         .                                        29.6328727 :LATITUDE  
LON         .                                       -93.6311393 :LONGITUDE 
ELEV        .FT                                              51 :ELEVATION VALUE
ELEV_TYPE   .                                                KB :ELEVATION REFERENCE TYPE
~Curve Information Section
#MNEM       .UNIT                                      API CODE :CURVE DESCRIPTION
#------------------------------------------------------------------------------
DEPT        .FT                                                 :DEPTH     
ASN         .OHMM                                               :          
CALI        .IN                                                 :          
DRHO        .G/C3                                               :          
DT          .US/F                                               :          
GR          .GAPI                                               :          
GR_NORM     .GAPI                                               :GammaRay Normalized
ILD         .OHMM                                               :          
RHOB        .G/C3                                               :          
SP          .MV                                                 :          
SP_NORM     .MV                                                 :SP Normalized
VSH_GR      .V/V                                                :Volume of Shale from GR
VSH_SP      .V/V                                                :Volume of Shale from SP
~A        DEPTH            ASN           CALI           DRHO             DT             GR        GR_NORM            ILD           RHOB             SP        SP_NORM         VSH_GR         VSH_SP
# ...
      6929.5000         2.1347        13.6717         0.1612        82.5413         35.454       32.97902         1.2954         2.1211        -80.874       -46.5203              0      0.3713473
      6930.0000          2.234        13.4357         0.0679        83.8375         35.321       32.83033         1.3828          2.128       -85.1774       -50.8256              0      0.3131676
      6930.5000         2.4031        12.5039         0.0138        84.4432        33.6483       30.96026         1.4027         2.2122       -89.0947       -54.7449              0       0.260204
      6931.0000         2.5467        11.6568        -0.0011          85.37        34.5078       31.92117         1.3727         2.3135       -93.0231       -58.6752              0      0.2070919
      6931.5000         2.7137        11.4371          0.005        85.1401        35.7288       33.28625         1.3522         2.3948       -92.2063       -57.8604    0.006090367      0.2181027
      6932.0000         2.9388        11.4037         0.0194        80.1211        37.3867       35.13977         1.3021         2.4414       -89.0984       -54.7544     0.04552703      0.2600757
      6932.5000         2.9138         11.439         0.0162        78.0588        36.0511       33.64657         1.1801         2.4526       -90.8807       -56.5387     0.01375677      0.2359635
      6933.0000         2.7431        11.6224         0.0022        79.8093        34.5799       32.00178         1.0949         2.4429       -91.7336       -57.3935              0      0.2244121
      6933.5000         2.4305        11.8068         0.0054        78.3173        34.0068       31.36106         1.0212         2.4527       -92.1533       -57.8152              0      0.2187135
      6934.0000         2.2301        11.9374         0.0161         81.443        35.3869         32.904          0.963         2.4383       -93.1475       -58.8113              0      0.2052527
      6934.5000         2.0656        11.7424         0.0047        85.4084        37.3306       35.07705         0.9379         2.4451       -94.5436       -60.2094     0.04419254      0.1863595
      6935.0000         1.8985        11.5446         0.0011        89.2349        38.6724       36.57718         0.9483         2.4702       -96.4316       -62.0993     0.07611011      0.1608203
      6935.5000         1.8898        11.3456        -0.0047        90.2499        38.9666       36.90609          1.003         2.4789       -97.7981       -63.4678     0.08310829       0.142327
      6936.0000         1.9523        11.2645        -0.0104        86.3776        37.2964       35.03881         1.1195         2.4736       -95.4218       -61.0934     0.04337903      0.1744135
      6936.5000         1.8871        11.4007        -0.0008        81.6616        34.7715       32.21599         1.3093         2.4894       -87.9919       -53.6655              0      0.2747905
      6937.0000         1.8727        11.4727         0.0078        88.6337        33.2805       30.54906         1.5441         2.4891         -80.64       -46.3155              0      0.3741149
      6937.5000         1.9016        11.4779         0.0128        93.0812        33.3089        30.5808         1.7295         2.4586       -71.2534       -36.9309              0      0.5009338
      6938.0000         2.0139         11.469         0.0262        99.4742        35.0792       32.55999          1.855          2.418       -55.8963       -21.5757              0      0.7084365
      6938.5000         1.9959         11.499         0.0211       100.8942        38.4001       36.27275         1.7746         2.3588       -48.2065       -13.8879       0.069633      0.8123257
      6939.0000         1.8762        11.6735         0.0031          97.33        41.1813       39.38211         1.6681         2.3414       -45.3419       -11.0252      0.1357897      0.8510108
      6939.5000         1.6485        11.7061         -0.001        92.1792        42.7863        41.1765         1.5523          2.373       -44.8279       -10.5132      0.1739681      0.8579297
      6940.0000          1.468         11.714         0.0026        86.0546         42.293         40.625         1.4154         2.4007       -45.6353       -11.3225       0.162234      0.8469933
      6940.5000           1.36        11.8036         0.0053        87.1577        42.1685       40.48581         1.3638         2.4217       -45.4812       -11.1704      0.1592725      0.8490487
      6941.0000         1.1911        11.5956         0.0098        96.2814        46.1895       44.98126         1.3383         2.4128       -44.2754        -9.9665      0.2549205      0.8653176
      6941.5000         1.1181        11.3951         0.0168       105.4052        48.6948       47.78218         1.3244         2.4184       -43.4706        -9.1637      0.3145145      0.8761662
      6942.0000         1.1444        11.4385         0.0154       112.6902        50.2112        49.4775         1.3075         2.4443         -42.78         -8.475       0.350585       0.885473
      6942.5000         1.1711         11.616         0.0109       114.3723        50.8363       50.17635         1.2806         2.4737       -41.9027        -7.5997      0.3654543      0.8973014
      6943.0000         1.1483        11.8033          0.006       110.5632        51.0341        50.3975         1.2518         2.4746       -40.8408        -6.5397      0.3701596      0.9116257
      6943.5000         1.1039        11.9207         0.0082       102.0459        51.9498       51.42125          1.223         2.4547        -40.923        -6.6239      0.3919414      0.9104878
      6944.0000         1.0678        11.6321         0.0381        94.2738        58.6233       58.88219         1.1939          2.437       -41.3309        -7.0337       0.550685        0.90495
      6944.5000         1.0588        11.3342         0.0496        92.8899        70.3928       72.04044         1.1648         2.4143       -41.5859        -7.2906      0.8306477      0.9014784
      6945.0000         1.0285        11.2679         0.0399        96.2069        77.4448       79.92455         1.1308         2.3769       -41.4274        -7.1341      0.9983946      0.9035932
      6945.5000         0.9892        11.3424         0.0293       100.7986         80.054       82.84162         1.0892           2.36       -40.6682        -6.3769              1      0.9138257
      6946.0000         0.9482        11.3124         0.0206       113.5648        81.4312       84.38132         1.0525         2.3428       -39.9529        -5.6635              1      0.9234662
      6946.5000         0.9213        11.0669         0.0154       119.3118         82.751       85.85686         1.0171         2.3493       -40.1151        -5.8276              1      0.9212487
      6947.0000          0.901        11.1989         0.0078       118.6384        79.6718       82.41433         0.9955         2.3565       -40.2184        -5.9329              1      0.9198257
      6947.5000         0.8816        11.3986         -0.003       117.0259        77.5366       80.02718         0.9751         2.3526       -40.1576         -5.874              1      0.9206216
      6948.0000         0.8615        11.5199        -0.0023       116.0557        76.8136       79.21887         0.9713         2.3483       -40.0729        -5.7913      0.9833803      0.9217392
      6948.5000         0.8791        11.4873          0.011       115.1052        76.0347       78.34806         0.9759         2.3419       -39.8682        -5.5885      0.9648523      0.9244797
      6949.0000          0.905        11.3436         0.0243       115.8085         76.401       78.75758         1.0174         2.3344       -39.6034        -5.3257      0.9735656      0.9280311
      6949.5000         0.9327        11.1671         0.0312       117.2706        77.9991       80.54426         1.0754          2.325       -39.2556        -4.9798              1      0.9327054
