#------------------------------------------------------------------------------
# Created by    : vladimir.rabinovich
# Created on    : 09/19/2023 17:20:14
#------------------------------------------------------------------------------
~Version Information Section
VERS.           2.0     :   CWLS log ASCII Standard - VERSION 2.0
WRAP.           NO      :   One line per depth step
~Well Information Section
#MNEM       .UNIT                                         VALUE :DESCRIPTION
#------------------------------------------------------------------------------
STRT        .FT                                             920 :START DEPTH
STOP        .FT                                            7860 :STOP DEPTH
STEP        .FT                                             0.5 :STEP      
NULL        .                                           -999.25 :NULL      
COMP        .                               ARCO OIL & GAS CORP :COMPANY   
WELL        .                               OCS G10568 ST00BP00 :WELL      
FLD         .                                           WILDCAT :FIELD     
LOC         .                                                   :LOCATION  
CNTY        .                                 WEST CAMERON WEST :LOCATION  
STAT        .                                         LOUISIANA :STATE     
CTRY        .                                     UNITED STATES :COUNTRY   
SRVC        .                                                   :SERVICE COMPANY
DATE        .                             9/13/2023 11:18:15 AM :LOG DATE  
API         .                                    17701402460000 :API NUMBER
UWI         .                                    17701402460000 :UNIQUE WELL ID
XCOORD      .                                  1443937.81344993 :SURFACE X 
YCOORD      .                                  10680295.6485051 :SURFACE Y 
LAT         .                                        29.4277648 :LATITUDE  
LON         .                                       -93.6173961 :LONGITUDE 
ELEV        .FT                                             100 :ELEVATION VALUE
ELEV_TYPE   .                                                KB :ELEVATION REFERENCE TYPE
~Curve Information Section
#MNEM       .UNIT                                      API CODE :CURVE DESCRIPTION
#------------------------------------------------------------------------------
DEPT        .FT                                                 :DEPTH     
ASFL        .OHMM                                               :          
CALI        .IN                                                 :          
DPHI        .%                                                  :          
DRHO        .G/CC                                               :          
DT          .US/F                                               :          
GR          .GAPI                                               :          
GR_1        .GAPI                                               :          
GR_NORM     .GAPI                                               :GammaRay Normalized
ILD         .OHMM                                               :          
ILM         .OHMM                                               :          
NPHI        .%                                                  :          
RFOC        .OHMM                                               :          
SP          .MV                                                 :          
SP_NORM     .MV                                                 :SP Normalized
VSH_GR      .V/V                                                :Volume of Shale from GR
VSH_SP      .V/V                                                :Volume of Shale from SP
~A        DEPTH           ASFL           CALI           DPHI           DRHO             DT             GR           GR_1        GR_NORM            ILD            ILM           NPHI           RFOC             SP        SP_NORM         VSH_GR         VSH_SP
# ...
      6936.0000        -999.25        12.5731        16.7127          0.018        96.9413        73.7728        71.2217       54.20411         0.6402         0.7102        28.9279         1.2401       -69.6016      -23.46162      0.4511513      0.6953036
      6936.5000        -999.25        12.5333        17.7418         0.0188        95.8779        71.3975        69.2516       52.11308         0.6383          0.707        29.2333         1.2123       -68.9156      -22.77365      0.4066612      0.7042382
      6937.0000        -999.25        12.6157         19.644         0.0439        94.8795        70.0051        69.2301       52.09589         0.6353         0.7058          32.53         1.2362       -67.4794      -21.33548      0.4062955      0.7229158
      6937.5000        -999.25        12.7383        20.5835         0.0677        94.1481        70.2415        73.1547       56.27843         0.6324         0.7057        35.0032         1.2521       -64.5728      -18.42691      0.4952857      0.7606895
      6938.0000        -999.25        12.8629        20.4285         0.0907        94.8341        73.7689        77.7992       61.22713         0.6352         0.7072        35.4465         1.2438       -61.2374      -15.08953      0.6005774       0.804032
      6938.5000        -999.25        12.9205        19.6409         0.0986        97.5145        78.4801        81.1525       64.80164         0.6385         0.7142        34.0474         1.0877       -57.8887      -11.73886      0.6766307      0.8475472
      6939.0000        -999.25         12.937        19.0146         0.0665        100.993        85.3969        83.1774       66.96238         0.6458         0.7251        32.3524         1.0168       -55.0794      -8.927589      0.7226038      0.8840573
      6939.5000        -999.25        12.9805         18.481         0.0434       103.1614        89.2874        82.9446       66.72032         0.6552         0.7396        31.3911          0.983       -53.2302      -7.076424      0.7174537      0.9080984
      6940.0000        -999.25        13.0455        18.0838         0.0283       104.2949        92.2584        79.5933       63.15931         0.6643         0.7552        30.7555         0.9861       -52.4417       -6.28595      0.6416875      0.9183643
      6940.5000        -999.25         13.168        18.0795          0.021       102.5686        93.5408        77.5116        60.9495         0.6709         0.7655         30.438         1.0502       -53.1874      -7.029678      0.5946702      0.9087055
      6941.0000        -999.25        13.1816        18.6064         0.0194       101.0581         91.785        76.6654        60.0546         0.6776         0.7744        30.6363         1.0934       -53.8477      -7.688004      0.5756297      0.9001558
      6941.5000        -999.25        13.0298        19.4633          0.023        99.7308        88.2772        76.7305       60.12957         0.6795         0.7699        31.8678         1.1158       -54.3371      -8.175434       0.577225      0.8938255
      6942.0000        -999.25        12.9651        20.0959         0.0308        98.5337        84.5406         75.699       59.03747         0.6802         0.7632        32.7676         1.1472       -53.9706      -7.806961      0.5539887      0.8986109
      6942.5000        -999.25        12.9818        20.5426         0.0392        97.7505         82.334        73.8785       57.10566         0.6755         0.7515        33.2774         1.1786       -53.7905      -7.624889      0.5128863      0.9009755
      6943.0000        -999.25        12.9967          20.81         0.0476        97.8928        82.9683        72.3231       55.45596         0.6693         0.7379        33.3853         1.1056       -54.0305      -7.862915      0.4777864      0.8978842
      6943.5000        -999.25         13.001        20.9066          0.055        99.0966         84.078        71.4706       54.55436         0.6605         0.7187        33.3167         1.0564       -54.9794      -8.809845      0.4586034      0.8855864
      6944.0000        -999.25        12.9848        20.7654         0.0617       100.2288        85.2726        72.2782       55.41956         0.6517          0.703        33.2159         1.0154       -56.7511      -10.57957       0.477012      0.8626029
      6944.5000        -999.25        12.9531        20.5674         0.0654       101.0931        85.9818        74.5378       57.83009         0.6428         0.6886         33.122         1.0438       -57.5448       -11.3713      0.5282999      0.8523208
      6945.0000        -999.25        12.9241        20.5494          0.063       101.6229        85.1217        75.8511       59.23349         0.6356         0.6824        33.0563         1.0719       -57.3515      -11.17603      0.5581593      0.8548568
      6945.5000        -999.25        12.9159        20.9317         0.0614       101.9288        84.4144        76.1458       59.55281         0.6297         0.6784        33.0402         1.0582       -55.8396      -9.662155      0.5649534      0.8745174
      6946.0000        -999.25        12.9267        22.4203         0.0708        102.072        84.7715        76.2507       59.67015          0.631           0.68        34.2032          1.025       -53.5972      -7.417782        0.56745      0.9036652
      6946.5000        -999.25        12.9359        23.3364         0.1111       102.2142        86.8568        76.1053        59.5211         0.6453         0.6925        34.9985         1.0105       -52.2701      -6.088711      0.5642786      0.9209259
      6947.0000        -999.25        12.9443        23.1456         0.1354       103.5825        88.9637        76.2395       59.66961          0.674         0.7194        34.3979         1.0058       -51.0956      -4.912239      0.5674385      0.9362047
      6947.5000        -999.25        12.9207        21.0229          0.156       105.2308         90.913        76.8376       60.31184         0.7038         0.7574        32.7465         0.9827       -49.9092      -3.723866       0.581103      0.9516381
      6948.0000        -999.25        12.8755        19.0411         0.1614       106.8401        91.7012        78.3293        61.9051         0.7286         0.7989        31.5788         0.9642       -48.5322      -2.344894      0.6150022      0.9695469
      6948.5000        -999.25        12.8127        18.2177         0.1434       107.2743        88.7546        79.5913       63.25391          0.749         0.8335        31.5718          0.971       -47.3327      -1.143421      0.6437001      0.9851504
      6949.0000        -999.25        12.7881        18.1909         0.1233       104.9526        85.7244        80.2306       63.93999         0.7538          0.849        33.0223          1.039       -46.5001     -0.3088493      0.6582977       0.995989
      6949.5000        -999.25        12.7907        19.1252         0.1064       102.7115        84.4597        80.9569       64.71867         0.7494         0.8407         33.975         1.1193       -46.0497      0.1435204      0.6748652              1
      6950.0000        -999.25        12.7901        20.2275         0.0921       101.0724         86.691        82.2246       66.07352         0.7339         0.7822        34.5281         1.1102       -46.2759    -0.08070755       0.703692      0.9989519
      6950.5000        -999.25        12.7402        21.2971         0.0724        99.8134        88.6411        82.8507       66.74556         0.7019         0.7262        34.5785         1.0547       -46.8184     -0.6212349      0.7179906       0.991932
      6951.0000        -999.25        12.6951        21.6659         0.0544       104.0193        88.8987        80.8982       64.67326         0.6529         0.6711        34.4443         1.0031       -48.1508       -1.95166      0.6738992      0.9746538
      6951.5000        -999.25        12.7337         21.033         0.0473       107.0559        90.5421        79.3193       62.99857         0.6118         0.6312        33.9173         0.9635       -50.8365      -4.635387      0.6382673      0.9398001
