#------------------------------------------------------------------------------
# Created by    : vladimir.rabinovich
# Created on    : 09/19/2023 17:20:43
#------------------------------------------------------------------------------
~Version Information Section
VERS.           2.0     :   CWLS log ASCII Standard - VERSION 2.0
WRAP.           NO      :   One line per depth step
~Well Information Section
#MNEM       .UNIT                                         VALUE :DESCRIPTION
#------------------------------------------------------------------------------
STRT        .FT                                            2986 :START DEPTH
STOP        .FT                                           10006 :STOP DEPTH
STEP        .FT                                             0.5 :STEP      
NULL        .                                           -999.25 :NULL      
COMP        .                                        CONOCO INC :COMPANY   
WELL        .                                OCS 00764 ST00BP00 :WELL      
FLD         .                           WEST CAMERON BLOCK 0192 :FIELD     
LOC         .                                                   :LOCATION  
CNTY        .                                      WEST CAMERON :LOCATION  
STAT        .                                         LOUISIANA :STATE     
CTRY        .                                     UNITED STATES :COUNTRY   
SRVC        .                                                   :SERVICE COMPANY
DATE        .                             9/13/2023 11:18:18 AM :LOG DATE  
API         .                                    17700003670000 :API NUMBER
UWI         .                                    17700003670000 :UNIQUE WELL ID
XCOORD      .                                  1596137.97932418 :SURFACE X 
YCOORD      .                                  10614860.5046116 :SURFACE Y 
LAT         .                                         29.249106 :LATITUDE  
LON         .                                        -93.138896 :LONGITUDE 
ELEV        .FT                                              84 :ELEVATION VALUE
ELEV_TYPE   .                                                KB :ELEVATION REFERENCE TYPE
~Curve Information Section
#MNEM       .UNIT                                      API CODE :CURVE DESCRIPTION
#------------------------------------------------------------------------------
DEPT        .FT                                                 :DEPTH     
ASN         .OHMM                                               :          
CALI        .IN                                                 :          
CALI_1      .IN                                                 :          
DRHO        .G/C3                                               :          
DT          .US/F                                               :          
GR          .GAPI                                               :          
ILD         .OHMM                                               :          
RHOB        .G/C3                                               :          
SP          .MV                                                 :          
SP_NORM     .MV                                                 :SP Normalized
VSH_SP      .V/V                                                :Volume of Shale from SP
~A        DEPTH            ASN           CALI         CALI_1           DRHO             DT             GR            ILD           RHOB             SP        SP_NORM         VSH_SP
# ...
      9623.5000         0.9821        12.4386        14.5544         0.0926       110.1212        71.4048         0.8487          2.366       -42.9854      -1.227161              1
      9624.0000         0.9853         12.515        14.1982         0.0826       109.8683        71.7036         0.8521         2.3621       -42.9943      -1.236061              1
      9624.5000         0.9933        12.4615         14.436         0.0673       109.7535        72.1151         0.8562         2.3637       -43.0018      -1.243561              1
      9625.0000         1.0026        12.3501        14.6478         0.0519       109.0515        71.8235          0.861         2.3675       -43.0068      -1.248562              1
      9625.5000         1.0092        12.2401        14.2837         0.0594       108.9836        71.2083         0.8671         2.3723       -43.0048      -1.246559              1
      9626.0000         1.0074        12.2056        14.5245         0.0668       109.4315         70.377          0.874         2.3801       -42.9857      -1.227459              1
      9626.5000         1.0063        12.2653        14.5807         0.0553       109.2869        71.1866         0.8775         2.3677       -42.9969      -1.238659              1
      9627.0000         1.0133         12.198        14.3783          0.041       109.0706        72.0298         0.8799         2.3542       -43.0746       -1.31636              1
      9627.5000         1.0261        12.1445        14.1758         0.0351       108.9043        72.6101         0.8783         2.3539       -43.0085      -1.250259              1
      9628.0000         1.0307        12.1534        14.0453         0.0357       108.7183        71.5719         0.8707         2.3631       -42.9326      -1.174358              1
      9628.5000         1.0307        12.2429        14.0434         0.0516       108.5969         70.428         0.8607          2.372       -42.8537      -1.095459              1
      9629.0000          1.032        12.2955        14.0363         0.0638       108.5177        69.4827          0.858         2.3804       -42.7595      -1.001259              1
      9629.5000         1.0352          12.08        14.0137         0.0634        108.297        70.2354         0.8633         2.3884       -42.6617     -0.9034615              1
      9630.0000         1.0392         11.775        14.3043         0.0664       107.3635        73.7318         0.8686         2.3886        -42.602     -0.8437614              1
      9630.5000         1.0434        11.4572        14.0759         0.0477       106.4701        76.1415         0.8711          2.377       -42.5684     -0.8101616              1
      9631.0000         1.0498        11.2245         13.853         0.0376        105.641        77.1635         0.8735         2.3793       -42.5568     -0.7985611              1
      9631.5000         1.0571        11.1204         13.786         0.0598       104.4366        75.5145         0.8763         2.3881       -42.5734     -0.8151588              1
      9632.0000         1.0671        11.1546        13.7963         0.0765       103.0547         74.121         0.8794         2.4008       -42.6068     -0.8485603              1
      9632.5000         1.0788        11.2227        13.9963         0.0594       102.1934        72.9163         0.8892         2.4089       -42.6721     -0.9138603              1
      9633.0000         1.0922        11.2516        13.7914         0.0447       101.4617        72.1438         0.9175         2.4038       -42.7343      -0.976059              1
      9633.5000         1.1154        11.2518         13.497         0.0601       101.0206        70.1627         0.9483         2.4105       -42.8035      -1.045261              1
      9634.0000         1.1443         11.255        13.2027         0.0747       100.7528        68.0085          0.986         2.4182       -42.8821      -1.123859              1
      9634.5000         1.1706        11.3105        13.1199         0.0868       100.2413        66.9885         1.0339         2.4252       -43.0001      -1.241859              1
      9635.0000          1.199        11.3369        13.2956         0.0778        99.7343        67.7668         1.0809         2.4175       -43.0983      -1.340061              1
      9635.5000         1.2255        11.2979        13.5553         0.0543        98.9581        67.0239         1.1215         2.4195       -43.1216      -1.363361              1
      9636.0000         1.2381        11.2477        13.5644         0.0299        98.2917        67.8062         1.1587         2.4034        -43.049       -1.29076              1
      9636.5000         1.2472        11.2171        13.5663         0.0431        98.3905        67.5251           1.18         2.3937       -42.9351      -1.176861              1
      9637.0000         1.2538        11.2347        13.5962         0.0488       100.1451        66.7645         1.1843         2.3991       -42.8133      -1.055061              1
      9637.5000         1.2593        11.3578        13.6644         0.0396       101.9935             66         1.1766         2.4019       -42.7104     -0.9521599              1
      9638.0000          1.263        11.7502        13.6951         0.0431       103.4508        66.2456         1.1486         2.4191         -42.78      -1.021759              1
      9638.5000         1.2616        11.7424        13.6591         0.0654       104.0894        70.0408         1.1231         2.4363        -42.871      -1.112759              1
      9639.0000         1.2521        11.7793        13.6501          0.077       103.9554        69.6792         1.1018         2.4483       -42.8259      -1.067661              1
      9639.5000         1.2377        11.9075        13.7057         0.0772       103.5088         68.042         1.0749         2.4447       -42.7823      -1.024059              1
      9640.0000         1.2199        11.9681         13.857          0.085       102.9769        68.4843         1.0402         2.4348       -42.7426     -0.9843597              1
      9640.5000         1.2063         11.749        13.7506         0.0741       102.7021        71.8175         1.0033         2.4363       -42.7031     -0.9448586              1
      9641.0000         1.1949        11.6209        13.3816         0.0894        102.459        74.8856         0.9759         2.4428       -42.6547     -0.8964615              1
      9641.5000         1.1844        11.5172        13.1762         0.0699       102.3274        73.2897         0.9632         2.4333        -42.655      -0.896759              1
      9642.0000         1.1759        11.4615         13.556          0.051       102.3903        71.8313         0.9688         2.4083       -42.6792     -0.9209595              1
      9642.5000         1.1716        11.4883        13.7054         0.0402        102.946        70.2314         0.9854         2.3803       -42.7156     -0.9573593              1
      9643.0000         1.1781        11.5598        13.1698         0.0648       103.9011        68.6729         1.0088         2.3774       -42.7279     -0.9696617              1
      9643.5000         1.1803        11.6441        13.0592         0.0888       104.6205        70.1038         1.0321         2.3993       -42.7311     -0.9728584              1
      9644.0000         1.1744        11.6972         13.474         0.0827       105.3325        72.4072         1.0411         2.4099       -42.7505       -0.99226              1
      9644.5000         1.1691        11.7583        13.5386         0.0946       106.6281        73.1255         1.0259         2.4085       -42.8246       -1.06636              1
      9645.0000         1.1625        11.8893        13.5049         0.0693       107.2383         73.115         1.0004         2.4074       -42.8705      -1.112259              1
      9645.5000         1.1558         11.904         13.445         0.0792       107.0822        73.3152         0.9814         2.4237       -42.8634       -1.10516              1
