#------------------------------------------------------------------------------
# Created by    : vladimir.rabinovich
# Created on    : 09/19/2023 17:19:36
#------------------------------------------------------------------------------
~Version Information Section
VERS.           2.0     :   CWLS log ASCII Standard - VERSION 2.0
WRAP.           NO      :   One line per depth step
~Well Information Section
#MNEM       .UNIT                                         VALUE :DESCRIPTION
#------------------------------------------------------------------------------
STRT        .FT                                          2840.5 :START DEPTH
STOP        .FT                                            9365 :STOP DEPTH
STEP        .FT                                             0.5 :STEP      
NULL        .                                           -999.25 :NULL      
COMP        .                              MCMORAN OIL & GAS CO :COMPANY   
WELL        .                                OCS 00757 ST00BP00 :WELL      
FLD         .                           WEST CAMERON BLOCK 0118 :FIELD     
LOC         .                                                   :LOCATION  
CNTY        .                                      WEST CAMERON :LOCATION  
STAT        .                                         LOUISIANA :STATE     
CTRY        .                                     UNITED STATES :COUNTRY   
SRVC        .                                                   :SERVICE COMPANY
DATE        .                             9/13/2023 11:18:49 AM :LOG DATE  
API         .                                    17700410710000 :API NUMBER
UWI         .                                    17700410710000 :UNIQUE WELL ID
XCOORD      .                                  1441592.04714169 :SURFACE X 
YCOORD      .                                  10704369.2355959 :SURFACE Y 
LAT         .                                        29.4939537 :LATITUDE  
LON         .                                       -93.6251728 :LONGITUDE 
ELEV        .FT                                              90 :ELEVATION VALUE
ELEV_TYPE   .                                                KB :ELEVATION REFERENCE TYPE
~Curve Information Section
#MNEM       .UNIT                                      API CODE :CURVE DESCRIPTION
#------------------------------------------------------------------------------
DEPT        .FT                                                 :DEPTH     
AHT10       .OHMM                                               :          
AHT20       .OHMM                                               :          
AHT30       .OHMM                                               :          
AHT60       .OHMM                                               :          
AHT90       .OHMM                                               :          
AHTCO90     .MMHO                                               :          
DPHZ        .DEC                                                :          
GR          .GAPI                                               :          
GR_NORM     .GAPI                                               :GammaRay Normalized
HCAL        .IN                                                 :          
HDRA        .G/CC                                               :          
HMIN        .OHMM                                               :          
HMNO        .OHMM                                               :          
NPOR        .DEC                                                :          
RHOZ        .G/CC                                               :          
RWA         .OHMM                                               :          
TENS        .LB                                                 :          
VSH_GR      .V/V                                                :Volume of Shale from GR
~A        DEPTH          AHT10          AHT20          AHT30          AHT60          AHT90        AHTCO90           DPHZ             GR        GR_NORM           HCAL           HDRA           HMIN           HMNO           NPOR           RHOZ            RWA           TENS         VSH_GR
# ...
      8930.5000         0.3946         0.3026         0.2644         0.2538         0.2259       4426.736         0.2681        36.3888       33.15585         9.6322        -0.0054          0.941          0.832         0.2768          2.208         0.0215           3869    0.003315865
      8931.0000         0.3755         0.2809         0.2439         0.2267         0.2033       4918.866         0.2886        33.6632       30.25562         9.6086        -0.0071          1.281          1.138         0.2845          2.174         0.0227           3875              0
      8931.5000         0.4139         0.2895         0.2499         0.2283         0.2033       4919.467          0.298        39.4163       36.37728         9.6086        -0.0078          1.494           1.47         0.2979          2.158         0.0243           3884     0.07185697
      8932.0000         0.4704         0.3064         0.2572         0.2293         0.2032       4921.441         0.3021        44.5753       41.86688         9.6322        -0.0084           1.51          1.552         0.3139          2.152          0.025           3908      0.1886571
      8932.5000         0.4937         0.3117         0.2621         0.2298         0.2024       4939.829         0.3027         44.926       42.24002         9.6322        -0.0025          1.495          1.565         0.2895          2.151          0.025           3908      0.1965961
      8933.0000         0.4836         0.3022         0.2574         0.2242          0.197       5076.686         0.3029        42.0495       39.17918         9.6322         0.0021          1.534          1.588         0.2895           2.15         0.0244           3918      0.1314719
      8933.5000          0.477         0.2956         0.2553         0.2217         0.1941       5152.105         0.2989        37.6465       34.49416         9.6086         0.0055           1.53          1.583         0.2876          2.157         0.0233           3904     0.03179063
      8934.0000         0.4779         0.2973          0.253         0.2198         0.1917        5217.29         0.2915        36.6887       33.47492         9.6086         0.0014          1.535          1.578         0.2579          2.169         0.0218           3904     0.01010473
      8934.5000         0.4696         0.2944         0.2521           0.22         0.1909       5239.175         0.2841        34.2916       30.92428         9.6086         0.0023          1.593          1.628         0.2632          2.181         0.0206           3901              0
      8935.0000         0.4548         0.2894         0.2515          0.221         0.1907       5244.394          0.284        34.9723       31.64855         9.6559         0.0067          1.614          1.636         0.2707          2.181         0.0205           3892              0
      8935.5000         0.4373         0.2858          0.249         0.2213         0.1899       5265.176         0.2941        32.8537       29.39429         9.6322         0.0099          1.487          1.418         0.2684          2.165         0.0221           3853              0
      8936.0000         0.4176         0.2804         0.2487         0.2237         0.1907       5243.279         0.3028        32.1346       28.62915         9.6086         0.0104          1.429          1.356         0.2684           2.15         0.0236           3881              0
      8936.5000         0.3889         0.2719         0.2444         0.2232         0.1894       5279.486         0.3066        35.7264         32.451         9.5968         0.0038          1.245            1.1         0.2589          2.144         0.0241           3896              0
      8937.0000         0.3591         0.2623         0.2407         0.2229         0.1882         5312.2         0.3032        38.4521       35.35138         9.6086         0.0002          0.902          0.797          0.284           2.15         0.0233           3864     0.05002943
      8937.5000         0.3368          0.257          0.235         0.2203         0.1856       5388.625         0.3009        42.0478       39.17748         9.6086         -0.005          0.769          0.681         0.2759          2.153         0.0226           3879      0.1314358
      8938.0000         0.3083         0.2511          0.231          0.219         0.1838       5439.316         0.2968        40.3716       37.39381         9.6204        -0.0058          0.686          0.608         0.2776           2.16         0.0218           3901     0.09348541
      8938.5000         0.2898         0.2435         0.2286         0.2194         0.1831       5460.911          0.294        40.3716       37.39381         9.6086        -0.0033          0.706          0.625         0.3002          2.165         0.0212           3895     0.09348541
      8939.0000          0.298         0.2483         0.2341         0.2297         0.1896       5274.547          0.295        42.0495       39.17918         9.6086         0.0002          0.781          0.691         0.3226          2.163         0.0222           3850      0.1314719
      8939.5000         0.3203         0.2683         0.2431         0.2369          0.194       5154.954         0.2976        43.4223       40.63994         9.6086        -0.0002          0.797          0.705         0.2973          2.159         0.0231           3841      0.1625519
      8940.0000         0.3314         0.2863         0.2517         0.2438         0.1978       5055.783         0.3037        44.0266       41.28307         9.6086         -0.004          0.639          0.566         0.3203          2.149         0.0246           3885      0.1762354
      8940.5000         0.3203         0.2853         0.2541         0.2445         0.1977       5057.695         0.3123        42.1089       39.24247         9.6086        -0.0077          0.553          0.491         0.3283          2.135         0.0261           3838      0.1328184
      8941.0000         0.2964         0.2663         0.2418         0.2388         0.1937       5161.949         0.3152        39.3858       36.34493         9.6086        -0.0031          0.725          0.642         0.3005           2.13         0.0261           3865     0.07116878
      8941.5000         0.2753         0.2481         0.2313         0.2301         0.1876        5329.44         0.3089        41.7829       38.89558         9.6086         0.0054          0.755          0.668         0.2897           2.14         0.0242           3930      0.1254378
      8942.0000         0.2613         0.2382         0.2199         0.2239         0.1831       5462.193         0.2976         40.105       37.11021         9.6086          0.013          0.645          0.571         0.2856          2.159         0.0218           3906     0.08745129
      8942.5000         0.2536         0.2341         0.2152          0.213         0.1755       5696.564         0.2921        39.2671       36.21852         9.6086         0.0183          0.552           0.49         0.3142          2.168         0.0201           3944     0.06847917
      8943.0000         0.2508         0.2329         0.2137         0.2089         0.1728       5787.982         0.2915        34.4728       31.11708         9.6086         0.0187           0.55          0.487         0.3232          2.169         0.0197           3960              0
      8943.5000          0.253         0.2353         0.2154         0.2084         0.1724        5801.91         0.2918        36.9841       33.78931         9.6086         0.0168          0.594          0.527         0.3087          2.169         0.0197           3961     0.01679392
      8944.0000         0.2615         0.2429         0.2215         0.2109          0.174       5747.177         0.2949        36.7778       33.56984         9.5849           0.01           0.66          0.585          0.305          2.163         0.0203           3930     0.01212433
