#------------------------------------------------------------------------------
# Created by    : vladimir.rabinovich
# Created on    : 09/19/2023 17:20:14
#------------------------------------------------------------------------------
~Version Information Section
VERS.           2.0     :   CWLS log ASCII Standard - VERSION 2.0
WRAP.           NO      :   One line per depth step
~Well Information Section
#MNEM       .UNIT                                         VALUE :DESCRIPTION
#------------------------------------------------------------------------------
STRT        .FT                                             920 :START DEPTH
STOP        .FT                                            7860 :STOP DEPTH
STEP        .FT                                             0.5 :STEP      
NULL        .                                           -999.25 :NULL      
COMP        .                               ARCO OIL & GAS CORP :COMPANY   
WELL        .                               OCS G10568 ST00BP00 :WELL      
FLD         .                                           WILDCAT :FIELD     
LOC         .                                                   :LOCATION  
CNTY        .                                 WEST CAMERON WEST :LOCATION  
STAT        .                                         LOUISIANA :STATE     
CTRY        .                                     UNITED STATES :COUNTRY   
SRVC        .                                                   :SERVICE COMPANY
DATE        .                             9/13/2023 11:18:15 AM :LOG DATE  
API         .                                    17701402460000 :API NUMBER
UWI         .                                    17701402460000 :UNIQUE WELL ID
XCOORD      .                                  1443937.81344993 :SURFACE X 
YCOORD      .                                  10680295.6485051 :SURFACE Y 
LAT         .                                        29.4277648 :LATITUDE  
LON         .                                       -93.6173961 :LONGITUDE 
ELEV        .FT                                             100 :ELEVATION VALUE
ELEV_TYPE   .                                                KB :ELEVATION REFERENCE TYPE
~Curve Information Section
#MNEM       .UNIT                                      API CODE :CURVE DESCRIPTION
#------------------------------------------------------------------------------
DEPT        .FT                                                 :DEPTH     
ASFL        .OHMM                                               :          
CALI        .IN                                                 :          
DPHI        .%                                                  :          
DRHO        .G/CC                                               :          
DT          .US/F                                               :          
GR          .GAPI                                               :          
GR_1        .GAPI                                               :          
GR_NORM     .GAPI                                               :GammaRay Normalized
ILD         .OHMM                                               :          
ILM         .OHMM                                               :          
NPHI        .%                                                  :          
RFOC        .OHMM                                               :          
SP          .MV                                                 :          
SP_NORM     .MV                                                 :SP Normalized
VSH_GR      .V/V                                                :Volume of Shale from GR
VSH_SP      .V/V                                                :Volume of Shale from SP
~A        DEPTH           ASFL           CALI           DPHI           DRHO             DT             GR           GR_1        GR_NORM            ILD            ILM           NPHI           RFOC             SP        SP_NORM         VSH_GR         VSH_SP
# ...
      3736.0000        -999.25        14.0276        31.1009         0.0499       143.7256       111.7483       101.8291       88.43221         0.6975         0.7261        44.5041         0.9874       -52.9483       0.603611              1              1
      3736.5000        -999.25         14.072        30.5782         0.0526       144.1018       109.8832       101.6954       88.28208         0.7018         0.7362        43.9454         0.9869       -53.2198      0.3321114              1              1
      3737.0000        -999.25        14.0424        29.4881          0.055       144.4326       108.0598        99.4691       85.85748         0.7065         0.7489        42.6708         0.9836       -53.5033     0.04861069              1              1
      3737.5000        -999.25        14.0123        27.7387         0.0517       144.6919       106.6895        97.6306       83.85437         0.7121         0.7636        41.0627         0.9786       -53.8306     -0.2786903              1              1
      3738.0000        -999.25        13.9601        26.8629         0.0471       144.6697       106.8757        96.4795       82.59841         0.7186         0.7734         39.865         0.9871       -54.2327     -0.6807899              1              1
      3738.5000        -999.25        13.9923        26.4166         0.0417       143.9404       107.1625        94.8981       80.87476          0.725         0.7813        39.2308         1.0167       -54.7492      -1.197289              1              1
      3739.0000        -999.25        14.0736        26.2178         0.0391       141.4148       106.8789        92.6362       78.41145         0.7311         0.7854        39.1297         1.0687        -55.284       -1.73209      0.9662009              1
      3739.5000        -999.25        14.1713        26.2104         0.0381       138.6057       105.6284        90.7484       76.35475         0.7373          0.787        39.2051         1.1199        -55.764       -2.21209      0.9224415      0.9944187
      3740.0000        -999.25        14.2056        26.3489         0.0394        135.948       103.7374        90.4608       76.03735         0.7433         0.7879        38.8703         1.1448       -56.2554      -2.703491      0.9156884      0.9814871
      3740.5000        -999.25        14.1474        26.5884         0.0413       133.9065       101.8812        91.3356       76.98338         0.7483         0.7887        38.5904         1.1512       -56.5659      -3.013988      0.9358166      0.9733161
      3741.0000        -999.25        14.0964        26.8463         0.0431       132.4099       100.2629         91.719       77.39529           0.75         0.7892        39.5115         1.1488       -56.5657       -3.01379      0.9445807      0.9733213
      3741.5000        -999.25        14.1332        27.0722         0.0447       132.1362        99.2422        91.1165       76.73562         0.7503         0.7886        40.6351         1.1462       -56.3257      -2.773788      0.9305451      0.9796371
      3742.0000        -999.25         14.178        27.0379         0.0463       133.1741       100.0221        90.3217       75.86694         0.7489         0.7881        40.9987          1.131       -55.8224      -2.270489      0.9120626      0.9928819
      3742.5000        -999.25        14.1515        27.0077         0.0481       134.3281       102.4365        91.2769       76.90034         0.7466         0.7867        40.7599         1.1023       -55.2309      -1.678989      0.9340499              1
      3743.0000        -999.25        14.0882         27.038         0.0497       135.5251       104.3107        92.0989       77.78899         0.7433          0.785        40.4683         1.0658       -54.5953      -1.043388      0.9529572              1
      3743.5000        -999.25        14.0363        27.2275         0.0512       136.3584       105.6473        90.9053       76.48682         0.7395         0.7835        40.3395         1.0553       -53.9232     -0.3712883      0.9252516              1
      3744.0000        -999.25        14.0357        27.5002         0.0522       136.6121       106.7756        87.0714        72.3149         0.7354         0.7835        40.2235         1.0581       -53.4242      0.1277122      0.8364873              1
      3744.5000        -999.25        14.0569        27.6072          0.051       136.3076       106.6077        86.2306       71.39621         0.7327         0.7836        39.8826         1.0661       -53.3889      0.1630096      0.8169406              1
      3745.0000        -999.25        14.0484        27.7111         0.0479       135.9504       105.7035        86.6086       71.80225         0.7307         0.7832         39.492         1.0773       -53.7715     -0.2195892      0.8255799              1
      3745.5000        -999.25        14.0207        27.8746         0.0454        135.752       105.0535        88.1027        73.4214           0.73         0.7821        39.2255         1.0909       -54.3289      -0.776989      0.8600298              1
      3746.0000        -999.25        14.0081        28.1923         0.0457       135.8933       105.0105        90.6448       76.17964           0.73          0.781        39.6972         1.0964       -54.6489      -1.096989      0.9187158              1
      3746.5000        -999.25        14.0182         28.465         0.0471        136.489       105.1233        92.8228       78.54215           0.73         0.7803        40.8798          1.096       -54.7258      -1.173889       0.968982              1
      3747.0000        -999.25        14.0379        28.6462         0.0493       138.1069       105.8344        94.4214       80.27489         0.7296         0.7797        41.5516          1.069       -54.6951      -1.143188              1              1
      3747.5000        -999.25        14.0435         28.788         0.0512       139.6643       107.1353        94.0449       79.86085         0.7292          0.778        41.1852         1.0371       -54.6122      -1.060291      0.9970393              1
      3748.0000        -999.25        14.0287         28.863          0.053       140.9734       108.2419        93.5293       79.29563         0.7288         0.7747        40.6733         1.0278       -54.6459       -1.09399      0.9850134              1
      3748.5000        -999.25        14.0006        28.7856         0.0547       141.5015       108.6454        93.3031       79.04498         0.7294         0.7718        40.1974           1.04       -54.7089       -1.15699      0.9796803              1
      3749.0000        -999.25        13.9884        28.5555         0.0565       140.4919       107.7334        93.7933       79.57296           0.73         0.7703        39.7253         1.0403       -54.7844      -1.232491       0.990914              1
      3749.5000        -999.25        14.0326        28.2849         0.0572       138.6096       104.7516        94.8147       80.67833         0.7311         0.7687        39.3426         1.0424       -54.8517      -1.299789              1              1
      3750.0000        -999.25        14.1103        28.0492         0.0517       137.7529       101.7279        95.6993       81.63501         0.7328         0.7664        39.4097          1.049       -54.8487      -1.296791              1              1
      3750.5000        -999.25        14.2087        27.8716         0.0414        137.188       101.8683         95.353       81.25381         0.7345         0.7648        39.7425          1.056        -54.822      -1.270088              1              1
      3751.0000        -999.25        14.2645        27.8587         0.0384       136.7051       103.4636        95.0903       80.96346         0.7369         0.7649         39.749         1.0616       -54.6991       -1.14719              1              1
      3751.5000        -999.25        14.3163        28.0567         0.0379       136.2314        104.882        95.3134       81.20115         0.7394          0.765        39.9379         1.0632       -54.3637     -0.8117905              1              1
