#------------------------------------------------------------------------------
# Created by    : vladimir.rabinovich
# Created on    : 09/19/2023 17:20:47
#------------------------------------------------------------------------------
~Version Information Section
VERS.           2.0     :   CWLS log ASCII Standard - VERSION 2.0
WRAP.           NO      :   One line per depth step
~Well Information Section
#MNEM       .UNIT                                         VALUE :DESCRIPTION
#------------------------------------------------------------------------------
STRT        .FT                                             612 :START DEPTH
STOP        .FT                                            9868 :STOP DEPTH
STEP        .FT                                             0.5 :STEP      
NULL        .                                           -999.25 :NULL      
COMP        .                                      SHELL OIL CO :COMPANY   
WELL        .                               OCS G00950 ST00BP00 :WELL      
FLD         .                                           WILDCAT :FIELD     
LOC         .                                                   :LOCATION  
CNTY        .                                      EAST CAMERON :LOCATION  
STAT        .                                         LOUISIANA :STATE     
CTRY        .                                     UNITED STATES :COUNTRY   
SRVC        .                                                   :SERVICE COMPANY
DATE        .                             9/13/2023 11:18:15 AM :LOG DATE  
API         .                                    17703002450000 :API NUMBER
UWI         .                                    17703002450000 :UNIQUE WELL ID
XCOORD      .                                  1691932.89207312 :SURFACE X 
YCOORD      .                                   10460306.475122 :SURFACE Y 
LAT         .                                        28.8238717 :LATITUDE  
LON         .                                       -92.8390619 :LONGITUDE 
ELEV        .FT                                              75 :ELEVATION VALUE
ELEV_TYPE   .                                                KB :ELEVATION REFERENCE TYPE
~Curve Information Section
#MNEM       .UNIT                                      API CODE :CURVE DESCRIPTION
#------------------------------------------------------------------------------
DEPT        .FT                                                 :DEPTH     
ASN         .OHMM                                               :          
GR          .GAPI                                               :          
GR_NORM     .GAPI                                               :GammaRay Normalized
ILD         .OHMM                                               :          
SP          .MV                                                 :          
SP_NORM     .MV                                                 :SP Normalized
VSH_GR      .V/V                                                :Volume of Shale from GR
VSH_SP      .V/V                                                :Volume of Shale from SP
~A        DEPTH            ASN             GR        GR_NORM            ILD             SP        SP_NORM         VSH_GR         VSH_SP
# ...
      3060.5000         0.4826        63.5223       65.33567         0.3887       -47.8377        -6.3283       0.687993      0.6670538
      3061.0000         0.4883        65.2001       67.43639         0.4051       -48.0559        -6.5465      0.7326891      0.6502692
      3061.5000         0.4945        68.1356       71.12708         0.4207       -47.6416        -6.1322      0.8112145      0.6821385
      3062.0000         0.5021        69.9553        73.4072         0.4328       -46.8508        -5.3414      0.8597277      0.7429692
      3062.5000         0.5112        70.8015       74.45661         0.4444       -46.1815        -4.6721      0.8820556      0.7944539
      3063.0000         0.5204         70.047       73.48254         0.4541       -46.5692        -5.0598      0.8613306      0.7646307
      3063.5000          0.531        68.9834       72.11759         0.4604       -46.7467        -5.2373      0.8322892      0.7509769
      3064.0000         0.5523        69.0701       72.20685         0.4652       -45.5121        -4.0027      0.8341883      0.8459462
      3064.5000         0.5725        70.7814       74.34991         0.4775       -44.3098        -2.8004      0.8797852      0.9384308
      3065.0000         0.5773         72.465       76.45795         0.4852       -43.3619        -1.8525      0.9246373              1
      3065.5000         0.5773        74.7245       79.29418         0.4913        -43.007        -1.4976      0.9849826              1
      3066.0000         0.5811        74.8761       79.46548         0.4961       -42.6648        -1.1554      0.9886272              1
      3066.5000          0.591        75.2062       79.86244         0.5009       -42.1531        -0.6437      0.9970732              1
      3067.0000         0.5973        75.4104       80.10023         0.5051       -41.9774         -0.468              1              1
      3067.5000         0.6002        75.6371       80.36647         0.5079        -42.201        -0.6916              1              1
      3068.0000         0.6007        76.3765       81.28088         0.5072       -42.4771        -0.9677              1              1
      3068.5000         0.6001         78.902       84.45338         0.5004        -42.532        -1.0226              1              1
      3069.0000         0.6012         81.175       87.30654         0.4907       -42.5552        -1.0458              1              1
      3069.5000         0.6047         82.981       89.56933         0.4811       -42.4946        -0.9852              1              1
      3070.0000         0.6078         84.781       91.82452         0.4707       -42.6442        -1.1348              1              1
      3070.5000         0.6082         85.853        93.1594         0.4595       -42.9451        -1.4357              1              1
      3071.0000         0.6064        85.5913        92.8082         0.4472       -43.1923        -1.6829              1              1
      3071.5000         0.6037        82.9968       89.50801          0.439       -43.4059        -1.8965              1              1
      3072.0000         0.6015        77.7939       82.91016         0.4326       -43.5497        -2.0403              1         0.9969
      3072.5000         0.6209        70.7045       73.92741         0.4297       -44.2399        -2.7305      0.8707959      0.9438077
      3073.0000          0.659        63.8989       65.30343         0.4317       -46.4701        -4.9607       0.687307      0.7722539
      3073.5000         0.6913        58.3609       58.28195         0.4362       -48.5685        -7.0591      0.5379139      0.6108385
      3074.0000         0.7044        55.0981       54.13678         0.4836       -49.5772        -8.0678      0.4497186      0.5332462
      3074.5000         0.7258         56.623       56.04508         0.5545       -49.0134         -7.504      0.4903208      0.5766154
      3075.0000         0.7831        63.6998       64.98701         0.6215        -47.616        -6.1066      0.6805746      0.6841077
      3075.5000          0.832         64.821       66.39987         0.6852       -45.8226        -4.3132      0.7106355      0.8220615
      3076.0000         0.8989         65.198       66.87193           0.75       -45.1153        -3.6059      0.7206793      0.8764693
      3076.5000         0.9719         63.716       64.99396         0.8273       -44.9487        -3.4393      0.6807225      0.8892846
      3077.0000         1.0114        62.3582       63.27287         0.9083       -44.7284         -3.219      0.6441037      0.9062307
      3077.5000          1.037        61.0308       61.59023         0.9978       -44.3757        -2.8663      0.6083028      0.9333615
      3078.0000         1.0631        59.8218       60.05727          1.123       -44.0435        -2.5341      0.5756867      0.9589154
      3078.5000         1.0742        57.3328       56.90626         1.2461       -43.7471        -2.2377      0.5086438      0.9817154
      3079.0000          1.066        57.0519       56.54659         1.1399       -43.7223        -2.2129      0.5009913      0.9836231
      3079.5000         1.0523        56.9933       56.46796         1.0259       -43.5659        -2.0565      0.4993183      0.9956539
      3080.0000         1.0258        57.1137       56.61561         0.9092       -43.5329        -2.0235      0.5024598      0.9981923
      3080.5000         0.9932        56.5087       55.84636         0.8189       -43.9518        -2.4424      0.4860927      0.9659692
      3081.0000         0.9417        53.7082       52.30142         0.7441       -44.3828        -2.8734      0.4106685      0.9328154
      3081.5000         0.8882        52.4612       50.72041         0.6794       -44.8531        -3.3437        0.37703      0.8966385
      3082.0000         0.8242        53.3582       51.84985         0.6359       -45.2709        -3.7615      0.4010606         0.8645
      3082.5000         0.7535        55.8315       54.97216         0.5992       -45.3978        -3.8884      0.4674927      0.8547385
      3083.0000         0.6973        61.6435       62.31512         0.5732       -45.0528        -3.5434      0.6237261      0.8812769
      3083.5000         0.6743        69.0524       71.67689         0.5538        -44.425        -2.9156      0.8229125      0.9295692
      3084.0000         0.6573        74.7046       78.81783         0.5465       -43.9029        -2.3935      0.9748475      0.9697307
      3084.5000          0.646        73.7416       77.59599         0.5459       -43.9891        -2.4797      0.9488508         0.9631
      3085.0000         0.6385        72.9525       76.59386         0.5511       -43.9386        -2.4292      0.9275289      0.9669846
      3085.5000         0.6344        74.3359        78.3382         0.5647       -43.4521        -1.9427      0.9646425              1
      3086.0000          0.631        75.4996       79.80479         0.5866       -43.4226        -1.9132      0.9958467              1
      3086.5000         0.6308        76.0768       80.53007         0.6134       -43.2184         -1.709              1              1
      3087.0000         0.6357        72.3723       75.84229         0.5926       -43.8492        -2.3398      0.9115381      0.9738616
      3087.5000         0.6431        67.5619       69.75645         0.5558       -45.7136        -4.2042       0.782052      0.8304462
      3088.0000          0.652        59.7666        59.8971         0.5136       -47.1121        -5.6027      0.5722788      0.7228692
      3088.5000          0.661        53.5239       52.00066         0.4742       -49.5912        -8.0818      0.4042694      0.5321692
      3089.0000         0.5934        51.4656       49.39401         0.4358       -51.3712        -9.8618      0.3488088      0.3952461
      3089.5000         0.5437        49.6868       47.14071         0.4044       -52.2709       -10.7615      0.3008661      0.3260384
