#------------------------------------------------------------------------------
# Created by    : vladimir.rabinovich
# Created on    : 09/19/2023 17:22:25
#------------------------------------------------------------------------------
~Version Information Section
VERS.           2.0     :   CWLS log ASCII Standard - VERSION 2.0
WRAP.           NO      :   One line per depth step
~Well Information Section
#MNEM       .UNIT                                         VALUE :DESCRIPTION
#------------------------------------------------------------------------------
STRT        .FT                                            2996 :START DEPTH
STOP        .FT                                            8909 :STOP DEPTH
STEP        .FT                                             0.5 :STEP      
NULL        .                                           -999.25 :NULL      
COMP        .                             PHILLIPS PETROLEUM CO :COMPANY   
WELL        .                                OCS 00299 ST00BP00 :WELL      
FLD         .                           WEST CAMERON BLOCK 0045 :FIELD     
LOC         .                                                   :LOCATION  
CNTY        .                                      WEST CAMERON :LOCATION  
STAT        .                                         LOUISIANA :STATE     
CTRY        .                                     UNITED STATES :COUNTRY   
SRVC        .                                                   :SERVICE COMPANY
DATE        .                             9/13/2023 11:18:09 AM :LOG DATE  
API         .                                    17700407290000 :API NUMBER
UWI         .                                    17700407290000 :UNIQUE WELL ID
XCOORD      .                                  1446390.31791034 :SURFACE X 
YCOORD      .                                  10761453.0604348 :SURFACE Y 
LAT         .                                        29.6510516 :LATITUDE  
LON         .                                       -93.6110308 :LONGITUDE 
ELEV        .FT                                              99 :ELEVATION VALUE
ELEV_TYPE   .                                                KB :ELEVATION REFERENCE TYPE
~Curve Information Section
#MNEM       .UNIT                                      API CODE :CURVE DESCRIPTION
#------------------------------------------------------------------------------
DEPT        .FT                                                 :DEPTH     
CALX        .IN                                                 :          
CDL         .%                                                  :          
CILD        .MMHO                                               :          
CNS         .%                                                  :          
DRHO        .G/C3                                               :          
GR_NORM     .GAPI                                               :GammaRay Normalized
RILD        .OHMM                                               :          
RILM        .OHMM                                               :          
RLL         .OHMM                                               :          
SP          .MV                                                 :          
SP_NORM     .MV                                                 :SP Normalized
TENS        .LB                                                 :          
VSH_GR      .V/V                                                :Volume of Shale from GR
VSH_SP      .V/V                                                :Volume of Shale from SP
~A        DEPTH           CALX            CDL           CILD            CNS           DRHO        GR_NORM           RILD           RILM            RLL             SP        SP_NORM           TENS         VSH_GR         VSH_SP
# ...
      8882.0000        11.5181        31.9412           1152         24.551         0.1451       75.63744         0.8838         0.8759          0.981        -1.9388        -3.8436       3196.078      0.9071795      0.9397429
      8882.5000           11.6        34.9412           1152        24.1837          0.153        76.8909         0.8838          0.868         1.0668        -2.0408        -3.9456       3254.902      0.9338489      0.9324571
      8883.0000          10.98          38.82           1136        24.2449         0.1373       74.45001         0.8838         0.8601         0.9717        -2.0408        -3.9456       3313.726      0.8819152      0.9324571
      8883.5000           10.2        42.3529           1120        24.9796         0.1088       71.31448         0.8838         0.8447         0.8447        -2.2449        -4.1497       3294.118      0.8152018      0.9178786
      8884.0000         9.8431        43.2353           1120        25.5918          0.096       68.90251         0.8838         0.8447         0.8146         -2.449        -4.3538       3235.294      0.7638832         0.9033
      8884.5000         9.7059             42           1136        25.6531          0.085       67.21407         0.8919         0.8601         0.9717        -2.6531        -4.5579       3215.686       0.727959      0.8887214
      8885.0000         9.6863        41.8824           1136        25.5306          0.078       66.00808         0.9087         0.8759         1.2255        -2.7551        -4.6599       3215.686      0.7022995      0.8814357
      8885.5000         9.4706        44.0588           1104        25.2857          0.074       65.28454         0.9174         0.8919         1.1173        -2.7551        -4.6599       3196.078      0.6869051      0.8814357
      8886.0000         9.2353        45.4118           1088        25.0408          0.078       65.52575         0.9352         0.9087         0.9905        -2.7551        -4.6599       3176.471      0.6920372      0.8814357
      8886.5000            8.9        42.7059           1072        24.7959          0.101       66.49052         0.9532         0.9087         0.9174        -2.8571        -4.7619       3196.078      0.7125642        0.87415
      8887.0000           8.82        39.2941           1056        24.6122         0.1235       66.49052         0.9532            0.9         1.0281        -2.9592         -4.864       3215.686      0.7125642      0.8668572
      8887.5000           8.82        35.9412           1056        24.6122         0.1284       66.49052         0.9442            0.9         1.1701        -2.9592         -4.864       3235.294      0.7125642      0.8668572
      8888.0000           8.82        34.4118           1072        24.6735         0.1284       66.73174         0.9352         0.8919          1.192        -3.1633        -5.0681       3235.294      0.7176967      0.8522786
      8888.5000        -999.25        -999.25       1086.275        -999.25        -999.25        -999.25         0.9262         0.8919         1.1173        -3.2653        -5.1701       3213.208        -999.25      0.8449928
      8889.0000        -999.25        -999.25       1115.936        -999.25        -999.25        -999.25         0.9174         0.8838         1.0187        -2.9592         -4.864       3209.323        -999.25      0.8668572
      8889.5000        -999.25        -999.25       1129.692        -999.25        -999.25        -999.25         0.9087         0.8838          0.981        -2.6531        -4.5579       3205.399        -999.25      0.8887214
      8890.0000        -999.25        -999.25       1143.589        -999.25        -999.25        -999.25         0.8919         0.8601         0.9442        -2.3469        -4.2517       3201.436        -999.25      0.9105929
      8890.5000        -999.25        -999.25        1175.51        -999.25        -999.25        -999.25          0.868         0.8295         0.9624        -2.1429        -4.0477           3220        -999.25      0.9251643
      8891.0000        -999.25        -999.25       1208.163        -999.25        -999.25        -999.25         0.8371         0.8073         0.9174        -2.0408        -3.9456           3220        -999.25      0.9324571
      8891.5000        -999.25        -999.25       1257.143        -999.25        -999.25        -999.25            0.8         0.7774          0.822        -2.1429        -4.0477           3200        -999.25      0.9251643
      8892.0000        -999.25        -999.25       1289.796        -999.25        -999.25        -999.25         0.7555         0.7555         0.8146         -2.551        -4.4558           3200        -999.25      0.8960143
      8892.5000        -999.25        -999.25       1355.102        -999.25        -999.25        -999.25         0.7483         0.7342         1.0094        -3.0612         -4.966           3180        -999.25      0.8595714
      8893.0000        -999.25        -999.25       1371.429        -999.25        -999.25        -999.25         0.7342         0.7135         1.0678        -3.7755        -5.6803           3200        -999.25        0.80855
      8893.5000        -999.25        -999.25       1420.408        -999.25        -999.25        -999.25         0.7135         0.7067         1.1401        -4.4898        -6.3946           3200        -999.25      0.7575286
      8894.0000        -999.25        -999.25       1453.061        -999.25        -999.25        -999.25            0.7            0.7         1.1617             -5        -6.9048           3160        -999.25      0.7210857
      8894.5000        -999.25        -999.25       1453.061        -999.25        -999.25        -999.25         0.6937         0.6874         1.1837           -5.5        -7.4048           3160        -999.25      0.6853715
      8895.0000        -999.25        -999.25       1453.061        -999.25        -999.25        -999.25         0.6937            0.7         1.1837           -5.7        -7.6048           3180        -999.25      0.6710857
      8895.5000        -999.25        -999.25       1436.735        -999.25        -999.25        -999.25         0.6874         0.7135         1.1509           -5.7        -7.6048           3260        -999.25      0.6710857
      8896.0000        -999.25        -999.25       1420.408        -999.25        -999.25        -999.25            0.7         0.7272         1.0982           -5.4        -7.3048           3320        -999.25      0.6925143
      8896.5000        -999.25        -999.25       1387.755        -999.25        -999.25        -999.25         0.7135         0.7342         1.0382           -5.1        -7.0048           3360        -999.25      0.7139429
      8897.0000        -999.25        -999.25       1371.429        -999.25        -999.25        -999.25         0.7272         0.7483              1        -4.6939        -6.5987           3340        -999.25        0.74295
      8897.5000        -999.25        -999.25       1338.776        -999.25        -999.25        -999.25         0.7483         0.7701              1        -4.1837        -6.0885           3280        -999.25      0.7793928
      8898.0000        -999.25        -999.25       1306.122        -999.25        -999.25        -999.25         0.7627         0.8073          1.088        -3.9796        -5.8844           3260        -999.25      0.7939714
      8898.5000        -999.25        -999.25       1306.122        -999.25        -999.25        -999.25         0.7849         0.8447         1.1509        -3.8652          -5.77           3260        -999.25      0.8021429
      8899.0000        -999.25        -999.25       1289.796        -999.25        -999.25        -999.25            0.8         0.8838          1.119        -3.6426        -5.5474           3260        -999.25      0.8180429
      8899.5000        -999.25        -999.25       1273.469        -999.25        -999.25        -999.25            0.8         0.9087              1        -3.4224        -5.3272           3300        -999.25      0.8337714
