#------------------------------------------------------------------------------
# Created by    : vladimir.rabinovich
# Created on    : 09/19/2023 17:20:47
#------------------------------------------------------------------------------
~Version Information Section
VERS.           2.0     :   CWLS log ASCII Standard - VERSION 2.0
WRAP.           NO      :   One line per depth step
~Well Information Section
#MNEM       .UNIT                                         VALUE :DESCRIPTION
#------------------------------------------------------------------------------
STRT        .FT                                             612 :START DEPTH
STOP        .FT                                            9868 :STOP DEPTH
STEP        .FT                                             0.5 :STEP      
NULL        .                                           -999.25 :NULL      
COMP        .                                      SHELL OIL CO :COMPANY   
WELL        .                               OCS G00950 ST00BP00 :WELL      
FLD         .                                           WILDCAT :FIELD     
LOC         .                                                   :LOCATION  
CNTY        .                                      EAST CAMERON :LOCATION  
STAT        .                                         LOUISIANA :STATE     
CTRY        .                                     UNITED STATES :COUNTRY   
SRVC        .                                                   :SERVICE COMPANY
DATE        .                             9/13/2023 11:18:15 AM :LOG DATE  
API         .                                    17703002450000 :API NUMBER
UWI         .                                    17703002450000 :UNIQUE WELL ID
XCOORD      .                                  1691932.89207312 :SURFACE X 
YCOORD      .                                   10460306.475122 :SURFACE Y 
LAT         .                                        28.8238717 :LATITUDE  
LON         .                                       -92.8390619 :LONGITUDE 
ELEV        .FT                                              75 :ELEVATION VALUE
ELEV_TYPE   .                                                KB :ELEVATION REFERENCE TYPE
~Curve Information Section
#MNEM       .UNIT                                      API CODE :CURVE DESCRIPTION
#------------------------------------------------------------------------------
DEPT        .FT                                                 :DEPTH     
ASN         .OHMM                                               :          
GR          .GAPI                                               :          
GR_NORM     .GAPI                                               :GammaRay Normalized
ILD         .OHMM                                               :          
SP          .MV                                                 :          
SP_NORM     .MV                                                 :SP Normalized
VSH_GR      .V/V                                                :Volume of Shale from GR
VSH_SP      .V/V                                                :Volume of Shale from SP
~A        DEPTH            ASN             GR        GR_NORM            ILD             SP        SP_NORM         VSH_GR         VSH_SP
# ...
      4919.0000         0.6495        -999.25        -999.25         0.4844       -43.1938        -6.1288        -999.25      0.9067491
      4919.5000         0.6422        -999.25        -999.25         0.4733       -42.6584        -5.5875        -999.25      0.9165909
      4920.0000         0.6277        -999.25        -999.25         0.4448       -42.3243        -5.2475        -999.25      0.9227727
      4920.5000         0.6293        -999.25        -999.25         0.4223       -42.3473        -5.2646        -999.25      0.9224618
      4921.0000         0.6607        -999.25        -999.25         0.4005       -43.3682        -6.2796        -999.25      0.9040073
      4921.5000         0.6806        -999.25        -999.25         0.3861       -45.8044        -8.7099        -999.25        0.85982
      4922.0000         0.6907        -999.25        -999.25         0.3771       -52.1185       -15.0182        -999.25      0.7451236
      4922.5000         0.7011        -999.25        -999.25         0.3666       -61.5526       -24.4464        -999.25      0.5737018
      4923.0000         0.7173        -999.25        -999.25         0.3544       -66.0355       -28.9234        -999.25      0.4923018
      4923.5000         0.7236        -999.25        -999.25         0.3438       -68.8303       -31.7123        -999.25      0.4415946
      4924.0000         0.7012        -999.25        -999.25         0.3343       -69.0327       -31.9088        -999.25      0.4380218
      4924.5000         0.6837        -999.25        -999.25         0.3191       -68.4076       -31.2779        -999.25      0.4494927
      4925.0000         0.6716        -999.25        -999.25         0.3108       -68.0919       -30.9563        -999.25        0.45534
      4925.5000         0.6604        -999.25        -999.25         0.3205       -68.3645        -31.223        -999.25      0.4504909
      4926.0000         0.6503        -999.25        -999.25         0.3223       -70.7255       -33.5781        -999.25      0.4076709
      4926.5000         0.6492        -999.25        -999.25         0.3044       -75.6792       -38.5259        -999.25      0.3177109
      4927.0000         0.6458        -999.25        -999.25         0.2886       -82.3777       -45.2186        -999.25      0.1960254
      4927.5000          0.636        -999.25        -999.25         0.2738       -86.0597       -48.8947        -999.25      0.1291873
      4928.0000         0.6209        -999.25        -999.25         0.2571       -88.6487       -51.4778        -999.25     0.08222184
      4928.5000         0.6004        -999.25        -999.25          0.242       -89.1461       -51.9693        -999.25     0.07328547
      4929.0000         0.5787        -999.25        -999.25         0.2254       -88.7494       -51.5667        -999.25     0.08060545
      4929.5000         0.5565        -999.25        -999.25         0.2113       -88.4952       -51.3067        -999.25      0.0853327
      4930.0000         0.5339        -999.25        -999.25         0.1973       -89.0258       -51.8314        -999.25     0.07579269
      4930.5000         0.5097        -999.25        -999.25         0.1831       -90.3972       -53.1969        -999.25     0.05096547
      4931.0000          0.485        -999.25        -999.25         0.1715       -91.6615       -54.4553        -999.25     0.02808547
      4931.5000         0.4596        -999.25        -999.25         0.1695       -92.0222       -54.8101        -999.25     0.02163454
      4932.0000         0.4384        -999.25        -999.25         0.1746       -90.9247       -53.7067        -999.25     0.04169637
      4932.5000          0.427        -999.25        -999.25         0.1867       -87.8982       -50.6744        -999.25     0.09682909
      4933.0000         0.4608        -999.25        -999.25         0.2075       -82.2889       -45.0592        -999.25      0.1989236
      4933.5000         0.5014        -999.25        -999.25         0.2323       -74.2103       -36.9747        -999.25      0.3459145
      4934.0000         0.5446        -999.25        -999.25         0.2625       -64.2094       -26.9679        -999.25      0.5278563
      4934.5000         0.5833        -999.25        -999.25         0.3003        -58.435       -21.1876        -999.25      0.6329527
      4935.0000         0.6111        -999.25        -999.25          0.344       -54.8097       -17.5565        -999.25      0.6989728
      4935.5000         0.6333        -999.25        -999.25         0.3959       -51.9238       -14.6647        -999.25      0.7515509
      4936.0000          0.659        -999.25        -999.25         0.4427       -50.5199       -13.2549        -999.25      0.7771837
      4936.5000         0.6976        -999.25        -999.25         0.4259       -51.1733       -13.9024        -999.25      0.7654109
      4937.0000         0.7215        -999.25        -999.25         0.4109       -52.6496       -15.3728        -999.25      0.7386764
      4937.5000         0.7413        -999.25        -999.25         0.3999       -54.6323       -17.3497        -999.25      0.7027327
      4938.0000         0.7542        -999.25        -999.25         0.3956       -57.0007       -19.7122        -999.25      0.6597782
      4938.5000         0.7665        -999.25        -999.25         0.3945       -59.0018       -21.7074        -999.25      0.6235018
      4939.0000          0.779        -999.25        -999.25         0.3948       -60.5976       -23.2973        -999.25      0.5945945
      4939.5000         0.7911        -999.25        -999.25         0.3971       -61.7541       -24.4479        -999.25      0.5736746
      4940.0000         0.7916        -999.25        -999.25         0.3994       -61.4244       -24.1124        -999.25      0.5797746
      4940.5000         0.7822        -999.25        -999.25         0.3997       -60.0271       -22.7092        -999.25      0.6052873
      4941.0000         0.7727        -999.25        -999.25            0.4       -58.5176       -21.1938        -999.25        0.63284
      4941.5000         0.7606        -999.25        -999.25         0.4061       -57.0672       -19.7375        -999.25      0.6593182
      4942.0000         0.7469        -999.25        -999.25         0.4136       -55.7376        -18.402        -999.25         0.6836
      4942.5000         0.7305        -999.25        -999.25         0.4253       -54.4228       -17.0813        -999.25      0.7076127
      4943.0000         0.7167        -999.25        -999.25         0.4393        -52.355       -15.0077        -999.25      0.7453145
      4943.5000           0.73        -999.25        -999.25         0.4545       -49.3705       -12.0173        -999.25      0.7996855
      4944.0000         0.7485        -999.25        -999.25         0.4704       -46.0336        -8.6745        -999.25      0.8604636
      4944.5000         0.7587        -999.25        -999.25          0.484       -45.8167        -8.4517        -999.25      0.8645145
      4945.0000         0.7577        -999.25        -999.25         0.4954       -48.0385       -10.6676        -999.25      0.8242255
      4945.5000         0.7508        -999.25        -999.25         0.5021       -49.6478       -12.2711        -999.25      0.7950709
      4946.0000         0.7206        -999.25        -999.25         0.5043        -48.158       -10.7754        -999.25      0.8222654
      4946.5000         0.6832        -999.25        -999.25          0.486       -44.6214        -7.2329        -999.25      0.8866745
      4947.0000         0.6455        -999.25        -999.25         0.4683       -39.1995        -1.8051        -999.25      0.9853618
      4947.5000          0.642        -999.25        -999.25          0.451       -35.4877         1.9126        -999.25              1
      4948.0000         0.6533        -999.25        -999.25         0.4303       -35.4669         1.9392        -999.25              1
