#------------------------------------------------------------------------------
# Created by    : vladimir.rabinovich
# Created on    : 09/19/2023 17:20:44
#------------------------------------------------------------------------------
~Version Information Section
VERS.           2.0     :   CWLS log ASCII Standard - VERSION 2.0
WRAP.           NO      :   One line per depth step
~Well Information Section
#MNEM       .UNIT                                         VALUE :DESCRIPTION
#------------------------------------------------------------------------------
STRT        .FT                                             194 :START DEPTH
STOP        .FT                                           14521 :STOP DEPTH
STEP        .FT                                             0.5 :STEP      
NULL        .                                           -999.25 :NULL      
COMP        .                             MAGNOLIA PETROLEUM CO :COMPANY   
WELL        .                                OCS 00043 ST00BP00 :WELL      
FLD         .                          EUGENE ISLAND BLOCK 0089 :FIELD     
LOC         .                                                   :LOCATION  
CNTY        .                                     EUGENE ISLAND :LOCATION  
STAT        .                                         LOUISIANA :STATE     
CTRY        .                                     UNITED STATES :COUNTRY   
SRVC        .                                                   :SERVICE COMPANY
DATE        .                             9/13/2023 11:18:42 AM :LOG DATE  
API         .                                    17709003920000 :API NUMBER
UWI         .                                    17709003920000 :UNIQUE WELL ID
XCOORD      .                                  2056408.80151155 :SURFACE X 
YCOORD      .                                  10562022.8372996 :SURFACE Y 
LAT         .                                        29.0974849 :LATITUDE  
LON         .                                       -91.6970667 :LONGITUDE 
ELEV        .FT                                              50 :ELEVATION VALUE
ELEV_TYPE   .                                                KB :ELEVATION REFERENCE TYPE
~Curve Information Section
#MNEM       .UNIT                                      API CODE :CURVE DESCRIPTION
#------------------------------------------------------------------------------
DEPT        .FT                                                 :DEPTH     
ASN         .OHMM                                               :          
LAT         .OHMM                                               :          
LN          .OHMM                                               :          
SP          .MV                                                 :          
SP_NORM     .MV                                                 :SP Normalized
VSH_SP      .V/V                                                :Volume of Shale from SP
~A        DEPTH            ASN            LAT             LN             SP        SP_NORM         VSH_SP
# ...
     10682.0000         0.8375         0.5125         0.7794       -56.1423      -2.264477      0.9433881
     10682.5000         0.8311         0.5122         0.7802       -56.0656      -2.189407      0.9452648
     10683.0000         0.8242          0.512          0.781       -55.9592      -2.084637      0.9478841
     10683.5000         0.8157         0.5117         0.7818        -55.725      -1.852058      0.9536985
     10684.0000         0.8072         0.5114         0.7822       -55.4913      -1.619987      0.9595003
     10684.5000         0.7986         0.5112         0.7827       -55.2577      -1.388016      0.9652996
     10685.0000         0.8046         0.5109         0.7831        -55.024      -1.155941      0.9711015
     10685.5000          0.818         0.5106         0.7836       -54.7904     -0.9239693      0.9769008
     10686.0000         0.8312         0.5109          0.784       -54.7109      -0.846096      0.9788476
     10686.5000         0.8443         0.5113         0.7845       -54.6342     -0.7710228      0.9807245
     10687.0000         0.8517         0.5118         0.7843       -54.5576     -0.6960487      0.9825988
     10687.5000         0.8586         0.5122         0.7829        -54.481     -0.6210747      0.9844731
     10688.0000         0.8655         0.5127         0.7816       -54.4043     -0.5460052      0.9863499
     10688.5000         0.8701         0.5131         0.7802       -54.3278     -0.4711342      0.9882216
     10689.0000         0.8743         0.5135         0.7788       -54.3614     -0.5063591       0.987341
     10689.5000         0.8725          0.514         0.7775       -54.4095     -0.5560875      0.9860978
     10690.0000         0.8688         0.5144         0.7761       -54.4575     -0.6057129      0.9848572
     10690.5000         0.8555         0.5149         0.7747       -54.5056     -0.6554413       0.983614
     10691.0000         0.8415         0.5153         0.7734       -54.5535     -0.7049675      0.9823758
     10691.5000         0.8321         0.5157         0.7725       -54.5891     -0.7421951      0.9814451
     10692.0000         0.8227         0.5162         0.7729       -54.5226     -0.6773186       0.983067
     10692.5000         0.8136         0.5167         0.7733       -54.4564      -0.612751      0.9846812
     10693.0000         0.8077         0.5173         0.7737       -54.3899     -0.5478745      0.9863032
     10693.5000         0.8017         0.5179         0.7741       -54.3236     -0.4832039      0.9879199
     10694.0000         0.7978         0.5185         0.7745       -54.2571     -0.4183311      0.9895417
     10694.5000         0.7964         0.5191         0.7749        -54.205     -0.3678589      0.9908035
     10695.0000         0.7951         0.5197         0.7753       -54.1611     -0.3255844      0.9918604
     10695.5000         0.7938         0.5202         0.7758       -54.1172     -0.2833099      0.9929172
     10696.0000         0.7939         0.5208         0.7762       -54.0734     -0.2411385      0.9939715
     10696.5000         0.7941         0.5214         0.7766       -55.3887      -1.558064      0.9610484
     10697.0000         0.7983          0.522         0.7758       -56.6384      -2.809395      0.9297651
     10697.5000         0.8077         0.5226         0.7742       -57.3887      -3.561317      0.9109671
     10698.0000         0.8186         0.5232         0.7725       -58.1379      -4.312149      0.8921963
     10698.5000         0.8181         0.5238         0.7709       -59.1046      -5.280472      0.8679882
     10699.0000         0.8124         0.5244         0.7692        -59.856      -6.033501      0.8491625
     10699.5000          0.809          0.525         0.7676         -60.31      -6.489132      0.8377717
     10700.0000         0.8061         0.5249         0.7659        -60.605      -6.785755      0.8303561
     10700.5000         0.8281         0.5245         0.7643       -60.6718      -6.854183      0.8286454
     10701.0000         0.8338         0.5242         0.7626       -60.7159       -6.89991      0.8275023
     10701.5000         0.8395         0.5238          0.761       -60.5167      -6.702339      0.8324415
     10702.0000         0.8445         0.5235         0.7605       -60.3177      -6.504963      0.8373759
     10702.5000         0.8437         0.5231         0.7604       -60.1185      -6.307392      0.8423152
     10703.0000         0.8428         0.5228         0.7603       -59.9196      -6.110119       0.847247
     10703.5000          0.839         0.5224         0.7602       -59.7203      -5.912445      0.8521889
     10704.0000         0.8295         0.5221           0.76       -59.5214      -5.715172      0.8571207
     10704.5000         0.8201         0.5218         0.7599       -59.3136      -5.508999       0.862275
     10705.0000         0.8072         0.5214         0.7598        -59.096       -5.29303      0.8676742
     10705.5000         0.7931         0.5211         0.7597       -58.8785      -5.077156      0.8730711
     10706.0000         0.7826         0.5207         0.7596       -58.6604      -4.860683      0.8784829
     10706.5000         0.7741         0.5204         0.7595       -58.4429       -4.64481      0.8838798
     10707.0000         0.7777           0.52           0.76       -58.2253      -4.428837      0.8892791
     10707.5000          0.787         0.5197         0.7605       -58.0078      -4.212963      0.8946759
     10708.0000         0.8016         0.5194         0.7611       -57.7897       -3.99649      0.9000877
     10708.5000         0.8087         0.5191         0.7617       -57.5901      -3.798515      0.9050371
     10709.0000         0.8094         0.5188         0.7622       -57.4722      -3.682243      0.9079439
     10709.5000         0.8065         0.5184         0.7628       -57.3546      -3.566269      0.9108433
     10710.0000         0.8036         0.5181         0.7634       -57.2367      -3.449997      0.9137501
     10710.5000         0.7999         0.5178         0.7639        -57.119      -3.333927      0.9166518
     10711.0000         0.7966         0.5175         0.7645       -57.0011      -3.217651      0.9195587
     10711.5000          0.794         0.5172         0.7651       -56.8834      -3.101582      0.9224604
     10712.0000         0.7913         0.5168         0.7652       -56.8185      -3.038307      0.9240423
     10712.5000         0.7902         0.5165         0.7647       -56.9137      -3.135136      0.9216216
     10713.0000         0.7893         0.5162         0.7642       -57.0089       -3.23196       0.919201
     10713.5000         0.7885         0.5159         0.7638        -57.104       -3.32869      0.9167827
     10714.0000         0.7885         0.5151         0.7633       -57.1992      -3.425514      0.9143621
     10714.5000         0.7906         0.5143         0.7629       -57.2943      -3.522243      0.9119439
     10715.0000         0.7926         0.5135         0.7624       -57.3894      -3.618969      0.9095258
     10715.5000         0.7944         0.5127         0.7619       -57.5546      -3.785797      0.9053551
     10716.0000         0.7961         0.5119         0.7615         -57.78      -4.012825      0.8996794
     10716.5000         0.7987          0.511          0.761       -58.0052      -4.239651      0.8940088
     10717.0000         0.8018         0.5102         0.7606       -58.2306      -4.466679       0.888333
     10717.5000          0.803         0.5094         0.7603       -58.4559      -4.693604      0.8826599
     10718.0000         0.7975         0.5086         0.7602       -58.6357      -4.875034      0.8781241
     10718.5000         0.7906         0.5078           0.76       -58.7952       -5.03616       0.874096
     10719.0000         0.7754         0.5069         0.7599       -58.9551      -5.197689      0.8700578
     10719.5000         0.7601         0.5061         0.7598       -59.1149      -5.359112      0.8660222
