#------------------------------------------------------------------------------
# Created by    : vladimir.rabinovich
# Created on    : 09/19/2023 17:21:14
#------------------------------------------------------------------------------
~Version Information Section
VERS.           2.0     :   CWLS log ASCII Standard - VERSION 2.0
WRAP.           NO      :   One line per depth step
~Well Information Section
#MNEM       .UNIT                                         VALUE :DESCRIPTION
#------------------------------------------------------------------------------
STRT        .FT                                            3520 :START DEPTH
STOP        .FT                                            8510 :STOP DEPTH
STEP        .FT                                             0.5 :STEP      
NULL        .                                           -999.25 :NULL      
COMP        .                      SPINNAKER EXPLORATION CO LLC :COMPANY   
WELL        .                               OCS G21537 ST00BP00 :WELL      
FLD         .                                           WILDCAT :FIELD     
LOC         .                                                   :LOCATION  
CNTY        .                                      WEST CAMERON :LOCATION  
STAT        .                                         LOUISIANA :STATE     
CTRY        .                                     UNITED STATES :COUNTRY   
SRVC        .                                                   :SERVICE COMPANY
DATE        .                             9/13/2023 11:18:49 AM :LOG DATE  
API         .                                    17700410830000 :API NUMBER
UWI         .                                    17700410830000 :UNIQUE WELL ID
XCOORD      .                                   1446389.6294369 :SURFACE X 
YCOORD      .                                  10699667.6074025 :SURFACE Y 
LAT         .                                        29.4810902 :LATITUDE  
LON         .                                       -93.6100108 :LONGITUDE 
ELEV        .FT                                              91 :ELEVATION VALUE
ELEV_TYPE   .                                                KB :ELEVATION REFERENCE TYPE
~Curve Information Section
#MNEM       .UNIT                                      API CODE :CURVE DESCRIPTION
#------------------------------------------------------------------------------
DEPT        .FT                                                 :DEPTH     
CAL         .IN                                                 :          
CNC         .%                                                  :          
GR          .GAPI                                               :          
GR_NORM     .GAPI                                               :GammaRay Normalized
M0C6        .MMHO                                               :          
M2R1        .OHMM                                               :          
M2R2        .OHMM                                               :          
M2R3        .OHMM                                               :          
M2R6        .OHMM                                               :          
M2R9        .OHMM                                               :          
M2RX        .OHMM                                               :          
PORZ        .%                                                  :          
SP          .MV                                                 :          
SP_NORM     .MV                                                 :SP Normalized
TEN         .LB/F                                               :          
VSH_GR      .V/V                                                :Volume of Shale from GR
VSH_SP      .V/V                                                :Volume of Shale from SP
ZCOR        .G/CC                                               :          
~A        DEPTH            CAL            CNC             GR        GR_NORM           M0C6           M2R1           M2R2           M2R3           M2R6           M2R9           M2RX           PORZ             SP        SP_NORM            TEN         VSH_GR         VSH_SP           ZCOR
# ...
      5508.0000         10.593          38.52         96.088        71.2677       1154.959          0.764           0.85          0.878           0.88          0.884          0.902         23.724         -3.539        -1.6342        559.237      0.8142064              1          0.027
      5508.5000         10.585         37.052         93.886        69.0735       1158.003          0.757           0.85          0.881          0.884          0.889          0.907         24.141         -3.364        -1.4592        559.871      0.7675213              1          0.032
      5509.0000         10.582         37.305         89.596        64.7913       1164.947          0.753          0.852          0.885          0.889          0.895          0.913         24.525         -2.969        -1.0642        562.756      0.6764106              1          0.045
      5509.5000         10.582          40.11         86.637          61.84       1175.179          0.739          0.839          0.872          0.876          0.884            0.9         25.121         -2.369        -0.4642         558.93       0.613617              1          0.059
      5510.0000         10.589         43.079         87.467        62.6778       1188.338          0.724          0.819          0.852          0.857          0.865           0.88         25.675         -1.991        -0.0862        556.863      0.6314425              1          0.068
      5510.5000         10.623          41.87         91.294        66.5126       1204.027          0.723          0.812          0.843          0.848          0.857          0.871         25.503         -2.198        -0.2932        562.997      0.7130341              1          0.063
      5511.0000         10.688         39.056         95.049        70.2754       1221.663          0.731          0.811           0.84          0.844          0.854          0.868         24.437         -3.014        -1.1092        566.936      0.7930936              1          0.047
      5511.5000         10.754          38.13         96.972        72.2062       1240.344          0.733          0.802          0.828          0.832          0.842          0.855          23.01         -3.955        -2.0502        571.678      0.8341745      0.9986055          0.033
      5512.0000         10.789         38.252         97.967         73.209       1258.843          0.726          0.785          0.807          0.811          0.821          0.833         21.874         -4.446        -2.5412        589.256      0.8555107      0.9849667           0.03
      5512.5000           10.8         38.781          99.01        74.2598        1275.75          0.715          0.765          0.785          0.789          0.798           0.81         21.397         -4.673        -2.7682        606.081      0.8778682      0.9786611          0.034
      5513.0000         10.805         40.724         99.391        74.6486       1289.645            0.7          0.743          0.761          0.765          0.774          0.785         21.666         -5.057        -3.1522        605.115      0.8861404      0.9679945          0.043
      5513.5000         10.805         42.044         98.855        74.1204       1299.343          0.686          0.723          0.739          0.744          0.753          0.763         22.456         -5.427        -3.5222         605.33      0.8749021      0.9577166          0.049
      5514.0000         10.801         39.909         98.067        73.3401       1304.075          0.687          0.718          0.734           0.74          0.748          0.759         23.396         -5.943        -4.0382        614.525      0.8583001      0.9433833          0.045
      5514.5000         10.795         37.381          97.15        72.4309       1303.661          0.701           0.73          0.747          0.755          0.763          0.773         24.172         -6.765        -4.8602        610.729      0.8389553        0.92055          0.031
      5515.0000         10.797         37.147         97.449        72.7377       1298.578          0.703          0.736          0.755          0.763          0.771          0.782         24.598         -6.792        -4.8872        596.799       0.845483         0.9198          0.028
      5515.5000         10.831         39.039        100.019        75.3155       1289.954          0.689          0.731          0.752          0.761          0.769           0.78         24.756          -5.32        -3.4152        592.016      0.9003298      0.9606889          0.038
      5516.0000         10.916         41.486        102.989        78.2933       1279.486          0.685          0.739          0.763          0.771          0.779           0.79         24.958         -3.533        -1.6282        585.658      0.9636872              1          0.043
      5516.5000         11.012         44.331        104.857        80.1691       1269.284          0.695          0.761          0.787          0.795          0.802          0.814         25.226         -2.649        -0.7442         578.72              1              1          0.042
      5517.0000         11.068         46.948        106.075        81.3949         1261.7          0.706          0.777          0.804           0.81          0.817          0.829         25.277          -2.62        -0.7152         607.24              1              1          0.048
      5517.5000          11.11          46.38        105.914        81.2417       1259.214          0.714          0.785          0.809          0.812          0.819          0.831         25.277         -3.123        -1.2182        657.648              1              1          0.051
      5518.0000         11.184         41.871        102.708        78.0434       1264.264          0.735            0.8           0.82           0.82          0.826          0.837         25.701         -4.528        -2.6232        671.518      0.9583703      0.9826889          0.044
      5518.5000         11.166         37.252         97.856        73.1992       1279.213          0.777          0.833          0.847          0.843          0.849          0.859         26.155         -7.295        -5.3902        645.456      0.8553022      0.9058278          0.035
      5519.0000         10.948         34.833         94.894         70.245       1306.089          0.826          0.866          0.871          0.863          0.869          0.878         25.706        -10.287        -8.3822        616.995      0.7924469      0.8227167           0.03
      5519.5000         10.662         34.827         95.671        71.0298       1346.426          0.857          0.871          0.868          0.853          0.859          0.867         24.581         -11.83        -9.9252        604.597      0.8091447      0.7798555          0.024
      5520.0000         10.479         36.396         97.775        73.1416       1400.775           0.86           0.84          0.827          0.808          0.814          0.819         23.942        -12.359       -10.4542        614.022      0.8540766      0.7651611          0.026
      5520.5000         10.396         37.991         97.603        72.9774        1468.48          0.838          0.786          0.764          0.743          0.748          0.751           24.4        -13.648       -11.7432        633.875       0.850583      0.7293556          0.039
      5521.0000         10.358         38.623         93.961        69.3432       1547.355          0.808          0.729            0.7          0.678          0.682          0.683         25.959        -16.239       -14.3342        629.343      0.7732596      0.6573833          0.042
      5521.5000         10.348         37.537          86.97          62.36        1633.83          0.783          0.679          0.643          0.622          0.625          0.625         28.532        -20.136       -18.2312        598.147      0.6246809      0.5491334          0.024
