#------------------------------------------------------------------------------
# Created by    : vladimir.rabinovich
# Created on    : 09/19/2023 17:20:47
#------------------------------------------------------------------------------
~Version Information Section
VERS.           2.0     :   CWLS log ASCII Standard - VERSION 2.0
WRAP.           NO      :   One line per depth step
~Well Information Section
#MNEM       .UNIT                                         VALUE :DESCRIPTION
#------------------------------------------------------------------------------
STRT        .FT                                             612 :START DEPTH
STOP        .FT                                            9868 :STOP DEPTH
STEP        .FT                                             0.5 :STEP      
NULL        .                                           -999.25 :NULL      
COMP        .                                      SHELL OIL CO :COMPANY   
WELL        .                               OCS G00950 ST00BP00 :WELL      
FLD         .                                           WILDCAT :FIELD     
LOC         .                                                   :LOCATION  
CNTY        .                                      EAST CAMERON :LOCATION  
STAT        .                                         LOUISIANA :STATE     
CTRY        .                                     UNITED STATES :COUNTRY   
SRVC        .                                                   :SERVICE COMPANY
DATE        .                             9/13/2023 11:18:15 AM :LOG DATE  
API         .                                    17703002450000 :API NUMBER
UWI         .                                    17703002450000 :UNIQUE WELL ID
XCOORD      .                                  1691932.89207312 :SURFACE X 
YCOORD      .                                   10460306.475122 :SURFACE Y 
LAT         .                                        28.8238717 :LATITUDE  
LON         .                                       -92.8390619 :LONGITUDE 
ELEV        .FT                                              75 :ELEVATION VALUE
ELEV_TYPE   .                                                KB :ELEVATION REFERENCE TYPE
~Curve Information Section
#MNEM       .UNIT                                      API CODE :CURVE DESCRIPTION
#------------------------------------------------------------------------------
DEPT        .FT                                                 :DEPTH     
ASN         .OHMM                                               :          
GR          .GAPI                                               :          
GR_NORM     .GAPI                                               :GammaRay Normalized
ILD         .OHMM                                               :          
SP          .MV                                                 :          
SP_NORM     .MV                                                 :SP Normalized
VSH_GR      .V/V                                                :Volume of Shale from GR
VSH_SP      .V/V                                                :Volume of Shale from SP
~A        DEPTH            ASN             GR        GR_NORM            ILD             SP        SP_NORM         VSH_GR         VSH_SP
# ...
      8606.5000         0.4552        -999.25        -999.25            0.3       -93.1254       -52.7638        -999.25      0.2462314
      8607.0000         0.4468        -999.25        -999.25          0.309       -93.1217       -52.7311        -999.25      0.2466986
      8607.5000          0.448        -999.25        -999.25          0.322       -91.3483       -50.9288        -999.25      0.2724457
      8608.0000         0.4579        -999.25        -999.25         0.3393       -85.0001       -44.5517        -999.25      0.3635471
      8608.5000         0.4739        -999.25        -999.25         0.3612       -78.9955       -38.5181        -999.25      0.4497414
      8609.0000          0.494        -999.25        -999.25         0.3761       -71.4407       -30.9344        -999.25        0.55808
      8609.5000         0.5202        -999.25        -999.25         0.3791       -71.6884       -31.1531        -999.25      0.5549557
      8610.0000         0.5473        -999.25        -999.25         0.3799       -73.3981       -32.8339        -999.25      0.5309443
      8610.5000         0.5728        -999.25        -999.25         0.3832        -71.578       -30.9848        -999.25        0.55736
      8611.0000         0.6112        -999.25        -999.25         0.3898        -67.835       -27.2129        -999.25      0.6112443
      8611.5000         0.6621        -999.25        -999.25         0.4052       -66.6428       -25.9917        -999.25        0.62869
      8612.0000         0.6955        -999.25        -999.25         0.4238       -70.0621       -29.3821        -999.25      0.5802557
      8612.5000         0.7091        -999.25        -999.25         0.4439       -73.4373       -32.7284        -999.25      0.5324514
      8613.0000         0.7238        -999.25        -999.25         0.4644       -73.6727       -32.9348        -999.25      0.5295029
      8613.5000         0.7387        -999.25        -999.25         0.4847       -69.9591       -29.1923        -999.25      0.5829671
      8614.0000         0.7532        -999.25        -999.25         0.5048       -61.9922       -21.1964        -999.25      0.6971943
      8614.5000         0.7674        -999.25        -999.25         0.5261       -57.2924       -16.4677        -999.25      0.7647471
      8615.0000         0.7818        -999.25        -999.25         0.5491       -55.3056       -14.4519        -999.25      0.7935443
      8615.5000         0.7962        -999.25        -999.25         0.5701        -53.569       -12.6864        -999.25      0.8187657
      8616.0000         0.8121        -999.25        -999.25         0.5822       -51.1602       -10.2486        -999.25      0.8535914
      8616.5000         0.8275        -999.25        -999.25         0.5919       -48.6461        -7.7056        -999.25        0.88992
      8617.0000         0.8411        -999.25        -999.25         0.5941       -48.4976        -7.5281        -999.25      0.8924557
      8617.5000         0.8546        -999.25        -999.25         0.5999       -49.6615        -8.6631        -999.25      0.8762414
      8618.0000         0.8663        -999.25        -999.25         0.6091       -50.9787        -9.9514        -999.25      0.8578371
      8618.5000         0.8745        -999.25        -999.25         0.6182       -51.9476       -10.8913        -999.25        0.84441
      8619.0000         0.8783        -999.25        -999.25         0.6277       -50.4121        -9.3269        -999.25      0.8667586
      8619.5000         0.8804        -999.25        -999.25         0.6431       -48.7515        -7.6373        -999.25      0.8908957
      8620.0000         0.8865        -999.25        -999.25         0.6592       -47.1252        -5.9821        -999.25      0.9145414
      8620.5000         0.9013        -999.25        -999.25         0.6761       -45.6965        -4.5244        -999.25      0.9353657
      8621.0000         0.9183        -999.25        -999.25         0.6882       -44.7227        -3.5217        -999.25        0.94969
      8621.5000         0.9377        -999.25        -999.25         0.6972       -45.0372        -3.8072        -999.25      0.9456114
      8622.0000         0.9564        -999.25        -999.25         0.6993       -45.0302        -3.7713        -999.25      0.9461243
      8622.5000         0.9698        -999.25        -999.25          0.699       -44.7551        -3.4673        -999.25      0.9504672
      8623.0000         0.9679        -999.25        -999.25          0.694       -44.3112        -2.9944        -999.25      0.9572229
      8623.5000         0.9649        -999.25        -999.25         0.6905       -44.0659        -2.7202        -999.25        0.96114
      8624.0000          0.964        -999.25        -999.25         0.6874       -44.4013        -3.0266        -999.25      0.9567629
      8624.5000         0.9642        -999.25        -999.25         0.6843       -44.8986         -3.495        -999.25      0.9500715
      8625.0000         0.9655        -999.25        -999.25         0.6812       -45.2322        -3.7996        -999.25        0.94572
      8625.5000         0.9644        -999.25        -999.25          0.656       -45.5118        -4.0503        -999.25      0.9421386
      8626.0000         0.9701        -999.25        -999.25         0.6351       -45.6946        -4.2041        -999.25      0.9399414
      8626.5000         0.9726        -999.25        -999.25         0.6274       -45.3622        -3.8778        -999.25      0.9446028
      8627.0000         0.9686        -999.25        -999.25         0.6275       -44.9477        -3.5361        -999.25      0.9494843
      8627.5000         0.9679        -999.25        -999.25         0.6295       -44.8692        -3.5304        -999.25      0.9495657
      8628.0000         0.9703        -999.25        -999.25         0.6373       -45.1832        -3.9171        -999.25      0.9440414
      8628.5000         0.9736        -999.25        -999.25          0.646       -45.7332        -4.5399        -999.25      0.9351443
      8629.0000         0.9774        -999.25        -999.25         0.6584       -46.4446        -5.3241        -999.25      0.9239414
      8629.5000         0.9768        -999.25        -999.25         0.6705       -46.6346        -5.5869        -999.25      0.9201871
      8630.0000         0.9672        -999.25        -999.25         0.6824        -45.645          -4.67        -999.25      0.9332857
      8630.5000         0.9638        -999.25        -999.25         0.6864       -44.6122          -3.71        -999.25          0.947
      8631.0000         0.9667        -999.25        -999.25         0.6889       -43.5318        -2.7024        -999.25      0.9613943
      8631.5000         0.9747        -999.25        -999.25         0.6917       -42.5408        -1.7842        -999.25      0.9745114
      8632.0000         0.9838        -999.25        -999.25          0.698       -41.7424        -1.0585        -999.25      0.9848786
      8632.5000         0.9852        -999.25        -999.25         0.7071       -41.1807        -0.5696        -999.25      0.9918628
      8633.0000         0.9762        -999.25        -999.25         0.7229       -40.8591        -0.3208        -999.25      0.9954171
      8633.5000         0.9661        -999.25        -999.25         0.7433       -40.4092         0.0563        -999.25              1
      8634.0000         0.9729        -999.25        -999.25         0.7631       -39.3545         1.0383        -999.25              1
      8634.5000         0.9879        -999.25        -999.25         0.7749       -38.8126         1.5074        -999.25              1
      8635.0000          1.003        -999.25        -999.25         0.7823       -38.6965         1.5507        -999.25              1
      8635.5000          1.018        -999.25        -999.25         0.7868       -38.5015         1.6729        -999.25              1
