#------------------------------------------------------------------------------
# Created by    : vladimir.rabinovich
# Created on    : 09/19/2023 17:22:24
#------------------------------------------------------------------------------
~Version Information Section
VERS.           2.0     :   CWLS log ASCII Standard - VERSION 2.0
WRAP.           NO      :   One line per depth step
~Well Information Section
#MNEM       .UNIT                                         VALUE :DESCRIPTION
#------------------------------------------------------------------------------
STRT        .FT                                             955 :START DEPTH
STOP        .FT                                            8851 :STOP DEPTH
STEP        .FT                                             0.5 :STEP      
NULL        .                                           -999.25 :NULL      
COMP        .                                SHELL OFFSHORE INC :COMPANY   
WELL        .                               OCS G08627 ST00BP00 :WELL      
FLD         .                                           WILDCAT :FIELD     
LOC         .                                                   :LOCATION  
CNTY        .                                 WEST CAMERON WEST :LOCATION  
STAT        .                                         LOUISIANA :STATE     
CTRY        .                                     UNITED STATES :COUNTRY   
SRVC        .                                                   :SERVICE COMPANY
DATE        .                             9/13/2023 11:18:15 AM :LOG DATE  
API         .                                    17701402000000 :API NUMBER
UWI         .                                    17701402000000 :UNIQUE WELL ID
XCOORD      .                                  1405165.89752093 :SURFACE X 
YCOORD      .                                  10654404.2103889 :SURFACE Y 
LAT         .                                        29.3559214 :LATITUDE  
LON         .                                       -93.7387067 :LONGITUDE 
ELEV        .FT                                             100 :ELEVATION VALUE
ELEV_TYPE   .                                                KB :ELEVATION REFERENCE TYPE
~Curve Information Section
#MNEM       .UNIT                                      API CODE :CURVE DESCRIPTION
#------------------------------------------------------------------------------
DEPT        .FT                                                 :DEPTH     
CALX        .IN                                                 :          
DRHO        .G/C3                                               :          
DT          .US/F                                               :          
GR          .GAPI                                               :          
GR_NORM     .GAPI                                               :GammaRay Normalized
ILD         .OHMM                                               :          
ILM         .OHMM                                               :          
LL          .OHMM                                               :          
NPHI        .%                                                  :          
RHOB        .G/C3                                               :          
SP          .MV                                                 :          
SP_NORM     .MV                                                 :SP Normalized
VSH_GR      .V/V                                                :Volume of Shale from GR
VSH_SP      .V/V                                                :Volume of Shale from SP
~A        DEPTH           CALX           DRHO             DT             GR        GR_NORM            ILD            ILM             LL           NPHI           RHOB             SP        SP_NORM         VSH_GR         VSH_SP
# ...
       991.0000        10.9059          0.059       190.3057        45.4313       76.28119          0.909         0.9843          1.149        56.8528           1.98      -161.3618      -5.077652      0.9208764      0.7922348
       991.5000        10.9596         0.0664       187.1863         46.512       77.44485         0.9337          1.064         1.1823         55.896          1.975       -159.667      -3.382858       0.945635      0.9617141
       992.0000        11.0886         0.0712       186.4924        47.7383       78.77687         0.9742         1.1221         1.2063          56.03         1.9346      -157.9607      -1.676544       0.973976              1
       992.5000        11.3607         0.0744       183.7649        48.6454        79.7398         0.9979         1.1203         1.1539        56.7402         1.8795      -156.3132    -0.02905273      0.9944638              1
       993.0000          11.83         0.0777       180.1694        49.0477       80.11904         1.0048         1.0597         1.0661        57.6671         1.7936      -155.6819      0.6022491              1              1
       993.5000        12.6234         0.0794       177.2358        48.5563       79.46489         1.0009         1.0167         1.0167        58.8265         1.6603      -155.2815       1.002655      0.9886147              1
       994.0000        13.0419         0.0811       175.6621        47.2877       77.91206         0.9917         0.9821         1.0966        59.7504         1.6249      -154.9741       1.310043      0.9555758              1
       994.5000        13.2984          0.084       174.9563        45.7809       76.08382         0.9862         0.9585         1.1127        61.8844         1.6344      -155.4277      0.8476715      0.9166769              1
       995.0000        13.6481          0.088        176.541        43.8922       73.81397         0.9806         0.9447         1.0485        61.9628         1.6495       -155.905      0.3427582      0.8683824              1
       995.5000        14.3231         0.0919       180.8352        42.3823       71.98214         0.9816         0.9481         0.9676        59.0739          1.667      -157.3003      -1.080139      0.8294072              1
       996.0000        16.3666         0.0975       195.4102        41.5128       70.89079          0.991         0.9548         0.9028        54.9943         1.7028      -157.9167      -1.724167      0.8061871              1
       996.5000         17.589         0.1091       197.7288         40.656       69.81413         1.0045         0.9596         0.8966        52.6672         1.7168      -157.2002      -1.035263      0.7832794              1
       997.0000        17.6428         0.1208       224.0474        39.4628        68.3485         1.0098         0.9555         0.9389        52.4364         1.7235      -156.9211      -0.783783      0.7520958              1
       997.5000         17.129         0.1266       239.1035        37.9721       66.53886         1.0022         0.9409         0.9712         53.022         1.7288      -156.3259     -0.2161865      0.7135928              1
       998.0000        15.4914          0.126       249.6404         35.646       63.76326         0.9878         0.9177         0.9754         53.501         1.7537      -155.8354      0.2466888      0.6545374              1
       998.5000        16.0902         0.1179       241.0945        32.3511       59.86745         0.9803         0.8916         0.9564        52.8245         1.8073      -156.2236     -0.1691132      0.5716478              1
       999.0000        16.9088         0.1104       226.6304        31.6997       59.02828         0.9873         0.8721         0.9032        52.2138         1.8366      -156.4734     -0.4465332      0.5537933              1
       999.5000        17.7611         0.1081       211.0947        34.0557       61.66657         1.0097         0.8576         0.8667        53.6271         1.8477      -156.0593    -0.06002808      0.6099271              1
      1000.0000        17.7814         0.1099       178.4973        37.4301       65.48243         1.0388         0.8704         0.8929        55.1326         1.7912      -155.5972      0.3744507      0.6911155              1
      1000.5000        17.7945         0.1086       156.5876        39.4442       67.72536         1.0785         0.9034         0.9186        55.6497         1.7308      -155.8076      0.1364441      0.7388375              1
      1001.0000        17.8018         0.1027       145.5273        40.1134       68.41322         1.1125         0.9444         0.9096        54.6486         1.6993      -156.3022     -0.3857727      0.7534729              1
      1001.5000        17.8087         0.0923        145.574        39.7511       67.90835         1.1384         0.9724         0.8945        53.4213         1.6827      -155.8374     0.05142212      0.7427308              1
      1002.0000        17.8055          0.085       148.0122        39.1703       67.15083         1.1534         1.0108          0.918         52.656         1.6735      -155.6899      0.1713257      0.7266135              1
      1002.5000        17.8022         0.0824       157.8535        39.1553       67.04754          1.158         1.0368         0.9623        52.9805         1.6792      -155.4934        0.34021      0.7244157              1
      1003.0000        17.7991         0.0826        160.782        39.5951       67.47014          1.147         1.0488         0.9786        56.1888         1.7248      -155.3774      0.4286041      0.7334072              1
      1003.5000        17.7985         0.0849       160.9768        41.0414       69.05653         1.1323         1.0494         0.9666        58.8311         1.7601      -155.9055      -0.127121      0.7671603              1
      1004.0000        17.7979          0.087       159.0061        42.5593       70.72573         1.1168         1.0404         0.9382        59.3227         1.7819      -156.2644     -0.5136261      0.8026751              1
      1004.5000        17.7977         0.0822       158.5913        43.9489       72.24658         1.0944         1.0134         0.9077        57.3692         1.7651      -157.2979      -1.574738      0.8350337              1
      1005.0000        17.7986         0.0742       159.9355        44.1807       72.42866         1.0665         0.9872         0.9537        55.6298         1.7438      -160.2744      -4.578842      0.8389076      0.8421158
      1005.5000        17.7993         0.0638       164.5657        44.1317       72.28605         1.0426         0.9686         0.9374        54.9389         1.7265      -161.2505      -5.582565      0.8358734      0.7417434
      1006.0000        17.8023         0.0493       165.5725        43.9877        72.0336         1.0241          0.952         0.8807        55.3738         1.7039      -159.2612      -3.620865      0.8305022      0.9379135
      1006.5000        17.8076         0.0362       163.9478        43.4039       71.27261         1.0151         0.9495         0.8439        56.9628         1.6334      -157.5276      -1.914886      0.8143109              1
      1007.0000         17.813         0.0343       162.0269        42.4633       70.09906         1.0134         0.9526         0.8425        59.1324         1.5988      -157.4724      -1.887283      0.7893417              1
      1007.5000        17.8077         0.0419        161.259         41.384       68.76512         1.0115         0.9568         0.8647        59.7435          1.567       -157.033       -1.47551        0.76096              1
      1008.0000        17.7997         0.0541       159.5835        40.1558       67.25902         1.0129         0.9648          0.895        58.2336         1.5944      -156.3208     -0.7909088      0.7289153              1
      1008.5000        17.7884         0.0656       156.4216        38.8001       65.60549         1.0218         0.9786         0.9031        57.2755         1.6292      -156.4768     -0.9745331      0.6937339              1
