#------------------------------------------------------------------------------
# Created by    : vladimir.rabinovich
# Created on    : 09/19/2023 17:20:43
#------------------------------------------------------------------------------
~Version Information Section
VERS.           2.0     :   CWLS log ASCII Standard - VERSION 2.0
WRAP.           NO      :   One line per depth step
~Well Information Section
#MNEM       .UNIT                                         VALUE :DESCRIPTION
#------------------------------------------------------------------------------
STRT        .FT                                            2986 :START DEPTH
STOP        .FT                                           10006 :STOP DEPTH
STEP        .FT                                             0.5 :STEP      
NULL        .                                           -999.25 :NULL      
COMP        .                                        CONOCO INC :COMPANY   
WELL        .                                OCS 00764 ST00BP00 :WELL      
FLD         .                           WEST CAMERON BLOCK 0192 :FIELD     
LOC         .                                                   :LOCATION  
CNTY        .                                      WEST CAMERON :LOCATION  
STAT        .                                         LOUISIANA :STATE     
CTRY        .                                     UNITED STATES :COUNTRY   
SRVC        .                                                   :SERVICE COMPANY
DATE        .                             9/13/2023 11:18:18 AM :LOG DATE  
API         .                                    17700003670000 :API NUMBER
UWI         .                                    17700003670000 :UNIQUE WELL ID
XCOORD      .                                  1596137.97932418 :SURFACE X 
YCOORD      .                                  10614860.5046116 :SURFACE Y 
LAT         .                                         29.249106 :LATITUDE  
LON         .                                        -93.138896 :LONGITUDE 
ELEV        .FT                                              84 :ELEVATION VALUE
ELEV_TYPE   .                                                KB :ELEVATION REFERENCE TYPE
~Curve Information Section
#MNEM       .UNIT                                      API CODE :CURVE DESCRIPTION
#------------------------------------------------------------------------------
DEPT        .FT                                                 :DEPTH     
ASN         .OHMM                                               :          
CALI        .IN                                                 :          
CALI_1      .IN                                                 :          
DRHO        .G/C3                                               :          
DT          .US/F                                               :          
GR          .GAPI                                               :          
ILD         .OHMM                                               :          
RHOB        .G/C3                                               :          
SP          .MV                                                 :          
SP_NORM     .MV                                                 :SP Normalized
VSH_SP      .V/V                                                :Volume of Shale from SP
~A        DEPTH            ASN           CALI         CALI_1           DRHO             DT             GR            ILD           RHOB             SP        SP_NORM         VSH_SP
# ...
      5011.0000         0.6486        10.9504        -999.25        -999.25       156.9568        -999.25         0.5599        -999.25       -46.2899      -2.333858      0.9258968
      5011.5000         0.6476        10.9049        -999.25        -999.25       156.2422        -999.25         0.5631        -999.25        -46.298      -2.341957      0.9254468
      5012.0000         0.6467        10.8585        -999.25        -999.25       155.5281        -999.25         0.5644        -999.25       -46.1528      -2.196758      0.9335134
      5012.5000         0.6461         10.825        -999.25        -999.25        154.678        -999.25         0.5637        -999.25       -45.9749      -2.018856      0.9433969
      5013.0000         0.6458        10.8151        -999.25        -999.25       154.1323        -999.25         0.5631        -999.25       -45.8706      -1.914558      0.9491912
      5013.5000         0.6456        10.8152        -999.25        -999.25       153.4521        -999.25         0.5624        -999.25       -45.8987      -1.942657      0.9476302
      5014.0000          0.645        10.8177        -999.25        -999.25       152.2732        -999.25         0.5624        -999.25       -45.9496      -1.993557      0.9448024
      5014.5000         0.6447        10.8228        -999.25        -999.25       150.8462        -999.25         0.5634        -999.25       -45.9675      -2.011456       0.943808
      5015.0000          0.645        10.8274        -999.25        -999.25        149.656        -999.25         0.5643        -999.25        -45.961      -2.004955      0.9441692
      5015.5000         0.6463        10.8306        -999.25        -999.25       149.6233        -999.25         0.5637        -999.25       -45.9624      -2.006355      0.9440914
      5016.0000         0.6482        10.8313        -999.25        -999.25       149.8491        -999.25          0.563        -999.25       -45.9802      -2.024158      0.9431023
      5016.5000          0.654        10.8494        -999.25        -999.25        150.167        -999.25         0.5646        -999.25       -45.9434      -1.987358      0.9451468
      5017.0000         0.6638        10.8709        -999.25        -999.25       150.5454        -999.25         0.5673        -999.25       -45.8267      -1.870655      0.9516303
      5017.5000         0.6726        10.8891        -999.25        -999.25       150.9888        -999.25         0.5699        -999.25        -45.701      -1.744957      0.9586135
      5018.0000         0.6779        10.8952        -999.25        -999.25        151.332        -999.25         0.5725        -999.25       -45.5886      -1.632557      0.9648579
      5018.5000         0.6812        10.8652        -999.25        -999.25       150.3464        -999.25         0.5751        -999.25       -45.4871      -1.531055      0.9704969
      5019.0000          0.679        10.8114        -999.25        -999.25       139.3386        -999.25         0.5762        -999.25       -45.3965      -1.440456      0.9755302
      5019.5000         0.6762        10.7678        -999.25        -999.25       117.9027        -999.25         0.5771        -999.25       -45.3852      -1.429157      0.9761579
      5020.0000         0.6734          10.72        -999.25        -999.25        89.0986        -999.25         0.5797        -999.25       -45.4968      -1.540756       0.969958
      5020.5000          0.678        10.6943        -999.25        -999.25        76.3876        -999.25         0.5856        -999.25       -45.6734      -1.717358      0.9601468
      5021.0000         0.6831         10.689        -999.25        -999.25        78.5083        -999.25         0.5915        -999.25        -45.809      -1.852955      0.9526136
      5021.5000         0.6887        10.6854        -999.25        -999.25       105.4851        -999.25          0.594        -999.25       -45.8693      -1.913258      0.9492635
      5022.0000         0.6922        10.6831        -999.25        -999.25       132.4421        -999.25         0.5964        -999.25       -45.8467      -1.890656      0.9505191
      5022.5000         0.6947         10.687        -999.25        -999.25       139.0476        -999.25         0.5992        -999.25       -45.7813      -1.825256      0.9541524
      5023.0000          0.695        10.6936        -999.25        -999.25       139.9104        -999.25         0.6027        -999.25        -45.692      -1.735958      0.9591134
      5023.5000         0.6932        10.7002        -999.25        -999.25       140.1968        -999.25         0.6061        -999.25       -45.6274      -1.671356      0.9627025
      5024.0000         0.6902        10.7069        -999.25        -999.25       140.1682        -999.25         0.6093        -999.25        -45.749      -1.792957      0.9559468
      5024.5000         0.6871        10.7135        -999.25        -999.25       139.1152        -999.25         0.6123        -999.25       -45.9956      -2.039558      0.9422467
      5025.0000         0.6833        10.7201        -999.25        -999.25       129.8486        -999.25         0.6152        -999.25       -45.7964      -1.840355      0.9533136
      5025.5000         0.6784        10.7267        -999.25        -999.25       107.1355        -999.25          0.618        -999.25       -45.5765      -1.620457      0.9655302
      5026.0000         0.6782        10.7334        -999.25        -999.25       100.4247        -999.25         0.6201        -999.25       -45.3733      -1.417255      0.9768192
      5026.5000         0.6817        10.7396        -999.25        -999.25       100.2941        -999.25         0.6222        -999.25       -45.1525      -1.196457      0.9890857
      5027.0000         0.6899        10.7458        -999.25        -999.25       100.2845        -999.25         0.6233        -999.25       -45.0509      -1.094856      0.9947302
      5027.5000         0.6963        10.7505        -999.25        -999.25       100.2925        -999.25         0.6226        -999.25       -44.9758      -1.019756      0.9989024
      5028.0000         0.6962        10.7534        -999.25        -999.25       100.2684        -999.25         0.6219        -999.25       -44.9185     -0.9624557              1
      5028.5000         0.6954        10.7586        -999.25        -999.25       100.2657        -999.25          0.619        -999.25       -44.8821     -0.9260559              1
      5029.0000         0.6935        10.7659        -999.25        -999.25       100.2631        -999.25         0.6143        -999.25        -44.833     -0.8769569              1
      5029.5000          0.692         10.769        -999.25        -999.25       100.2604        -999.25         0.6097        -999.25       -44.7681     -0.8120575              1
      5030.0000         0.6909        10.7679        -999.25        -999.25       100.2577        -999.25         0.6041        -999.25       -44.7962     -0.8401566              1
      5030.5000         0.6903        10.7713        -999.25        -999.25        100.255        -999.25         0.5978        -999.25       -44.8948      -0.938755              1
      5031.0000         0.6892        10.7746        -999.25        -999.25       100.2523        -999.25         0.5916        -999.25       -45.0328      -1.076756      0.9957358
      5031.5000         0.6873        10.8089        -999.25        -999.25       100.2755        -999.25         0.5866        -999.25       -45.1827      -1.226658      0.9874079
      5032.0000          0.688         10.855        -999.25        -999.25       100.3115        -999.25          0.582        -999.25       -45.4518      -1.495758      0.9724579
      5032.5000         0.6945         10.869        -999.25        -999.25       100.3474        -999.25          0.583        -999.25       -45.6406      -1.684555      0.9619691
      5033.0000         0.7017        10.8427        -999.25        -999.25       100.3834        -999.25         0.5859        -999.25       -45.7297      -1.773655      0.9570192
