#------------------------------------------------------------------------------
# Created by    : vladimir.rabinovich
# Created on    : 09/19/2023 17:22:32
#------------------------------------------------------------------------------
~Version Information Section
VERS.           2.0     :   CWLS log ASCII Standard - VERSION 2.0
WRAP.           NO      :   One line per depth step
~Well Information Section
#MNEM       .UNIT                                         VALUE :DESCRIPTION
#------------------------------------------------------------------------------
STRT        .FT                                            2450 :START DEPTH
STOP        .FT                                            9560 :STOP DEPTH
STEP        .FT                                             0.5 :STEP      
NULL        .                                           -999.25 :NULL      
COMP        .                               TALOS PETROLEUM LLC :COMPANY   
WELL        .                                OCS 00301 ST00BP00 :WELL      
FLD         .                           WEST CAMERON BLOCK 0045 :FIELD     
LOC         .                                                   :LOCATION  
CNTY        .                                      WEST CAMERON :LOCATION  
STAT        .                                         LOUISIANA :STATE     
CTRY        .                                     UNITED STATES :COUNTRY   
SRVC        .                                                   :SERVICE COMPANY
DATE        .                             9/13/2023 11:18:49 AM :LOG DATE  
API         .                                    17700410870000 :API NUMBER
UWI         .                                    17700410870000 :UNIQUE WELL ID
XCOORD      .                                  1447194.98921956 :SURFACE X 
YCOORD      .                                  10757079.9124673 :SURFACE Y 
LAT         .                                        29.6390336 :LATITUDE  
LON         .                                       -93.6084245 :LONGITUDE 
ELEV        .FT                                              96 :ELEVATION VALUE
ELEV_TYPE   .                                                KB :ELEVATION REFERENCE TYPE
~Curve Information Section
#MNEM       .UNIT                                      API CODE :CURVE DESCRIPTION
#------------------------------------------------------------------------------
DEPT        .FT                                                 :DEPTH     
CNC         .%                                                  :          
DCAL        .IN                                                 :          
GR          .GAPI                                               :          
GR_NORM     .GAPI                                               :GammaRay Normalized
M0C6        .MMHO                                               :          
M2R1        .OHMM                                               :          
M2R2        .OHMM                                               :          
M2R3        .OHMM                                               :          
M2R6        .OHMM                                               :          
M2R9        .OHMM                                               :          
M2RX        .OHMM                                               :          
SP          .MV                                                 :          
SP_NORM     .MV                                                 :SP Normalized
TEN         .LB/F                                               :          
VSH_GR      .V/V                                                :Volume of Shale from GR
VSH_SP      .V/V                                                :Volume of Shale from SP
ZCOR        .G/CC                                               :          
ZDEN        .G/CC                                               :          
~A        DEPTH            CNC           DCAL             GR        GR_NORM           M0C6           M2R1           M2R2           M2R3           M2R6           M2R9           M2RX             SP        SP_NORM            TEN         VSH_GR         VSH_SP           ZCOR           ZDEN
# ...
      8596.0000         43.833          1.886         71.364       71.27183       1651.233          0.724          0.644          0.613            0.6          0.586          0.582        -27.725        -3.5917        -68.924      0.8142942      0.9447431          0.027          2.258
      8596.5000         47.873          1.949         73.888       74.25684       1668.991          0.694          0.624          0.596          0.584          0.573           0.57        -26.634        -2.5592        -56.353      0.8778052      0.9606277          0.021          2.241
      8597.0000         50.213            1.8         75.596       76.27772       1686.209          0.672          0.606           0.58           0.57          0.561          0.559        -26.038        -2.0218        -49.624      0.9208025      0.9688954          0.051          2.258
      8597.5000         48.345          1.478         76.223       77.02164       1700.476          0.665            0.6          0.574          0.566          0.559          0.557        -25.914        -1.9563        -52.975      0.9366307      0.9699031          0.045          2.253
      8598.0000         45.649          1.116         75.842       76.57473       1710.938          0.672          0.604          0.578          0.572          0.567          0.565        -25.854        -1.9548        -48.434      0.9271219      0.9699262          0.044          2.281
      8598.5000         44.737          0.976         75.158       75.76973       1718.192          0.682          0.612          0.586          0.582          0.577          0.575        -25.688        -1.8474        -36.433      0.9099942      0.9715785          0.062          2.315
      8599.0000         45.164          1.084         73.769       74.13198       1723.719          0.683          0.613          0.589          0.586          0.582           0.58        -25.541        -1.7589        -29.858      0.8751485        0.97294          0.054          2.316
      8599.5000         44.505          1.194         71.996       72.04056       1729.366          0.675          0.607          0.585          0.583           0.58          0.577        -25.442        -1.7185         -33.45      0.8306502      0.9735615          0.039          2.301
      8600.0000           41.8          1.182         71.656       71.64196       1736.779          0.666          0.601          0.579          0.578          0.575          0.572        -25.262         -1.597        -41.158      0.8221694      0.9754308           0.05           2.31
      8600.5000         40.012           1.07         72.357        72.4733       1747.075          0.664          0.598          0.576          0.575          0.572          0.569        -24.936        -1.3296        -45.006      0.8398575      0.9795446          0.058          2.309
      8601.0000         40.912           0.94         72.811       73.01284       1760.644          0.665          0.597          0.575          0.574           0.57          0.566        -24.596        -1.0481        -49.324       0.851337      0.9838754          0.054          2.304
      8601.5000         43.277          0.912         73.679       74.04147       1777.146          0.665          0.595          0.572          0.571          0.567          0.563        -24.353        -0.8637        -57.946      0.8732226      0.9867123           0.05          2.311
      8602.0000          44.53          1.025         75.021       75.62998       1795.572          0.663          0.591          0.567          0.565          0.562          0.557        -24.222        -0.7912        -54.666      0.9070209      0.9878277          0.051          2.321
      8602.5000         44.333          1.127         76.298       77.14179       1814.355          0.657          0.584           0.56          0.558          0.554          0.549        -24.298        -0.9258        -38.648       0.939187      0.9857569          0.042          2.289
      8603.0000         43.859          1.103         78.176       79.36363       1831.515          0.644          0.571          0.548          0.546          0.542          0.538        -24.416        -1.1023        -35.874      0.9864603      0.9830415          0.055           2.28
      8603.5000         44.342          0.969         79.841       81.33371       1844.798          0.628          0.556          0.534          0.532          0.529          0.525         -24.18        -0.9248        -59.537              1      0.9857723          0.064          2.297
      8604.0000         46.111          0.793         80.028       81.55782       1851.913          0.617          0.546          0.524          0.524          0.521          0.517        -23.578        -0.3814        -84.898              1      0.9941323          0.056          2.295
      8604.5000         47.389          0.642         80.597       82.23322       1850.787          0.606          0.538          0.517          0.517          0.514           0.51        -22.942         0.1961        -84.486              1              1          0.054          2.305
      8605.0000         46.433          0.577         83.163       85.26775       1839.954          0.589          0.524          0.504          0.505          0.502          0.499        -22.617         0.4625        -66.549              1              1          0.071          2.344
      8605.5000         44.255          0.556         85.432        87.9515       1818.902           0.58          0.514          0.495          0.497          0.494          0.491         -22.62          0.401        -44.374              1              1          0.058          2.318
      8606.0000         42.108          0.506         85.066       87.52231       1788.413          0.604          0.529          0.508           0.51          0.507          0.504        -22.886         0.0764        -14.385              1              1          0.053          2.293
      8606.5000         39.839           0.44         82.858       84.91688       1750.701          0.668          0.573          0.547           0.55          0.546          0.542        -23.398        -0.4941          5.239              1      0.9923984          0.072          2.319
      8607.0000         37.851          0.404         80.042       81.59328       1709.346          0.746          0.624          0.593          0.596          0.591          0.587        -24.323        -1.4777         -6.669              1      0.9772661          0.054          2.311
      8607.5000         36.404          0.411         77.534       78.63353       1668.884          0.807          0.663          0.627           0.63          0.623           0.62         -25.34        -2.5532        -25.562      0.9709262        0.96072          0.065          2.337
      8608.0000         35.081          0.415         76.007       76.83274       1634.183          0.866          0.701          0.661          0.664          0.656          0.653        -26.021        -3.2927        -30.152      0.9326115      0.9493431          0.061          2.323
      8608.5000         34.028          0.379         74.837       75.45359       1609.596          0.953          0.758          0.712          0.714          0.705          0.702        -26.825        -4.1553        -32.608      0.9032679      0.9360723          0.038           2.28
      8609.0000         33.924           0.32          73.34       73.68826       1598.174          1.039          0.816          0.766          0.766          0.755          0.753        -28.641        -6.0298        -33.525      0.8657076      0.9072338          0.028          2.267
      8609.5000         34.724          0.302         72.465       72.65772       1601.006          1.023          0.814          0.767          0.765          0.755          0.754        -30.592        -8.0394        -30.162      0.8437814      0.8763169          0.024          2.283
