#------------------------------------------------------------------------------
# Created by    : vladimir.rabinovich
# Created on    : 09/19/2023 17:21:58
#------------------------------------------------------------------------------
~Version Information Section
VERS.           2.0     :   CWLS log ASCII Standard - VERSION 2.0
WRAP.           NO      :   One line per depth step
~Well Information Section
#MNEM       .UNIT                                         VALUE :DESCRIPTION
#------------------------------------------------------------------------------
STRT        .FT                                            3382 :START DEPTH
STOP        .FT                                           10910 :STOP DEPTH
STEP        .FT                                             0.5 :STEP      
NULL        .                                           -999.25 :NULL      
COMP        .                               B P EXPLORATION INC :COMPANY   
WELL        .                               OCS G07597 ST00BP00 :WELL      
FLD         .                           WEST CAMERON BLOCK 0045 :FIELD     
LOC         .                                                   :LOCATION  
CNTY        .                                      WEST CAMERON :LOCATION  
STAT        .                                         LOUISIANA :STATE     
CTRY        .                                     UNITED STATES :COUNTRY   
SRVC        .                                                   :SERVICE COMPANY
DATE        .                             9/13/2023 11:18:09 AM :LOG DATE  
API         .                                    17700407640000 :API NUMBER
UWI         .                                    17700407640000 :UNIQUE WELL ID
XCOORD      .                                  1473636.79229916 :SURFACE X 
YCOORD      .                                   10762774.556795 :SURFACE Y 
LAT         .                                        29.6550545 :LATITUDE  
LON         .                                       -93.5252479 :LONGITUDE 
ELEV        .FT                                              90 :ELEVATION VALUE
ELEV_TYPE   .                                                KB :ELEVATION REFERENCE TYPE
~Curve Information Section
#MNEM       .UNIT                                      API CODE :CURVE DESCRIPTION
#------------------------------------------------------------------------------
DEPT        .FT                                                 :DEPTH     
CALI        .IN                                                 :          
DRHO        .G/C3                                               :          
DT          .US/F                                               :          
GR          .GAPI                                               :          
GR_1        .GAPI                                               :          
GR_NORM     .GAPI                                               :GammaRay Normalized
ILD         .OHMM                                               :          
ILM         .OHMM                                               :          
NPHI        .%                                                  :          
RHOB        .G/C3                                               :          
SFL         .OHMM                                               :          
SP          .MV                                                 :          
SP_NORM     .MV                                                 :SP Normalized
VSH_GR      .V/V                                                :Volume of Shale from GR
VSH_SP      .V/V                                                :Volume of Shale from SP
~A        DEPTH           CALI           DRHO             DT             GR           GR_1        GR_NORM            ILD            ILM           NPHI           RHOB            SFL             SP        SP_NORM         VSH_GR         VSH_SP
# ...
      7445.0000        11.4583        -0.0496       107.5262        41.9343        46.9234       51.53951         0.2175         0.2438        40.8478         2.1287         0.5468      -132.1616       -84.5426      0.3944577    0.005578018
      7445.5000         11.452        -0.0484       107.8721        40.2985        47.5853       48.81524         0.2134         0.2394        40.6984         2.1134         0.5368      -131.8521        -84.233      0.3364944    0.009353638
      7446.0000         11.524        -0.0467       108.9631         37.936        44.5721       44.88073         0.2052         0.2282        40.8895            2.1         0.5114      -131.9922       -84.3732      0.2527815    0.007643909
      7446.5000        11.6993        -0.0437       109.8033        33.7978        43.2713       37.98895         0.1965         0.2192        41.2672         2.0894         0.5124      -133.4141        -85.795      0.1061479              0
      7447.0000        11.8896        -0.0396       110.2903        31.8698        39.6191       34.77806         0.1917           0.21        41.6929         2.0869         0.5252      -134.5479       -86.9288       0.037831              0
      7447.5000          11.97        -0.0369       110.6799        29.1901        40.6108       30.31528         0.1897         0.2089        41.4379         2.0918         0.5384      -133.8062       -86.1871              0              0
      7448.0000        11.9818        -0.0349       109.8145        29.8644        40.6721       31.43826         0.1927         0.2099        41.1247         2.0965          0.543      -132.5723       -84.9532              0   0.0005707159
      7448.5000        11.9663        -0.0359       107.9434        32.7364        39.1418        36.2213         0.1979         0.2112        41.6313         2.0932         0.5391      -131.8352       -84.2162     0.06853826    0.009558515
      7449.0000        11.8972        -0.0407       106.0052         33.728        39.7151       37.87271         0.2026         0.2132        41.8947         2.0837         0.5302      -131.7271        -84.108      0.1036747     0.01087803
      7449.5000        11.8333        -0.0411       104.3398        33.7297        41.8308       37.87555         0.2054         0.2163        41.8043         2.0957         0.5135      -131.6863       -84.0672      0.1037351     0.01137561
      7450.0000        11.8116        -0.0392       103.4918        36.0604        43.3514       41.75709         0.2066         0.2181        41.0042         2.1211         0.4958      -131.5371        -83.918      0.1863211     0.01319513
      7450.5000        11.8129        -0.0379       104.4786          37.14        44.6207       43.55506         0.2084         0.2192        39.4816         2.1329         0.4778      -130.7642       -83.1452      0.2245758     0.02261948
      7451.0000        11.8085        -0.0342       106.1565        37.3546        45.1165       43.91245         0.2086         0.2195        38.5739         2.1396         0.4634      -130.3667       -82.7477      0.2321799     0.02746703
      7451.5000        11.8223        -0.0295        107.532        36.4476        44.6686       42.40194         0.2088         0.2197        37.9796         2.1357         0.4556      -130.6543       -83.0352      0.2000413     0.02396095
      7452.0000        11.8486        -0.0238       110.4861        35.4274        43.8069        40.7029         0.2091         0.2197        37.5269         2.1171          0.456      -131.7957       -84.1767      0.1638915     0.01004028
      7452.5000        11.8866        -0.0246       110.1453        36.1285        41.3596        41.8705         0.2087         0.2192         37.096         2.1044         0.4704      -132.4055       -84.7865      0.1887341     0.00260367
      7453.0000         11.956        -0.0278       109.2073        36.3926        39.7145       42.31033         0.2078         0.2184        37.2565         2.0973         0.4909      -131.9978       -84.3788      0.1980922    0.007575617
      7453.5000        12.0387        -0.0301       108.4073        34.7443        40.3333       39.56526         0.2068         0.2173        37.8346         2.0936         0.5066      -129.2507       -81.6317      0.1396864     0.04107685
      7454.0000        12.1285         -0.032       107.6807        33.7541        41.5624       37.91618         0.2056         0.2162        38.5848         2.0905         0.5073      -128.0149       -80.3958      0.1045996     0.05614881
      7454.5000        12.1976        -0.0333       106.0673         35.034        42.9312       40.04772         0.2032         0.2152        38.8904         2.0899         0.4927      -128.8462       -81.2272      0.1499515     0.04600972
      7455.0000        12.2564        -0.0335       106.1553        37.7762        43.4371       44.61459         0.2007          0.214        38.4955         2.0977         0.4772      -130.8591       -83.2401       0.247119     0.02146223
      7455.5000        12.2959        -0.0321       107.2308        39.4781        42.9227       47.44894         0.2005         0.2127        38.1265         2.1027         0.4763      -131.9829       -84.3638      0.3074243    0.007758536
      7456.0000        12.3099        -0.0306       107.9229        37.6013        41.8734       44.32331         0.1998         0.2114        38.0259         2.1069         0.4841      -129.6428       -82.0238      0.2409216     0.03629507
      7456.5000        12.2994        -0.0294       108.3759        35.0889         40.875       40.13915         0.1997         0.2102        38.1036         2.1091         0.5012      -127.6318       -80.0127      0.1518969      0.0608207
      7457.0000        12.2749        -0.0354       109.7202        33.2858         40.363       37.13627         0.1994         0.2102        38.5145         2.1038         0.5154      -127.5013       -79.8822      0.0880058     0.06241217
      7457.5000        12.2321        -0.0397       110.9247        32.0471         41.379       35.07333         0.1989          0.212        40.0663         2.0885         0.5189      -128.3967       -80.7776      0.0441134     0.05149265
      7458.0000         12.174        -0.0421       112.1626        31.8061        42.8753       34.67196         0.2011         0.2148        40.3911         2.0922         0.5155      -129.1953       -81.5762     0.03557368     0.04175363
      7458.5000         12.118        -0.0445       112.7877        33.3607        44.3182         37.261          0.208         0.2157        40.3155         2.1021         0.5009      -126.9607       -79.3417     0.09065953     0.06900369
      7459.0000        12.0713        -0.0455       111.2246        37.3217        45.8801       43.85768          0.218         0.2253        40.1596         2.1204         0.4647      -122.5353       -74.9163      0.2310145       0.122972
      7459.5000        12.0306        -0.0435       107.8491        42.0168        47.6971       51.67691         0.2294         0.2409        39.9235         2.1374         0.4058       -118.949       -71.3299       0.397381      0.1667085
      7460.0000        11.9412        -0.0392       103.4006        49.3242        49.2517       63.84666         0.2452         0.2592        39.5212         2.1538         0.3786      -115.6324       -68.0134      0.6563119      0.2071537
      7460.5000         11.761        -0.0349       102.1851        50.0779        50.7213       65.10186         0.2671         0.2817        38.4588         2.1621         0.3846      -111.7689       -64.1498      0.6830183      0.2542707
      7461.0000        11.5993        -0.0312       101.0934        49.7581        52.4047       64.56928         0.2943          0.312        37.0198         2.1711         0.4085      -109.5988       -61.9798      0.6716869      0.2807341
      7461.5000        11.5171         -0.028        99.3412        48.3127        55.6766       62.16211          0.328         0.3479        35.5251          2.188          0.446      -103.7498       -56.1308      0.6204703      0.3520634
