#------------------------------------------------------------------------------
# Created by    : vladimir.rabinovich
# Created on    : 09/19/2023 17:21:58
#------------------------------------------------------------------------------
~Version Information Section
VERS.           2.0     :   CWLS log ASCII Standard - VERSION 2.0
WRAP.           NO      :   One line per depth step
~Well Information Section
#MNEM       .UNIT                                         VALUE :DESCRIPTION
#------------------------------------------------------------------------------
STRT        .FT                                            3382 :START DEPTH
STOP        .FT                                           10910 :STOP DEPTH
STEP        .FT                                             0.5 :STEP      
NULL        .                                           -999.25 :NULL      
COMP        .                               B P EXPLORATION INC :COMPANY   
WELL        .                               OCS G07597 ST00BP00 :WELL      
FLD         .                           WEST CAMERON BLOCK 0045 :FIELD     
LOC         .                                                   :LOCATION  
CNTY        .                                      WEST CAMERON :LOCATION  
STAT        .                                         LOUISIANA :STATE     
CTRY        .                                     UNITED STATES :COUNTRY   
SRVC        .                                                   :SERVICE COMPANY
DATE        .                             9/13/2023 11:18:09 AM :LOG DATE  
API         .                                    17700407640000 :API NUMBER
UWI         .                                    17700407640000 :UNIQUE WELL ID
XCOORD      .                                  1473636.79229916 :SURFACE X 
YCOORD      .                                   10762774.556795 :SURFACE Y 
LAT         .                                        29.6550545 :LATITUDE  
LON         .                                       -93.5252479 :LONGITUDE 
ELEV        .FT                                              90 :ELEVATION VALUE
ELEV_TYPE   .                                                KB :ELEVATION REFERENCE TYPE
~Curve Information Section
#MNEM       .UNIT                                      API CODE :CURVE DESCRIPTION
#------------------------------------------------------------------------------
DEPT        .FT                                                 :DEPTH     
CALI        .IN                                                 :          
DRHO        .G/C3                                               :          
DT          .US/F                                               :          
GR          .GAPI                                               :          
GR_1        .GAPI                                               :          
GR_NORM     .GAPI                                               :GammaRay Normalized
ILD         .OHMM                                               :          
ILM         .OHMM                                               :          
NPHI        .%                                                  :          
RHOB        .G/C3                                               :          
SFL         .OHMM                                               :          
SP          .MV                                                 :          
SP_NORM     .MV                                                 :SP Normalized
VSH_GR      .V/V                                                :Volume of Shale from GR
VSH_SP      .V/V                                                :Volume of Shale from SP
~A        DEPTH           CALI           DRHO             DT             GR           GR_1        GR_NORM            ILD            ILM           NPHI           RHOB            SFL             SP        SP_NORM         VSH_GR         VSH_SP
# ...
      5456.0000        12.0267        -0.0469       116.5186        24.1766        28.1016       34.37672         0.2172         0.2287        44.5461         2.0796         0.5137      -141.8982       -78.6201     0.02929192              0
      5456.5000        11.9633        -0.0479       118.2743        23.5534        29.2357       33.48355         0.2175         0.2351        43.3135         2.0852         0.4961      -142.2415       -78.9562     0.01028824              0
      5457.0000        11.8945        -0.0493       120.2261        24.2437         31.377       34.46027         0.2206         0.2448        42.3613         2.0936         0.4739       -141.897       -78.6045     0.03106965              0
      5457.5000        11.8357         -0.043       121.3822        28.3748        33.0491        40.3353         0.2298         0.2526         42.334         2.0888         0.4539      -140.2119       -76.9122      0.1560701              0
      5458.0000        11.7892        -0.0457       121.6351        33.8614        33.7261       48.14001         0.2431         0.2559        43.2158          2.079         0.4548       -137.011       -73.7041      0.3221279     0.01799859
      5458.5000         11.746        -0.0492       119.9004        34.7027        33.8981       49.33171         0.2469         0.2557        43.8538         2.0841         0.5244      -133.7183       -70.4042      0.3474832     0.06383058
      5459.0000        11.7189        -0.0479       118.0103        35.5875        33.7353       50.58532         0.2392         0.2522        43.5229         2.1006         0.5719      -132.2942       -68.9729      0.3741558     0.08370972
      5459.5000        11.6977        -0.0456       117.1338        30.1407        32.0668       42.82531         0.2256         0.2408        42.3873         2.1053         0.5807      -133.7703       -70.4417      0.2090492     0.06330967
      5460.0000        11.6899        -0.0366       117.2521        26.6363         29.717       37.83049         0.2157         0.2352         41.105          2.108         0.5784      -136.7026       -73.3668      0.1027763     0.02268336
      5460.5000        11.7155        -0.0258       117.6599        25.9312        28.0144       36.82074          0.209         0.2302        39.4337         2.1123         0.5744      -138.4412       -75.0982     0.08129226              0
      5461.0000        11.7504        -0.0207       118.1854        25.6697        27.0717       36.44249         0.2076         0.2277        39.0754         2.1097          0.583      -138.8381       -75.4879     0.07324446              0
      5461.5000        11.8259        -0.0221       118.7684        26.1824        27.5964       37.16653          0.211         0.2277        39.0408         2.1036         0.5936      -138.7295       -75.3721     0.08864959              0
      5462.0000        11.8165        -0.0296        118.963        27.1423        29.0882       38.52705         0.2155         0.2301        39.3108         2.0874         0.5898      -138.2976        -74.933      0.1175969   0.0009305742
      5462.5000        11.7736        -0.0315       118.5704        24.8083        30.9626       35.19841         0.2177         0.2335        40.3574         2.0791         0.5725      -137.9536       -74.5818     0.04677468      0.0058083
      5463.0000        11.7179        -0.0317       118.0084        21.6024         32.214       30.62853         0.2193         0.2361         41.415          2.083          0.549      -138.4822       -75.1031              0              0
      5463.5000        11.6688        -0.0311       117.3822        21.1914        31.9538       30.03745         0.2207         0.2373        41.5814         2.0895          0.533      -139.4182       -76.0319              0              0
      5464.0000        11.7122        -0.0295       116.6624        22.3087         32.296       31.62206         0.2213         0.2351        41.2713         2.1002         0.5267      -141.6172       -78.2237              0              0
      5464.5000        11.8052        -0.0232       116.1195        24.5416        33.3867       34.79483         0.2212         0.2333         40.345         2.1147         0.5277      -145.5916       -82.1909     0.03818788              0
      5465.0000        11.8969        -0.0195       115.4619        25.0589        32.6786       35.52526         0.2227         0.2343        39.1813         2.1058         0.5308           -144       -80.5921     0.05372896              0
      5465.5000        11.9714        -0.0175       115.0177        25.2627         31.416       35.80942         0.2251         0.2393        38.8638         2.0974         0.5322      -138.1738       -74.7587     0.05977493    0.003351423
      5466.0000        12.0002        -0.0186        114.699        25.0732        31.0252       35.53366         0.2285         0.2494        38.7445         2.0849         0.5401      -138.2202       -74.7979     0.05390768    0.002806981
      5466.5000        11.9906        -0.0272       115.0547        22.9927        31.5964        32.5659         0.2343         0.2618        39.2152          2.073         0.5634      -138.9946       -75.5651              0              0
      5467.0000        11.9764        -0.0309       115.3335        21.1411         31.235         29.924         0.2401         0.2778        40.1146         2.0751         0.5747      -139.7202       -76.2834              0              0
      5467.5000        11.9606        -0.0315        115.101        19.6009        31.5915        27.7254         0.2494         0.2938        41.1692         2.0811         0.5806      -140.0317       -76.5877              0              0
      5468.0000        11.9523        -0.0329       114.4539        18.9549        31.7731       26.79979         0.2638         0.3155        41.9854         2.0813         0.6055      -140.0557       -76.6045              0              0
      5468.5000        11.9387        -0.0412       113.6167        18.8697        30.7136       26.67251         0.2864         0.3382        42.7402         2.0876         0.6522      -139.8394        -76.381              0              0
      5469.0000        11.9251        -0.0548       112.9344        20.0678        31.0769       28.37214         0.3139          0.352        43.7358         2.0843         0.7209      -139.4795       -76.0139              0              0
      5469.5000        11.8885        -0.0633       112.3342        23.6468         31.704        33.4612         0.3276          0.357        44.4645         2.0699         0.7875      -139.4954       -76.0226    0.009812782              0
      5470.0000        11.8476        -0.0686       111.7229        25.2647         31.675       35.75846         0.3276         0.3524        44.9984         2.0662         0.8535      -141.0254       -77.5454     0.05869058              0
      5470.5000        11.7945        -0.0687       111.1541        25.6196        31.9175        36.2577         0.3087         0.3351        45.3137         2.0826         0.7486      -142.5437       -79.0564      0.0693128              0
      5471.0000        11.6397        -0.0733       110.7135        25.5503        33.1039       36.15307          0.278         0.2981        45.1399         2.0908         0.6803      -142.4324       -78.9379     0.06708656              0
      5471.5000        11.4156        -0.0772        110.869        25.7683        33.2581       36.45744         0.2472          0.273        44.3587         2.0985         0.6366      -141.7031       -78.2014     0.07356254              0
      5472.0000        11.3292        -0.0752       111.4539        27.2332        32.7024       38.53688         0.2269         0.2523        41.3457         2.1052          0.623      -143.7312       -80.2223       0.117806              0
      5472.5000        11.2859        -0.0655       111.9431        30.9789        32.5546        43.8634         0.2169         0.2341        39.1561         2.1146         0.6336      -147.5193       -84.0032      0.2311362              0
