#------------------------------------------------------------------------------
# Created by    : vladimir.rabinovich
# Created on    : 09/19/2023 17:19:36
#------------------------------------------------------------------------------
~Version Information Section
VERS.           2.0     :   CWLS log ASCII Standard - VERSION 2.0
WRAP.           NO      :   One line per depth step
~Well Information Section
#MNEM       .UNIT                                         VALUE :DESCRIPTION
#------------------------------------------------------------------------------
STRT        .FT                                          2840.5 :START DEPTH
STOP        .FT                                            9365 :STOP DEPTH
STEP        .FT                                             0.5 :STEP      
NULL        .                                           -999.25 :NULL      
COMP        .                              MCMORAN OIL & GAS CO :COMPANY   
WELL        .                                OCS 00757 ST00BP00 :WELL      
FLD         .                           WEST CAMERON BLOCK 0118 :FIELD     
LOC         .                                                   :LOCATION  
CNTY        .                                      WEST CAMERON :LOCATION  
STAT        .                                         LOUISIANA :STATE     
CTRY        .                                     UNITED STATES :COUNTRY   
SRVC        .                                                   :SERVICE COMPANY
DATE        .                             9/13/2023 11:18:49 AM :LOG DATE  
API         .                                    17700410710000 :API NUMBER
UWI         .                                    17700410710000 :UNIQUE WELL ID
XCOORD      .                                  1441592.04714169 :SURFACE X 
YCOORD      .                                  10704369.2355959 :SURFACE Y 
LAT         .                                        29.4939537 :LATITUDE  
LON         .                                       -93.6251728 :LONGITUDE 
ELEV        .FT                                              90 :ELEVATION VALUE
ELEV_TYPE   .                                                KB :ELEVATION REFERENCE TYPE
~Curve Information Section
#MNEM       .UNIT                                      API CODE :CURVE DESCRIPTION
#------------------------------------------------------------------------------
DEPT        .FT                                                 :DEPTH     
AHT10       .OHMM                                               :          
AHT20       .OHMM                                               :          
AHT30       .OHMM                                               :          
AHT60       .OHMM                                               :          
AHT90       .OHMM                                               :          
AHTCO90     .MMHO                                               :          
DPHZ        .DEC                                                :          
GR          .GAPI                                               :          
GR_NORM     .GAPI                                               :GammaRay Normalized
HCAL        .IN                                                 :          
HDRA        .G/CC                                               :          
HMIN        .OHMM                                               :          
HMNO        .OHMM                                               :          
NPOR        .DEC                                                :          
RHOZ        .G/CC                                               :          
RWA         .OHMM                                               :          
TENS        .LB                                                 :          
VSH_GR      .V/V                                                :Volume of Shale from GR
~A        DEPTH          AHT10          AHT20          AHT30          AHT60          AHT90        AHTCO90           DPHZ             GR        GR_NORM           HCAL           HDRA           HMIN           HMNO           NPOR           RHOZ            RWA           TENS         VSH_GR
# ...
      3848.5000         1.3865         1.2452         1.1183         1.2004         1.1648        858.541         0.2464         79.979       76.16241        10.3892          0.001          1.114          1.095         0.3788          2.243         0.0924           2255      0.9183491
      3849.0000         1.3696         1.1952         1.0764           1.14         1.1095        901.289         0.2317        79.7395       76.17294        10.4129         0.0012          1.353          1.201         0.4222          2.268         0.0772           2244      0.9185731
      3849.5000         1.3552         1.1715         1.0416         1.0729         1.0475         954.67         0.2213        80.5009       76.85704        10.4602         0.0014          1.383          1.223         0.4308          2.285          0.066           2275      0.9331285
      3850.0000         1.2825         1.0945         0.9668         0.9845         0.9647       1036.577         0.2194        77.6275       74.25898        10.4484              0          1.475          1.303         0.3429          2.288         0.0596           2252      0.8778507
      3850.5000         1.1772         0.9719         0.8679         0.8676         0.8543       1170.498         0.2321        71.4016       68.63353        10.3182        -0.0036          1.715          1.515         0.3414          2.267         0.0597           2238      0.7581602
      3851.0000         1.1003         0.8882         0.7975         0.7854         0.7756       1289.302         0.2438        64.6537       62.53687        10.2473        -0.0052          1.822          1.609         0.3065          2.248         0.0602           2241       0.628444
      3851.5000         1.0702         0.8474         0.7637         0.7337         0.7263       1376.819         0.2642        58.9514       57.38435        10.2473        -0.0069          1.875          1.656         0.3144          2.214          0.067           2265      0.5188159
      3852.0000         1.0644         0.8175         0.7265         0.6917         0.6872       1455.175         0.2773        57.9935       56.51592        10.2709         -0.001          1.858          1.641         0.3222          2.192         0.0703           2290      0.5003387
      3852.5000         1.0228         0.7763         0.6893         0.6498         0.6475       1544.322         0.2869        57.7787       56.31847        10.2946         0.0078          1.865          1.647         0.3431          2.177         0.0713           2264      0.4961376
      3853.0000         0.9514         0.7189         0.6463          0.608         0.6078       1645.334         0.2928        60.6584       58.91532        10.2473         0.0095          1.798          1.589         0.3804          2.167         0.0699           2249      0.5513898
      3853.5000         0.9224         0.6815         0.6155         0.5785           0.58       1724.062          0.303        66.6448       64.31741         10.058         0.0065          1.339          1.186         0.4258           2.15         0.0718           2260       0.666328
      3854.0000         0.9574         0.6864         0.6191          0.573         0.5761       1735.909         0.3078        70.5022       67.79714         9.9634         0.0024          1.398          1.235         0.3742          2.142         0.0738           2254      0.7403647
      3854.5000           1.04         0.7227         0.6335         0.5762         0.5813       1720.326         0.3047        63.2678       61.26114         9.8924         0.0023          1.638          1.447         0.3698          2.147         0.0728           2256      0.6013008
      3855.0000         1.0414         0.7172         0.6318         0.5683         0.5749       1739.434         0.2985        55.9901       54.68601         9.9871         0.0009          1.685          1.489         0.4087          2.157         0.0689           2277      0.4614044
      3855.5000         0.9025         0.6358         0.5603         0.5081         0.5147       1942.766         0.2975         40.872       41.03115         10.058        -0.0022          1.722          1.521         0.3323          2.159         0.0612           2272      0.1708756
      3856.0000         0.7747         0.5531         0.5084         0.4667         0.4733       2112.979         0.3056        35.6039       36.27077        10.0817        -0.0034          2.051          1.811         0.2922          2.146         0.0597           2260     0.06959087
      3856.5000         0.7614         0.5368         0.5006         0.4497         0.4566       2189.875         0.3172        33.0903       33.99755        10.0107         -0.006          2.045          1.806         0.3506          2.127         0.0624           2275     0.02122441
      3857.0000         0.8485         0.5807         0.5295          0.473         0.4811        2078.76         0.3242        35.9699       36.59428         9.9989        -0.0071          1.971          1.761         0.3453          2.115         0.0689           2253     0.07647397
      3857.5000         0.8854         0.5963         0.5457         0.4847         0.4932       2027.452         0.3278         35.491       36.15832         9.9871        -0.0079          1.986          1.782         0.3717          2.109         0.0723           2275     0.06719825
      3858.0000         0.8071         0.5513          0.508          0.453         0.4617       2165.881         0.3291        30.0448       31.23708         9.9398        -0.0089          1.957          1.795         0.3708          2.107         0.0683           2265              0
      3858.5000         0.7232         0.5058         0.4747         0.4344         0.4405       2270.051           0.33        27.6451       29.06668         9.8924        -0.0067          1.827          1.731         0.3671          2.105         0.0655           2239              0
      3859.0000         0.6767         0.4807         0.4544         0.4192         0.4239       2359.001         0.3287        26.4478       27.98214         9.8924        -0.0036          1.904          1.755         0.3141          2.108         0.0625           2256              0
      3859.5000         0.6566         0.4694         0.4452         0.4157         0.4201       2380.241         0.3266        28.3331       29.68095         9.9043        -0.0017          2.153          1.934         0.3631          2.111         0.0611           2268              0
      3860.0000         0.6474         0.4648         0.4476         0.4239         0.4265       2344.638         0.3276        30.4928       31.62765         9.8451        -0.0006          2.171           1.92         0.3465           2.11         0.0624           2248              0
      3860.5000         0.6455         0.4661         0.4474         0.4205         0.4211       2374.495         0.3308        29.2955       30.54312         9.8451        -0.0009          2.127          1.878         0.3515          2.104          0.063           2261              0
      3861.0000         0.6389         0.4662         0.4489         0.4246         0.4232       2363.215         0.3331        33.4849        34.3225         9.8215         -0.002          2.112          1.874         0.3658            2.1         0.0642           2257     0.02813834
      3861.5000         0.6191         0.4583          0.442         0.4238         0.4213       2373.412         0.3341         32.765       33.66899         9.8451        -0.0034          2.076          1.845         0.3458          2.099         0.0644           2240     0.01423377
      3862.0000         0.5974         0.4502         0.4374         0.4243         0.4205       2378.073          0.332        36.5963       37.12511         9.8215          0.002          2.134          1.885         0.3283          2.102         0.0634           2257     0.08776823
