#------------------------------------------------------------------------------
# Created by    : vladimir.rabinovich
# Created on    : 09/19/2023 17:21:07
#------------------------------------------------------------------------------
~Version Information Section
VERS.           2.0     :   CWLS log ASCII Standard - VERSION 2.0
WRAP.           NO      :   One line per depth step
~Well Information Section
#MNEM       .UNIT                                         VALUE :DESCRIPTION
#------------------------------------------------------------------------------
STRT        .FT                                            3895 :START DEPTH
STOP        .FT                                         10595.5 :STOP DEPTH
STEP        .FT                                             0.5 :STEP      
NULL        .                                           -999.25 :NULL      
COMP        .                               TALOS PETROLEUM LLC :COMPANY   
WELL        .                                OCS 00300 ST00BP00 :WELL      
FLD         .                           WEST CAMERON BLOCK 0045 :FIELD     
LOC         .                                                   :LOCATION  
CNTY        .                                      WEST CAMERON :LOCATION  
STAT        .                                         LOUISIANA :STATE     
CTRY        .                                     UNITED STATES :COUNTRY   
SRVC        .                                                   :SERVICE COMPANY
DATE        .                             9/13/2023 11:18:36 AM :LOG DATE  
API         .                                    17700410070000 :API NUMBER
UWI         .                                    17700410070000 :UNIQUE WELL ID
XCOORD      .                                  1453771.49108141 :SURFACE X 
YCOORD      .                                  10773222.7644816 :SURFACE Y 
LAT         .                                        29.6835328 :LATITUDE  
LON         .                                       -93.5879752 :LONGITUDE 
ELEV        .FT                                             100 :ELEVATION VALUE
ELEV_TYPE   .                                                KB :ELEVATION REFERENCE TYPE
~Curve Information Section
#MNEM       .UNIT                                      API CODE :CURVE DESCRIPTION
#------------------------------------------------------------------------------
DEPT        .FT                                                 :DEPTH     
ATR         .OHMM                                               :          
CATR        .MMHO                                               :          
DCAL        .IN                                                 :          
DRHB        .G/C3                                               :          
GR          .GAPI                                               :          
GR_NORM     .GAPI                                               :GammaRay Normalized
PSR         .OHMM                                               :          
RHOB        .G/C3                                               :          
ROP5        .F/HR                                               :          
TNPH        .%                                                  :          
VSH_GR      .V/V                                                :Volume of Shale from GR
~A        DEPTH            ATR           CATR           DCAL           DRHB             GR        GR_NORM            PSR           RHOB           ROP5           TNPH         VSH_GR
# ...
      7045.0000           0.18       5555.555           0.28           0.03          54.77       36.97114           0.21           2.13         227.98             40      0.0844923
      7045.5000           0.19       5263.156           0.32           0.02          54.98       37.21893           0.21           2.13         246.73             41     0.08976445
      7046.0000            0.2           5000           0.35           0.02          53.91        35.9491           0.23           2.13         246.73             38     0.06274674
      7046.5000            0.2           5000           0.32           0.04          53.49       35.44989           0.23           2.12       277.1196             40     0.05212532
      7047.0000           0.19       5263.156           0.34           0.05           52.1       33.80048           0.21           2.12       264.8599             40     0.01703149
      7047.5000           0.18       5555.555            0.4           0.05          51.15         32.673            0.2           2.12       257.3198             41              0
      7048.0000           0.18       5555.555           0.45           0.05           52.8       34.62801           0.22           2.13       240.1499             41     0.03463851
      7048.5000           0.17       5882.352           0.43           0.05          52.96       34.81635           0.22           2.11       211.8799             40     0.03864573
      7049.0000           0.17       5882.352           0.38           0.05          53.45       35.39608           0.22           2.11       181.9199             39     0.05098034
      7049.5000           0.17       5882.352           0.39           0.06          51.75       33.37926           0.22           2.11         163.73             38    0.008069302
      7050.0000           0.17       5882.352           0.42           0.06          52.21       33.92337           0.21           2.12         163.73             39     0.01964626
      7050.5000           0.17       5882.352           0.43           0.05           52.5       34.26588           0.21           2.13         163.73             40     0.02693355
      7051.0000           0.18       5555.555           0.39           0.05          51.54       33.12638           0.21           2.12       155.2598             40    0.002688956
      7051.5000           0.18       5555.555           0.41           0.06           51.5       33.07767           0.22           2.12       150.0798             40    0.001652576
      7052.0000           0.18       5555.555           0.45           0.07          51.12       32.62592           0.21           2.13       152.6299             40              0
      7052.5000           0.18       5555.555           0.48           0.08          50.91       32.37559           0.21           2.14       153.9299             41              0
      7053.0000           0.19       5263.156           0.52           0.06        50.0099       31.30719            0.2           2.14       156.6099             41              0
      7053.5000           0.19       5263.156           0.53           0.06          49.62       30.84362            0.2           2.13       162.2598             41              0
      7054.0000           0.18       5555.555           0.54           0.07          51.99       33.65231           0.21           2.14       178.3298             40     0.01387892
      7054.5000           0.18       5555.555           0.53           0.08          52.95       34.78926           0.21           2.14       189.5999             40      0.0380693
      7055.0000           0.19       5263.156           0.55            0.1          53.18       35.06067           0.21           2.14       195.7698             40     0.04384394
      7055.5000           0.19       5263.156            0.6            0.1          52.66       34.44277           0.22           2.14       191.5999             41     0.03069719
      7056.0000            0.2           5000            0.6            0.1        53.5099       35.44917           0.21           2.14       185.6899             42      0.0521099
      7056.5000            0.2           5000           0.59           0.09          55.15       37.39235           0.22           2.14       183.7898             41     0.09345424
      7057.0000           0.19       5263.156           0.57           0.08          54.67       36.82207           0.22           2.13       178.3298             41     0.08132058
      7057.5000           0.19       5263.156           0.56           0.07        53.6299        35.5877           0.21           2.12       173.1899             39     0.05505744
      7058.0000           0.18       5555.555           0.54           0.05          52.06       33.72503           0.22           2.12       169.9199             39     0.01542615
      7058.5000           0.18       5555.555           0.49           0.05          51.41       32.95315           0.23           2.13       174.8599             38              0
      7059.0000           0.18       5555.555            0.5           0.04          50.68       32.08636           0.22           2.14       176.5798             37              0
      7059.5000           0.18       5555.555           0.55           0.06          50.37        31.7175           0.22           2.16       178.3298             37              0
      7060.0000           0.18       5555.555           0.59           0.06          51.16         32.653           0.23           2.16       180.1099             38              0
      7060.5000           0.18       5555.555           0.65           0.06          53.41       35.31919           0.23           2.15       187.6199             37     0.04934441
      7061.0000           0.18       5555.555           0.67           0.06           54.5       36.61028           0.22           2.14       185.6899             37     0.07681445
      7061.5000           0.19       5263.156           0.73           0.07           55.9       38.26896           0.22           2.14       183.7898             38      0.1121054
      7062.0000           0.21       4761.898           0.75           0.08          55.93       38.30313           0.24           2.13       181.9299             40      0.1128326
      7062.5000           0.21       4761.898           0.68           0.09          55.35       37.61433           0.24           2.12       174.8499             40     0.09817724
      7063.0000           0.18       5555.555           0.59           0.09           51.9        33.5227           0.23           2.12       169.8999             38     0.01112122
      7063.5000           0.18       5555.555           0.49            0.1        49.0699       30.16589           0.23           2.13       168.3198             38              0
      7064.0000           0.18       5555.555           0.48           0.09          47.53       28.33904           0.22           2.13         165.23             39              0
      7064.5000           0.17       5882.352           0.49           0.07          47.78        28.6341           0.24           2.13       153.9199             40              0
      7065.0000           0.17       5882.352            0.5           0.06          48.27       29.21384           0.24           2.12       147.6199             38              0
      7065.5000           0.17       5882.352           0.51           0.06        50.5699       31.93928           0.21           2.13       147.6199             39              0
      7066.0000           0.18       5555.555           0.51           0.06          52.37       34.07227           0.21           2.14         145.23             38     0.02281416
      7066.5000           0.18       5555.555           0.51           0.06          52.08       33.72703           0.21           2.15         145.23             38     0.01546876
      7067.0000           0.19       5263.156           0.51           0.06          51.75       33.33455           0.22           2.16       147.6099             36    0.007118144
