#------------------------------------------------------------------------------
# Created by    : vladimir.rabinovich
# Created on    : 09/19/2023 17:21:14
#------------------------------------------------------------------------------
~Version Information Section
VERS.           2.0     :   CWLS log ASCII Standard - VERSION 2.0
WRAP.           NO      :   One line per depth step
~Well Information Section
#MNEM       .UNIT                                         VALUE :DESCRIPTION
#------------------------------------------------------------------------------
STRT        .FT                                            2600 :START DEPTH
STOP        .FT                                          9205.5 :STOP DEPTH
STEP        .FT                                             0.5 :STEP      
NULL        .                                           -999.25 :NULL      
COMP        .                              MCMORAN OIL & GAS CO :COMPANY   
WELL        .                                OCS 00757 ST00BP00 :WELL      
FLD         .                           WEST CAMERON BLOCK 0118 :FIELD     
LOC         .                                                   :LOCATION  
CNTY        .                                      WEST CAMERON :LOCATION  
STAT        .                                         LOUISIANA :STATE     
CTRY        .                                     UNITED STATES :COUNTRY   
SRVC        .                                                   :SERVICE COMPANY
DATE        .                             9/13/2023 11:18:49 AM :LOG DATE  
API         .                                    17700410700000 :API NUMBER
UWI         .                                    17700410700000 :UNIQUE WELL ID
XCOORD      .                                  1436864.54905534 :SURFACE X 
YCOORD      .                                  10703419.9985863 :SURFACE Y 
LAT         .                                        29.4912718 :LATITUDE  
LON         .                                       -93.6400205 :LONGITUDE 
ELEV        .FT                                             118 :ELEVATION VALUE
ELEV_TYPE   .                                                KB :ELEVATION REFERENCE TYPE
~Curve Information Section
#MNEM       .UNIT                                      API CODE :CURVE DESCRIPTION
#------------------------------------------------------------------------------
DEPT        .FT                                                 :DEPTH     
CAL         .IN                                                 :          
CNC         .%                                                  :          
DT24        .US/F                                               :          
GR          .GAPI                                               :          
GR_NORM     .GAPI                                               :GammaRay Normalized
M0C6        .MMHO                                               :          
M2R1        .OHMM                                               :          
M2R2        .OHMM                                               :          
M2R3        .OHMM                                               :          
M2R6        .OHMM                                               :          
M2R9        .OHMM                                               :          
M2RX        .OHMM                                               :          
PORZ        .%                                                  :          
RWAZ        .OHMM                                               :          
SP          .MV                                                 :          
SP_NORM     .MV                                                 :SP Normalized
TTEN        .LB/F                                               :          
VSH_GR      .V/V                                                :Volume of Shale from GR
VSH_SP      .V/V                                                :Volume of Shale from SP
ZCOR        .G/CC                                               :          
~A        DEPTH            CAL            CNC           DT24             GR        GR_NORM           M0C6           M2R1           M2R2           M2R3           M2R6           M2R9           M2RX           PORZ           RWAZ             SP        SP_NORM           TTEN         VSH_GR         VSH_SP           ZCOR
# ...
      6123.0000         10.557         36.232        117.273         60.385       59.26649       1831.048          0.672          0.565          0.527          0.515          0.512          0.521         23.592          0.038        -33.986        -25.879       2811.897      0.5588614      0.5600193          0.017
      6123.5000         10.557         34.728        118.132         60.101       58.86889       1784.632          0.697          0.588          0.548          0.535          0.531           0.54         24.191          0.041        -34.603       -26.4739       2813.544       0.550402      0.5485789          0.015
      6124.0000          10.56         33.093        119.706         60.466       59.37025       1731.782          0.729          0.622           0.58          0.566          0.561           0.57         23.878          0.042        -34.039       -25.8879       2819.151      0.5610691      0.5598481          0.012
      6124.5000         10.578          32.15        118.268         59.336       57.80067       1676.748          0.781          0.678          0.633          0.617           0.61           0.62          22.45           0.04        -32.175       -24.0018        2821.67      0.5276738      0.5961192          0.015
      6125.0000         10.619         32.159        115.003         58.761       56.99979       1624.121          0.847          0.752          0.704          0.686          0.676          0.686         20.445          0.036        -29.474       -21.2787       2817.808      0.5106339      0.6484866          0.019
      6125.5000         10.682         32.404        112.524         60.586       59.52388       1577.713          0.882          0.804          0.758          0.738          0.726          0.736         18.803          0.033        -26.799       -18.5816       2813.862      0.5643378      0.7003539          0.013
      6126.0000         10.742         32.981        110.428          62.38       62.00487       1539.647          0.853          0.796          0.758          0.739          0.726          0.734          18.34          0.031        -25.221       -16.9815       2813.101      0.6171249       0.731125          0.008
      6126.5000         10.752         34.094        111.227         62.755        62.5201       1509.961          0.796          0.751          0.721          0.704          0.692          0.698         19.307          0.033         -25.29       -17.0285       2816.316      0.6280872      0.7302212          0.006
      6127.0000          10.71         34.947         113.81         62.831       62.62121       1486.938          0.758          0.715           0.69          0.675          0.663          0.667         21.011          0.038        -26.529       -18.2454       2824.133      0.6302385      0.7068192         -0.002
      6127.5000          10.67          36.13        114.316         63.406       63.41349       1468.005          0.746          0.701          0.678          0.663          0.653          0.655         22.271          0.042        -27.977       -19.6713       2831.196      0.6470954      0.6793981         -0.008
      6128.0000         10.676         38.111        113.491         63.324       63.29574       1450.929          0.747          0.703          0.681          0.666          0.656          0.656         22.541          0.043        -29.023       -20.6952         2833.1      0.6445903      0.6597077         -0.009
      6128.5000         10.737         38.272        112.591         62.682       62.40205       1434.804          0.759          0.721            0.7          0.685          0.674          0.674         22.249          0.043         -29.43       -21.0802       2831.405      0.6255756      0.6523038          -0.01
      6129.0000         10.862          35.47        111.589         61.314       60.50262       1420.502          0.786          0.761          0.742          0.726          0.714          0.711         22.059          0.045        -28.732       -20.3601       2828.633      0.5851622      0.6661519         -0.002
      6129.5000         11.041         33.202        110.235         59.876       58.50635       1410.352          0.821          0.815          0.799          0.781          0.768          0.763          21.81          0.047         -26.56        -18.166        2825.03      0.5426883      0.7083461          0.011
      6130.0000         11.195         32.431        107.496         58.735       56.92138       1407.253          0.845          0.859          0.848          0.828          0.815          0.806         20.752          0.044        -23.509       -15.0929       2820.802      0.5089656      0.7674443          0.023
      6130.5000         11.261         31.944        105.302          58.08       56.00984       1413.531          0.841          0.868          0.862          0.842          0.829          0.818          19.28          0.038        -20.831       -12.3928       2816.263       0.489571      0.8193692          0.032
      6131.0000         11.286         31.543        106.062          58.57       56.68435        1429.98          0.795          0.823          0.822          0.803          0.791          0.779         18.861          0.035        -19.187       -10.7268       2813.852      0.5039224      0.8514077          0.034
      6131.5000         11.328         31.868        108.869         61.658       60.95798       1455.459          0.723          0.745          0.745          0.728          0.718          0.707         19.729          0.035        -18.334        -9.8517       2812.625      0.5948507      0.8682365          0.032
      6132.0000         11.379          32.59        113.306         64.967        65.5379       1487.141          0.663          0.677          0.676           0.66          0.652          0.642         20.673          0.035        -17.876        -9.3716       2812.292      0.6922958      0.8774692          0.033
      6132.5000          11.42         33.129        118.076          65.07        65.6763       1521.252          0.633           0.64          0.637          0.622          0.615          0.605         20.886          0.034        -17.623        -9.0965       2814.645      0.6952404      0.8827596          0.037
      6133.0000         11.443           34.3        120.669         63.984       64.16769       1554.024          0.627          0.629          0.624          0.609          0.602          0.593         20.679          0.032        -17.617        -9.0685        2816.75      0.6631423      0.8832981          0.037
      6133.5000         11.442         35.501         120.94         65.092       65.69832       1582.469          0.637          0.634          0.626          0.611          0.603          0.595         20.736          0.033        -17.993        -9.4224       2817.774      0.6957089      0.8764923          0.032
      6134.0000         11.421         35.758         119.07         66.896       68.19318       1604.803          0.652          0.646          0.636           0.62          0.612          0.604         21.095          0.034        -18.558        -9.9653       2821.973       0.748791      0.8660519          0.024
      6134.5000         11.393         36.123        117.504         66.306       67.37167       1620.404          0.661          0.654          0.642          0.626          0.618          0.611         21.199          0.035         -18.84       -10.2252       2825.656      0.7313122      0.8610538          0.019
      6135.0000         11.372         37.409        116.889         65.342       66.03191       1629.506          0.654          0.646          0.634          0.619          0.611          0.605         20.993          0.034        -18.772       -10.1351       2823.722      0.7028065      0.8627865          0.017
      6135.5000         11.364         38.964        117.105         65.745       66.58604       1632.737          0.635          0.626          0.615          0.601          0.594          0.591         21.029          0.033        -18.796       -10.1371        2819.68      0.7145967      0.8627481          0.016
