#------------------------------------------------------------------------------
# Created by    : vladimir.rabinovich
# Created on    : 09/19/2023 17:22:13
#------------------------------------------------------------------------------
~Version Information Section
VERS.           2.0     :   CWLS log ASCII Standard - VERSION 2.0
WRAP.           NO      :   One line per depth step
~Well Information Section
#MNEM       .UNIT                                         VALUE :DESCRIPTION
#------------------------------------------------------------------------------
STRT        .FT                                            4265 :START DEPTH
STOP        .FT                                           12768 :STOP DEPTH
STEP        .FT                                             0.5 :STEP      
NULL        .                                           -999.25 :NULL      
COMP        .                                SHELL OFFSHORE INC :COMPANY   
WELL        .                               OCS G04749 ST00BP02 :WELL      
FLD         .                                           WILDCAT :FIELD     
LOC         .                                                   :LOCATION  
CNTY        .                                      WEST CAMERON :LOCATION  
STAT        .                                         LOUISIANA :STATE     
CTRY        .                                     UNITED STATES :COUNTRY   
SRVC        .                                                   :SERVICE COMPANY
DATE        .                             9/13/2023 11:19:06 AM :LOG DATE  
API         .                                    17700406070000 :API NUMBER
UWI         .                                    17700406070000 :UNIQUE WELL ID
XCOORD      .                                   1486969.7252092 :SURFACE X 
YCOORD      .                                  10728694.6404599 :SURFACE Y 
LAT         .                                        29.5614647 :LATITUDE  
LON         .                                       -93.4828123 :LONGITUDE 
ELEV        .FT                                              98 :ELEVATION VALUE
ELEV_TYPE   .                                                KB :ELEVATION REFERENCE TYPE
~Curve Information Section
#MNEM       .UNIT                                      API CODE :CURVE DESCRIPTION
#------------------------------------------------------------------------------
DEPT        .FT                                                 :DEPTH     
CALI        .IN                                                 :          
DRHO        .G/C3                                               :          
DT          .US/F                                               :          
GR          .GAPI                                               :          
GR_1        .GAPI                                               :          
GR_NORM     .GAPI                                               :GammaRay Normalized
ILD         .OHMM                                               :          
ILM         .OHMM                                               :          
NPHI        .%                                                  :          
RHOB        .G/C3                                               :          
SFL         .OHMM                                               :          
SP          .MV                                                 :          
SP_NORM     .MV                                                 :SP Normalized
VSH_GR      .V/V                                                :Volume of Shale from GR
VSH_SP      .V/V                                                :Volume of Shale from SP
~A        DEPTH           CALI           DRHO             DT             GR           GR_1        GR_NORM            ILD            ILM           NPHI           RHOB            SFL             SP        SP_NORM         VSH_GR         VSH_SP
# ...
      9943.0000        15.6033         0.0181        98.2039        -999.25        60.0604       69.20876         0.6486         0.7156        44.3181         2.0465          0.761       -64.7717       -31.0441       0.770399      0.7036316
      9943.5000         14.969         0.0219         96.571        -999.25        59.2794       68.23776         0.5942          0.677        41.6342         2.0866         0.7908       -73.4326       -39.7223      0.7497396      0.6150786
      9944.0000        13.5224         0.0412        94.7504        -999.25        57.1636       65.62469         0.5109         0.6215        37.0187         2.1163         0.8141       -84.0846       -50.3916      0.6941423      0.5062081
      9944.5000        13.1963         0.0407        92.8195        -999.25        53.2419       60.78998         0.4162         0.5454        35.7655         2.1094         0.9398       -95.6125       -61.9367      0.5912762       0.388401
      9945.0000        13.2338         0.0215        90.7357        -999.25         46.179       52.09098         0.3273         0.4484        36.4786         2.0984         1.2749      -108.5144       -74.8559      0.4061912      0.2565724
      9945.5000        13.0397         0.0094        88.2013        -999.25         38.756       42.94899         0.2769         0.3627        35.8137         2.0972         1.4796       -117.683       -84.0418      0.2116807      0.1628388
      9946.0000        12.7701         0.0126        86.3806        -999.25        33.1337       36.02221         0.2414         0.3113        31.8736         2.1502         1.4674      -121.1274       -87.5035     0.06430233      0.1275153
      9946.5000        12.6052         0.0285        86.0939        -999.25        29.3021       31.29835         0.2226         0.2752        28.3067         2.1875         1.1798      -121.1311       -87.5244              0      0.1273021
      9947.0000        12.5912         0.0369        87.0818        -999.25        28.7143       30.56503         0.2141         0.2593        27.3995         2.2029         0.9151      -117.4242       -83.8348              0       0.164951
      9947.5000        12.5893         0.0374        88.6271        -999.25        30.2174       32.40394         0.2152         0.2605        27.3243          2.208         0.7918      -108.8727       -75.3006              0      0.2520347
      9948.0000         12.607         0.0344        91.1665        -999.25        32.6685       35.40907         0.2274         0.2854        27.8373         2.2024         0.7361       -95.6523       -62.0974     0.05125687      0.3867612
      9948.5000         12.632         0.0382        93.8412        -999.25        36.1149       39.63863         0.2548         0.3227        29.0619         2.2036         0.7071       -85.3589       -51.8213      0.1412475      0.4916194
      9949.0000        12.6634         0.0553        96.6011        -999.25        40.9269       45.54816         0.2956         0.3634        30.2474         2.2084         0.6747       -76.4839       -42.9636      0.2669821      0.5820041
      9949.5000        12.7191         0.0759        99.5137        -999.25        45.4387        51.0885         0.3396         0.4092        31.3967         2.2007         0.6334       -73.6666       -40.1636      0.3848616      0.6105755
      9950.0000        12.8842           0.09       100.1548        -999.25        51.3311       58.32713         0.3784         0.4507        35.0449         2.1639         0.5937        -75.807       -42.3212      0.5388752      0.5885592
      9950.5000        13.3989         0.0832        98.1788        -999.25        53.6321       61.14761         0.3975         0.4698        37.9183         2.1392         0.6107       -81.6058       -48.1373      0.5988854      0.5292112
      9951.0000        13.4089         0.0638        95.5844        -999.25        52.6967       59.98667         0.3948         0.4668        39.0895         2.1223         0.6802        -89.301       -55.8498      0.5741845      0.4505122
      9951.5000        13.0127          0.054        93.0148        -999.25        48.0898       54.30904         0.3745         0.4213        37.8641         2.1256         0.7686      -101.0779        -67.644      0.4533838      0.3301633
      9952.0000        12.7229         0.0471        90.8735        -999.25        42.2474        47.1115         0.3413         0.3689        35.9325         2.1277         0.8035      -107.6682       -74.2515      0.3002447      0.2627398
      9952.5000        12.5951         0.0323        89.2432        -999.25        37.3054       41.02162         0.3096         0.3413        34.2566          2.124          0.724      -111.9539       -78.5545      0.1706727      0.2188317
      9953.0000        12.5683         0.0175        87.9872        -999.25         35.257       38.49147         0.2935         0.3324        32.1534         2.1308         0.6071      -112.6233       -79.2412      0.1168397      0.2118245
      9953.5000        12.6081         0.0103        87.1382        -999.25        34.4379        37.4736         0.2797         0.3323         29.775         2.1707         0.5821      -110.6796       -77.3148     0.09518295      0.2314817
      9954.0000        12.6716         0.0147        87.1896        -999.25        34.9969       38.15107         0.2693         0.3434        28.8915         2.2006         0.9657      -108.9967       -75.6491      0.1095972      0.2484786
      9954.5000        12.7251         0.0275        89.4435        -999.25        35.1287         38.303         0.2657         0.3592        28.5797         2.2245         1.2749      -109.2162       -75.8859      0.1128298      0.2460622
      9955.0000        12.7351         0.0341        91.9629        -999.25        34.3541       37.33988         0.2896         0.3768        28.2834         2.2185         1.4095      -108.4944       -75.1814     0.09233791       0.253251
      9955.5000        12.7223         0.0356        94.3422        -999.25        34.1464       37.07415         0.3333         0.3986        28.1122         2.1819         1.3334      -103.1187        -69.823     0.08668412      0.3079286
      9956.0000          12.75         0.0404          96.03        -999.25        35.0344       38.15635         0.3739         0.4265        28.5835         2.1271          1.077       -98.2046       -64.9261      0.1097096      0.3578969
      9956.5000        12.8047          0.041        96.1165        -999.25        37.0602       40.63829         0.3782         0.4492        30.4474         2.0093         0.9151       -98.0198       -64.7586      0.1625169      0.3596061
      9957.0000        12.8597         0.0205        93.8312        -999.25         38.896       42.88649         0.3642         0.4573        35.6226         1.9608         0.8519       -99.8136       -66.5697      0.2103508      0.3411255
      9957.5000        12.8832        -0.0016        90.7457        -999.25        34.0941       36.96897         0.3238         0.4272         38.845         1.9302         0.8994      -110.3461       -77.1194      0.0844462      0.2334755
      9958.0000         12.837        -0.0102        88.0736        -999.25        28.9519       30.63294         0.2948         0.3771         38.475         1.9622         0.9046      -118.2952       -85.0858              0      0.1521857
      9958.5000        12.7775        -0.0028        86.8984        -999.25         26.686       27.83521         0.2858         0.3408        34.1964         2.0714         0.7656      -120.3733       -87.1812              0      0.1308041
      9959.0000        12.7626         0.0106        86.6106        -999.25         25.825       26.76579           0.28         0.3141        29.0694         2.1462         0.6428      -118.4197       -85.2449              0      0.1505622
      9959.5000        12.7564         0.0226        86.5187        -999.25        28.0766       29.52551         0.2746         0.3071        27.3815         2.1842         0.5551      -113.5466        -80.389              0      0.2001122
