#------------------------------------------------------------------------------
# Created by    : vladimir.rabinovich
# Created on    : 09/19/2023 17:22:25
#------------------------------------------------------------------------------
~Version Information Section
VERS.           2.0     :   CWLS log ASCII Standard - VERSION 2.0
WRAP.           NO      :   One line per depth step
~Well Information Section
#MNEM       .UNIT                                         VALUE :DESCRIPTION
#------------------------------------------------------------------------------
STRT        .FT                                            2996 :START DEPTH
STOP        .FT                                            8909 :STOP DEPTH
STEP        .FT                                             0.5 :STEP      
NULL        .                                           -999.25 :NULL      
COMP        .                             PHILLIPS PETROLEUM CO :COMPANY   
WELL        .                                OCS 00299 ST00BP00 :WELL      
FLD         .                           WEST CAMERON BLOCK 0045 :FIELD     
LOC         .                                                   :LOCATION  
CNTY        .                                      WEST CAMERON :LOCATION  
STAT        .                                         LOUISIANA :STATE     
CTRY        .                                     UNITED STATES :COUNTRY   
SRVC        .                                                   :SERVICE COMPANY
DATE        .                             9/13/2023 11:18:09 AM :LOG DATE  
API         .                                    17700407290000 :API NUMBER
UWI         .                                    17700407290000 :UNIQUE WELL ID
XCOORD      .                                  1446390.31791034 :SURFACE X 
YCOORD      .                                  10761453.0604348 :SURFACE Y 
LAT         .                                        29.6510516 :LATITUDE  
LON         .                                       -93.6110308 :LONGITUDE 
ELEV        .FT                                              99 :ELEVATION VALUE
ELEV_TYPE   .                                                KB :ELEVATION REFERENCE TYPE
~Curve Information Section
#MNEM       .UNIT                                      API CODE :CURVE DESCRIPTION
#------------------------------------------------------------------------------
DEPT        .FT                                                 :DEPTH     
CALX        .IN                                                 :          
CDL         .%                                                  :          
CILD        .MMHO                                               :          
CNS         .%                                                  :          
DRHO        .G/C3                                               :          
GR_NORM     .GAPI                                               :GammaRay Normalized
RILD        .OHMM                                               :          
RILM        .OHMM                                               :          
RLL         .OHMM                                               :          
SP          .MV                                                 :          
SP_NORM     .MV                                                 :SP Normalized
TENS        .LB                                                 :          
VSH_GR      .V/V                                                :Volume of Shale from GR
VSH_SP      .V/V                                                :Volume of Shale from SP
~A        DEPTH           CALX            CDL           CILD            CNS           DRHO        GR_NORM           RILD           RILM            RLL             SP        SP_NORM           TENS         VSH_GR         VSH_SP
# ...
      5372.0000        17.3733        35.8821       4489.796         37.917         0.0333       36.83547          0.224         0.3448          1.119          -13.3       -15.2048       2081.633     0.08160579      0.1282286
      5372.5000        17.5098        34.9412       4914.286        35.9412         0.0216       36.83164         0.2019         0.3172         1.0479          -13.7       -15.6048       2102.041      0.0815243     0.09965713
      5373.0000        17.8235        34.5294       5240.816        34.5294         0.0216       37.49584         0.1927         0.2944         1.0479          -13.8       -15.7048       2081.633     0.09565613     0.09251431
      5373.5000           18.1        34.5294       5404.082             35         0.0216       39.49311          0.184         0.2782         1.0982          -13.8       -15.7048       2061.225      0.1381514     0.09251431
      5374.0000          18.34        34.4706       5338.775        34.7647         0.0265       39.93498         0.1875         0.2704         1.1295          -13.9       -15.8048       2061.225      0.1475527     0.08537143
      5374.5000           18.1        35.8824       4946.939        34.1176         0.0343       37.71055         0.1927         0.2756         1.0778          -13.8       -15.7048       2122.449      0.1002244     0.09251431
      5375.0000        17.2549          36.72       4391.837        33.5294         0.0412       36.15279         0.2348         0.3028         1.0285          -13.6       -15.5048       2122.449     0.06708056         0.1068
      5375.5000          14.66          36.96       3858.823        34.0588         0.0284        33.6573         0.2704         0.3353         1.0382          -13.1       -15.0048       2102.041     0.01398517      0.1425143
      5376.0000          12.96          36.18       3247.059        34.5294         0.0137       30.48191         0.3231         0.3963         1.4142          -12.4       -14.3048       2081.633              0      0.1925143
      5376.5000          12.46           30.9           2672          31.62         0.0049       30.25281         0.3783         0.4685         1.9814          -11.6       -13.5048       2061.225              0      0.2496572
      5377.0000          12.82        25.2857       2318.367          27.66         0.0118       32.51672          0.439          0.561         2.4722          -10.7       -12.6048       2061.225              0      0.3139428
      5377.5000        13.4118        24.3061       1910.204         25.898         0.0196       37.25144         0.5146         0.6222         1.8731         -9.898       -11.8028       2081.633     0.09045621      0.3712285
      5378.0000        13.5098        25.0408       1681.633        26.2041         0.0216       44.13695          0.611         0.6569         1.1617        -8.9796       -10.8844       2081.633      0.2369564      0.4368286
      5378.5000         12.917        26.2064       1567.347        28.6848         0.0186       46.35645          0.669         0.6874              1         -7.762        -9.6668       2081.633      0.2841797         0.5238
      5379.0000        12.4922        26.6962       1453.061        32.9405         0.0167       44.79868            0.7         0.7135         1.1085         -7.166        -9.0708       2081.633      0.2510357      0.5663714
      5379.5000        12.5073         26.094       1485.714        34.2353         0.0147       42.79648         0.6629         0.7135         1.1726        -7.0796        -8.9844       2081.633      0.2084357      0.5725428
      5380.0000        12.7622        25.7376       1632.653        34.6471         0.0157       40.57205          0.611         0.6937         1.0982        -7.2946        -9.1994       2061.225      0.1611075      0.5571857
      5380.5000          13.52        28.7182       1812.245        33.0588         0.0176       38.79196         0.5557         0.6629         1.0982           -8.1       -10.0048       2102.041      0.1232331      0.4996572
      5381.0000             16          38.34       1942.857             31         0.0127       37.23419         0.5146         0.6222         1.4275           -9.2       -11.1048       2102.041     0.09008919      0.4210857
      5381.5000        17.5294          46.56       2138.775        30.6471          0.002       35.66747         0.4685         0.5664         1.2288       -10.2041       -12.1089       2102.041     0.05675474      0.3493643
      5382.0000          18.94        60.1232       2383.674        34.3529        -0.0173        33.8519         0.4309         0.5146         0.9442       -11.0204       -12.9252       2102.041     0.01812558      0.2910571
      5382.5000        19.3333          65.22           2640        44.0588        -0.0337       32.71625         0.3819         0.4642         0.8146       -11.3265       -13.2313       2081.633              0      0.2691928
      5383.0000          18.48          65.34           2896          52.44        -0.0357       32.03387         0.3416         0.4269         0.7774       -11.1224       -13.0272       2102.041              0      0.2837715
      5383.5000        16.9804          64.32           3136          57.66        -0.0296       33.61787         0.3292         0.3963         0.7483       -10.3061       -12.2109       2122.449     0.01314618      0.3420785
      5384.0000          14.94        59.8824       3231.373          58.14        -0.0173       38.33038         0.3113         0.3854         0.7483           -8.7       -10.6048       2142.857      0.1134123         0.4568
      5384.5000          14.02          52.02       3215.686        54.3529         0.0108       47.88228         0.3028         0.3926         0.7555           -6.1        -8.0048       2081.633      0.3166443      0.6425143
      5385.0000          13.22        43.9412           3120          51.36         0.0294       53.21238         0.3113         0.4113            0.7        -3.6735        -5.5783       2081.633      0.4300506      0.8158357
      5385.5000          13.06             33           2848           47.7         0.0422       57.43161         0.3448         0.4349         0.6751        -1.4286        -3.3334       2102.041      0.5198215      0.9761857
      5386.0000          13.02          28.32           2576        44.2941          0.055       61.25536         0.3963         0.4556         0.6569            0.3        -1.6048       2061.225      0.6011779              1
      5386.5000          12.94        24.9796       2285.714        40.7647          0.068       66.46557         0.4514         0.4862         0.8073              1        -0.9048       2061.225      0.7120334              1
      5387.0000          12.86        24.8571       2057.143        40.2941          0.075       70.99584         0.5196         0.5246         0.7849            1.6        -0.3048       2122.449      0.8084221              1
      5387.5000           12.8        24.9796       1779.592        40.0588          0.067       75.07285         0.5719         0.5719         0.7483              2         0.0952       2183.674      0.8951671              1
      5388.0000          12.82         25.102        1648.98        39.8824          0.053        76.8835            0.6         0.6165         0.7412            2.3         0.3952       2142.857      0.9336914              1
      5388.5000          12.86         25.102       1567.447        39.5294         0.0392       79.14742         0.6335         0.6569         0.7483            2.3         0.3952       2081.889        0.98186              1
      5389.0000          12.92        24.6735       1438.057             39         0.0312       81.18469         0.6751         0.6751         0.7774            2.1         0.1952       2041.153              1              1
      5389.5000          12.96        24.1837       1374.421          38.28         0.0281        81.6355         0.7203         0.6937         0.8146            2.1         0.1952       2041.366              1              1
