#------------------------------------------------------------------------------
# Created by    : vladimir.rabinovich
# Created on    : 09/19/2023 17:21:58
#------------------------------------------------------------------------------
~Version Information Section
VERS.           2.0     :   CWLS log ASCII Standard - VERSION 2.0
WRAP.           NO      :   One line per depth step
~Well Information Section
#MNEM       .UNIT                                         VALUE :DESCRIPTION
#------------------------------------------------------------------------------
STRT        .FT                                            3382 :START DEPTH
STOP        .FT                                           10910 :STOP DEPTH
STEP        .FT                                             0.5 :STEP      
NULL        .                                           -999.25 :NULL      
COMP        .                               B P EXPLORATION INC :COMPANY   
WELL        .                               OCS G07597 ST00BP00 :WELL      
FLD         .                           WEST CAMERON BLOCK 0045 :FIELD     
LOC         .                                                   :LOCATION  
CNTY        .                                      WEST CAMERON :LOCATION  
STAT        .                                         LOUISIANA :STATE     
CTRY        .                                     UNITED STATES :COUNTRY   
SRVC        .                                                   :SERVICE COMPANY
DATE        .                             9/13/2023 11:18:09 AM :LOG DATE  
API         .                                    17700407640000 :API NUMBER
UWI         .                                    17700407640000 :UNIQUE WELL ID
XCOORD      .                                  1473636.79229916 :SURFACE X 
YCOORD      .                                   10762774.556795 :SURFACE Y 
LAT         .                                        29.6550545 :LATITUDE  
LON         .                                       -93.5252479 :LONGITUDE 
ELEV        .FT                                              90 :ELEVATION VALUE
ELEV_TYPE   .                                                KB :ELEVATION REFERENCE TYPE
~Curve Information Section
#MNEM       .UNIT                                      API CODE :CURVE DESCRIPTION
#------------------------------------------------------------------------------
DEPT        .FT                                                 :DEPTH     
CALI        .IN                                                 :          
DRHO        .G/C3                                               :          
DT          .US/F                                               :          
GR          .GAPI                                               :          
GR_1        .GAPI                                               :          
GR_NORM     .GAPI                                               :GammaRay Normalized
ILD         .OHMM                                               :          
ILM         .OHMM                                               :          
NPHI        .%                                                  :          
RHOB        .G/C3                                               :          
SFL         .OHMM                                               :          
SP          .MV                                                 :          
SP_NORM     .MV                                                 :SP Normalized
VSH_GR      .V/V                                                :Volume of Shale from GR
VSH_SP      .V/V                                                :Volume of Shale from SP
~A        DEPTH           CALI           DRHO             DT             GR           GR_1        GR_NORM            ILD            ILM           NPHI           RHOB            SFL             SP        SP_NORM         VSH_GR         VSH_SP
# ...
      4470.0000        12.7778        -0.0937       120.7834        31.2044        33.6499       47.65863         0.3101         0.3679        44.7074         2.1131         0.7956       -127.071       -58.2853      0.3118857      0.1083016
      4470.5000        12.7834        -0.1111       119.7086        26.9102        32.2042       38.23439         0.3216         0.3877        46.1239         2.1176         0.8306      -126.2852       -57.5026      0.1113701      0.1209258
      4471.0000        12.8131        -0.1123       118.6448        24.1292        31.4329       32.12781         0.3439         0.4149        46.2955         2.1171         0.8591      -125.9464       -57.1669              0      0.1263403
      4471.5000        12.8419        -0.1174         117.41        23.3346        32.0673       30.37645         0.3678         0.4396        46.6086         2.1302         0.8888      -128.4734        -59.697              0     0.08553228
      4472.0000        12.8592        -0.1182       116.2898        24.3073        29.2113       32.50011          0.393          0.472        47.1382         2.1581         0.9172       -134.541       -65.7676              0              0
      4472.5000        12.8677        -0.1179        115.285        28.2839        28.7608        41.2096         0.4211         0.5067        47.7838          2.163         0.9412      -115.4099       -46.6396      0.1746724      0.2961355
      4473.0000        12.8066        -0.1305       114.3497          29.69        29.8606       44.28328          0.444         0.5421        48.2912         2.1588         0.9588      -115.6132        -46.846      0.2400698      0.2928064
      4473.5000        12.8208        -0.1368       114.0203        30.1664        31.5619       45.31857         0.4704           0.58        48.5112         2.1542         0.9717      -125.3647       -56.6006      0.2620973      0.1354742
      4474.0000        12.8327        -0.1318       113.9727        28.7186        32.0144       42.13507         0.4896         0.6043         48.603         2.1815         0.9828      -130.4658       -61.7048      0.1943631     0.05314839
      4474.5000        12.7481        -0.1292       114.3479        26.1078        34.9045       36.40165         0.4971         0.6061        48.1219         2.2042         0.9953      -121.1428       -52.3849     0.07237552      0.2034694
      4475.0000        12.7168          -0.13       116.3254        25.8287        37.4818       35.78053         0.4942         0.5923        46.2774         2.2391         0.9947      -127.3524       -58.5976     0.05916027      0.1032645
      4475.5000        12.6973        -0.1119        118.153        26.3554        39.0266       36.92611         0.4627         0.5627        44.6481         2.2587         0.9776      -130.0164       -61.2647     0.08353416     0.06024674
      4476.0000        12.6326        -0.0947       119.4823        29.0399         39.563       42.80268         0.4257         0.4989        43.5795         2.2507         0.9124      -129.7717       -61.0231      0.2085676     0.06414352
      4476.5000        12.5804        -0.0812       120.7318        34.0601         39.679       53.80027         0.3741         0.4283        42.8699         2.2248         0.8021      -128.5159       -59.7704      0.4425589     0.08434837
      4477.0000        12.5668        -0.0782       121.8325        34.5202        38.3604       54.79985         0.3376         0.3725        42.4358         2.1856         0.7293      -128.6121       -59.8697      0.4638267     0.08274675
      4477.5000        12.6025        -0.0799       122.7112        34.5615        35.0359       54.88117         0.2974           0.33        42.2164         2.1315         0.6811      -135.5173        -66.778      0.4655569              0
      4478.0000        12.6423        -0.0834       123.4299          31.72        33.1053       48.64198         0.2751         0.2943        42.7495         2.1187         0.6398      -138.7156       -69.9794       0.332808              0
      4478.5000         12.686        -0.0869       124.3043        29.4104        33.0323       43.56897         0.2604         0.2765        44.1423         2.1153         0.6102      -136.8462       -68.1131      0.2248717              0
      4479.0000        12.7455        -0.0877       124.3806         29.439        34.6635       43.62245         0.2521          0.264        44.6573         2.1155         0.5962      -138.8352       -70.1052      0.2260095              0
      4479.5000        12.8175        -0.0853       124.4357        29.5695        38.6257       43.89935         0.2478         0.2556        45.2798         2.1181         0.5849      -138.7742       -70.0473      0.2319011              0
      4480.0000        12.8908        -0.0761       124.6143        29.9191        37.6181       44.65665         0.2462         0.2543        45.8456         2.1234         0.5678      -135.6045       -66.8807      0.2480139              0
      4480.5000        12.9631        -0.0644       124.9242        36.4177        35.6942       58.89569         0.2454         0.2553         45.491         2.1218         0.5514       -136.145       -67.4243       0.550972              0
      4481.0000         12.991         -0.062       125.3405        36.9797        34.8576       60.11865         0.2461         0.2563        45.6137         2.1114         0.5468      -138.9509       -70.2333      0.5769926              0
      4481.5000        12.9438        -0.0566       125.8259        36.4787        33.6061       59.01097         0.2469         0.2578        45.8922         2.1015         0.5483      -138.3694       -69.6549      0.5534249              0
      4482.0000        13.0377        -0.0567       125.3263        34.1136        32.6146       53.81651         0.2477         0.2581        45.5513         2.0873         0.5501      -130.4722       -61.7608      0.4429044     0.05224517
      4482.5000        13.1286        -0.0595       123.8567        31.0911        32.7841       47.18024         0.2482         0.2586        45.1627         2.0776         0.5513      -129.6589       -60.9506      0.3017073     0.06531291
      4483.0000        13.2479         -0.055       122.7197        29.4789        34.5747       43.63649         0.2496         0.2604        45.8196          2.077         0.5519      -134.6182        -65.913      0.2263084              0
      4483.5000        13.3411        -0.0507       122.1528        28.5454        35.9565       41.58059         0.2511         0.2622        46.4326         2.0744         0.5525      -135.3752       -66.6731      0.1825657              0
      4484.0000        13.4167        -0.0548       122.7887        27.5809        36.1658       39.45669         0.2535         0.2664        47.2194          2.062         0.5524      -138.5859       -69.8869      0.1373764              0
      4484.5000         13.465        -0.0642       123.8087        27.0055        36.8344       38.18593         0.2598         0.2741        48.2215         2.0489         0.5489      -147.6838       -78.9879      0.1103389              0
      4485.0000        13.4832        -0.0704       127.3813        27.8617        37.4106       40.05394         0.2697         0.2877        48.5441         2.0423         0.5336      -145.5105       -76.8177      0.1500838              0
      4485.5000         13.378        -0.0889       129.7339        30.1707         36.989       45.10721         0.2888          0.311        48.8466         2.0315         0.4935      -123.8005       -55.1108      0.2576002      0.1595032
      4486.0000        13.0369        -0.1175       131.5405        32.4598        38.2715       50.11687          0.314         0.3307        49.5858         2.0046         0.4608      -117.9321       -49.2455      0.3641887      0.2541049
      4486.5000        12.7038          -0.12       134.9275        34.3827        41.1543       54.32363         0.3379         0.3516        50.7174         2.0343         0.4657      -114.0389       -45.3554      0.4536942      0.3168484
