#------------------------------------------------------------------------------
# Created by    : vladimir.rabinovich
# Created on    : 09/19/2023 17:22:13
#------------------------------------------------------------------------------
~Version Information Section
VERS.           2.0     :   CWLS log ASCII Standard - VERSION 2.0
WRAP.           NO      :   One line per depth step
~Well Information Section
#MNEM       .UNIT                                         VALUE :DESCRIPTION
#------------------------------------------------------------------------------
STRT        .FT                                            4265 :START DEPTH
STOP        .FT                                           12768 :STOP DEPTH
STEP        .FT                                             0.5 :STEP      
NULL        .                                           -999.25 :NULL      
COMP        .                                SHELL OFFSHORE INC :COMPANY   
WELL        .                               OCS G04749 ST00BP02 :WELL      
FLD         .                                           WILDCAT :FIELD     
LOC         .                                                   :LOCATION  
CNTY        .                                      WEST CAMERON :LOCATION  
STAT        .                                         LOUISIANA :STATE     
CTRY        .                                     UNITED STATES :COUNTRY   
SRVC        .                                                   :SERVICE COMPANY
DATE        .                             9/13/2023 11:19:06 AM :LOG DATE  
API         .                                    17700406070000 :API NUMBER
UWI         .                                    17700406070000 :UNIQUE WELL ID
XCOORD      .                                   1486969.7252092 :SURFACE X 
YCOORD      .                                  10728694.6404599 :SURFACE Y 
LAT         .                                        29.5614647 :LATITUDE  
LON         .                                       -93.4828123 :LONGITUDE 
ELEV        .FT                                              98 :ELEVATION VALUE
ELEV_TYPE   .                                                KB :ELEVATION REFERENCE TYPE
~Curve Information Section
#MNEM       .UNIT                                      API CODE :CURVE DESCRIPTION
#------------------------------------------------------------------------------
DEPT        .FT                                                 :DEPTH     
CALI        .IN                                                 :          
DRHO        .G/C3                                               :          
DT          .US/F                                               :          
GR          .GAPI                                               :          
GR_1        .GAPI                                               :          
GR_NORM     .GAPI                                               :GammaRay Normalized
ILD         .OHMM                                               :          
ILM         .OHMM                                               :          
NPHI        .%                                                  :          
RHOB        .G/C3                                               :          
SFL         .OHMM                                               :          
SP          .MV                                                 :          
SP_NORM     .MV                                                 :SP Normalized
VSH_GR      .V/V                                                :Volume of Shale from GR
VSH_SP      .V/V                                                :Volume of Shale from SP
~A        DEPTH           CALI           DRHO             DT             GR           GR_1        GR_NORM            ILD            ILM           NPHI           RHOB            SFL             SP        SP_NORM         VSH_GR         VSH_SP
# ...
     11660.0000        12.3306        -0.0096       117.2844        -999.25        54.3502       66.51286         0.5536         0.5894        36.8878         2.3365         0.7505       -37.3533        -1.2674      0.7130396              1
     11660.5000        12.0871        -0.0102       118.6799        -999.25        55.9601       68.75538         0.5637         0.5937        37.5364         2.3495         0.7006       -37.2005        -1.1121      0.7607527              1
     11661.0000        12.0631        -0.0131       118.1906        -999.25         61.245       76.11446         0.5833         0.5963        37.6108         2.3656         0.6374       -37.0219        -0.9309      0.9173288              1
     11661.5000        12.0207        -0.0196       115.4723        -999.25        64.0503       80.02113         0.5845         0.5951        36.5359         2.3773          0.604       -37.0811        -0.9876              1              1
     11662.0000        11.9391        -0.0291       113.7827        -999.25        64.2719       80.33077         0.5418         0.5833        34.6929         2.3821         0.6617       -37.2423        -1.1463              1              1
     11662.5000        11.8691        -0.0436       114.0255        -999.25        58.9207       72.88161         0.5079         0.5602        32.0471         2.3767         0.7286       -37.0933        -0.9948       0.848545              1
     11663.0000        11.8742         -0.052       117.2694        -999.25        57.5136       70.92353         0.4937         0.5353        33.3489         2.3616         0.7276       -36.4586        -0.3575      0.8068836              1
     11663.5000         11.934        -0.0483       121.2793        -999.25        57.7059       71.19239          0.484         0.5123        36.7164           2.34         0.6269       -35.7814         0.3222      0.8126041              1
     11664.0000        12.0348        -0.0315       124.1653        -999.25        58.5199        72.3268         0.4759         0.4975        39.5908         2.3449          0.536       -35.5323         0.5738      0.8367404              1
     11664.5000         12.108        -0.0188       125.1249        -999.25        59.3715       73.51343         0.4681         0.4898        40.8904         2.3608         0.5171       -35.5226          0.586      0.8619878              1
     11665.0000        12.0732        -0.0127       122.4056        -999.25        59.5612       73.77866         0.4605         0.4853        38.4662         2.3692         0.5472       -35.7546         0.3565       0.867631              1
     11665.5000        12.0301        -0.0104       119.1517        -999.25        58.8956       72.85307          0.454         0.4833        35.3934         2.3823         0.6052       -35.6767          0.437      0.8479377              1
     11666.0000        12.0309        -0.0095       117.0867        -999.25        58.1655       71.83769         0.4483         0.4822        33.8691         2.3913         0.6577       -35.5576         0.5586      0.8263339              1
     11666.5000        12.0777        -0.0128       117.9152        -999.25        58.1467       71.81252          0.455         0.4838        34.8432         2.3845         0.6548        -35.426         0.6927      0.8257982              1
     11667.0000        12.1756        -0.0193       118.5935        -999.25         59.374       73.52234         0.4683         0.4885         36.554         2.3745         0.6364       -35.2983         0.8229      0.8621774              1
     11667.5000        12.2221         -0.021       118.4314        -999.25        61.8261       76.93742         0.4778         0.4948        38.6797         2.3746         0.6262       -35.2809         0.8429      0.9348388              1
     11668.0000        12.1736        -0.0174       117.7124        -999.25        63.6658       79.49973         0.4766         0.5002        39.4133         2.3847         0.6324       -35.2634         0.8629       0.989356              1
     11668.5000        12.0987        -0.0096       117.9978        -999.25        64.0284       80.00568          0.476          0.494        37.9642         2.3888         0.6446       -35.4734         0.6554              1              1
     11669.0000        12.1059        -0.0001       119.9526        -999.25        63.5556       79.34853         0.4756          0.486         36.551          2.384         0.6349       -35.7309         0.4004       0.986139              1
     11669.5000        12.1468          0.009       121.6022        -999.25        62.9069       78.44636         0.4824         0.4833        36.6622         2.3826         0.5868       -35.9691         0.1648      0.9669438              1
     11670.0000        12.1586         0.0123       122.6559        -999.25        62.0916       77.31236         0.4924         0.4934        37.7867         2.3848         0.5528       -36.1864          -0.05      0.9428162              1
     11670.5000        12.1117         0.0023       119.8325        -999.25        60.8969       75.65013         0.4954         0.5102        38.6519         2.3928         0.5585        -36.368        -0.2291      0.9074496              1
     11671.0000        11.9429        -0.0135       116.5536        -999.25        59.0108       73.02517         0.4944         0.5281        35.9707          2.404         0.6251       -36.4622        -0.3208      0.8515993              1
     11671.5000        11.8605        -0.0235       113.9755        -999.25        56.4059       69.39957         0.4847         0.5286        33.5684         2.4023         0.7505       -36.5115        -0.3675       0.774459              1
     11672.0000          11.92        -0.0282       114.1282        -999.25        54.6364       66.93708         0.4723         0.5187        33.6376         2.3759         0.7776       -36.3239        -0.1774      0.7220656              1
     11672.5000        11.8916        -0.0261       116.7288        -999.25        56.0051       68.84378         0.4578         0.4963        36.0068          2.357         0.7027       -36.1362         0.0128      0.7626336              1
     11673.0000        11.7791        -0.0106       121.3043        -999.25        61.7359       76.82354         0.4434         0.4741        39.9395         2.3557         0.6132        -35.908         0.2435      0.9324157              1
     11673.5000        11.6483         0.0073       125.5144        -999.25        68.2782       85.93324         0.4308         0.4567        43.2003         2.3671         0.5344       -35.6711          0.483              1              1
     11674.0000        11.6009         0.0221       128.5029        -999.25        71.3915       90.26888         0.4211          0.444        43.7708         2.3705         0.4914       -35.4728         0.6838              1              1
     11674.5000        11.6731         0.0236       130.1699        -999.25        71.7534        90.7737         0.4116         0.4398         43.982           2.36          0.493       -35.5161          0.643              1              1
     11675.0000        11.7655         0.0104       127.9022        -999.25         66.595       83.59298          0.408         0.4402        43.8242         2.3603         0.5233       -35.5594         0.6022              1              1
     11675.5000        11.7606        -0.0066       123.4669        -999.25         62.853       78.38425         0.4063         0.4469         42.865         2.3732         0.5814       -35.6274         0.5368      0.9656224              1
     11676.0000        11.7904        -0.0229       120.5684        -999.25         62.188       77.45938         0.4139         0.4594        41.2985         2.3769         0.6131       -35.7452         0.4215      0.9459442              1
     11676.5000        11.8527         -0.034       119.1467        -999.25         61.245       76.14759         0.4321         0.4742        39.4584         2.3628         0.6286       -35.8628         0.3064      0.9180338              1
