#------------------------------------------------------------------------------
# Created by    : vladimir.rabinovich
# Created on    : 09/19/2023 17:22:04
#------------------------------------------------------------------------------
~Version Information Section
VERS.           2.0     :   CWLS log ASCII Standard - VERSION 2.0
WRAP.           NO      :   One line per depth step
~Well Information Section
#MNEM       .UNIT                                         VALUE :DESCRIPTION
#------------------------------------------------------------------------------
STRT        .FT                                            4308 :START DEPTH
STOP        .FT                                           11086 :STOP DEPTH
STEP        .FT                                             0.5 :STEP      
NULL        .                                           -999.25 :NULL      
COMP        .                                     GULF OIL CORP :COMPANY   
WELL        .                               OCS G01859 ST00BP00 :WELL      
FLD         .                           WEST CAMERON BLOCK 0045 :FIELD     
LOC         .                                                   :LOCATION  
CNTY        .                                      WEST CAMERON :LOCATION  
STAT        .                                         LOUISIANA :STATE     
CTRY        .                                     UNITED STATES :COUNTRY   
SRVC        .                                                   :SERVICE COMPANY
DATE        .                             9/13/2023 11:18:18 AM :LOG DATE  
API         .                                    17700402800000 :API NUMBER
UWI         .                                    17700402800000 :UNIQUE WELL ID
XCOORD      .                                  1464540.60646957 :SURFACE X 
YCOORD      .                                  10776790.0411311 :SURFACE Y 
LAT         .                                        29.6934919 :LATITUDE  
LON         .                                       -93.5541052 :LONGITUDE 
ELEV        .FT                                              79 :ELEVATION VALUE
ELEV_TYPE   .                                                KB :ELEVATION REFERENCE TYPE
~Curve Information Section
#MNEM       .UNIT                                      API CODE :CURVE DESCRIPTION
#------------------------------------------------------------------------------
DEPT        .FT                                                 :DEPTH     
CALI        .IN                                                 :          
DRHO        .G/C3                                               :          
DT          .US/F                                               :          
GR          .GAPI                                               :          
GR_NORM     .GAPI                                               :GammaRay Normalized
ILD         .OHMM                                               :          
NPHI        .%                                                  :          
RHOB        .G/C3                                               :          
SFLU        .OHMM                                               :          
SP          .MV                                                 :          
SP_NORM     .MV                                                 :SP Normalized
VSH_GR      .V/V                                                :Volume of Shale from GR
VSH_SP      .V/V                                                :Volume of Shale from SP
~A        DEPTH           CALI           DRHO             DT             GR        GR_NORM            ILD           NPHI           RHOB           SFLU             SP        SP_NORM         VSH_GR         VSH_SP
# ...
      7462.0000         9.9822         0.0423       118.6353        70.5945       81.50363         0.9811        42.3971         2.3207         0.8817       -45.0541        -1.3392              1       0.995084
      7462.5000         9.7739          0.064       118.9156        71.7024       83.76743         1.1406        42.7286          2.334         0.8796       -44.0893        -0.3751              1              1
      7463.0000         9.6847         0.0764       119.1952        72.0021       84.37887         1.2831        43.3862         2.3506         0.8453       -43.7016         0.0119              1              1
      7463.5000         9.6592         0.0741       119.5703        71.9958       84.36475         1.3131        44.2318         2.3442         0.8021        -43.322         0.3908              1              1
      7464.0000         9.6801         0.0657       120.2096        72.0874       84.55079         1.2947        44.9551           2.34         0.7778       -42.8801         0.8319              1              1
      7464.5000          9.722         0.0627       120.6157        72.2938       84.97172         1.2475        45.5374         2.3356         0.8129       -42.5306         1.1807              1              1
      7465.0000         9.7487          0.053       120.7625         72.828       86.06253         1.1892        44.7798         2.3038          0.896       -42.3127         1.3979              1              1
      7465.5000         9.7353         0.0361       120.6312        73.3601       87.14903         1.1366         43.847         2.2932         0.9515       -42.2866         1.4233              1              1
      7466.0000         9.7384         0.0109        119.661        73.7401       87.92483         1.1061        43.0872         2.2614         0.9614       -42.5109         1.1983              1              1
      7466.5000         9.7484         0.0213        117.809        73.9656       88.38458         1.0926        42.4303         2.2485         0.9185       -42.8497         0.8587              1              1
      7467.0000         9.7444         0.0305        115.804        73.9414       88.33389         1.0924        42.0538         2.2653          0.874       -42.9974         0.7103              1              1
      7467.5000         9.7376         0.0254       113.7839        73.8937       88.23535         1.0965        41.8051         2.2725         0.8505       -43.0422         0.6648              1              1
      7468.0000         9.7303         0.0233       115.0128        73.9575       88.36455         1.1006        41.7111         2.2694         0.8464       -43.1358         0.5705              1              1
      7468.5000         9.7691         0.0362       119.9186        74.1614       88.78017         1.1001        41.8293         2.2756         0.8562       -43.4641         0.2415              1              1
      7469.0000         9.8086         0.0558       122.3997        74.5983       89.67227         1.0964        42.1693         2.3071         0.8684        -43.826        -0.1212              1              1
      7469.5000         9.8651         0.0718       122.7115        75.5221       91.55952         1.0877         42.264         2.3328         0.8713       -43.9285        -0.2244              1              1
      7470.0000         9.9431         0.0658       122.7837        76.2467       93.03955         1.0756         41.892         2.3254         0.8716       -43.9211        -0.2177              1              1
      7470.5000        10.0544         0.0543       124.6526        76.1493       92.83942         1.0577        41.7391         2.3104         0.8598       -43.7994        -0.0967              1              1
      7471.0000         10.146         0.0498       126.7709        74.4211       89.30531         1.0471         41.962         2.3038         0.8507       -43.4149         0.2871              1              1
      7471.5000        10.2088         0.0446       127.3816        73.0502       86.50163         1.0421        42.3166         2.3098         0.8441       -42.8051         0.8961              1              1
      7472.0000        10.2407         0.0372       127.9556        72.3473        85.0635          1.039        42.7293         2.3126         0.8421        -42.486         1.2145              1              1
      7472.5000        10.2403          0.028       128.3752        72.0773       84.51052         1.0364        43.1521         2.2908         0.8402       -42.3383         1.3615              1              1
      7473.0000        10.2316         0.0211       128.4592        72.6133       85.60502         1.0347        42.7203         2.2837         0.8378       -42.2819         1.4172              1              1
      7473.5000        10.2341         0.0206       127.7809        73.2944       86.99613         1.0397        42.0634         2.2838         0.8352       -42.1411         1.5573              1              1
      7474.0000        10.2404         0.0216       127.3903        74.0065       88.45083         1.0399        42.6204         2.2843         0.8305       -41.5516          2.146              1              1
      7474.5000        10.2426         0.0279       127.2162        74.8373       90.14796         1.0363        43.6494         2.2798         0.8179       -41.2415         2.4554              1              1
      7475.0000        10.2389         0.0393       127.8928        75.6122       91.73082         1.0321        43.7807          2.284         0.8071       -41.6039         2.0923              1              1
      7475.5000         10.218         0.0459       129.0979        76.3478       93.23356          1.032        43.2319         2.2957         0.8027       -42.1024         1.5931              1              1
      7476.0000        10.1511         0.0407       130.5359        76.8075       94.17208          1.033        42.9804         2.2895          0.804       -42.7263         0.9685              1              1
      7476.5000        10.0175         0.0367       131.8594        76.8895       94.33847          1.035        42.8745         2.2712         0.8183       -43.0847         0.6093              1              1
      7477.0000         9.8782         0.0349       132.2251        76.7847       94.12322         1.0399        42.7871          2.263         0.8292       -43.4573          0.236              1              1
      7477.5000         9.7655           0.06       130.0134        76.5851       93.71396         1.0514        42.5578         2.2753         0.8349       -44.0413        -0.3487              1              1
      7478.0000          9.733         0.0677       126.8019        76.1766       92.87766         1.0788        41.6138         2.2636         0.8414       -44.7772        -1.0853              1      0.9987637
      7478.5000         9.7348         0.0694       124.1128        75.6011       91.69996          1.097        40.3925         2.2662         0.8505       -45.4861        -1.7949              1      0.9884797
      7479.0000         9.7569         0.0634       121.2345        74.5525       89.55534         1.1105        40.2657         2.2701         0.8671       -46.0953        -2.4049              1      0.9796391
      7479.5000         9.8678         0.0514       119.3264         73.822       88.06077         1.1397        41.3588         2.2626         0.9011       -46.6897             -3              1      0.9710145
      7480.0000        10.0995         0.0412        118.493        73.2288        86.8469         1.1885        42.3445         2.2608         0.9435       -47.1998        -3.5108              1      0.9636116
      7480.5000        10.3423         0.0373       117.6871         72.589       85.53797         1.2494        42.4974         2.2747         0.9811       -47.5562        -3.8679              1      0.9584363
