#------------------------------------------------------------------------------
# Created by    : vladimir.rabinovich
# Created on    : 09/19/2023 17:22:11
#------------------------------------------------------------------------------
~Version Information Section
VERS.           2.0     :   CWLS log ASCII Standard - VERSION 2.0
WRAP.           NO      :   One line per depth step
~Well Information Section
#MNEM       .UNIT                                         VALUE :DESCRIPTION
#------------------------------------------------------------------------------
STRT        .FT                                             714 :START DEPTH
STOP        .FT                                            7955 :STOP DEPTH
STEP        .FT                                             0.5 :STEP      
NULL        .                                           -999.25 :NULL      
COMP        .                                ODECO OIL & GAS CO :COMPANY   
WELL        .                               OCS G04756 ST00BP00 :WELL      
FLD         .                           WEST CAMERON BLOCK 0165 :FIELD     
LOC         .                                                   :LOCATION  
CNTY        .                                      WEST CAMERON :LOCATION  
STAT        .                                         LOUISIANA :STATE     
CTRY        .                                     UNITED STATES :COUNTRY   
SRVC        .                                                   :SERVICE COMPANY
DATE        .                             9/13/2023 11:19:06 AM :LOG DATE  
API         .                                    17700406200000 :API NUMBER
UWI         .                                    17700406200000 :UNIQUE WELL ID
XCOORD      .                                  1451757.14487559 :SURFACE X 
YCOORD      .                                  10673474.8616073 :SURFACE Y 
LAT         .                                        29.4091131 :LATITUDE  
LON         .                                       -93.5927176 :LONGITUDE 
ELEV        .FT                                             113 :ELEVATION VALUE
ELEV_TYPE   .                                                KB :ELEVATION REFERENCE TYPE
~Curve Information Section
#MNEM       .UNIT                                      API CODE :CURVE DESCRIPTION
#------------------------------------------------------------------------------
DEPT        .FT                                                 :DEPTH     
CALI        .IN                                                 :          
CILD        .MMHO                                               :          
DRHO        .G/C3                                               :          
DT          .US/F                                               :          
GR          .GAPI                                               :          
GR_NORM     .GAPI                                               :GammaRay Normalized
ILD         .OHMM                                               :          
NPSS        .%                                                  :Neutron Porosity Sandstone
RFOC        .OHMM                                               :          
RHOB        .G/C3                                               :          
RILD        .OHMM                                               :          
RILM        .OHMM                                               :          
SN          .OHMM                                               :          
SP          .MV                                                 :          
SP_NORM     .MV                                                 :SP Normalized
VSH_GR      .V/V                                                :Volume of Shale from GR
VSH_SP      .V/V                                                :Volume of Shale from SP
~A        DEPTH           CALI           CILD           DRHO             DT             GR        GR_NORM            ILD           NPSS           RFOC           RHOB           RILD           RILM             SN             SP        SP_NORM         VSH_GR         VSH_SP
# ...
      2664.0000             11       1542.857         0.0652        -999.25        73.7037       77.52946        -999.25          44.88         0.8371         2.1094          0.651         0.5733        -999.25       -30.5882       -13.5736      0.9474354      0.7966616
      2664.5000             11       1518.367         0.0309        -999.25        75.3704       79.41393        -999.25          42.48         0.8747         2.0923          0.651         0.5785        -999.25       -30.2941        -13.262      0.9875304      0.8026538
      2665.0000             11       1510.204        -0.0051        -999.25        76.2963       80.45893        -999.25          43.08         0.8727         2.0731          0.651         0.5892        -999.25            -30       -12.9505              1      0.8086442
      2665.5000        11.0208       1542.857         0.0109        -999.25        75.3704       79.40543        -999.25          44.34         0.8322         2.0817         0.6451         0.5946        -999.25            -27         -9.933      0.9873495      0.8666731
      2666.0000        11.0208           1616         0.0373        -999.25        74.6296       78.56178        -999.25          46.68         0.7795         2.0981         0.6278         0.5946        -999.25            -21        -3.9155      0.9693996      0.9823942
      2666.5000        11.0417           1712         0.0572        -999.25        74.6296       78.55759        -999.25          45.66         0.7384         2.0875         0.5733         0.5892        -999.25          -19.8         -2.698      0.9693105              1
      2667.0000        11.0417           1904         0.0532        -999.25        73.7037        77.5042        -999.25          43.14         0.7254         2.0654            0.5         0.5329        -999.25          -27.9       -10.7805      0.9468978       0.850375
      2667.5000        11.0417           2088         0.0493        -999.25        70.1852       73.51283        -999.25          42.12         0.7652          2.044         0.4431         0.4685        -999.25       -37.9412       -20.8042      0.8619751      0.6576115
      2668.0000        11.0417           2280         0.0532        -999.25           63.4       65.81987        -999.25          45.42         0.8371          2.028          0.419         0.4309        -999.25          -46.2       -29.0455      0.6982951       0.499125
      2668.5000        11.0417       2454.902         0.0632        -999.25        58.5417        60.3104        -999.25          46.86          0.822          2.025         0.3964         0.4113        -999.25          -51.3       -34.1281      0.5810724      0.4013827
      2669.0000        11.0208        2525.49         0.0996        -999.25        56.4583       57.94525        -999.25           44.7         0.7789          2.039         0.3859         0.4037        -999.25          -56.4       -39.2106        0.53075      0.3036423
      2669.5000        11.0417       2564.706         0.1396        -999.25        57.0833       58.64929        -999.25          42.18         0.7652         2.0538         0.3824         0.4075        -999.25          -58.8       -41.5931      0.5457295       0.257825
      2670.0000        11.0417       2580.392         0.1336        -999.25           57.5       59.11729        -999.25          41.46          0.772          2.033         0.3824          0.419        -999.25          -55.2       -37.9756       0.555687      0.3273923
      2670.5000        11.0417       2547.722         0.1236        -999.25         56.875       58.40475        -999.25          40.62         0.7939          2.016          0.379         0.4269        -999.25          -49.8       -32.5581      0.5405265       0.431575
      2671.0000        11.0208       2443.896         0.1136        -999.25           57.5       59.10879        -999.25        38.9395         0.8249         2.0161         0.3964          0.439        -999.25          -51.6       -34.3406      0.5555061      0.3972962
      2671.5000          10.96       2338.369         0.1056        -999.25           61.2       63.29731        -999.25         36.629         0.8653         2.0334          0.419         0.4514        -999.25          -53.1       -35.8231      0.6446237      0.3687865
      2672.0000          10.94       2232.465         0.1036        -999.25           63.2       65.55935        -999.25        36.1894         0.8831         2.0479          0.439         0.4599        -999.25          -53.1       -35.8057      0.6927521      0.3691212
      2672.5000          10.94           2136         0.1136        -999.25           63.6       66.00842        -999.25         38.449         0.8849         2.0224         0.4605         0.4691        -999.25          -51.6       -34.2882      0.7023069      0.3983038
      2673.0000          10.96           2064         0.1136        -999.25           62.6       64.87106        -999.25          40.68         0.8866          1.982         0.4791         0.4702        -999.25          -52.5       -35.1707      0.6781077      0.3813327
      2673.5000        11.0625           2008         0.1116        -999.25           62.8       65.09339        -999.25           41.4         0.8717          1.965         0.4938         0.4713        -999.25          -54.3       -36.9532      0.6828381      0.3470538
      2674.0000        11.1042           1960         0.1036        -999.25           65.2        67.8088        -999.25           41.4         0.8399          1.997         0.5134         0.4768        -999.25          -55.8       -38.4357      0.7406127      0.3185442
      2674.5000        11.1042           1912         0.0972        -999.25           69.4       72.56393        -999.25          42.36            0.8         2.0817         0.5281         0.4773        -999.25            -51       -33.6182      0.8417857      0.4111885
      2675.0000         11.125           1888         0.0996        -999.25         74.717       78.58479        -999.25           43.2         0.7584         2.1429         0.5281         0.4729        -999.25       -43.2353        -25.836      0.9698892      0.5608461
      2675.5000        11.1458           1944         0.0956        -999.25        78.6792       83.07033        -999.25          42.24         0.7126          2.187         0.5139         0.4685        -999.25       -37.0588       -19.6421              1      0.6799597
      2676.0000        11.1667           2072         0.0836        -999.25        80.5882       85.22935        -999.25        37.0408         0.7126          2.187         0.4685         0.4309        -999.25       -37.0588       -19.6246              1      0.6802962
      2676.5000        11.1458           2296         0.0632        -999.25        77.5472       81.77919        -999.25        32.5102         0.7199          2.158         0.4309         0.3926        -999.25          -46.8       -29.3483              1      0.4933019
      2677.0000        11.1458        2525.49         0.0249        -999.25        72.4528       76.00206        -999.25        31.4082          0.741         2.1153         0.3963         0.3578        -999.25          -48.3       -30.8308      0.9149374      0.4647923
      2677.5000        11.1458       2745.098        -0.0011        -999.25        70.1887       73.43227        -999.25        31.3469         0.7427         2.0865         0.3679         0.3261        -999.25          -49.8       -32.3133       0.860261      0.4362827
      2678.0000        11.1458           2992        -0.0091        -999.25             67       69.81474        -999.25        31.7143         0.7247         2.0587         0.3385            0.3        -999.25          -52.5       -34.9958      0.7832924      0.3846962
      2678.5000        11.1458           3200        -0.0111        -999.25           63.4       65.73103        -999.25        33.4615         0.7189         2.0408         0.3118         0.2843        -999.25          -55.5       -37.9783       0.696405      0.3273404
