#------------------------------------------------------------------------------
# Created by    : vladimir.rabinovich
# Created on    : 09/19/2023 17:19:36
#------------------------------------------------------------------------------
~Version Information Section
VERS.           2.0     :   CWLS log ASCII Standard - VERSION 2.0
WRAP.           NO      :   One line per depth step
~Well Information Section
#MNEM       .UNIT                                         VALUE :DESCRIPTION
#------------------------------------------------------------------------------
STRT        .FT                                          2840.5 :START DEPTH
STOP        .FT                                            9365 :STOP DEPTH
STEP        .FT                                             0.5 :STEP      
NULL        .                                           -999.25 :NULL      
COMP        .                              MCMORAN OIL & GAS CO :COMPANY   
WELL        .                                OCS 00757 ST00BP00 :WELL      
FLD         .                           WEST CAMERON BLOCK 0118 :FIELD     
LOC         .                                                   :LOCATION  
CNTY        .                                      WEST CAMERON :LOCATION  
STAT        .                                         LOUISIANA :STATE     
CTRY        .                                     UNITED STATES :COUNTRY   
SRVC        .                                                   :SERVICE COMPANY
DATE        .                             9/13/2023 11:18:49 AM :LOG DATE  
API         .                                    17700410710000 :API NUMBER
UWI         .                                    17700410710000 :UNIQUE WELL ID
XCOORD      .                                  1441592.04714169 :SURFACE X 
YCOORD      .                                  10704369.2355959 :SURFACE Y 
LAT         .                                        29.4939537 :LATITUDE  
LON         .                                       -93.6251728 :LONGITUDE 
ELEV        .FT                                              90 :ELEVATION VALUE
ELEV_TYPE   .                                                KB :ELEVATION REFERENCE TYPE
~Curve Information Section
#MNEM       .UNIT                                      API CODE :CURVE DESCRIPTION
#------------------------------------------------------------------------------
DEPT        .FT                                                 :DEPTH     
AHT10       .OHMM                                               :          
AHT20       .OHMM                                               :          
AHT30       .OHMM                                               :          
AHT60       .OHMM                                               :          
AHT90       .OHMM                                               :          
AHTCO90     .MMHO                                               :          
DPHZ        .DEC                                                :          
GR          .GAPI                                               :          
GR_NORM     .GAPI                                               :GammaRay Normalized
HCAL        .IN                                                 :          
HDRA        .G/CC                                               :          
HMIN        .OHMM                                               :          
HMNO        .OHMM                                               :          
NPOR        .DEC                                                :          
RHOZ        .G/CC                                               :          
RWA         .OHMM                                               :          
TENS        .LB                                                 :          
VSH_GR      .V/V                                                :Volume of Shale from GR
~A        DEPTH          AHT10          AHT20          AHT30          AHT60          AHT90        AHTCO90           DPHZ             GR        GR_NORM           HCAL           HDRA           HMIN           HMNO           NPOR           RHOZ            RWA           TENS         VSH_GR
# ...
      2994.5000        -999.25        -999.25        -999.25        -999.25        -999.25        -999.25        -999.25        37.7284       39.62766        -999.25        -999.25        -999.25        -999.25         0.7147        -999.25         0.0639           1940      0.1410141
      2995.0000        -999.25        -999.25        -999.25        -999.25        -999.25        -999.25        -999.25        37.7284       39.55348        -999.25        -999.25        -999.25        -999.25         0.6358        -999.25         0.0498           1988      0.1394357
      2995.5000        -999.25        -999.25        -999.25        -999.25        -999.25        -999.25        -999.25        35.1424       36.35831        -999.25        -999.25        -999.25        -999.25         0.7834        -999.25              0           1978     0.07145342
      2996.0000        -999.25        -999.25        -999.25        -999.25        -999.25        -999.25        -999.25        39.1489       41.11912        -999.25        -999.25        -999.25        -999.25         0.8137        -999.25              0           1966      0.1727473
      2996.5000        -999.25        -999.25        -999.25        -999.25        -999.25        -999.25        -999.25        39.9884       42.05803        -999.25        -999.25        -999.25        -999.25         0.8814        -999.25              0           1961       0.192724
      2997.0000        -999.25        -999.25        -999.25        -999.25        -999.25        -999.25        -999.25        42.7839       45.35747        -999.25        -999.25        -999.25        -999.25         0.8288        -999.25              0           1942      0.2629248
      2997.5000        -999.25        -999.25        -999.25        -999.25        -999.25        -999.25        -999.25        47.2309       50.64992        -999.25        -999.25        -999.25        -999.25         0.6868        -999.25              0           1980      0.3755302
      2998.0000        -999.25        -999.25        -999.25        -999.25        -999.25        -999.25        -999.25        48.2532       51.80926        -999.25        -999.25        -999.25        -999.25         0.6045        -999.25              0           1979      0.4001971
      2998.5000        -999.25        -999.25        -999.25        -999.25        -999.25        -999.25        -999.25        53.6994       58.30756        -999.25        -999.25        -999.25        -999.25         0.4497        -999.25         0.0011           1948      0.5384587
      2999.0000        -999.25        -999.25        -999.25        -999.25        -999.25        -999.25        -999.25        54.8567        59.6299        -999.25        -999.25        -999.25        -999.25         0.4619        -999.25         0.0445           1972      0.5665936
      2999.5000        -999.25        -999.25        -999.25        -999.25        -999.25        -999.25        -999.25        58.6612       64.14712        -999.25        -999.25        -999.25        -999.25         0.4781        -999.25         0.0708           1977      0.6627046
      3000.0000        -999.25        -999.25        -999.25        -999.25        -999.25        -999.25        -999.25         62.687        68.9311        -999.25        -999.25        -999.25        -999.25         0.4359        -999.25         0.0729           1999      0.7644914
      3000.5000         0.5886         0.5751         0.5758         0.5756         0.4773       2094.973          0.341        65.2253       71.92012        11.6193         0.0791          0.761          0.675          0.435          2.087         0.0762           1996      0.8280877
      3001.0000          0.589         0.5764         0.5768          0.579         0.4812       2078.048         0.3393        69.2368       76.68705        11.2172         0.0727          0.803          0.712         0.4677           2.09          0.076           1971      0.9295117
      3001.5000         0.5908         0.5782         0.5774         0.5839         0.4848       2062.901         0.3368        68.1436       75.29343        11.7612         0.0555          0.875          0.777         0.4796          2.094         0.0753           1969      0.8998601
      3002.0000         0.5943         0.5806         0.5769         0.5878         0.4896       2042.388         0.3412        62.5193       68.43164        12.2817         0.0335          0.863          0.793         0.5012          2.087         0.0783           1981      0.7538647
      3002.5000         0.6004         0.5839         0.5773          0.593         0.4962        2015.37         0.3451        59.6458       64.88971        12.3526          0.011           0.76          0.741         0.5108          2.081         0.0813           1958      0.6785045
      3003.0000         0.6085         0.5879         0.5771         0.5991         0.5037       1985.417         0.3346         54.863       59.04341        11.1935         0.0041          0.914           0.89         0.4217          2.098         0.0772           1958      0.5541151
      3003.5000         0.6174         0.5924         0.5751         0.6031         0.5104       1959.179         0.3341        53.6388       57.49176        10.5548         0.0026          1.267          1.164         0.3694          2.099         0.0779           1972      0.5211013
      3004.0000         0.6264         0.5975         0.5702         0.6011         0.5136       1946.913         0.3506        48.5133       51.23191        10.3656         0.0003          1.234          1.153          0.383          2.072          0.087           1965       0.387913
      3004.5000         0.6321         0.5994         0.5618         0.5891         0.5099       1961.358         0.3738        45.4004       47.40101        10.3419        -0.0027          1.138          1.079         0.3872          2.033         0.0991           1993      0.3064044
      3005.0000         0.6321         0.5938         0.5495          0.569         0.4999       2000.431         0.3749        45.7553       47.75501        10.2473        -0.0003          1.136          1.098         0.4119          2.031         0.0978           1979      0.3139364
      3005.5000         0.6261         0.5822         0.5445         0.5477         0.4885       2046.944         0.3687        46.1229       48.12429        10.1053          0.001          1.473          1.368         0.4062          2.042         0.0922           1954      0.3217934
      3006.0000         0.6264         0.5808         0.5467         0.5337         0.4824       2072.812         0.3567        46.6018       48.62794         10.129         0.0045          1.481          1.331         0.3879          2.061         0.0848           1960      0.3325093
      3006.5000         0.6456         0.5875         0.5701         0.5281         0.4831       2069.815         0.3417        50.1628       52.85115        10.3182         0.0193          1.315          1.179         0.3679          2.086         0.0775           1960       0.422365
      3007.0000         0.6873         0.6088         0.6053         0.5583         0.5132        1948.45         0.3208        55.4422       59.14815        10.1763         0.0447          1.231          1.091          0.399          2.121         0.0718           1958      0.5563436
      3007.5000         0.7702           0.66         0.6343         0.5664         0.5261       1900.745         0.3184        62.4401        67.5191        10.6376         0.0519          0.859          0.761         0.4539          2.125         0.0725           1993      0.7344489
      3008.0000         0.8978         0.7443         0.6864         0.5806         0.5447       1835.846         0.3273        60.4399       65.03099        11.3591         0.0527          0.822          0.753         0.4679           2.11         0.0796           1968      0.6815104
