#------------------------------------------------------------------------------
# Created by    : vladimir.rabinovich
# Created on    : 09/19/2023 17:22:32
#------------------------------------------------------------------------------
~Version Information Section
VERS.           2.0     :   CWLS log ASCII Standard - VERSION 2.0
WRAP.           NO      :   One line per depth step
~Well Information Section
#MNEM       .UNIT                                         VALUE :DESCRIPTION
#------------------------------------------------------------------------------
STRT        .FT                                            2450 :START DEPTH
STOP        .FT                                            9560 :STOP DEPTH
STEP        .FT                                             0.5 :STEP      
NULL        .                                           -999.25 :NULL      
COMP        .                               TALOS PETROLEUM LLC :COMPANY   
WELL        .                                OCS 00301 ST00BP00 :WELL      
FLD         .                           WEST CAMERON BLOCK 0045 :FIELD     
LOC         .                                                   :LOCATION  
CNTY        .                                      WEST CAMERON :LOCATION  
STAT        .                                         LOUISIANA :STATE     
CTRY        .                                     UNITED STATES :COUNTRY   
SRVC        .                                                   :SERVICE COMPANY
DATE        .                             9/13/2023 11:18:49 AM :LOG DATE  
API         .                                    17700410870000 :API NUMBER
UWI         .                                    17700410870000 :UNIQUE WELL ID
XCOORD      .                                  1447194.98921956 :SURFACE X 
YCOORD      .                                  10757079.9124673 :SURFACE Y 
LAT         .                                        29.6390336 :LATITUDE  
LON         .                                       -93.6084245 :LONGITUDE 
ELEV        .FT                                              96 :ELEVATION VALUE
ELEV_TYPE   .                                                KB :ELEVATION REFERENCE TYPE
~Curve Information Section
#MNEM       .UNIT                                      API CODE :CURVE DESCRIPTION
#------------------------------------------------------------------------------
DEPT        .FT                                                 :DEPTH     
CNC         .%                                                  :          
DCAL        .IN                                                 :          
GR          .GAPI                                               :          
GR_NORM     .GAPI                                               :GammaRay Normalized
M0C6        .MMHO                                               :          
M2R1        .OHMM                                               :          
M2R2        .OHMM                                               :          
M2R3        .OHMM                                               :          
M2R6        .OHMM                                               :          
M2R9        .OHMM                                               :          
M2RX        .OHMM                                               :          
SP          .MV                                                 :          
SP_NORM     .MV                                                 :SP Normalized
TEN         .LB/F                                               :          
VSH_GR      .V/V                                                :Volume of Shale from GR
VSH_SP      .V/V                                                :Volume of Shale from SP
ZCOR        .G/CC                                               :          
ZDEN        .G/CC                                               :          
~A        DEPTH            CNC           DCAL             GR        GR_NORM           M0C6           M2R1           M2R2           M2R3           M2R6           M2R9           M2RX             SP        SP_NORM            TEN         VSH_GR         VSH_SP           ZCOR           ZDEN
# ...
      7168.0000          32.18          0.799          70.19       63.89161       1887.094          0.793          0.547          0.492          0.488          0.489          0.504        -47.955       -36.8013         25.912      0.6572683      0.4475984          0.007          2.234
      7168.5000         31.377          0.802         69.921       63.55053       1821.287           0.85          0.582          0.524          0.521           0.52          0.535        -46.162       -34.9994         29.918      0.6500112         0.4762          0.017          2.237
      7169.0000         29.409          0.802          69.18       62.60478       1744.998          0.952          0.641          0.576          0.574          0.572          0.586        -44.714       -33.5425         30.819       0.629889      0.4993254          0.015          2.261
      7169.5000         27.728          0.804         68.112       61.24032       1667.533          1.154           0.75          0.671           0.67          0.665           0.68         -42.54       -31.3597         17.275      0.6008579       0.533973          0.011          2.362
      7170.0000         27.145           0.81         66.349       58.98569       1597.461          1.499          0.917          0.815          0.815          0.806          0.825        -39.067       -27.8778        -12.019      0.5528871      0.5892413         -0.025          2.397
      7170.5000         27.043          0.825         64.763       56.95776       1540.933            1.8          1.065          0.947          0.948          0.934          0.956         -36.05       -24.8519        -37.479      0.5097396      0.6372714         -0.061          2.306
      7171.0000         27.893          0.873         65.102       57.39529       1500.353          1.663          1.054          0.957          0.959          0.944          0.964        -35.841       -24.6341        -42.797      0.5190488      0.6407286         -0.016          2.284
      7171.5000         30.708          0.974         66.393       59.05229       1474.069          1.249          0.895          0.837          0.838          0.828          0.842        -38.019       -26.8032        -30.048      0.5543041      0.6062984         -0.002          2.215
      7172.0000         34.255          1.108         67.342       60.27126        1457.18          0.933          0.734          0.701          0.703          0.696          0.706        -40.505       -29.2803        -22.405      0.5802395      0.5669793         -0.014          2.156
      7172.5000         36.143          1.311          68.65       61.94989       1443.122          0.774          0.644          0.623          0.625           0.62          0.629        -41.827       -30.5935         -42.15      0.6159552      0.5461349          0.023          2.184
      7173.0000          37.23           1.61         71.609       65.74332       1425.812          0.724          0.623          0.607          0.609          0.606          0.615        -40.612       -29.3696        -63.298      0.6966663      0.5655619          0.036           2.22
      7173.5000         37.764          1.973         76.026       71.40416       1401.237           0.75          0.659          0.646           0.65          0.647          0.658        -36.173       -24.9217        -53.895      0.8171098      0.6361635          0.027          2.291
      7174.0000         36.634          2.324         80.288       76.86634       1368.597          0.827          0.741           0.73          0.737          0.735          0.749        -29.943       -18.6828        -31.061      0.9333264      0.7351937           0.05          2.353
      7174.5000         34.615          2.334         82.438       79.62357       1330.149          0.914           0.84          0.836          0.847          0.846          0.862        -24.423        -13.154        -26.092      0.9919907      0.8229524          0.078           2.38
      7175.0000         33.125          1.837         82.286       79.43234       1290.472          0.966          0.916          0.924          0.939          0.938          0.956        -20.717        -9.4391        -28.814      0.9879222       0.881919          0.071          2.374
      7175.5000         32.962          1.256         82.053       79.13724       1254.831          0.952          0.933          0.954           0.97           0.97          0.986        -18.254        -6.9672        -21.008      0.9816434      0.9211556          0.047          2.347
      7176.0000         34.499          1.029         82.392       79.57489       1228.107          0.902          0.908          0.938          0.954          0.954          0.968        -16.183        -4.8874         -9.817      0.9909551      0.9541683          0.061          2.333
      7176.5000         37.072          1.025         82.536       79.76279       1213.505          0.877          0.902          0.941          0.956          0.955          0.968        -14.487        -3.1825        -10.177      0.9949531      0.9812301          0.061          2.327
      7177.0000         39.173          1.029          82.25       79.39981         1212.2          0.888           0.93          0.975          0.989          0.988              1        -13.503        -2.1896        -13.669        0.98723      0.9969905          0.065          2.349
      7177.5000         40.556          1.029         82.536       79.76958       1223.087          0.889          0.944          0.993          1.005          1.004          1.016        -13.226        -1.9038         -4.494      0.9950975              1          0.045          2.329
      7178.0000         42.318          1.038         83.581        81.1115       1243.549          0.843          0.904          0.953          0.962          0.961          0.974        -13.335        -2.0039          4.696              1      0.9999381          0.015          2.279
      7178.5000         44.253          1.048         85.024       82.96317       1269.823          0.759          0.821          0.866          0.873          0.875          0.887        -13.438         -2.098         -9.314              1      0.9984444           0.03          2.277
      7179.0000         46.533          1.032         87.258       85.82787       1298.059          0.672          0.733          0.774           0.78          0.782          0.796        -13.382        -2.0331        -31.547              1      0.9994746          0.046          2.271
      7179.5000         49.341           0.98          89.69       88.94628       1324.846          0.616          0.679          0.715          0.721          0.725           0.74        -13.316        -1.9583        -34.071              1              1          0.035           2.26
      7180.0000         50.217           0.91         90.798       90.36888       1347.906          0.601          0.668          0.701          0.708          0.713          0.732        -13.476        -2.1094        -25.443              1      0.9982635          0.031          2.285
      7180.5000         47.924           0.85          90.03       89.38855        1366.21          0.612          0.683          0.713          0.721          0.727           0.75        -13.892        -2.5165        -24.854              1      0.9918016          0.042          2.306
      7181.0000         44.529          0.816         88.099       86.91875       1380.476          0.624          0.695          0.721          0.728          0.734          0.762        -14.396        -3.0117        -29.967              1      0.9839413          0.049          2.282
      7181.5000         41.683          0.805          85.51       83.60615        1392.75          0.632          0.694          0.713          0.717          0.723          0.754        -14.862        -3.4688        -37.586              1      0.9766857          0.053          2.275
