#------------------------------------------------------------------------------
# Created by    : vladimir.rabinovich
# Created on    : 09/19/2023 17:20:47
#------------------------------------------------------------------------------
~Version Information Section
VERS.           2.0     :   CWLS log ASCII Standard - VERSION 2.0
WRAP.           NO      :   One line per depth step
~Well Information Section
#MNEM       .UNIT                                         VALUE :DESCRIPTION
#------------------------------------------------------------------------------
STRT        .FT                                             612 :START DEPTH
STOP        .FT                                            9868 :STOP DEPTH
STEP        .FT                                             0.5 :STEP      
NULL        .                                           -999.25 :NULL      
COMP        .                                      SHELL OIL CO :COMPANY   
WELL        .                               OCS G00950 ST00BP00 :WELL      
FLD         .                                           WILDCAT :FIELD     
LOC         .                                                   :LOCATION  
CNTY        .                                      EAST CAMERON :LOCATION  
STAT        .                                         LOUISIANA :STATE     
CTRY        .                                     UNITED STATES :COUNTRY   
SRVC        .                                                   :SERVICE COMPANY
DATE        .                             9/13/2023 11:18:15 AM :LOG DATE  
API         .                                    17703002450000 :API NUMBER
UWI         .                                    17703002450000 :UNIQUE WELL ID
XCOORD      .                                  1691932.89207312 :SURFACE X 
YCOORD      .                                   10460306.475122 :SURFACE Y 
LAT         .                                        28.8238717 :LATITUDE  
LON         .                                       -92.8390619 :LONGITUDE 
ELEV        .FT                                              75 :ELEVATION VALUE
ELEV_TYPE   .                                                KB :ELEVATION REFERENCE TYPE
~Curve Information Section
#MNEM       .UNIT                                      API CODE :CURVE DESCRIPTION
#------------------------------------------------------------------------------
DEPT        .FT                                                 :DEPTH     
ASN         .OHMM                                               :          
GR          .GAPI                                               :          
GR_NORM     .GAPI                                               :GammaRay Normalized
ILD         .OHMM                                               :          
SP          .MV                                                 :          
SP_NORM     .MV                                                 :SP Normalized
VSH_GR      .V/V                                                :Volume of Shale from GR
VSH_SP      .V/V                                                :Volume of Shale from SP
~A        DEPTH            ASN             GR        GR_NORM            ILD             SP        SP_NORM         VSH_GR         VSH_SP
# ...
      9226.0000         0.6424        -999.25        -999.25         0.3024       -63.3369       -32.9122        -999.25      0.5298257
      9226.5000         0.5826        -999.25        -999.25          0.283       -78.0994       -47.6665        -999.25        0.31905
      9227.0000         0.5439        -999.25        -999.25         0.2712       -91.3879       -60.9468        -999.25      0.1293314
      9227.5000         0.5222        -999.25        -999.25         0.2656       -94.2172       -63.7678        -999.25     0.08903144
      9228.0000         0.5129        -999.25        -999.25         0.2704       -95.1045       -64.6469        -999.25     0.07647291
      9228.5000         0.5262        -999.25        -999.25         0.2826       -89.8304       -59.3646        -999.25      0.1519343
      9229.0000         0.5856        -999.25        -999.25         0.3033       -80.5835       -50.1095        -999.25        0.28415
      9229.5000         0.6847        -999.25        -999.25         0.3527         -66.25       -35.7678        -999.25      0.4890314
      9230.0000         0.7623        -999.25        -999.25         0.4617       -50.5116       -20.0212        -999.25      0.7139829
      9230.5000         0.8183        -999.25        -999.25         0.5775       -47.4384       -16.9398        -999.25      0.7580029
      9231.0000         0.8379        -999.25        -999.25         0.6657        -49.373       -18.8662        -999.25      0.7304829
      9231.5000         0.8357        -999.25        -999.25         0.6751       -53.0797       -22.5647        -999.25      0.6776472
      9232.0000         0.8494        -999.25        -999.25          0.681       -56.6877       -26.1645        -999.25      0.6262214
      9232.5000         0.8666        -999.25        -999.25          0.694       -57.5798       -27.0483        -999.25      0.6135957
      9233.0000         0.8834        -999.25        -999.25         0.7079       -54.7604       -24.2207        -999.25        0.65399
      9233.5000         0.8979        -999.25        -999.25         0.7233       -46.9085       -16.3606        -999.25      0.7662771
      9234.0000         0.9098        -999.25        -999.25         0.7376       -44.2936       -13.7375        -999.25        0.80375
      9234.5000         0.9184        -999.25        -999.25         0.7487        -43.282       -12.7177        -999.25      0.8183185
      9235.0000         0.9228        -999.25        -999.25         0.7573       -42.0731       -11.5006        -999.25      0.8357057
      9235.5000         0.9144        -999.25        -999.25         0.7578       -40.5205        -9.9398        -999.25      0.8580028
      9236.0000          0.911        -999.25        -999.25         0.7496       -38.7214        -8.1325        -999.25      0.8838214
      9236.5000         0.9101        -999.25        -999.25         0.7605       -36.9026        -6.3055        -999.25      0.9099214
      9237.0000          0.912        -999.25        -999.25         0.7714       -35.5569        -4.9516        -999.25      0.9292629
      9237.5000         0.9168        -999.25        -999.25         0.7822       -34.5046         -3.891        -999.25      0.9444143
      9238.0000         0.9226        -999.25        -999.25         0.7931       -33.8084        -3.1866        -999.25      0.9544771
      9238.5000         0.9282        -999.25        -999.25         0.7963       -33.6852        -3.0552        -999.25      0.9563543
      9239.0000         0.9305        -999.25        -999.25         0.7909       -33.8481        -3.2099        -999.25      0.9541443
      9239.5000         0.9257        -999.25        -999.25         0.7909       -34.0373        -3.3909        -999.25      0.9515586
      9240.0000         0.9179        -999.25        -999.25         0.7969       -34.2988        -3.6442        -999.25        0.94794
      9240.5000           0.91        -999.25        -999.25         0.8021       -34.6464        -3.9836        -999.25      0.9430915
      9241.0000         0.9041        -999.25        -999.25         0.8053       -34.9073        -4.2363        -999.25      0.9394814
      9241.5000         0.9074        -999.25        -999.25         0.8042       -35.0477        -4.3685        -999.25      0.9375929
      9242.0000          0.913        -999.25        -999.25         0.8027       -35.0425        -4.3551        -999.25      0.9377843
      9242.5000         0.9163        -999.25        -999.25         0.8032       -35.0883        -4.3926        -999.25      0.9372486
      9243.0000         0.9168        -999.25        -999.25         0.8011       -35.1861        -4.4822        -999.25      0.9359686
      9243.5000          0.917        -999.25        -999.25         0.8003       -35.3875        -4.6754        -999.25      0.9332086
      9244.0000         0.9166        -999.25        -999.25         0.8008       -35.8971        -5.1768        -999.25      0.9260457
      9244.5000         0.9196        -999.25        -999.25         0.8013        -36.549        -5.8205        -999.25        0.91685
      9245.0000         0.9255        -999.25        -999.25         0.7981       -37.0406        -6.3039        -999.25      0.9099443
      9245.5000         0.9384        -999.25        -999.25         0.7952       -37.3856        -6.6407        -999.25      0.9051328
      9246.0000          0.942        -999.25        -999.25         0.7967       -37.6857        -6.9326        -999.25      0.9009628
      9246.5000          0.944        -999.25        -999.25         0.7995       -37.2427        -6.4814        -999.25      0.9074086
      9247.0000          0.949        -999.25        -999.25         0.8024       -38.5591        -7.7896        -999.25        0.88872
      9247.5000         0.9549        -999.25        -999.25         0.8072       -38.6042        -7.8265        -999.25      0.8881928
      9248.0000         0.9637        -999.25        -999.25         0.8157       -38.6447        -7.8587        -999.25      0.8877329
      9248.5000          0.973        -999.25        -999.25          0.826       -38.4515        -7.6573        -999.25        0.89061
      9249.0000         0.9829        -999.25        -999.25         0.8395       -38.2581        -7.4557        -999.25        0.89349
      9249.5000         0.9904        -999.25        -999.25         0.8507       -38.0708        -7.2602        -999.25      0.8962829
      9250.0000         0.9944        -999.25        -999.25         0.8596       -37.8896        -7.0708        -999.25      0.8989885
      9250.5000         0.9958        -999.25        -999.25         0.8666       -37.7324        -6.9054        -999.25      0.9013515
      9251.0000         0.9956        -999.25        -999.25         0.8639         -37.64        -6.8048        -999.25      0.9027886
      9251.5000         0.9887        -999.25        -999.25         0.8511       -37.5162        -6.6728        -999.25      0.9046743
      9252.0000         0.9776        -999.25        -999.25         0.8317       -37.3604        -6.5088        -999.25      0.9070172
      9252.5000         0.9647        -999.25        -999.25         0.8128       -37.1919        -6.3321        -999.25      0.9095414
      9253.0000         0.9501        -999.25        -999.25         0.8006       -37.0781          -6.21        -999.25      0.9112857
      9253.5000         0.9369        -999.25        -999.25         0.7895       -36.9981        -6.1218        -999.25      0.9125457
      9254.0000         0.9267        -999.25        -999.25           0.78       -36.7794        -5.8949        -999.25      0.9157872
      9254.5000         0.9367        -999.25        -999.25         0.7698         -36.52        -5.6273        -999.25        0.91961
      9255.0000         0.9431        -999.25        -999.25         0.7585       -36.2144        -5.3135        -999.25      0.9240928
