#------------------------------------------------------------------------------
# Created by    : vladimir.rabinovich
# Created on    : 09/19/2023 17:21:07
#------------------------------------------------------------------------------
~Version Information Section
VERS.           2.0     :   CWLS log ASCII Standard - VERSION 2.0
WRAP.           NO      :   One line per depth step
~Well Information Section
#MNEM       .UNIT                                         VALUE :DESCRIPTION
#------------------------------------------------------------------------------
STRT        .FT                                            3895 :START DEPTH
STOP        .FT                                         10595.5 :STOP DEPTH
STEP        .FT                                             0.5 :STEP      
NULL        .                                           -999.25 :NULL      
COMP        .                               TALOS PETROLEUM LLC :COMPANY   
WELL        .                                OCS 00300 ST00BP00 :WELL      
FLD         .                           WEST CAMERON BLOCK 0045 :FIELD     
LOC         .                                                   :LOCATION  
CNTY        .                                      WEST CAMERON :LOCATION  
STAT        .                                         LOUISIANA :STATE     
CTRY        .                                     UNITED STATES :COUNTRY   
SRVC        .                                                   :SERVICE COMPANY
DATE        .                             9/13/2023 11:18:36 AM :LOG DATE  
API         .                                    17700410070000 :API NUMBER
UWI         .                                    17700410070000 :UNIQUE WELL ID
XCOORD      .                                  1453771.49108141 :SURFACE X 
YCOORD      .                                  10773222.7644816 :SURFACE Y 
LAT         .                                        29.6835328 :LATITUDE  
LON         .                                       -93.5879752 :LONGITUDE 
ELEV        .FT                                             100 :ELEVATION VALUE
ELEV_TYPE   .                                                KB :ELEVATION REFERENCE TYPE
~Curve Information Section
#MNEM       .UNIT                                      API CODE :CURVE DESCRIPTION
#------------------------------------------------------------------------------
DEPT        .FT                                                 :DEPTH     
ATR         .OHMM                                               :          
CATR        .MMHO                                               :          
DCAL        .IN                                                 :          
DRHB        .G/C3                                               :          
GR          .GAPI                                               :          
GR_NORM     .GAPI                                               :GammaRay Normalized
PSR         .OHMM                                               :          
RHOB        .G/C3                                               :          
ROP5        .F/HR                                               :          
TNPH        .%                                                  :          
VSH_GR      .V/V                                                :Volume of Shale from GR
~A        DEPTH            ATR           CATR           DCAL           DRHB             GR        GR_NORM            PSR           RHOB           ROP5           TNPH         VSH_GR
# ...
      5290.0000           0.53       1886.791           0.75           0.15          90.35       83.27542           0.55           2.23          55.73             52              1
      5290.5000           0.51       1960.783           0.84           0.15           88.6       81.40181           0.51           2.19          54.22             52              1
      5291.0000           0.51       1960.783           0.91           0.15          87.49        80.2131           0.51           2.18        44.4399             53              1
      5291.5000           0.51       1960.783           0.91           0.15        86.3899       79.03506           0.48           2.17           43.9             54      0.9794693
      5292.0000           0.51       1960.783           0.88           0.13        86.1499       78.77701           0.48           2.18          40.45             54      0.9739789
      5292.5000           0.51       1960.783           0.83           0.12          85.49       78.06994           0.48            2.2          41.48             54      0.9589348
      5293.0000           0.51       1960.783            0.8           0.12        84.8199       77.35191           0.48            2.2        41.1899             54      0.9436578
      5293.5000           0.55       1818.182           0.79           0.12          84.99        77.5327            0.5           2.22          44.89             54      0.9475042
      5294.0000           0.55       1818.182            0.9           0.11        85.1599       77.71331            0.5           2.19          52.18             53      0.9513471
      5294.5000           0.55       1818.182           1.01            0.1        85.2999       77.86193            0.5           2.16          49.45             51      0.9545091
      5295.0000           0.65       1538.461           1.12           0.09        85.2799       77.83945           0.67           2.13        49.3199             49      0.9540309
      5295.5000           0.65       1538.461           1.12           0.09          86.75       79.41105           0.67           2.13             48             51      0.9874691
      5296.0000           0.67       1492.537           1.21           0.09          88.25       81.01482           0.69           2.11           59.8             52              1
      5296.5000           0.67       1492.537           1.31           0.09        90.0299       82.91796           0.69           2.09        64.5199             53              1
      5297.0000           0.64         1562.5            1.4           0.09           88.6       81.38688           0.64           2.07          59.02             52              1
      5297.5000           0.64         1562.5           1.32           0.11        89.1599       81.98483           0.64           2.09           53.1             52              1
      5298.0000           0.58       1724.137           1.25           0.13        87.1799       79.86531           0.54           2.12          41.47             51      0.9971343
      5298.5000           0.58       1724.137           1.17           0.15          88.85         81.651           0.54           2.14          32.85             50              1
      5299.0000           0.58       1724.137           1.13           0.14        89.5199       82.36658           0.56           2.14          30.25             45              1
      5299.5000           0.61       1639.344           1.07           0.14          94.61       87.81126           0.55           2.14           31.2             41              1
      5300.0000           0.61       1639.344           1.02           0.14        93.6799       86.81497           0.55           2.14           31.2             44              1
      5300.5000           0.63       1587.301           1.08           0.14          95.46       88.71831           0.62           2.17          31.92             47              1
      5301.0000           0.67       1492.537           1.19           0.13        93.8899       87.03727           0.66           2.14           31.8             48              1
      5301.5000           0.67       1492.537           1.34           0.13        94.4399       87.62473           0.66           2.11          32.03             48              1
      5302.0000           0.69       1449.275           1.48           0.12          91.21       84.16785           0.68           2.04          35.02             48              1
      5302.5000           0.72       1388.889           1.62           0.12        89.1599       81.97337           0.71              2          36.66             49              1
      5303.0000           0.72       1388.889           1.76           0.12        89.3099       82.13266           0.71           1.91          44.89             50              1
      5303.5000           0.72       1388.889           1.85           0.13        87.5399       80.23771           0.74           1.84          59.22             54              1
      5304.0000           0.72       1388.889           1.85           0.14        86.3899       79.00618           0.74            1.8        71.1499             59      0.9788549
      5304.5000           0.72       1388.889           1.86           0.13        87.5299       80.22474           0.74            1.8        71.4299             61              1
      5305.0000            0.7        1428.57           1.91           0.12        90.6699       83.58302           0.68           1.81          70.87             61              1
      5305.5000            0.7        1428.57           1.94           0.11        93.6399       86.75953           0.68           1.81          70.59             58              1
      5306.0000           0.69       1449.275           1.82           0.14          90.73       83.64504            0.7           1.79          69.23             57              1
      5306.5000           0.69       1449.275           1.54           0.18          87.83       80.54121            0.7           1.79        70.3099             53              1
      5307.0000           0.65       1538.461           1.26           0.24          83.75         76.175           0.67           1.82        71.4299             54       0.918617
      5307.5000           0.65       1538.461           1.13           0.25          85.08       77.59664           0.67           1.87        75.3099             53      0.9488647
      5308.0000           0.61       1639.344           1.21            0.2        87.3899       80.06693           0.58           1.93        71.4299             55              1
      5308.5000           0.59       1694.914            1.3           0.13        90.4299       83.31824           0.55           1.99        75.6299             53              1
      5309.0000           0.59       1694.914            1.2            0.1          90.12       82.98557           0.58            2.1          80.35             53              1
      5309.5000           0.59       1694.914              1           0.08          87.11        79.7641           0.62           2.19          80.35             52      0.9949808
      5310.0000            0.6       1666.666           0.82           0.08        86.3799       78.98175           0.61           2.24          85.71             53      0.9783351
      5310.5000           0.59       1694.914           0.82           0.08        89.5499       82.37216           0.59           2.22             90             51              1
      5311.0000           0.56       1785.713           0.84           0.09          94.45       87.61358           0.55            2.2         101.12             50              1
      5311.5000           0.55       1818.182           0.82            0.1       100.3899       93.96757           0.53           2.18         101.12             49              1
      5312.0000           0.55       1818.182           0.84           0.12         103.71       97.51844           0.52           2.17       108.4299             50              1
