#------------------------------------------------------------------------------
# Created by    : vladimir.rabinovich
# Created on    : 09/19/2023 17:20:14
#------------------------------------------------------------------------------
~Version Information Section
VERS.           2.0     :   CWLS log ASCII Standard - VERSION 2.0
WRAP.           NO      :   One line per depth step
~Well Information Section
#MNEM       .UNIT                                         VALUE :DESCRIPTION
#------------------------------------------------------------------------------
STRT        .FT                                             920 :START DEPTH
STOP        .FT                                            7860 :STOP DEPTH
STEP        .FT                                             0.5 :STEP      
NULL        .                                           -999.25 :NULL      
COMP        .                               ARCO OIL & GAS CORP :COMPANY   
WELL        .                               OCS G10568 ST00BP00 :WELL      
FLD         .                                           WILDCAT :FIELD     
LOC         .                                                   :LOCATION  
CNTY        .                                 WEST CAMERON WEST :LOCATION  
STAT        .                                         LOUISIANA :STATE     
CTRY        .                                     UNITED STATES :COUNTRY   
SRVC        .                                                   :SERVICE COMPANY
DATE        .                             9/13/2023 11:18:15 AM :LOG DATE  
API         .                                    17701402460000 :API NUMBER
UWI         .                                    17701402460000 :UNIQUE WELL ID
XCOORD      .                                  1443937.81344993 :SURFACE X 
YCOORD      .                                  10680295.6485051 :SURFACE Y 
LAT         .                                        29.4277648 :LATITUDE  
LON         .                                       -93.6173961 :LONGITUDE 
ELEV        .FT                                             100 :ELEVATION VALUE
ELEV_TYPE   .                                                KB :ELEVATION REFERENCE TYPE
~Curve Information Section
#MNEM       .UNIT                                      API CODE :CURVE DESCRIPTION
#------------------------------------------------------------------------------
DEPT        .FT                                                 :DEPTH     
ASFL        .OHMM                                               :          
CALI        .IN                                                 :          
DPHI        .%                                                  :          
DRHO        .G/CC                                               :          
DT          .US/F                                               :          
GR          .GAPI                                               :          
GR_1        .GAPI                                               :          
GR_NORM     .GAPI                                               :GammaRay Normalized
ILD         .OHMM                                               :          
ILM         .OHMM                                               :          
NPHI        .%                                                  :          
RFOC        .OHMM                                               :          
SP          .MV                                                 :          
SP_NORM     .MV                                                 :SP Normalized
VSH_GR      .V/V                                                :Volume of Shale from GR
VSH_SP      .V/V                                                :Volume of Shale from SP
~A        DEPTH           ASFL           CALI           DPHI           DRHO             DT             GR           GR_1        GR_NORM            ILD            ILM           NPHI           RFOC             SP        SP_NORM         VSH_GR         VSH_SP
# ...
      7384.0000        -999.25        10.4178        33.5566         0.0289       101.1569        48.7798        42.5963       33.82584         0.2193         0.2471        29.6021         0.5893      -113.8494      -68.56647     0.01757098      0.1095264
      7384.5000        -999.25        10.3291        33.6212         0.0334       103.6865        48.0291        42.7769       34.01178         0.2163         0.2477        29.1765          0.636      -112.7419      -67.46266     0.02152723      0.1238615
      7385.0000        -999.25        10.2834        33.6478         0.0376       104.8977        47.2617        42.6368       33.87703         0.2132         0.2471        29.5085          0.685      -113.4048      -68.12926     0.01866012      0.1152043
      7385.5000        -999.25        10.3898        33.6491         0.0412       104.9695        46.3581        42.2393       33.48487           0.21         0.2465        30.1972         0.6694       -114.507      -69.23517     0.01031648       0.100842
      7386.0000        -999.25        10.5834        33.6014          0.041       105.1434        45.9073        41.5119       32.76283         0.2073         0.2463        30.7876         0.6326      -115.2146      -69.94646              0     0.09160436
      7386.5000        -999.25        10.6017        33.3458          0.033        105.431        46.0819        41.0616       32.31787         0.2051         0.2461        31.0826         0.6161      -115.7338      -70.46937              0      0.0848134
      7387.0000        -999.25        10.5905        32.5745         0.0274       105.6936        46.4779        40.7771       32.03871         0.2056         0.2461        31.0753         0.6589      -115.5874      -70.32666              0     0.08666675
      7387.5000        -999.25        10.5895        30.5404         0.0228       105.8174        46.6244        41.3134       32.58036         0.2107         0.2478        30.9366         0.7094      -115.0403      -69.78326              0     0.09372384
      7388.0000        -999.25        10.6615        26.9247         0.0284       105.6682        45.6794         42.707       33.97931         0.2233         0.2545        30.2651         0.7481      -114.6984      -69.44507     0.02083636       0.098116
      7388.5000        -999.25        10.7722        22.3074         0.0505       105.0469        44.8701        45.0318       36.30946         0.2489         0.2715         29.422         0.7338      -113.8901      -68.64046     0.07041395      0.1085655
      7389.0000        -999.25         10.893        19.1253         0.0714       103.8322        44.3808         48.374       39.65701         0.2874         0.3055        28.5672         0.7137      -111.3268      -66.08086      0.1416384      0.1418071
      7389.5000        -999.25        11.0011        18.9779         0.0903       101.9238        44.7941        53.8059       45.09425         0.3375         0.3611        28.5313         0.7212      -106.0396      -60.79736      0.2573244      0.2104239
      7390.0000        -999.25        11.1013        19.6565         0.1031        98.9236        46.1411        61.6437       52.93739         0.4109         0.4417        29.2715         0.8689       -96.9591      -51.72056      0.4241998      0.3283044
      7390.5000        -999.25        11.1393        19.7672         0.0715        95.3073         49.053        68.2687       59.56774         0.5058          0.529        29.5574         1.0539       -90.4565      -45.22166      0.5652711      0.4127057
      7391.0000        -999.25        11.1447        18.6573         0.0504        93.2118        53.9694         70.637       61.94139         0.6287         0.6065        29.5544         1.1707       -80.2977      -35.06656      0.6157743      0.5445901
      7391.5000        -999.25        11.1713        17.5795         0.0443        92.3883        61.4425        72.3555       63.66523         0.7995         0.6837        29.8174         1.2255       -74.5659      -29.33846      0.6524517      0.6189811
      7392.0000        -999.25        11.2521        17.1541         0.0447        92.0513        71.4961        73.8369       65.15198         0.9175         0.7461        30.3766         1.3067       -73.0337      -27.80996      0.6840847      0.6388317
      7392.5000        -999.25        11.3236        19.4872         0.0578        91.9147        78.3005        76.0117       67.33213          0.976         0.7855        31.3936         1.3519       -72.2379      -27.01786      0.7304708      0.6491187
      7393.0000        -999.25        11.3632        27.5548         0.1214          91.91        77.9464         79.824       71.14977         0.9986         0.8071        32.4356         1.3669       -69.6338      -24.41745      0.8116973      0.6828902
      7393.5000        -999.25          11.36         36.028         0.1904        92.1641        78.0042        83.2333       74.56442         0.9749         0.8042        32.8041         1.3596       -65.7039      -20.49126      0.8843494      0.7338798
      7394.0000        -999.25        11.3731        37.7438         0.2147        92.8036        81.3525         85.243       76.57946         0.8898         0.7889         32.608         1.3014       -61.1953      -15.98635      0.9272225       0.792385
      7394.5000        -999.25        11.3988        37.2291         0.1939        96.9478         84.663        84.2169       75.55872         0.7705         0.7464        31.8491         1.0837       -57.9808      -12.77555      0.9055046      0.8340837
      7395.0000        -999.25        11.3544        34.4276          0.139       104.8252        86.8805        76.6398       67.98696         0.6528         0.6343        31.3671           0.92       -55.8738      -10.67225      0.7444034      0.8613993
      7395.5000        -999.25        11.3126        30.8399         0.0831          109.7        88.7094        70.6429       61.99541          0.534         0.5174        31.1911         0.8477       -59.2592      -14.06136      0.6169236       0.817385
      7396.0000        -999.25        11.3097        27.2772         0.0377        105.574        89.9521        67.8816       59.23945         0.4645         0.4565        31.1206         0.9609       -69.4443      -24.25015      0.5582861       0.685063
      7396.5000        -999.25        11.3419         23.911         0.0496         99.428        88.3048        70.8325       62.19569         0.4271         0.4286        31.2704         1.0752       -81.1237      -35.93325       0.621185      0.5333344
      7397.0000        -999.25        11.4036        21.5493         0.0788         95.913        82.2916         77.027       68.39555         0.4094          0.422        32.7476          1.077       -89.2361      -44.04935      0.7530967      0.4279305
      7397.5000        -999.25        11.4696        20.4644         0.1042        97.0518        77.6475        82.5143       73.88819         0.4043         0.4385        33.8442         0.8849       -91.9586      -46.77555      0.8699615      0.3925253
      7398.0000        -999.25        11.5044         20.356         0.1142        98.8352        75.5365        85.7063       77.08554         0.4043         0.4666        34.4623         0.7678       -86.2899      -41.11055      0.9379902      0.4660968
      7398.5000        -999.25        11.4536        21.2062         0.1091        99.4121         82.844        87.7598       79.14439         0.4097         0.4994        34.4568         0.7905       -68.2028      -23.02715      0.9817954      0.7009462
      7399.0000        -999.25        11.3732        22.9563         0.1013        99.4774        89.5122        86.9802       78.37013         0.4267         0.5369        34.0485         0.8682       -57.7441      -12.57215       0.965322      0.8367254
      7399.5000        -999.25        11.2622        25.6892         0.0861        98.8704        93.2094        83.1503       74.54558         0.4574          0.567        32.5355         0.9322       -53.7379      -8.569649      0.8839484      0.8887058
