#------------------------------------------------------------------------------
# Created by    : vladimir.rabinovich
# Created on    : 09/19/2023 17:21:57
#------------------------------------------------------------------------------
~Version Information Section
VERS.           2.0     :   CWLS log ASCII Standard - VERSION 2.0
WRAP.           NO      :   One line per depth step
~Well Information Section
#MNEM       .UNIT                                         VALUE :DESCRIPTION
#------------------------------------------------------------------------------
STRT        .FT                                             570 :START DEPTH
STOP        .FT                                           10083 :STOP DEPTH
STEP        .FT                                             0.5 :STEP      
NULL        .                                           -999.25 :NULL      
COMP        .                                BP EXPLORATION INC :COMPANY   
WELL        .                               OCS G10548 ST00BP00 :WELL      
FLD         .                                           WILDCAT :FIELD     
LOC         .                                                   :LOCATION  
CNTY        .                                      WEST CAMERON :LOCATION  
STAT        .                                         LOUISIANA :STATE     
CTRY        .                                     UNITED STATES :COUNTRY   
SRVC        .                                                   :SERVICE COMPANY
DATE        .                             9/13/2023 11:18:09 AM :LOG DATE  
API         .                                    17700408010000 :API NUMBER
UWI         .                                    17700408010000 :UNIQUE WELL ID
XCOORD      .                                  1469734.01149431 :SURFACE X 
YCOORD      .                                  10675810.5973196 :SURFACE Y 
LAT         .                                        29.4157778 :LATITUDE  
LON         .                                        -93.536275 :LONGITUDE 
ELEV        .FT                                              80 :ELEVATION VALUE
ELEV_TYPE   .                                                KB :ELEVATION REFERENCE TYPE
~Curve Information Section
#MNEM       .UNIT                                      API CODE :CURVE DESCRIPTION
#------------------------------------------------------------------------------
DEPT        .FT                                                 :DEPTH     
CALI        .IN                                                 :          
DPHI        .%                                                  :          
GR          .GAPI                                               :          
GR_1        .GAPI                                               :          
GR_NORM     .GAPI                                               :GammaRay Normalized
ILD         .OHMM                                               :          
ILM         .OHMM                                               :          
NPHI        .%                                                  :          
SFL         .OHMM                                               :          
SP          .MV                                                 :          
SP_NORM     .MV                                                 :SP Normalized
VSH_GR      .V/V                                                :Volume of Shale from GR
VSH_SP      .V/V                                                :Volume of Shale from SP
~A        DEPTH           CALI           DPHI             GR           GR_1        GR_NORM            ILD            ILM           NPHI            SFL             SP        SP_NORM         VSH_GR         VSH_SP
# ...
      8816.0000        13.9547        17.4757        -999.25        88.5238        82.4204         1.1014         1.0869        32.5873         0.9803        -45.939        -2.1832              1      0.9949111
      8816.5000         13.729        17.1585        -999.25        88.3799        82.2721         1.1104         1.1096        32.0863         1.0143       -45.8836        -2.1295              1      0.9964028
      8817.0000         13.681        16.8942        -999.25        88.5269        82.4148         1.1235         1.1359        32.8497         1.0478       -46.0453        -2.2928              1      0.9918666
      8817.5000        13.7265        16.8222        -999.25        88.5913        82.4749         1.1448         1.1585        33.5863         1.0824       -46.3056        -2.5548              1      0.9845889
      8818.0000        13.8447        17.0828        -999.25        87.0708        80.9501         1.1707         1.1827        32.8989          1.127       -46.4564        -2.7072              1      0.9803556
      8818.5000        13.9878        17.6815        -999.25        84.5702        78.4452          1.204         1.2089        31.6479         1.1646       -46.4821        -2.7346      0.9669191      0.9795945
      8819.0000        14.0819        18.3629        -999.25        81.9528        75.8234         1.2342         1.2372        30.4358         1.1847       -46.4097        -2.6638      0.9111362      0.9815611
      8819.5000        14.1475        18.9608        -999.25        82.4753        76.3416          1.255         1.2369        29.3249         1.1904       -46.3243        -2.5801      0.9221617      0.9838861
      8820.0000        14.1884         19.417        -999.25        85.5406        79.4026         1.2359         1.2164        30.6848         1.1767       -46.2261        -2.4835      0.9872894      0.9865695
      8820.5000        14.2234         19.682        -999.25        89.6161        83.4738         1.2048         1.1825        31.9044         1.1427       -46.1572        -2.4163              1      0.9884361
      8821.0000        14.2559        19.7307        -999.25          92.42        86.2734         1.1699          1.144         33.394         1.0942       -46.1312        -2.3919              1      0.9891139
      8821.5000         14.268        19.6053        -999.25        92.3654        86.2145         1.1339          1.107        35.1891         1.0445       -46.0654        -2.3278              1      0.9908944
      8822.0000        14.2821        19.4148        -999.25         90.972        84.8167         1.0942         1.0743        36.6787         0.9995       -45.9891        -2.2531              1      0.9929695
      8822.5000        14.3913        19.2008        -999.25        89.9724        83.8128         1.0577         1.0425        37.6375          0.965       -45.9184        -2.1841              1      0.9948861
      8823.0000        14.7098        19.0974        -999.25        90.2468        84.0829         1.0244         1.0116        37.9871         0.9407        -45.834        -2.1013              1      0.9971861
      8823.5000        15.0895        19.8941        -999.25        90.5366        84.3684         0.9933         0.9824        36.6205         0.9178       -45.7485        -2.0174              1      0.9995167
      8824.0000        15.0308        21.6267        -999.25        89.8357        83.6632         0.9612         0.9541        39.0121         0.8986       -45.6146        -1.8852              1              1
      8824.5000        14.9049        23.4905        -999.25        89.7758        83.5989         0.9328         0.9272        41.7617         0.8792       -45.5443        -1.8165              1              1
      8825.0000        15.0295        24.6833        -999.25        89.7415        83.5603         0.9055         0.9047        43.2661         0.8577       -45.5899        -1.8638              1              1
      8825.5000        15.2233        25.2149        -999.25        90.2567        84.0712         0.8779         0.8827        44.0966         0.8356       -45.6362        -1.9117              1              1
      8826.0000        15.5259        25.2184        -999.25        91.1537        84.9639         0.8557         0.8616        43.1811         0.8109        -45.683        -1.9602              1              1
      8826.5000        15.2099        24.8861        -999.25         91.813        85.6189         0.8341          0.841        40.7269         0.7888       -45.6096        -1.8884              1              1
      8827.0000         14.886        24.5316        -999.25        92.2159        86.0174         0.8116          0.821        39.4435         0.7704       -45.6558        -1.9363              1              1
      8827.5000        15.0905        24.9592        -999.25        92.0133        85.8105         0.7914         0.8016        40.3183         0.7621       -45.7578        -2.0399              1      0.9988917
      8828.0000         15.408        25.9015        -999.25        92.1041         85.897         0.7749         0.7819         44.362         0.7523       -45.9018        -2.1856              1      0.9948444
      8828.5000        15.6697        26.5568        -999.25        93.0831        86.8717         0.7594         0.7625        46.2765         0.7345       -46.0391        -2.3245              1      0.9909861
      8829.0000        15.9991        26.9829        -999.25        93.7773        87.5616         0.7446         0.7467         47.069         0.7166       -46.1405        -2.4276              1      0.9881222
      8829.5000        15.8508        27.0229        -999.25        93.6791        87.4591         0.7269         0.7314        46.7119         0.6965       -46.1814        -2.4701              1      0.9869417
      8830.0000        15.6565        26.9544        -999.25        92.9326        86.7082         0.7123         0.7164         46.313         0.6822       -46.2006        -2.4909              1      0.9863639
      8830.5000        15.8439        26.8972        -999.25         91.915        85.6863         0.6992         0.7013        45.9485         0.6766       -46.3193        -2.6113              1      0.9830195
      8831.0000         16.348        26.9308        -999.25        90.9174        84.6844         0.6893         0.6915        45.5944         0.6743       -46.4577        -2.7513              1      0.9791306
      8831.5000        17.0337        26.9879        -999.25        90.2555        84.0182         0.6839         0.6868        45.2462         0.6726       -46.4822        -2.7775              1      0.9784028
      8832.0000        17.0274        27.0766        -999.25         91.604        85.3624         0.6809         0.6835        44.9771          0.672       -46.4132        -2.7101              1       0.980275
      8832.5000        16.8645        27.5521        -999.25        93.4153        87.1693          0.679           0.68        44.7582         0.6722       -46.3526        -2.6512              1      0.9819111
      8833.0000        16.8777        28.2037        -999.25        95.1918        88.9415         0.6782         0.6783        44.5629          0.673       -46.3307        -2.6309              1       0.982475
      8833.5000        16.9849        29.2862        -999.25        96.0602        89.8056         0.6773         0.6781        44.4828         0.6714       -46.3047        -2.6066              1        0.98315
      8834.0000        17.1556        30.2136        -999.25         94.933        88.6741         0.6771         0.6773        44.5001         0.6675       -46.2574        -2.5609              1      0.9844195
      8834.5000        17.3494        29.8796        -999.25        93.3282         87.065         0.6779         0.6796         44.528         0.6637       -46.2021        -2.5073              1      0.9859083
