#------------------------------------------------------------------------------
# Created by    : vladimir.rabinovich
# Created on    : 09/19/2023 17:22:13
#------------------------------------------------------------------------------
~Version Information Section
VERS.           2.0     :   CWLS log ASCII Standard - VERSION 2.0
WRAP.           NO      :   One line per depth step
~Well Information Section
#MNEM       .UNIT                                         VALUE :DESCRIPTION
#------------------------------------------------------------------------------
STRT        .FT                                            4265 :START DEPTH
STOP        .FT                                           12768 :STOP DEPTH
STEP        .FT                                             0.5 :STEP      
NULL        .                                           -999.25 :NULL      
COMP        .                                SHELL OFFSHORE INC :COMPANY   
WELL        .                               OCS G04749 ST00BP02 :WELL      
FLD         .                                           WILDCAT :FIELD     
LOC         .                                                   :LOCATION  
CNTY        .                                      WEST CAMERON :LOCATION  
STAT        .                                         LOUISIANA :STATE     
CTRY        .                                     UNITED STATES :COUNTRY   
SRVC        .                                                   :SERVICE COMPANY
DATE        .                             9/13/2023 11:19:06 AM :LOG DATE  
API         .                                    17700406070000 :API NUMBER
UWI         .                                    17700406070000 :UNIQUE WELL ID
XCOORD      .                                   1486969.7252092 :SURFACE X 
YCOORD      .                                  10728694.6404599 :SURFACE Y 
LAT         .                                        29.5614647 :LATITUDE  
LON         .                                       -93.4828123 :LONGITUDE 
ELEV        .FT                                              98 :ELEVATION VALUE
ELEV_TYPE   .                                                KB :ELEVATION REFERENCE TYPE
~Curve Information Section
#MNEM       .UNIT                                      API CODE :CURVE DESCRIPTION
#------------------------------------------------------------------------------
DEPT        .FT                                                 :DEPTH     
CALI        .IN                                                 :          
DRHO        .G/C3                                               :          
DT          .US/F                                               :          
GR          .GAPI                                               :          
GR_1        .GAPI                                               :          
GR_NORM     .GAPI                                               :GammaRay Normalized
ILD         .OHMM                                               :          
ILM         .OHMM                                               :          
NPHI        .%                                                  :          
RHOB        .G/C3                                               :          
SFL         .OHMM                                               :          
SP          .MV                                                 :          
SP_NORM     .MV                                                 :SP Normalized
VSH_GR      .V/V                                                :Volume of Shale from GR
VSH_SP      .V/V                                                :Volume of Shale from SP
~A        DEPTH           CALI           DRHO             DT             GR           GR_1        GR_NORM            ILD            ILM           NPHI           RHOB            SFL             SP        SP_NORM         VSH_GR         VSH_SP
# ...
     12204.0000        11.3108        -0.0042       124.5714        -999.25        67.1725       85.53059         0.4757         0.4765        38.1613         2.3855         0.5687       -38.3339        -1.0921              1              1
     12204.5000          11.25        -0.0028       125.2991        -999.25        65.8584       83.70199         0.4769         0.4767        38.7202         2.3814         0.5593       -38.3444        -1.0956              1              1
     12205.0000        11.2152        -0.0006       125.2571        -999.25        65.9414       83.81867         0.4781         0.4798        39.2092         2.3735         0.5743        -38.319        -1.0631              1              1
     12205.5000        11.1992         0.0033        124.799        -999.25        66.9896       85.27915         0.4783         0.4829        39.6456          2.363         0.6186       -38.4005        -1.1376              1              1
     12206.0000        11.2136         0.0051       124.7455        -999.25        67.9276       86.58606         0.4786          0.485        39.6006         2.3598         0.6539          -38.5        -1.2301              1              1
     12206.5000        11.2348          0.005       125.7866        -999.25         68.996       88.07468         0.4758         0.4869        39.0552         2.3627         0.6683       -38.6983        -1.4214              1              1
     12207.0000        11.2157          0.008       127.7844        -999.25        71.0798       90.97699         0.4695         0.4842         38.944         2.3727         0.6285       -38.9218        -1.6378              1              1
     12207.5000        11.1403         0.0116       130.0947        -999.25        72.8333       93.41944         0.4622         0.4796        39.9597         2.3771         0.5644       -38.9773        -1.6863              1              1
     12208.0000        11.0138           0.01        132.145        -999.25        73.2592       94.01337         0.4532         0.4727        41.2021         2.3692         0.5357       -38.9361        -1.6381              1              1
     12208.5000        10.8367         0.0039       132.6753        -999.25        72.6428       93.15629         0.4441         0.4653        42.3154         2.3473         0.5301       -38.7848        -1.4798              1              1
     12209.0000        10.3072        -0.0011         131.71        -999.25        72.2876       92.66288         0.4344         0.4565        41.5717         2.3289         0.5275       -38.6102        -1.2981              1              1
     12209.5000          10.18        -0.0038       130.5999        -999.25        72.8671       93.47066         0.4263         0.4488        40.6778         2.3304         0.5034       -38.4941         -1.175              1              1
     12210.0000        10.2551        -0.0047       130.6074        -999.25        73.0533       93.73102         0.4192          0.443        40.8986         2.3339         0.4831       -38.3827        -1.0566              1              1
     12210.5000        10.4655        -0.0055       130.9255        -999.25        72.3723         92.784         0.4127         0.4395        42.3289         2.3337         0.4902          -38.5        -1.1668              1              1
     12211.0000        10.6491        -0.0073       131.1423        -999.25        71.2928       91.28204         0.4066         0.4375        42.9243         2.3274         0.5093       -38.6119        -1.2717              1              1
     12211.5000        10.6854        -0.0096       130.4099        -999.25        69.6071       88.93621         0.4034         0.4371        42.6625         2.3196         0.5279       -38.7098        -1.3626              1              1
     12212.0000        10.5832          -0.01       129.5398        -999.25        68.5902       87.52151         0.4037          0.438        42.4161         2.3161         0.5297       -38.8076        -1.4534              1              1
     12212.5000        10.4962        -0.0079       129.1797        -999.25        67.0973       85.44415         0.4092         0.4445         43.512         2.3206         0.5312       -38.9054        -1.5441              1              1
     12213.0000        10.5191        -0.0038       131.2249        -999.25        65.1173       82.68844         0.4192         0.4526        44.0228         2.3302         0.5292       -39.0041        -1.6358              1              1
     12213.5000        10.5019         0.0006       133.2654        -999.25        66.0955       84.05145         0.4401         0.4679        43.3896         2.3339         0.5271       -39.1094        -1.7341              1              1
     12214.0000        10.4407        -0.0002        134.938        -999.25        70.2633       89.85523         0.4606         0.4907        42.2117         2.3286         0.5244       -39.2147        -1.8324              1              1
     12214.5000        10.2761        -0.0031       133.9155        -999.25        75.7238       97.45868          0.479         0.5145         42.978         2.3201         0.5389       -39.3768        -1.9874              1              1
     12215.0000        10.0347        -0.0068       130.2498        -999.25        78.3362       101.0969         0.4995         0.5449        44.9581         2.3162          0.632       -38.9155        -1.5191              1              1
     12215.5000        10.0176         -0.012       126.1592        -999.25        79.2535       102.3751          0.523         0.5726         46.151         2.3177         0.7122       -38.3096        -0.9062              1              1
     12216.0000        10.1163        -0.0209       122.0785        -999.25        77.7926       100.3422         0.5433         0.5847        45.4418         2.3231          0.765       -38.1446        -0.7341              1              1
     12216.5000        10.3773         -0.026       119.2631        -999.25        74.1207       95.23104         0.5643         0.5959        42.8488         2.3351         0.7692       -38.1429        -0.7254              1              1
     12217.0000         10.621        -0.0237       118.7679        -999.25        68.0992       86.84863         0.5852         0.6125        40.6567         2.3534         0.7368        -38.214        -0.7895              1              1
     12217.5000        10.6669        -0.0119       119.7306        -999.25         64.808       82.26741         0.6068         0.6277        40.1475         2.3747         0.6943       -38.2924        -0.8609              1              1
     12218.0000        10.5178         0.0023       120.4857        -999.25        64.3824       81.67598         0.6199         0.6355        39.9363         2.3816         0.6752       -38.3836         -0.945              1              1
     12218.5000        10.3846         0.0055       120.1394        -999.25        64.2375       81.47535         0.6297         0.6419        38.3055         2.3808          0.697       -38.4471        -1.0015              1              1
     12219.0000        10.3223          0.003       119.4718        -999.25        64.0817       81.25955         0.6339         0.6471        36.3074         2.3815          0.729        -38.303        -0.8504              1              1
     12219.5000        10.3028        -0.0064       118.7717        -999.25        63.6333       80.63625         0.6364         0.6522        36.3735         2.3815         0.7632       -38.1306        -0.6709              1              1
     12220.0000         10.274        -0.0214       118.5754        -999.25         62.183       78.61815         0.6383         0.6579        37.3801          2.375         0.7767       -37.8573        -0.3906      0.9705989              1
     12220.5000        10.2471        -0.0414        118.938        -999.25        59.9288       75.48083         0.6403         0.6602        37.5558         2.3575         0.7706       -37.6564        -0.1827      0.9038476              1
