#------------------------------------------------------------------------------
# Created by    : vladimir.rabinovich
# Created on    : 09/19/2023 17:22:25
#------------------------------------------------------------------------------
~Version Information Section
VERS.           2.0     :   CWLS log ASCII Standard - VERSION 2.0
WRAP.           NO      :   One line per depth step
~Well Information Section
#MNEM       .UNIT                                         VALUE :DESCRIPTION
#------------------------------------------------------------------------------
STRT        .FT                                            2996 :START DEPTH
STOP        .FT                                            8909 :STOP DEPTH
STEP        .FT                                             0.5 :STEP      
NULL        .                                           -999.25 :NULL      
COMP        .                             PHILLIPS PETROLEUM CO :COMPANY   
WELL        .                                OCS 00299 ST00BP00 :WELL      
FLD         .                           WEST CAMERON BLOCK 0045 :FIELD     
LOC         .                                                   :LOCATION  
CNTY        .                                      WEST CAMERON :LOCATION  
STAT        .                                         LOUISIANA :STATE     
CTRY        .                                     UNITED STATES :COUNTRY   
SRVC        .                                                   :SERVICE COMPANY
DATE        .                             9/13/2023 11:18:09 AM :LOG DATE  
API         .                                    17700407290000 :API NUMBER
UWI         .                                    17700407290000 :UNIQUE WELL ID
XCOORD      .                                  1446390.31791034 :SURFACE X 
YCOORD      .                                  10761453.0604348 :SURFACE Y 
LAT         .                                        29.6510516 :LATITUDE  
LON         .                                       -93.6110308 :LONGITUDE 
ELEV        .FT                                              99 :ELEVATION VALUE
ELEV_TYPE   .                                                KB :ELEVATION REFERENCE TYPE
~Curve Information Section
#MNEM       .UNIT                                      API CODE :CURVE DESCRIPTION
#------------------------------------------------------------------------------
DEPT        .FT                                                 :DEPTH     
CALX        .IN                                                 :          
CDL         .%                                                  :          
CILD        .MMHO                                               :          
CNS         .%                                                  :          
DRHO        .G/C3                                               :          
GR_NORM     .GAPI                                               :GammaRay Normalized
RILD        .OHMM                                               :          
RILM        .OHMM                                               :          
RLL         .OHMM                                               :          
SP          .MV                                                 :          
SP_NORM     .MV                                                 :SP Normalized
TENS        .LB                                                 :          
VSH_GR      .V/V                                                :Volume of Shale from GR
VSH_SP      .V/V                                                :Volume of Shale from SP
~A        DEPTH           CALX            CDL           CILD            CNS           DRHO        GR_NORM           RILD           RILM            RLL             SP        SP_NORM           TENS         VSH_GR         VSH_SP
# ...
      6938.0000           13.1          23.64           1392          40.44         0.0647       70.72837         0.6874         0.7701         1.0094              1        -1.0149       2583.333      0.8027313              1
      6938.5000          12.78        24.1837           1488        37.3529          0.048       74.90957          0.651         0.7412         0.9905            0.3        -1.7336       2583.333      0.8916929              1
      6939.0000          12.72        24.8571           1552           34.2         0.0324       77.36861         0.6278         0.7135         1.0189        -0.2041        -2.2564       2583.333      0.9440131              1
      6939.5000           12.8        25.6531       1633.333        32.1765         0.0127       71.70901            0.6         0.6874         1.0678        -0.8163        -2.8873       2604.167      0.8235959              1
      6940.0000           12.8        26.1429       1716.667        31.2353         -0.004       63.58919         0.5774         0.6569          1.088        -1.1224        -3.2121           2625      0.6508338        0.98485
      6940.5000           12.8        25.1633       1818.723        30.6471          0.001       59.65172         0.5557         0.6393         0.9905        -1.1224        -3.2308        2605.26      0.5670578      0.9835143
      6941.0000          12.78        24.3673        1870.85        30.0588         0.0176       60.38864         0.5347         0.6222         0.9352        -1.4286        -3.5557       2586.669       0.582737      0.9603071
      6941.5000          12.78          23.88        1939.47          29.58         0.0176       62.84769         0.5146         0.6165         0.9624        -1.9388        -4.0846       2588.838      0.6350572      0.9225286
      6942.0000          12.82        24.7959        1990.98          28.98         0.0108       68.75101         0.5097         0.6055         1.0285        -2.3469        -4.5115       2590.985      0.7606599      0.8920357
      6942.5000          12.82        25.8367       2057.143        30.1176              0       72.19416         0.5048         0.5886         1.0479        -2.2449        -4.4282       2591.837      0.8339183      0.8979858
      6943.0000          12.84        26.8776       2057.143        32.1176         -0.008       71.94698            0.5          0.583              1        -2.3469        -4.5489       2591.837      0.8286592      0.8893643
      6943.5000          12.94          27.48       2057.143        33.4706         -0.012       68.74757         0.4954          0.583         1.0778         -2.551        -4.7717       2571.428      0.7605867        0.87345
      6944.0000          13.02          27.54       2106.123        33.2941         -0.016        65.7942         0.4954          0.583         1.0189        -2.6531        -4.8925       2571.428      0.6977489      0.8648214
      6944.5000          13.04        26.1429       2122.449        32.9412         -0.005        63.0868         0.4908          0.583         0.9905        -2.8571        -5.1152       2591.837      0.6401448      0.8489143
      6945.0000          13.04        24.7347       2138.775             33         0.0069       61.36353         0.4685         0.5719         1.0479        -3.1633        -5.4401       2632.653      0.6034794      0.8257071
      6945.5000          13.02          23.88       2220.408        33.0588         0.0186       61.36237         0.4472         0.5557         1.0578        -3.8776        -6.1732       2673.469      0.6034546      0.7733428
      6946.0000          13.08          23.34       2334.694        32.8824         0.0284       61.11521         0.4269         0.5399          0.981        -4.6939        -7.0082       2673.469      0.5981959         0.7137
      6946.5000          13.18         24.551           2432        32.3529         0.0235       61.11406         0.4075            0.5         1.0578           -5.6         -7.933       2673.469      0.5981715      0.6476429
      6947.0000          13.76        25.9592           2576        32.1176         0.0088       60.37484          0.389         0.4729         0.9532           -6.2        -8.5517       2673.469      0.5824434        0.60345
      6947.5000          13.44          27.48           2704        32.4706         -0.009       57.66747         0.3679         0.4472         0.9174           -6.4        -8.7704       2612.245      0.5248398      0.5878286
      6948.0000          13.36          29.04           2816        33.2941         -0.012       56.43622          0.348          0.439         0.8759           -6.3        -8.6891       2632.653       0.498643      0.5936357
      6948.5000        13.5188         29.511       3007.399        34.2353         -0.015       56.39817         0.3385         0.4152         0.9532           -6.3        -8.7078       2650.309      0.4978333         0.5923
      6949.0000        13.4558         29.976        3103.19        33.8824         -0.018       57.81164         0.3292         0.4037         1.0189           -6.3        -8.7265       2645.119      0.5279072      0.5909643
      6949.5000        13.1492        30.4977       3167.592        32.6426          -0.02       60.20919         0.3142         0.3963         1.0285           -6.6        -9.0453       2639.927      0.5789189      0.5681929
      6950.0000        12.9222        30.9043       3183.709        31.2635         -0.023       61.86866         0.3085         0.3963          0.981           -6.8         -9.264       2655.138      0.6142269      0.5525714
      6950.5000          12.96          30.96       3183.674          30.54         -0.026        61.5969         0.3142            0.4          0.981           -7.3        -9.7827       2653.061      0.6084447      0.5155215
      6951.0000        13.0204          30.96       3167.347          31.02         -0.025        60.8577         0.3201            0.4          0.981           -7.5       -10.0014       2673.469      0.5927171         0.4999
      6951.5000        13.1429           30.9       3151.021          31.86         -0.026       60.11849         0.3231         0.3926         0.9905           -7.7       -10.2201       2673.469      0.5769891      0.4842785
      6952.0000        13.3469          30.66           3200          32.34         -0.026       60.36335         0.3142         0.3819         0.9717             -8       -10.5388       2632.653       0.582199      0.4615143
      6952.5000        13.1837          30.24        3325.49          32.52         -0.026       66.26668         0.3056         0.3714         0.9262           -8.4       -10.9575       2612.245      0.7078016      0.4316071
      6953.0000        13.1837          29.88       3498.039          31.62         -0.025       67.74166         0.2944         0.3612         0.9087           -9.3       -11.8762       2632.653      0.7391843      0.3659857
      6953.5000        13.4286          29.94       3670.588           31.2         -0.024          61.59         0.2782         0.3448         0.8838            -10        -12.595       2591.837      0.6082979      0.3146428
      6954.0000        13.5714           30.6       3858.823           30.9         -0.012       54.00012         0.2629         0.3231         0.8601       -10.2041       -12.8178       2591.837      0.4468111      0.2987286
      6954.5000        13.7347          32.52           4016           30.9         0.0039       49.26775         0.2508         0.3056         0.6335        -10.102       -12.7344       2632.653      0.3461224      0.3046857
      6955.0000        13.9184          34.08           4192           31.2         0.0206       46.19136         0.2392         0.2972         0.6393           -9.7       -12.3511       2632.653      0.2806672      0.3320643
      6955.5000          14.36             36           4496          31.92         0.0304       45.48056         0.2282         0.2889         0.6751           -9.1       -11.7698       2632.653      0.2655438      0.3735857
