#------------------------------------------------------------------------------
# Created by    : vladimir.rabinovich
# Created on    : 09/19/2023 17:19:36
#------------------------------------------------------------------------------
~Version Information Section
VERS.           2.0     :   CWLS log ASCII Standard - VERSION 2.0
WRAP.           NO      :   One line per depth step
~Well Information Section
#MNEM       .UNIT                                         VALUE :DESCRIPTION
#------------------------------------------------------------------------------
STRT        .FT                                          2840.5 :START DEPTH
STOP        .FT                                            9365 :STOP DEPTH
STEP        .FT                                             0.5 :STEP      
NULL        .                                           -999.25 :NULL      
COMP        .                              MCMORAN OIL & GAS CO :COMPANY   
WELL        .                                OCS 00757 ST00BP00 :WELL      
FLD         .                           WEST CAMERON BLOCK 0118 :FIELD     
LOC         .                                                   :LOCATION  
CNTY        .                                      WEST CAMERON :LOCATION  
STAT        .                                         LOUISIANA :STATE     
CTRY        .                                     UNITED STATES :COUNTRY   
SRVC        .                                                   :SERVICE COMPANY
DATE        .                             9/13/2023 11:18:49 AM :LOG DATE  
API         .                                    17700410710000 :API NUMBER
UWI         .                                    17700410710000 :UNIQUE WELL ID
XCOORD      .                                  1441592.04714169 :SURFACE X 
YCOORD      .                                  10704369.2355959 :SURFACE Y 
LAT         .                                        29.4939537 :LATITUDE  
LON         .                                       -93.6251728 :LONGITUDE 
ELEV        .FT                                              90 :ELEVATION VALUE
ELEV_TYPE   .                                                KB :ELEVATION REFERENCE TYPE
~Curve Information Section
#MNEM       .UNIT                                      API CODE :CURVE DESCRIPTION
#------------------------------------------------------------------------------
DEPT        .FT                                                 :DEPTH     
AHT10       .OHMM                                               :          
AHT20       .OHMM                                               :          
AHT30       .OHMM                                               :          
AHT60       .OHMM                                               :          
AHT90       .OHMM                                               :          
AHTCO90     .MMHO                                               :          
DPHZ        .DEC                                                :          
GR          .GAPI                                               :          
GR_NORM     .GAPI                                               :GammaRay Normalized
HCAL        .IN                                                 :          
HDRA        .G/CC                                               :          
HMIN        .OHMM                                               :          
HMNO        .OHMM                                               :          
NPOR        .DEC                                                :          
RHOZ        .G/CC                                               :          
RWA         .OHMM                                               :          
TENS        .LB                                                 :          
VSH_GR      .V/V                                                :Volume of Shale from GR
~A        DEPTH          AHT10          AHT20          AHT30          AHT60          AHT90        AHTCO90           DPHZ             GR        GR_NORM           HCAL           HDRA           HMIN           HMNO           NPOR           RHOZ            RWA           TENS         VSH_GR
# ...
      5542.5000         0.6419          0.686         0.6965         0.6982         0.6741       1483.545         0.2584       101.5302       95.41827        10.0817         0.0213          0.631           0.56         0.5303          2.224         0.0593           2798              1
      5543.0000         0.7241         0.7478         0.7656         0.7604         0.7323        1365.53         0.2432        97.6988       91.73821        10.0817         0.0262          0.635          0.563         0.4339          2.249         0.0565           2752              1
      5543.5000          0.896         0.9381         0.9104         0.8897         0.8523       1173.289         0.2369        89.6622       84.01844        10.1053         0.0209          0.683          0.605         0.4044          2.259         0.0622           2764              1
      5544.0000         1.0454         1.1276         1.0541         0.9997         0.9537       1048.513         0.2381        79.8445       74.58788        10.0699         0.0076           0.97          0.859         0.3475          2.257         0.0703           2781      0.8848486
      5544.5000         1.0133          1.052         1.0378         0.9952         0.9503       1052.351         0.2402        82.1987       76.84969           10.2         0.0003          1.486          1.312         0.3414          2.254         0.0714           2781       0.932972
      5545.0000         0.9424         0.9739         0.9881         0.9528         0.9124       1096.002         0.2348        76.8257       71.68875        10.2236         0.0002          1.291          1.141         0.3342          2.263         0.0653           2798      0.8231649
      5545.5000         0.8922         0.9188         0.9362         0.9173         0.8796         1136.9         0.2269        83.5305       78.12988        10.4129         0.0035          1.232          1.089         0.3339          2.276         0.0585           2773      0.9602101
      5546.0000         0.8551         0.8797         0.9073         0.9045         0.8675       1152.759         0.2228        80.6974       75.40876        10.0344         0.0064          1.082          0.956         0.3766          2.282         0.0555           2752      0.9023141
      5546.5000          0.839         0.8702         0.8852          0.893         0.8573       1166.478         0.2191        90.8972       85.20718        10.0344         0.0115           0.95          0.841          0.378          2.289         0.0529           2748              1
      5547.0000         0.8088         0.8407         0.8547         0.8654         0.8315       1202.604         0.2155        94.0101       88.19789         10.058         0.0197          0.899          0.796         0.3886          2.294         0.0495           2737              1
      5547.5000         0.7801         0.8127         0.8248         0.8394         0.8069        1239.32         0.2094        96.6441       90.72855        10.0344         0.0313          0.904            0.8         0.3847          2.304         0.0451           2762              1
      5548.0000         0.7758         0.8118         0.8211         0.8431         0.8097       1235.055         0.2027       100.8414       94.76096         9.9161         0.0404          0.803          0.711         0.4144          2.316         0.0422           2804              1
      5548.5000         0.7719          0.809         0.8161         0.8441         0.8098       1234.853            0.2       100.3625       94.30139         9.9398         0.0483          0.799          0.708         0.4207           2.32          0.041           2814              1
      5549.0000         0.7611         0.7981         0.8037         0.8355         0.8014       1247.755         0.2051       100.8414       94.76172        10.0107         0.0477          0.797          0.706         0.5018          2.312         0.0429           2783              1
      5549.5000         0.7537         0.7912         0.7945         0.8292          0.795       1257.805         0.2239        88.5995       83.00237         9.9634         0.0396          0.756           0.67          0.466           2.28         0.0514           2731              1
      5550.0000         0.7421         0.7807         0.7822         0.8212         0.7869       1270.742         0.2428          81.95       76.61517        10.0107         0.0306          0.737          0.653         0.4395          2.249         0.0605           2747      0.9279824
      5550.5000          0.725         0.7606         0.7605         0.8027         0.7692       1300.044         0.2505        79.9368       74.68165        10.0344         0.0325          0.762          0.675         0.4297          2.237         0.0633           2772      0.8868436
      5551.0000         0.7122         0.7449         0.7439         0.7771         0.7452       1341.911          0.252        80.4157        75.1421        10.0462         0.0385          0.822          0.728         0.4983          2.234         0.0621           2748      0.8966404
      5551.5000         0.7252         0.7565          0.753         0.7848         0.7521       1329.619         0.2523        84.4952       79.06129         9.9634         0.0396           0.78          0.691         0.4609          2.234         0.0628           2754      0.9800274
      5552.0000         0.7791         0.8064         0.8025         0.8349         0.7974        1254.09         0.2483        82.8195       77.45206         9.9161         0.0395          0.799          0.708         0.3765           2.24         0.0644           2798      0.9457884
      5552.5000         0.8514         0.8809         0.8649         0.9024         0.8584       1164.942         0.2472        82.1011       76.76234         9.9634         0.0301          0.861          0.762         0.4024          2.242         0.0686           2838      0.9311137
      5553.0000         0.8996         0.9297         0.9003         0.9384         0.8906       1122.878          0.247        78.9815       73.76598        10.0107         0.0211          0.862          0.763         0.3844          2.242          0.071           2796      0.8673614
      5553.5000         0.9008         0.9186         0.8902         0.9322         0.8852       1129.741         0.2494         77.163       72.01945         10.058         0.0101          0.997          0.882         0.3771          2.238         0.0721           2818      0.8302011
      5554.0000         0.8932         0.8965         0.8754         0.9175          0.872       1146.797         0.2468        80.3583       75.08933        10.0817         0.0084          0.989          0.875         0.3941          2.243         0.0695           2808      0.8955177
      5554.5000         0.9019         0.9033         0.8646          0.899         0.8553       1169.227         0.2345        83.2379        77.8559         9.9871         0.0133          0.944          0.836         0.4284          2.263          0.061           2796      0.9543809
      5555.0000         0.9035         0.9042           0.85          0.883         0.8409       1189.265          0.234        85.8719       80.38656         9.9634         0.0093           0.98          0.867         0.3978          2.264         0.0597           2785              1
      5555.5000         0.8702         0.8484         0.8088         0.8312         0.7939       1259.592         0.2326        85.6091       80.13449         9.9634         0.0078          1.099          0.972         0.4072          2.266         0.0557           2793              1
      5556.0000         0.8634         0.8299         0.7938         0.8004         0.7652       1306.815          0.241        83.0838       77.70913         10.058         0.0011          0.981          0.868         0.3839          2.252         0.0579           2801      0.9512581
