#------------------------------------------------------------------------------
# Created by    : vladimir.rabinovich
# Created on    : 09/19/2023 17:21:07
#------------------------------------------------------------------------------
~Version Information Section
VERS.           2.0     :   CWLS log ASCII Standard - VERSION 2.0
WRAP.           NO      :   One line per depth step
~Well Information Section
#MNEM       .UNIT                                         VALUE :DESCRIPTION
#------------------------------------------------------------------------------
STRT        .FT                                            3895 :START DEPTH
STOP        .FT                                         10595.5 :STOP DEPTH
STEP        .FT                                             0.5 :STEP      
NULL        .                                           -999.25 :NULL      
COMP        .                               TALOS PETROLEUM LLC :COMPANY   
WELL        .                                OCS 00300 ST00BP00 :WELL      
FLD         .                           WEST CAMERON BLOCK 0045 :FIELD     
LOC         .                                                   :LOCATION  
CNTY        .                                      WEST CAMERON :LOCATION  
STAT        .                                         LOUISIANA :STATE     
CTRY        .                                     UNITED STATES :COUNTRY   
SRVC        .                                                   :SERVICE COMPANY
DATE        .                             9/13/2023 11:18:36 AM :LOG DATE  
API         .                                    17700410070000 :API NUMBER
UWI         .                                    17700410070000 :UNIQUE WELL ID
XCOORD      .                                  1453771.49108141 :SURFACE X 
YCOORD      .                                  10773222.7644816 :SURFACE Y 
LAT         .                                        29.6835328 :LATITUDE  
LON         .                                       -93.5879752 :LONGITUDE 
ELEV        .FT                                             100 :ELEVATION VALUE
ELEV_TYPE   .                                                KB :ELEVATION REFERENCE TYPE
~Curve Information Section
#MNEM       .UNIT                                      API CODE :CURVE DESCRIPTION
#------------------------------------------------------------------------------
DEPT        .FT                                                 :DEPTH     
ATR         .OHMM                                               :          
CATR        .MMHO                                               :          
DCAL        .IN                                                 :          
DRHB        .G/C3                                               :          
GR          .GAPI                                               :          
GR_NORM     .GAPI                                               :GammaRay Normalized
PSR         .OHMM                                               :          
RHOB        .G/C3                                               :          
ROP5        .F/HR                                               :          
TNPH        .%                                                  :          
VSH_GR      .V/V                                                :Volume of Shale from GR
~A        DEPTH            ATR           CATR           DCAL           DRHB             GR        GR_NORM            PSR           RHOB           ROP5           TNPH         VSH_GR
# ...
      9250.0000           0.53       1886.791           0.58           0.15        99.3799       78.75044           0.55           2.29           56.6             45      0.9734136
      9250.5000           0.52       1923.076            0.6           0.14        98.4099       77.69012           0.54           2.26        64.2899             43      0.9508535
      9251.0000           0.46        2173.91           0.53           0.11          93.62       72.45432           0.51           2.25        64.2899             40      0.8394535
      9251.5000           0.37       2702.699           0.47           0.07        85.8799        63.9935           0.39           2.27        64.0599             36      0.6594361
      9252.0000           0.38       2631.578           0.27           0.07           83.2         61.064           0.42            2.3          64.75             35      0.5971063
      9252.5000           0.38       2631.578           0.25           0.07          80.73       58.36397           0.42            2.3          63.61             32       0.539659
      9253.0000           0.38       2631.578           0.21           0.07        80.6499       58.27647            0.4            2.3           68.7             32      0.5377972
      9253.5000           0.42       2380.949            0.4            0.1        80.9199       58.57162           0.45           2.32             72             30      0.5440771
      9254.0000           0.45       2222.219            0.5           0.11        79.6799       57.21615            0.5           2.31             72             31      0.5152372
      9254.5000            0.5           2000           0.57            0.1        79.1899       56.68049           0.52           2.27          75.95             32      0.5038402
      9255.0000           0.48       2083.332           0.49           0.05        73.6699        50.6465            0.5           2.23          77.59             31      0.3754574
      9255.5000           0.35       2857.141           0.65           0.04        67.3899       43.78183           0.38            2.2          77.59             29      0.2294006
      9256.0000           0.34       2941.176           0.92           0.04          61.25        37.0702           0.39           2.18          77.58             26     0.08660004
      9256.5000           0.44       2272.727            1.2           0.06           62.9       38.87386           0.55           2.17        78.2599             24      0.1249757
      9257.0000           0.53       1886.791           1.15           0.08        68.8899       45.42141           0.76            2.2          81.08             23      0.2642852
      9257.5000           0.59       1694.914           0.99           0.13        82.1299       59.89422           0.99           2.22        92.2999             23      0.5722175
      9258.0000            0.6       1666.666           0.73           0.15        93.7799       72.62912           0.73           2.25        96.7699             27      0.8431728
      9258.5000           0.58       1724.137           0.68           0.13       100.3099       79.76698            0.7           2.25          98.36             33       0.995042
      9259.0000           0.58       1724.137           0.66           0.12       101.1599       80.69622           0.64           2.28          81.08             38              1
      9259.5000           0.57       1754.385            0.7           0.12       101.8999       81.50513           0.58           2.29          81.08             39              1
      9260.0000           0.55       1818.182           0.74           0.12         107.48        87.6048           0.55            2.3        74.3799             43              1
      9260.5000           0.53       1886.791           0.76           0.12         109.11        89.3865           0.51           2.29        65.9299             44              1
      9261.0000           0.52       1923.076           0.85           0.12       108.8899       89.14597           0.54           2.29          64.98             47              1
      9261.5000           0.52       1923.076           0.89           0.13         106.09       86.08543           0.49            2.3        64.0499             45              1
      9262.0000           0.53       1886.791           0.94           0.13         108.33       88.53386           0.51            2.3          61.23             46              1
      9262.5000           0.55       1818.182           0.92           0.12         107.58       87.71407           0.56            2.3           59.6             45              1
      9263.0000           0.58       1724.137           0.95           0.11         109.86       90.20645           0.62            2.3          56.43             46              1
      9263.5000           0.59       1694.914           1.03           0.11       109.9099       90.26091           0.64           2.28          56.25             44              1
      9264.0000           0.59       1694.914           1.11            0.1         110.98       91.43067           0.58           2.26          34.29             44              1
      9264.5000           0.59       1694.914           1.04           0.11         110.84       91.27763           0.59           2.26          34.35             44              1
      9265.0000            0.6       1666.666           0.83           0.13       109.9099       90.26091           0.58           2.29          33.39             44              1
      9265.5000           0.62       1612.902           0.63           0.16          109.2        89.4849           0.62           2.32           28.3             44              1
      9266.0000           0.63       1587.301           0.52           0.16         108.87       89.12419           0.67           2.35          27.91             45              1
      9266.5000           0.62       1612.902            0.5           0.13          110.6       91.01535           0.66           2.36          26.63             45              1
      9267.0000            0.6       1666.666            0.5           0.11         113.95       94.67729           0.58           2.38          25.79             44              1
      9267.5000            0.6       1666.666           0.47           0.09       115.1899       96.03261           0.56           2.37          24.42             43              1
      9268.0000            0.6       1666.666           0.48            0.1       113.6499       94.34911           0.59           2.37          23.68             41              1
      9268.5000           0.61       1639.344           0.44           0.09       112.1899        92.7533           0.57           2.36          22.76             42              1
      9269.0000           0.62       1612.902           0.52           0.09         111.96       92.50188            0.6           2.37          29.56             43              1
      9269.5000           0.64         1562.5           0.55           0.09       110.7599       91.19016           0.63           2.39           29.8             43              1
      9270.0000           0.65       1538.461            0.6           0.11          107.7       87.84531           0.65           2.39          30.72             40              1
      9270.5000           0.66        1515.15           0.54           0.13       107.0599       87.14555           0.67            2.4        38.6299             38              1
      9271.0000           0.67       1492.537           0.46           0.13         106.97       87.04733           0.71            2.4          39.39             38              1
      9271.5000           0.64         1562.5           0.43           0.12       110.2599       90.64357            0.7            2.4          39.39             39              1
      9272.0000            0.6       1666.666           0.55            0.1         109.25       89.53969           0.56           2.38          39.39             39              1
