#------------------------------------------------------------------------------
# Created by    : vladimir.rabinovich
# Created on    : 09/19/2023 17:20:47
#------------------------------------------------------------------------------
~Version Information Section
VERS.           2.0     :   CWLS log ASCII Standard - VERSION 2.0
WRAP.           NO      :   One line per depth step
~Well Information Section
#MNEM       .UNIT                                         VALUE :DESCRIPTION
#------------------------------------------------------------------------------
STRT        .FT                                             612 :START DEPTH
STOP        .FT                                            9868 :STOP DEPTH
STEP        .FT                                             0.5 :STEP      
NULL        .                                           -999.25 :NULL      
COMP        .                                      SHELL OIL CO :COMPANY   
WELL        .                               OCS G00950 ST00BP00 :WELL      
FLD         .                                           WILDCAT :FIELD     
LOC         .                                                   :LOCATION  
CNTY        .                                      EAST CAMERON :LOCATION  
STAT        .                                         LOUISIANA :STATE     
CTRY        .                                     UNITED STATES :COUNTRY   
SRVC        .                                                   :SERVICE COMPANY
DATE        .                             9/13/2023 11:18:15 AM :LOG DATE  
API         .                                    17703002450000 :API NUMBER
UWI         .                                    17703002450000 :UNIQUE WELL ID
XCOORD      .                                  1691932.89207312 :SURFACE X 
YCOORD      .                                   10460306.475122 :SURFACE Y 
LAT         .                                        28.8238717 :LATITUDE  
LON         .                                       -92.8390619 :LONGITUDE 
ELEV        .FT                                              75 :ELEVATION VALUE
ELEV_TYPE   .                                                KB :ELEVATION REFERENCE TYPE
~Curve Information Section
#MNEM       .UNIT                                      API CODE :CURVE DESCRIPTION
#------------------------------------------------------------------------------
DEPT        .FT                                                 :DEPTH     
ASN         .OHMM                                               :          
GR          .GAPI                                               :          
GR_NORM     .GAPI                                               :GammaRay Normalized
ILD         .OHMM                                               :          
SP          .MV                                                 :          
SP_NORM     .MV                                                 :SP Normalized
VSH_GR      .V/V                                                :Volume of Shale from GR
VSH_SP      .V/V                                                :Volume of Shale from SP
~A        DEPTH            ASN             GR        GR_NORM            ILD             SP        SP_NORM         VSH_GR         VSH_SP
# ...
      2470.5000         0.4987        50.0045       45.32659         0.4281       -50.3293        -8.8199      0.2622678      0.1475126
      2471.0000         0.4782         53.153       49.30742         0.4413        -50.103        -8.5936      0.3469663         0.1758
      2471.5000         0.4874        54.8538       51.45807         0.4485        -49.903        -8.3936      0.3927248      0.2007999
      2472.0000         0.5121        54.9824       51.62128          0.444       -50.2014         -8.692      0.3961975         0.1635
      2472.5000         0.5285         53.725       50.03218         0.4339       -50.5623        -9.0529      0.3623869      0.1183875
      2473.0000         0.5187        53.0628       49.19553          0.437       -50.7858        -9.2764      0.3445858     0.09045005
      2473.5000          0.507        53.2638       49.45015          0.425       -50.8533        -9.3439      0.3500031     0.08201253
      2474.0000         0.4979        53.4695        49.7107         0.4416       -50.7488        -9.2394      0.3555467     0.09507501
      2474.5000         0.4918        53.6497       49.93901         0.4821       -50.5491        -9.0397      0.3604045      0.1200376
      2475.0000         0.4877        53.7589       50.07756         0.5022       -50.3369        -8.8275      0.3633524      0.1465625
      2475.5000         0.4854        53.0411       49.17063         0.4623        -50.262        -8.7526       0.344056       0.155925
      2476.0000          0.497        48.4545       43.37276         0.4282       -50.3267        -8.8173      0.2206971      0.1478375
      2476.5000         0.5141        47.1833       41.76623          0.405       -50.4322        -8.9228      0.1865155        0.13465
      2477.0000         0.5089        46.0993       40.39647         0.3886       -50.4736        -8.9642      0.1573717       0.129475
      2477.5000         0.5042         45.809       40.02998         0.3949       -50.5084         -8.999       0.149574      0.1251251
      2478.0000         0.5082        46.1471       40.45791         0.4019       -50.5989        -9.0895      0.1586789      0.1138124
      2478.5000         0.5177         47.135       41.70731         0.4203       -50.9644         -9.455       0.185262     0.06812501
      2479.0000         0.5289        49.4684        44.6577         0.4382       -51.5211       -10.0117      0.2480362              0
      2479.5000         0.5363        54.3256       50.79867         0.4515       -51.3719        -9.8625      0.3786951     0.01718748
      2480.0000         0.5435        58.2731       55.78959         0.4625       -50.8506        -9.3412      0.4848849     0.08235002
      2480.5000         0.5523        62.1005       60.62868         0.4748       -49.8975        -8.3881      0.5878442      0.2014875
      2481.0000           0.56        67.1162       66.97003         0.4973       -49.0688        -7.5594      0.7227666       0.305075
      2481.5000         0.5658        73.3204       74.81387         0.5145       -48.8092        -7.2998      0.8896567       0.337525
      2482.0000         0.5686        77.7509       80.41553          0.522       -48.8173        -7.3079              1      0.3365125
      2482.5000         0.5594        80.5867       84.00104         0.5223       -48.9922        -7.4828              1        0.31465
      2483.0000         0.5499        79.5315       82.66756         0.5094       -49.1671        -7.6577              1      0.2927875
      2483.5000         0.5469        75.6874       77.80837         0.4923       -49.4014         -7.892      0.9533696         0.2635
      2484.0000         0.5497        68.6023       68.85191         0.4714        -50.129        -8.6196      0.7628065        0.17255
      2484.5000         0.5647        62.6602       61.34043         0.4653       -50.7976        -9.2882      0.6029879     0.08897495
      2485.0000         0.5712        57.0295       54.22261         0.4597       -51.3928        -9.8834       0.451545       0.014575
      2485.5000         0.5519        55.3524       52.10294         0.4557       -51.8936       -10.3842      0.4064454              0
      2486.0000         0.5342        53.1204       49.28176         0.4503       -52.3021       -10.7927      0.3464204              0
      2486.5000         0.5205        50.9426       46.52909         0.4424       -52.5864        -11.077      0.2878529              0
      2487.0000         0.5139        49.6537        44.9003         0.4354       -52.6221       -11.1127      0.2531978              0
      2487.5000         0.5115        49.6872       44.94316         0.4293       -52.5739       -11.0645      0.2541097              0
      2488.0000         0.5062        51.9931       47.85877           0.42       -52.5258       -11.0164      0.3161441              0
      2488.5000         0.5016         53.112       49.27379         0.4086       -52.5287       -11.0193      0.3462509              0
      2489.0000         0.5018        53.6694       49.97896         0.4079       -52.5834        -11.074      0.3612544              0
      2489.5000         0.5046        53.2022       49.38883         0.4121       -52.5789       -11.0695      0.3486986              0
      2490.0000         0.5118        51.5255       47.26966         0.4215       -52.1595       -10.6501      0.3036097              0
      2490.5000         0.5206        50.3149       45.73972         0.4338       -51.9202       -10.4108      0.2710579              0
      2491.0000         0.5309         49.295       44.45088         0.4472        -51.769       -10.2596      0.2436357              0
      2491.5000         0.5426        50.6859       46.20976         0.4632       -51.5815       -10.0721      0.2810587              0
      2492.0000         0.5549        54.4635       50.98602         0.4789       -50.9867        -9.4773      0.3826813     0.06533754
      2492.5000          0.559         58.551       56.15393         0.4915       -50.1525        -8.6431      0.4926369      0.1696125
      2493.0000         0.5585         62.337       60.94069         0.5031       -49.2905        -7.7811      0.5944828      0.2773625
      2493.5000         0.5554        66.4536       66.14539         0.5139       -48.4517        -6.9423      0.7052211      0.3822125
      2494.0000         0.5566        65.8175       65.34174         0.5136       -47.5676        -6.0582      0.6881222       0.492725
      2494.5000         0.5642         63.485       62.39351         0.5076       -48.3331        -6.8237      0.6253938      0.3970375
      2495.0000         0.5657        60.3682       58.45376          0.503       -49.1088        -7.5994      0.5415694       0.300075
      2495.5000         0.5633        55.8658       52.76234          0.498       -49.4764         -7.967      0.4204753       0.254125
      2496.0000         0.5573        53.6949        50.0184         0.4777       -49.5118        -8.0024      0.3620936         0.2497
      2496.5000         0.5485        52.2692       48.21654          0.456       -49.7657        -8.2563      0.3237562      0.2179625
      2497.0000         0.5364        52.8538       48.95622         0.4311        -49.744        -8.2346      0.3394941       0.220675
      2497.5000         0.5191        57.2798       54.55207         0.4132       -49.4868        -7.9774      0.4585547       0.252825
      2498.0000         0.5116        61.0244       59.28649         0.4013       -49.8232        -8.3138       0.559287       0.210775
      2498.5000         0.5118        65.4115       64.83315         0.3949       -50.3748        -8.8654      0.6773011       0.141825
      2499.0000         0.5147        68.0032       68.11008         0.4005        -50.924        -9.4146      0.7470229     0.07317495
      2499.5000         0.5157        68.8851       69.22549         0.4126       -51.3246        -9.8152      0.7707551     0.02310002
