#------------------------------------------------------------------------------
# Created by    : vladimir.rabinovich
# Created on    : 09/19/2023 17:20:44
#------------------------------------------------------------------------------
~Version Information Section
VERS.           2.0     :   CWLS log ASCII Standard - VERSION 2.0
WRAP.           NO      :   One line per depth step
~Well Information Section
#MNEM       .UNIT                                         VALUE :DESCRIPTION
#------------------------------------------------------------------------------
STRT        .FT                                             194 :START DEPTH
STOP        .FT                                           14521 :STOP DEPTH
STEP        .FT                                             0.5 :STEP      
NULL        .                                           -999.25 :NULL      
COMP        .                             MAGNOLIA PETROLEUM CO :COMPANY   
WELL        .                                OCS 00043 ST00BP00 :WELL      
FLD         .                          EUGENE ISLAND BLOCK 0089 :FIELD     
LOC         .                                                   :LOCATION  
CNTY        .                                     EUGENE ISLAND :LOCATION  
STAT        .                                         LOUISIANA :STATE     
CTRY        .                                     UNITED STATES :COUNTRY   
SRVC        .                                                   :SERVICE COMPANY
DATE        .                             9/13/2023 11:18:42 AM :LOG DATE  
API         .                                    17709003920000 :API NUMBER
UWI         .                                    17709003920000 :UNIQUE WELL ID
XCOORD      .                                  2056408.80151155 :SURFACE X 
YCOORD      .                                  10562022.8372996 :SURFACE Y 
LAT         .                                        29.0974849 :LATITUDE  
LON         .                                       -91.6970667 :LONGITUDE 
ELEV        .FT                                              50 :ELEVATION VALUE
ELEV_TYPE   .                                                KB :ELEVATION REFERENCE TYPE
~Curve Information Section
#MNEM       .UNIT                                      API CODE :CURVE DESCRIPTION
#------------------------------------------------------------------------------
DEPT        .FT                                                 :DEPTH     
ASN         .OHMM                                               :          
LAT         .OHMM                                               :          
LN          .OHMM                                               :          
SP          .MV                                                 :          
SP_NORM     .MV                                                 :SP Normalized
VSH_SP      .V/V                                                :Volume of Shale from SP
~A        DEPTH            ASN            LAT             LN             SP        SP_NORM         VSH_SP
# ...
      4944.0000         0.7825         0.3435         0.4601        -82.571      -4.462448      0.8406268
      4944.5000         0.7777         0.3379         0.4594       -83.4694      -5.363388      0.8084504
      4945.0000         0.7917         0.3345         0.4555        -84.356      -6.252541       0.776695
      4945.5000         0.8097         0.3315         0.4452       -85.3134      -7.212479      0.7424115
      4946.0000         0.8371         0.3285         0.4349       -86.3816      -8.283218      0.7041708
      4946.5000         0.8644         0.3255         0.4246       -87.3641      -9.268257      0.6689908
      4947.0000         0.8819         0.3226         0.4143       -88.2262       -10.1329      0.6381108
      4947.5000         0.8974         0.3196          0.404       -89.0848      -10.99404      0.6073557
      4948.0000         0.9128         0.3215         0.3937        -89.924      -11.83579      0.5772931
      4948.5000         0.9209         0.3256         0.3832       -90.4777      -12.39203      0.5574275
      4949.0000         0.9289         0.3298         0.3726       -91.0314      -12.94827      0.5375617
      4949.5000         0.9252          0.334          0.362       -90.6383      -12.55771      0.5515104
      4950.0000         0.9181         0.3382         0.3514       -89.7902      -11.71215      0.5817089
      4950.5000         0.9109         0.3423         0.3408       -88.9287       -10.8532      0.6123859
      4951.0000         0.8822         0.3593         0.3305       -87.5079      -9.434937       0.663038
      4951.5000         0.7767         0.3777         0.3206       -86.0873      -8.016884      0.7136827
      4952.0000         0.7259          0.396         0.3108       -84.0565      -5.988625      0.7861205
      4952.5000         0.7079         0.4144          0.301       -83.5505      -5.485161      0.8041014
      4953.0000         0.6917         0.4327         0.2926       -83.8055      -5.742699      0.7949036
      4953.5000         0.6732         0.4466          0.287        -86.559      -8.498741      0.6964735
      4954.0000         0.6529         0.4564         0.2814       -89.3458      -11.28809      0.5968541
      4954.5000         0.6418         0.4662         0.2758       -90.9104      -12.85523      0.5408846
      4955.0000         0.6308          0.476         0.2703       -92.4014      -14.34877      0.4875439
      4955.5000         0.6216         0.4857         0.2647       -93.0663      -15.01621      0.4637067
      4956.0000         0.6149         0.4958         0.2599       -93.0504      -15.00285      0.4641838
      4956.5000         0.6083         0.5075         0.2557       -92.6971      -14.65209       0.476711
      4957.0000         0.6042         0.5193         0.2515       -92.3442      -14.30173      0.4892237
      4957.5000         0.6017         0.5301         0.2474       -91.9977      -13.95779      0.5015076
      4958.0000         0.5991         0.5356         0.2432       -91.6893      -13.65192      0.5124313
      4958.5000         0.6022          0.541         0.2384       -92.5742      -14.53937      0.4807369
      4959.0000         0.6064         0.5465         0.2321       -93.4875      -15.45521      0.4480283
      4959.5000         0.6152         0.5203         0.2259       -95.1592      -17.12945       0.388234
      4960.0000         0.6251         0.4926         0.2196        -96.658      -18.63078      0.3346149
      4960.5000         0.6387         0.4649         0.2134       -98.1233      -20.09863      0.2821917
      4961.0000         0.6534         0.4371          0.205       -99.6583      -21.63618      0.2272794
      4961.5000         0.6689         0.4409         0.1957       -97.3394      -19.31982      0.3100066
      4962.0000         0.6566         0.4458         0.1864        -95.942      -17.92496       0.359823
      4962.5000          0.643         0.4528         0.1771       -94.5459      -16.53139       0.409593
      4963.0000         0.6017         0.4693         0.1678       -93.1486      -15.13663      0.4594059
      4963.5000         0.5822         0.4858         0.1594       -91.6598      -13.65038      0.5124863
      4964.0000         0.5719         0.4968         0.1527        -90.292      -12.28513      0.5612455
      4964.5000         0.5593          0.483         0.1459       -90.4509      -12.44656      0.5554799
      4965.0000        -999.25         0.4692         0.1392       -93.1117      -15.10991      0.4603604
      4965.5000        -999.25         0.4453         0.1325       -99.4883      -21.48904      0.2325341
      4966.0000        -999.25         0.4144         0.1258      -103.2843      -25.28759     0.09687179
      4966.5000        -999.25         0.3835          0.119       -104.965      -26.97083     0.03675624
      4967.0000        -999.25         0.3526         0.1161      -106.1337      -28.14207              0
      4967.5000        -999.25          0.324         0.1135      -107.1641      -29.17502              0
      4968.0000        -999.25         0.3043         0.1108      -108.1036      -30.11706              0
      4968.5000        -999.25         0.2847         0.1082      -108.6572       -30.6732              0
      4969.0000        -999.25          0.265         0.1056      -108.9816      -31.00014              0
      4969.5000        -999.25         0.2456          0.103      -109.3058      -31.32688              0
      4970.0000        -999.25         0.2372         0.1004      -109.4131      -31.43673              0
      4970.5000        -999.25         0.2288         0.1001      -109.2361      -31.26227              0
      4971.0000        -999.25         0.2204            0.1      -109.0592      -31.08791              0
      4971.5000        -999.25          0.212            0.1      -108.8145      -30.84575              0
      4972.0000        -999.25         0.2036         0.0999       -108.311      -30.34479              0
      4972.5000        -999.25         0.1971         0.0998      -107.8081      -29.84443              0
      4973.0000        -999.25         0.1931         0.0997      -107.3046      -29.34348              0
      4973.5000        -999.25         0.1892         0.0997      -106.8016      -28.84302              0
      4974.0000        -999.25         0.1852         0.1002      -106.8356      -28.87956              0
      4974.5000        -999.25         0.1813         0.1014       -106.895       -28.9415              0
      4975.0000        -999.25         0.1774         0.1026      -106.9546      -29.00364              0
      4975.5000        -999.25         0.1786         0.1038      -107.2028      -29.25438              0
      4976.0000        -999.25         0.1807          0.105      -107.4618      -29.51593              0
      4976.5000        -999.25         0.1829         0.1062      -107.7208      -29.77747              0
      4977.0000        -999.25         0.1851         0.1074      -107.9801      -30.03931              0
      4977.5000        -999.25         0.1872         0.1086      -107.7141      -29.77586              0
      4978.0000        -999.25         0.1894         0.1097      -107.4197      -29.48399              0
      4978.5000        -999.25         0.1916         0.1096       -107.125      -29.19183              0
      4979.0000        -999.25         0.1935         0.1096      -106.9742      -29.04358              0
      4979.5000        -999.25          0.192         0.1095      -107.1346      -29.20652              0
      4980.0000        -999.25         0.1905         0.1094      -107.3182      -29.39266              0
      4980.5000        -999.25         0.1891         0.1093      -107.5526       -29.6296              0
      4981.0000        -999.25         0.1876         0.1093      -107.7869      -29.86645              0
      4981.5000        -999.25         0.1862         0.1092      -107.9218      -30.00388              0
