#------------------------------------------------------------------------------
# Created by    : vladimir.rabinovich
# Created on    : 09/19/2023 17:22:04
#------------------------------------------------------------------------------
~Version Information Section
VERS.           2.0     :   CWLS log ASCII Standard - VERSION 2.0
WRAP.           NO      :   One line per depth step
~Well Information Section
#MNEM       .UNIT                                         VALUE :DESCRIPTION
#------------------------------------------------------------------------------
STRT        .FT                                            4308 :START DEPTH
STOP        .FT                                           11086 :STOP DEPTH
STEP        .FT                                             0.5 :STEP      
NULL        .                                           -999.25 :NULL      
COMP        .                                     GULF OIL CORP :COMPANY   
WELL        .                               OCS G01859 ST00BP00 :WELL      
FLD         .                           WEST CAMERON BLOCK 0045 :FIELD     
LOC         .                                                   :LOCATION  
CNTY        .                                      WEST CAMERON :LOCATION  
STAT        .                                         LOUISIANA :STATE     
CTRY        .                                     UNITED STATES :COUNTRY   
SRVC        .                                                   :SERVICE COMPANY
DATE        .                             9/13/2023 11:18:18 AM :LOG DATE  
API         .                                    17700402800000 :API NUMBER
UWI         .                                    17700402800000 :UNIQUE WELL ID
XCOORD      .                                  1464540.60646957 :SURFACE X 
YCOORD      .                                  10776790.0411311 :SURFACE Y 
LAT         .                                        29.6934919 :LATITUDE  
LON         .                                       -93.5541052 :LONGITUDE 
ELEV        .FT                                              79 :ELEVATION VALUE
ELEV_TYPE   .                                                KB :ELEVATION REFERENCE TYPE
~Curve Information Section
#MNEM       .UNIT                                      API CODE :CURVE DESCRIPTION
#------------------------------------------------------------------------------
DEPT        .FT                                                 :DEPTH     
CALI        .IN                                                 :          
DRHO        .G/C3                                               :          
DT          .US/F                                               :          
GR          .GAPI                                               :          
GR_NORM     .GAPI                                               :GammaRay Normalized
ILD         .OHMM                                               :          
NPHI        .%                                                  :          
RHOB        .G/C3                                               :          
SFLU        .OHMM                                               :          
SP          .MV                                                 :          
SP_NORM     .MV                                                 :SP Normalized
VSH_GR      .V/V                                                :Volume of Shale from GR
VSH_SP      .V/V                                                :Volume of Shale from SP
~A        DEPTH           CALI           DRHO             DT             GR        GR_NORM            ILD           NPHI           RHOB           SFLU             SP        SP_NORM         VSH_GR         VSH_SP
# ...
      7918.0000        10.5401         0.0186       109.4116        67.1556       74.64129         0.7102        34.0276         2.3038         0.9616       -57.0194       -13.9614      0.8859848      0.8121536
      7918.5000         10.566         0.0125       105.5997         67.462       75.24093         0.7489        35.2147         2.3216         0.8429       -54.9896       -11.9323      0.8987432      0.8415609
      7919.0000        10.6953         0.0013       102.4712         68.035       76.36349         0.7907        35.8276         2.3097         0.8136        -51.988        -8.9314      0.9226274      0.8850521
      7919.5000         10.759         0.0168       101.4548        68.7706        77.8047         0.8331        34.7584         2.3136         0.8265       -49.8417        -6.7858      0.9532915      0.9161478
      7920.0000        10.7623         0.0373       102.3519        69.4738       79.18236         0.8711         34.094         2.3307         0.8362       -49.5984        -6.5432      0.9826034      0.9196638
      7920.5000        10.6991         0.0326       106.0073        70.2753       80.75298         0.9041        35.7874         2.2979         0.8434       -49.5084         -6.454              1      0.9209565
      7921.0000        10.6356         0.0257       110.0726        70.6981       81.58083         0.9195        37.6843         2.2871         0.8397       -49.9816        -6.9279              1      0.9140884
      7921.5000        10.5989         0.0267       111.1437        70.9373       82.04868         0.9176        38.3925          2.292         0.8328       -50.5764        -7.5234              1       0.905458
      7922.0000        10.6193         0.0281       112.2544         71.348       82.85302         0.9057        38.5783         2.3112         0.8236       -50.9722        -7.9199              1      0.8997116
      7922.5000        10.6517         0.0235        113.533        71.8685       83.87244         0.8872        39.5812         2.3045         0.8127       -51.0694        -8.0178              1      0.8982927
      7923.0000        10.6738         0.0223       112.9241        72.3051       84.72736         0.8694        40.7187         2.2983         0.8013       -50.6066        -7.5558              1      0.9049884
      7923.5000        10.7132         0.0242       111.7126        72.7275       85.55463         0.8504        40.7613         2.3015         0.7721       -49.6974        -6.6473              1      0.9181551
      7924.0000        10.7583         0.0342       110.6132        73.3198       86.71483         0.8301        40.8231         2.3046         0.7415       -48.7822        -5.7328              1      0.9314087
      7924.5000        10.7614         0.0286       112.7539        74.0055        88.0582         0.8094        41.2432            2.3         0.7207       -47.9958        -4.9471              1      0.9427956
      7925.0000        10.5928         0.0241       114.3691        74.3875       88.80605         0.7892        41.7167         2.2998          0.732       -47.8928        -4.8448              1      0.9442782
      7925.5000        10.4673         0.0264       115.6588          74.49       89.00606         0.7719        41.1157         2.2989         0.7502        -48.257        -5.2098              1      0.9389884
      7926.0000        10.4256         0.0306       117.2665        74.4648       88.95546         0.7617        40.3343          2.295         0.7227       -48.5583        -5.5118              1      0.9346116
      7926.5000        10.3818         0.0357       118.8395        74.3771       88.78232         0.7572        40.6784         2.2907          0.746       -48.3535        -5.3077              1      0.9375696
      7927.0000        10.3322         0.0441       120.3777         74.187       88.40858         0.7576         41.008         2.3125         0.7983       -48.8019        -5.7568              1      0.9310609
      7927.5000        10.3253         0.0547       121.5437         73.756       87.56229         0.7581        40.8026         2.3295         0.8625       -49.7368        -6.6925              1         0.9175
      7928.0000        10.3351         0.0718       120.9119        73.0352       86.14777         0.7557        40.3932         2.3419         0.9046       -52.1947        -9.1511              1      0.8818681
      7928.5000        10.3553         0.0814       115.6687        71.3923       82.92537         0.7444        40.3667         2.3651         0.8799       -56.2789        -13.236              1      0.8226666
      7929.0000        10.4405          0.062       110.1621        69.1714       78.56941         0.7193        40.3544         2.3527         0.8096       -57.8645       -14.8223      0.9695619      0.7996768
      7929.5000        10.6256          0.027       107.5529        67.5449       75.37896         0.6724        39.3008         2.3299         0.7643       -58.9852       -15.9437        0.90168      0.7834246
      7930.0000        10.9166         0.0171         106.38        66.9552       74.22169         0.6262        37.1205         2.3282         0.6934       -62.8036       -19.7629      0.8770572      0.7280739
      7930.5000        10.9009         0.0414        105.386        66.3397       73.01364         0.5757        35.0715         2.3521         0.6197       -76.4633       -33.4233      0.8513541      0.5300971
      7931.0000        10.9013         0.0319       106.0297        64.5137       69.43199         0.5271        35.2937          2.319         0.5697       -86.1766       -43.1373      0.7751487      0.3893145
      7931.5000        10.9711         0.0079       109.4514        62.1005       64.69898         0.4837        35.8627         2.2843         0.5313       -90.5659       -47.5273      0.6744464      0.3256913
      7932.0000        11.1081         0.0021       115.5295        57.4959       55.66922         0.4469        36.3753         2.2655         0.5268       -94.1235       -51.0856      0.4823239      0.2741217
      7932.5000        11.3832        -0.0013       120.5591        55.0872       50.94502           0.42        36.5721         2.1972         0.5472       -95.9835       -52.9464       0.381809      0.2471536
      7933.0000        12.2093        -0.0053       122.0649        53.8111       48.44166         0.3927        37.0475         2.1493          0.564       -98.2076       -55.1712       0.328546      0.2149101
      7933.5000        11.5094         -0.009       117.3833        53.1716       47.18674         0.3718        36.9941         2.1596         0.5332      -102.2721       -59.2364      0.3018456      0.1559942
      7934.0000        10.4358        -0.0109       112.0656        52.5202       45.90828         0.3554        36.1863         2.1928         0.4858      -103.9525       -60.9175      0.2746443      0.1316304
      7934.5000        10.3869        -0.0117       103.5521        51.5546       44.01374         0.3448        35.5838         2.1658         0.4671      -106.2825       -63.2482      0.2343348     0.09785219
      7935.0000        10.4178        -0.0108       102.0792        50.0139       40.99174         0.3387        35.2676         2.1385         0.4938      -107.9099       -64.8764       0.170037     0.07425502
      7935.5000        10.6093        -0.0028       104.2678          48.91       38.82601         0.3387        35.1708         2.1311         0.5332      -108.7501       -65.7173      0.1239577     0.06206811
      7936.0000        11.0593         0.0041       110.5796        48.2617       37.55363         0.3422        35.1317          2.125           0.59      -104.7767       -61.7446     0.09688576      0.1196435
      7936.5000        11.3275        -0.0062       111.5835        48.5944       38.20502         0.3447        35.1923         2.0737         0.6497      -103.1439       -60.1125      0.1107451      0.1432971
