#------------------------------------------------------------------------------
# Created by    : vladimir.rabinovich
# Created on    : 09/19/2023 17:21:14
#------------------------------------------------------------------------------
~Version Information Section
VERS.           2.0     :   CWLS log ASCII Standard - VERSION 2.0
WRAP.           NO      :   One line per depth step
~Well Information Section
#MNEM       .UNIT                                         VALUE :DESCRIPTION
#------------------------------------------------------------------------------
STRT        .FT                                            3520 :START DEPTH
STOP        .FT                                            8510 :STOP DEPTH
STEP        .FT                                             0.5 :STEP      
NULL        .                                           -999.25 :NULL      
COMP        .                      SPINNAKER EXPLORATION CO LLC :COMPANY   
WELL        .                               OCS G21537 ST00BP00 :WELL      
FLD         .                                           WILDCAT :FIELD     
LOC         .                                                   :LOCATION  
CNTY        .                                      WEST CAMERON :LOCATION  
STAT        .                                         LOUISIANA :STATE     
CTRY        .                                     UNITED STATES :COUNTRY   
SRVC        .                                                   :SERVICE COMPANY
DATE        .                             9/13/2023 11:18:49 AM :LOG DATE  
API         .                                    17700410830000 :API NUMBER
UWI         .                                    17700410830000 :UNIQUE WELL ID
XCOORD      .                                   1446389.6294369 :SURFACE X 
YCOORD      .                                  10699667.6074025 :SURFACE Y 
LAT         .                                        29.4810902 :LATITUDE  
LON         .                                       -93.6100108 :LONGITUDE 
ELEV        .FT                                              91 :ELEVATION VALUE
ELEV_TYPE   .                                                KB :ELEVATION REFERENCE TYPE
~Curve Information Section
#MNEM       .UNIT                                      API CODE :CURVE DESCRIPTION
#------------------------------------------------------------------------------
DEPT        .FT                                                 :DEPTH     
CAL         .IN                                                 :          
CNC         .%                                                  :          
GR          .GAPI                                               :          
GR_NORM     .GAPI                                               :GammaRay Normalized
M0C6        .MMHO                                               :          
M2R1        .OHMM                                               :          
M2R2        .OHMM                                               :          
M2R3        .OHMM                                               :          
M2R6        .OHMM                                               :          
M2R9        .OHMM                                               :          
M2RX        .OHMM                                               :          
PORZ        .%                                                  :          
SP          .MV                                                 :          
SP_NORM     .MV                                                 :SP Normalized
TEN         .LB/F                                               :          
VSH_GR      .V/V                                                :Volume of Shale from GR
VSH_SP      .V/V                                                :Volume of Shale from SP
ZCOR        .G/CC                                               :          
~A        DEPTH            CAL            CNC             GR        GR_NORM           M0C6           M2R1           M2R2           M2R3           M2R6           M2R9           M2RX           PORZ             SP        SP_NORM            TEN         VSH_GR         VSH_SP           ZCOR
# ...
      7160.0000         10.636         31.941         92.043        66.3579       2824.156          0.594          0.514          0.483          0.488          0.483          0.515          21.64         -20.29       -18.3852        615.007      0.7097426        0.74792          0.041
      7160.5000         10.639          31.81         93.305         67.619       2561.283          0.716          0.596          0.557          0.563          0.557            0.6         21.325        -18.453       -16.5482        634.283      0.7365745      0.7761815          0.015
      7161.0000         10.655         31.857         91.712        66.0251       2338.252          0.727          0.602          0.564          0.571          0.563          0.606         21.148        -18.124       -16.2192        620.479      0.7026617      0.7812431           0.01
      7161.5000         10.698         31.394         91.699        66.0111        2154.71          0.681          0.578          0.549          0.554          0.545          0.584         20.352        -17.173       -15.2682        588.917      0.7023638      0.7958738          0.021
      7162.0000         10.772         31.367         94.303        68.6142       2005.835          0.647          0.576          0.553          0.558          0.547          0.585         18.972        -14.888       -12.9832        581.325      0.7577488      0.8310277          0.037
      7162.5000         10.863         33.001          96.47        70.7803       1884.261           0.65          0.611          0.594          0.598          0.584          0.626         18.159        -11.923       -10.0182        598.576      0.8038361      0.8766431          0.042
      7163.0000         10.941         35.253         95.376        69.6853       1782.943          0.678          0.671           0.66          0.664          0.646          0.692         17.435         -9.967        -8.0622        603.842      0.7805384      0.9067354          0.037
      7163.5000         11.001         35.338         92.399        66.7074       1695.412          0.697          0.719          0.715          0.719          0.701          0.748         17.088         -9.254        -7.3492        589.569      0.7171786      0.9177046          0.031
      7164.0000         11.075          34.11         90.076        64.3834       1617.787          0.703           0.75          0.755          0.759          0.741          0.789         17.306         -8.488        -6.5832        577.407      0.6677319      0.9294893          0.025
      7164.5000         11.156          33.02         88.485        62.7915       1548.036          0.709          0.785          0.802          0.809          0.793           0.84         17.172         -7.295        -5.3902        573.167      0.6338617      0.9478431          0.023
      7165.0000         11.206          31.64         87.289        61.5946        1486.66          0.717           0.83          0.865          0.876          0.864          0.911         16.392         -6.446        -4.5412        571.301      0.6083958      0.9609046          0.023
      7165.5000         11.223         30.273         87.875        62.1796       1435.303          0.712          0.863           0.92          0.938           0.93          0.977          16.28         -6.283        -4.3782         572.79      0.6208426      0.9634123          0.027
      7166.0000         11.231         30.401         90.304        64.6077       1396.275          0.687          0.861           0.94          0.964          0.962          1.006         17.446         -6.487        -4.5822        572.036      0.6725042      0.9602739          0.035
      7166.5000          11.22         31.906         92.431        66.7338       1371.117          0.656          0.834          0.929          0.958          0.961          1.002         18.691         -6.606        -4.7012        562.046      0.7177405      0.9584431          0.043
      7167.0000         11.121         34.138         94.509        68.8108       1360.127          0.636          0.807           0.91          0.943          0.951          0.988         19.178         -6.346        -4.4412        553.472      0.7619319      0.9624431          0.044
      7167.5000         10.931          36.52         98.544        72.8449        1361.85          0.625          0.784          0.889          0.924          0.936          0.969         19.333         -5.709        -3.8042        564.741      0.8477639      0.9722431          0.043
      7168.0000         10.763         38.582        103.004         77.304       1373.878          0.608          0.754          0.857          0.893          0.909          0.938         19.709          -4.91        -3.0052        590.298      0.9426383      0.9845354          0.038
      7168.5000         10.694         39.342        105.669         79.968       1393.263           0.59          0.726          0.825           0.86          0.878          0.904          20.27          -4.25        -2.3452        594.743      0.9993192      0.9946892          0.032
      7169.0000         10.683         39.844        106.132        80.4301       1417.595          0.578           0.71          0.806          0.841          0.861          0.885         20.685         -3.993        -2.0882        563.858              1      0.9986431          0.028
      7169.5000         10.671         40.931        105.467        79.7642       1445.232           0.57          0.701          0.795           0.83          0.851          0.874         20.682         -4.011        -2.1062        547.086       0.994983      0.9983662           0.03
      7170.0000         10.631         42.627        104.663        78.9592       1475.758           0.56          0.688           0.78          0.814          0.836          0.858         20.362          -3.94        -2.0352        592.781      0.9778553      0.9994584          0.041
      7170.5000         10.561         42.883        105.452        79.7473       1509.765          0.547          0.672          0.761          0.794          0.816          0.837         20.074         -3.691        -1.7862        653.584      0.9946234              1           0.05
      7171.0000         10.463         41.438        106.181        80.4753       1548.663          0.537          0.658          0.744          0.775          0.796          0.817         20.152          -3.35        -1.4452        653.393              1              1          0.046
      7171.5000         10.331          41.33        105.156        79.4494       1594.299          0.526          0.641          0.724          0.751          0.772          0.792         20.662         -3.121        -1.2162        606.265      0.9882851              1          0.041
      7172.0000         10.194         43.671        103.229        77.5215       1648.802          0.513           0.62          0.696           0.72          0.738          0.757         21.507         -3.414        -1.5092        570.302      0.9472659              1           0.05
      7172.5000           10.1         45.894        102.358        76.6495       1714.249          0.498          0.595          0.663          0.681          0.697          0.715         22.526         -4.464        -2.5592        559.482      0.9287127      0.9913969          0.067
      7173.0000         10.059         44.612        102.808        77.0986       1792.413          0.488          0.572          0.629          0.641          0.655          0.672         23.304         -6.086        -4.1812        567.855      0.9382681      0.9664431           0.07
      7173.5000          10.06         41.594        101.958        76.2477       1884.379          0.487          0.556          0.601          0.608          0.619          0.634         23.572         -8.005        -6.1002        587.184      0.9201639        0.93692          0.057
