#------------------------------------------------------------------------------
# Created by    : vladimir.rabinovich
# Created on    : 09/19/2023 17:22:24
#------------------------------------------------------------------------------
~Version Information Section
VERS.           2.0     :   CWLS log ASCII Standard - VERSION 2.0
WRAP.           NO      :   One line per depth step
~Well Information Section
#MNEM       .UNIT                                         VALUE :DESCRIPTION
#------------------------------------------------------------------------------
STRT        .FT                                             955 :START DEPTH
STOP        .FT                                            8851 :STOP DEPTH
STEP        .FT                                             0.5 :STEP      
NULL        .                                           -999.25 :NULL      
COMP        .                                SHELL OFFSHORE INC :COMPANY   
WELL        .                               OCS G08627 ST00BP00 :WELL      
FLD         .                                           WILDCAT :FIELD     
LOC         .                                                   :LOCATION  
CNTY        .                                 WEST CAMERON WEST :LOCATION  
STAT        .                                         LOUISIANA :STATE     
CTRY        .                                     UNITED STATES :COUNTRY   
SRVC        .                                                   :SERVICE COMPANY
DATE        .                             9/13/2023 11:18:15 AM :LOG DATE  
API         .                                    17701402000000 :API NUMBER
UWI         .                                    17701402000000 :UNIQUE WELL ID
XCOORD      .                                  1405165.89752093 :SURFACE X 
YCOORD      .                                  10654404.2103889 :SURFACE Y 
LAT         .                                        29.3559214 :LATITUDE  
LON         .                                       -93.7387067 :LONGITUDE 
ELEV        .FT                                             100 :ELEVATION VALUE
ELEV_TYPE   .                                                KB :ELEVATION REFERENCE TYPE
~Curve Information Section
#MNEM       .UNIT                                      API CODE :CURVE DESCRIPTION
#------------------------------------------------------------------------------
DEPT        .FT                                                 :DEPTH     
CALX        .IN                                                 :          
DRHO        .G/C3                                               :          
DT          .US/F                                               :          
GR          .GAPI                                               :          
GR_NORM     .GAPI                                               :GammaRay Normalized
ILD         .OHMM                                               :          
ILM         .OHMM                                               :          
LL          .OHMM                                               :          
NPHI        .%                                                  :          
RHOB        .G/C3                                               :          
SP          .MV                                                 :          
SP_NORM     .MV                                                 :SP Normalized
VSH_GR      .V/V                                                :Volume of Shale from GR
VSH_SP      .V/V                                                :Volume of Shale from SP
~A        DEPTH           CALX           DRHO             DT             GR        GR_NORM            ILD            ILM             LL           NPHI           RHOB             SP        SP_NORM         VSH_GR         VSH_SP
# ...
      4123.0000        13.2971         0.0476       148.2317        85.9528       80.12065         0.8472         0.7659         0.6988        51.5167         2.0478       -81.2794      -1.178017              1      0.9919083
      4123.5000        13.0036         0.0457       143.7366        86.8628       81.10809         0.8368         0.7633         0.7066        51.5883         2.0559       -81.4614      -1.352386              1      0.9839824
      4124.0000          12.48         0.0437       139.3608         88.355       82.72832         0.8238         0.7606         0.7105        50.7729         2.0702       -81.5465      -1.429863              1      0.9804608
      4124.5000        12.4279         0.0434       136.5955        88.7542       83.16055         0.8208         0.7642         0.7091         50.868         2.0835       -81.6793      -1.555031              1      0.9747713
      4125.0000        12.4807          0.043       136.3677        88.8446       83.25746         0.8241         0.7623         0.7149        51.5525         2.0931       -81.8757      -1.743813              1      0.9661903
      4125.5000        12.6015          0.042       136.3608         89.332       83.78593         0.8272         0.7618         0.7239        52.2172         2.0983        -81.985       -1.84549              1      0.9615687
      4126.0000        12.8417         0.0392       136.6658        90.2544       84.78722         0.8271         0.7646           0.73        52.6091         2.0951       -81.7921      -1.644958              1      0.9706837
      4126.5000        12.6142         0.0352       138.0027        91.2635       85.88273         0.8252          0.769         0.7297        52.6478         2.0916       -81.3257      -1.170937              1      0.9922302
      4127.0000        12.3246         0.0372        139.571        91.9698       86.64912         0.8242         0.7721         0.7274        51.8246         2.0904       -81.1304     -0.9680099              1              1
      4127.5000        12.2814         0.0427        139.897        92.4265       87.14423         0.8249          0.775         0.7261        50.9798          2.092       -81.0031     -0.8330841              1              1
      4128.0000        12.1805         0.0474       139.8789        92.1686       86.86262          0.828         0.7767         0.7276        50.4471         2.0981       -80.6127     -0.4350662              1              1
      4128.5000        11.9962         0.0517       140.0107        91.4569       86.08777         0.8321          0.778         0.7328        50.1511         2.1031       -80.2753    -0.09003448              1              1
      4129.0000        12.1294         0.0558        140.252        93.2283       88.01184         0.8375         0.7797         0.7361           50.9         2.1071        -80.453     -0.2601166              1              1
      4129.5000        12.3385         0.0593       140.7078        95.6171       90.60698         0.8433         0.7812         0.7356        52.1833         2.1112       -80.2616    -0.06108093              1              1
      4130.0000        12.4675         0.0629       140.8423        97.0276       92.13879         0.8501          0.783         0.7351        53.3607         2.1157       -80.2587       -0.05056              1              1
      4130.5000        12.4886         0.0664       139.8792        95.0961       90.03811         0.8568         0.7896         0.7362        54.2111         2.1179         -80.96     -0.7442322              1              1
      4131.0000        12.4281         0.0632       138.3735        92.3889       87.09431         0.8622         0.7975         0.7415         54.736         2.1148       -80.1489     0.07448578              1              1
      4131.5000        12.5396         0.0582       136.9954        91.2054       85.80665         0.8728         0.8049         0.7515        52.3317         2.1127       -80.9979     -0.7668915              1              1
      4132.0000        12.8241          0.054       136.3669        91.1355       85.72938         0.8832         0.8132         0.7616        49.1492         2.1119       -81.3436      -1.104958              1      0.9952292
      4132.5000        12.6323         0.0502       135.7297        92.4169       87.12086         0.8948         0.8221         0.7712        48.4323         2.1118       -81.0804      -0.834137              1              1
      4133.0000        12.4529          0.047       134.8491         93.293       88.07182         0.9098         0.8318         0.7694        49.1232         2.1117       -81.5177      -1.263809              1      0.9880087
      4133.5000        12.5741         0.0435       133.6948        93.9725       88.80908          0.931         0.8431         0.7558        49.6446         2.1131       -81.9391      -1.677589              1      0.9692005
      4134.0000        12.8435         0.0401       132.4929        93.7108       88.52335         0.9568          0.859         0.7564        49.3267         2.1174       -81.5786      -1.309464              1      0.9859335
      4134.5000        13.1131         0.0381       130.3137        91.2089        85.8027         0.9826         0.8787         0.7698        48.2075         2.1315       -81.6442      -1.367439              1      0.9832982
      4135.0000        12.4935         0.0432       127.6855        87.5852       81.86273           1.01         0.8997         0.7871        46.9637         2.1527       -81.1572      -0.872818              1              1
      4135.5000         12.652         0.0477       126.0234        85.9226       80.05434         1.0344         0.9221          0.797        45.7528         2.1671       -81.0092      -0.717186              1              1
      4136.0000        13.3603         0.0505       125.1267        85.4766       79.56828         1.0552         0.9472         0.8073        44.6239         2.1762       -81.8855      -1.585861      0.9908144        0.97337
      4136.5000        13.0721          0.052       124.6774        86.6625       80.85596         1.0747         0.9752         0.8174        43.5464         2.1823       -82.2162      -1.908943              1      0.9586844
      4137.0000        12.8462         0.0532       125.0164        87.6785       81.95898         1.0863         0.9926         0.8271        42.0991         2.1867       -81.6825      -1.367615              1      0.9832903
      4137.5000        12.5714         0.0544       125.5745          88.23       82.55712         1.0952         0.9983         0.8362         40.798         2.1919       -81.5469      -1.224388              1      0.9898005
      4138.0000        11.9297         0.0561       126.5481        88.3147       82.64789         1.0962         0.9953         0.8507        39.4558         2.1954       -81.6515      -1.321358              1      0.9853928
      4138.5000        11.8091         0.0587       127.8728        88.6547       83.01615         1.0892         0.9959         0.8604        38.8255         2.1934       -81.3871      -1.049339              1      0.9977573
      4139.0000        11.9113         0.0623       128.7485        89.1528       83.55624         1.0819         0.9943         0.8429        39.9763         2.1792       -81.6808      -1.335411              1       0.984754
      4139.5000        12.1343         0.0668        127.879        88.8492       83.22496         1.0735          0.991         0.8195        42.2028         2.1588       -81.7997      -1.446686              1      0.9796961
      4140.0000        12.2945         0.0683       126.8457         87.421       81.67133         1.0664         0.9836         0.8082        47.1942         2.1175       -81.7306      -1.369965              1      0.9831834
      4140.5000        12.2083         0.0601       127.0963        85.6478       79.74271          1.055         0.9752         0.8236        47.9993         2.1103        -82.248      -1.879738      0.9945258      0.9600119
