#------------------------------------------------------------------------------
# Created by    : vladimir.rabinovich
# Created on    : 09/19/2023 17:22:04
#------------------------------------------------------------------------------
~Version Information Section
VERS.           2.0     :   CWLS log ASCII Standard - VERSION 2.0
WRAP.           NO      :   One line per depth step
~Well Information Section
#MNEM       .UNIT                                         VALUE :DESCRIPTION
#------------------------------------------------------------------------------
STRT        .FT                                            4308 :START DEPTH
STOP        .FT                                           11086 :STOP DEPTH
STEP        .FT                                             0.5 :STEP      
NULL        .                                           -999.25 :NULL      
COMP        .                                     GULF OIL CORP :COMPANY   
WELL        .                               OCS G01859 ST00BP00 :WELL      
FLD         .                           WEST CAMERON BLOCK 0045 :FIELD     
LOC         .                                                   :LOCATION  
CNTY        .                                      WEST CAMERON :LOCATION  
STAT        .                                         LOUISIANA :STATE     
CTRY        .                                     UNITED STATES :COUNTRY   
SRVC        .                                                   :SERVICE COMPANY
DATE        .                             9/13/2023 11:18:18 AM :LOG DATE  
API         .                                    17700402800000 :API NUMBER
UWI         .                                    17700402800000 :UNIQUE WELL ID
XCOORD      .                                  1464540.60646957 :SURFACE X 
YCOORD      .                                  10776790.0411311 :SURFACE Y 
LAT         .                                        29.6934919 :LATITUDE  
LON         .                                       -93.5541052 :LONGITUDE 
ELEV        .FT                                              79 :ELEVATION VALUE
ELEV_TYPE   .                                                KB :ELEVATION REFERENCE TYPE
~Curve Information Section
#MNEM       .UNIT                                      API CODE :CURVE DESCRIPTION
#------------------------------------------------------------------------------
DEPT        .FT                                                 :DEPTH     
CALI        .IN                                                 :          
DRHO        .G/C3                                               :          
DT          .US/F                                               :          
GR          .GAPI                                               :          
GR_NORM     .GAPI                                               :GammaRay Normalized
ILD         .OHMM                                               :          
NPHI        .%                                                  :          
RHOB        .G/C3                                               :          
SFLU        .OHMM                                               :          
SP          .MV                                                 :          
SP_NORM     .MV                                                 :SP Normalized
VSH_GR      .V/V                                                :Volume of Shale from GR
VSH_SP      .V/V                                                :Volume of Shale from SP
~A        DEPTH           CALI           DRHO             DT             GR        GR_NORM            ILD           NPHI           RHOB           SFLU             SP        SP_NORM         VSH_GR         VSH_SP
# ...
      5657.0000        12.2499        -0.0403       130.2583        62.1751       66.99989         0.3823        39.9513          2.121         0.5271       -70.2899       -26.1817      0.7234018      0.6065359
      5657.5000        12.2191        -0.0467       133.5369        61.0743       64.65253         0.3781        40.0797         2.1032         0.5136       -69.1681       -25.0559      0.6734582      0.6241266
      5658.0000         12.331        -0.0426       135.9502        60.0068       62.37615         0.3731        39.6555         2.0726         0.4921       -69.8666       -25.7504      0.6250244       0.613275
      5658.5000        12.7961        -0.0457       137.7009        58.9549       60.13324         0.3684        38.7631         2.0153         0.6372       -76.8346       -32.7144      0.5773029      0.5044625
      5659.0000         13.516        -0.0539       138.3206        59.1063       60.45461         0.3672        38.0661          1.992         0.8616       -84.9128       -40.7887      0.5841405      0.3783016
      5659.5000        13.1425         -0.046         132.52        60.5587       63.54877         0.3676        38.9108         2.0469           0.84       -89.6583       -45.5302      0.6499738      0.3042156
      5660.0000         12.352        -0.0358       123.0708        62.6878       68.08533          0.371         39.953         2.1168         0.5302       -91.5344       -47.4023      0.7464963       0.274964
      5660.5000        12.3121        -0.0248       119.0356        64.8315       72.65279         0.3751        39.9724         2.2056         0.4699       -88.8264       -44.6903      0.8436764      0.3173391
      5661.0000        12.3111        -0.0226       123.1998        65.8799       74.88591         0.3794        39.1009         2.2247         0.4915       -80.3593       -36.2192      0.8911896         0.4497
      5661.5000        12.4085        -0.0177       128.3435        66.7612        76.7629         0.3798        38.4836         2.2404         0.5635       -71.4197       -27.2757      0.9311256      0.5894422
      5662.0000        12.7144        -0.0026       131.7339        67.4681       78.26842         0.3897        38.3495         2.2568         0.6192       -67.6931       -23.5451      0.9631578      0.6477329
      5662.5000        12.1321          0.025       134.5762        68.0244       79.45275         0.4136         38.708          2.281         0.6784       -65.9727       -21.8207      0.9883564      0.6746765
      5663.0000        12.0726         0.0202       132.6614        68.4995       80.46403         0.4524        39.3394         2.2861          0.693       -64.1907       -20.0347              1      0.7025828
      5663.5000        12.0845         0.0134         130.04        68.9346       81.39027          0.502        39.3356         2.2835         0.6801       -61.9803       -17.8203              1      0.7371829
      5664.0000         12.166         0.0217       128.7119        69.3975       82.37555         0.5844        39.3128         2.2939         0.6701       -59.1129        -14.949              1      0.7820469
      5664.5000        12.2697         0.0356       127.5363        69.8041       83.24083         0.6235        39.2897         2.3014         0.6847       -53.1576        -8.9897              1      0.8751609
      5665.0000        12.3607         0.0324       126.3632        70.2263       84.13958         0.6644         41.863         2.2852         0.7211       -51.4593        -7.2874              1      0.9017594
      5665.5000        12.3843         0.0189       125.4021        70.7327       85.21756         0.7046         43.237         2.2697         0.7586       -50.1843        -6.0084              1      0.9217438
      5666.0000        12.2728          0.013       124.9005        71.5748       87.01099         0.7406        44.3993          2.257         0.7681        -49.811        -5.6311              1      0.9276391
      5666.5000        12.1642         0.0133       125.5535        72.5604        89.1105         0.7684        45.3703         2.2492         0.7512       -49.7497        -5.5659              1      0.9286578
      5667.0000        12.3727         0.0131       127.4396        72.9033       89.84002         0.7733        45.9104         2.2381         0.6816       -49.7548         -5.567              1      0.9286406
      5667.5000        12.1773         0.0115       129.1743        72.3949        88.7552         0.7641        46.5441         2.2279         0.6402       -49.9418          -5.75              1      0.9257813
      5668.0000        12.1493         0.0077       131.6792        71.7876       87.45963          0.745        47.1428         2.2195          0.616       -50.8784        -6.6826              1      0.9112093
      5668.5000        12.1242        -0.0002       133.3857        70.8745       85.51252         0.7166        47.8756         2.2085         0.6046       -52.4598          -8.26              1      0.8865625
      5669.0000        12.0675        -0.0112       135.4541        69.6644       82.93221           0.68        48.3267         2.1989         0.6347       -54.9458       -10.7421              1      0.8477797
      5669.5000        12.0045        -0.0203       138.6235        68.1028        79.6028         0.6274        48.1611         2.1728         0.6618       -57.5474       -13.3397      0.9915489      0.8071922
      5670.0000        12.3974         -0.018        139.917        66.5248       76.23862         0.5736        46.3182         2.1478         0.6824       -61.6038       -17.3921      0.9199706      0.7438734
      5670.5000        13.1582        -0.0123       139.4966        65.2335       73.48528         0.5359        44.2069         2.1472         0.6909       -71.7888       -27.5731       0.861389      0.5847954
      5671.0000        12.2918        -0.0082       137.0537        66.1194       75.37206         0.5078        41.2935         2.1543         0.6923       -78.4492       -34.2295      0.9015332      0.4807891
      5671.5000        12.0003        -0.0115       134.2314        66.6893       76.58557          0.483        40.0693         2.1569          0.678       -79.2369       -35.0133      0.9273526      0.4685422
      5672.0000        12.1092        -0.0148       130.1987        65.9802       75.07303         0.4565        42.8188         2.1226         0.5014       -74.5358       -30.3082      0.8951708      0.5420594
      5672.5000         12.574        -0.0159       128.2976        62.1019       66.80615         0.4334        42.4505         2.0791         0.4043       -67.5159       -23.2843      0.7192798      0.6518078
      5673.0000        13.4203        -0.0132       129.9036        59.2302       60.68478         0.4024        40.3109         2.0497         0.4149       -67.2181       -22.9825       0.589038      0.6565234
      5673.5000         14.038        -0.0094       133.2493        58.0223       58.10919         0.3782        38.9141         2.0269         0.5617       -75.0182       -30.7787       0.534238      0.5347078
      5674.0000        14.3589        -0.0047       133.2964        57.8632       57.76881         0.3546          39.71         2.0374         0.7243       -87.3889       -43.1454      0.5269959      0.3414781
      5674.5000        14.4812        -0.0098       128.6758        58.8542       59.87983         0.3318         41.541         2.0529         0.6655       -97.0867       -52.8392      0.5719112      0.1900125
      5675.0000        14.3921        -0.0244       122.2227         60.299       62.95776         0.3149        42.6671         2.0656         0.5314       -99.4773       -55.2258      0.6373993      0.1527219
      5675.5000        13.4849        -0.0381       117.0515        61.8266       66.21218         0.3038        42.4721         2.1001         0.4755      -100.1222       -55.8667      0.7066422      0.1427078
