#------------------------------------------------------------------------------
# Created by    : vladimir.rabinovich
# Created on    : 09/19/2023 17:21:58
#------------------------------------------------------------------------------
~Version Information Section
VERS.           2.0     :   CWLS log ASCII Standard - VERSION 2.0
WRAP.           NO      :   One line per depth step
~Well Information Section
#MNEM       .UNIT                                         VALUE :DESCRIPTION
#------------------------------------------------------------------------------
STRT        .FT                                            3382 :START DEPTH
STOP        .FT                                           10910 :STOP DEPTH
STEP        .FT                                             0.5 :STEP      
NULL        .                                           -999.25 :NULL      
COMP        .                               B P EXPLORATION INC :COMPANY   
WELL        .                               OCS G07597 ST00BP00 :WELL      
FLD         .                           WEST CAMERON BLOCK 0045 :FIELD     
LOC         .                                                   :LOCATION  
CNTY        .                                      WEST CAMERON :LOCATION  
STAT        .                                         LOUISIANA :STATE     
CTRY        .                                     UNITED STATES :COUNTRY   
SRVC        .                                                   :SERVICE COMPANY
DATE        .                             9/13/2023 11:18:09 AM :LOG DATE  
API         .                                    17700407640000 :API NUMBER
UWI         .                                    17700407640000 :UNIQUE WELL ID
XCOORD      .                                  1473636.79229916 :SURFACE X 
YCOORD      .                                   10762774.556795 :SURFACE Y 
LAT         .                                        29.6550545 :LATITUDE  
LON         .                                       -93.5252479 :LONGITUDE 
ELEV        .FT                                              90 :ELEVATION VALUE
ELEV_TYPE   .                                                KB :ELEVATION REFERENCE TYPE
~Curve Information Section
#MNEM       .UNIT                                      API CODE :CURVE DESCRIPTION
#------------------------------------------------------------------------------
DEPT        .FT                                                 :DEPTH     
CALI        .IN                                                 :          
DRHO        .G/C3                                               :          
DT          .US/F                                               :          
GR          .GAPI                                               :          
GR_1        .GAPI                                               :          
GR_NORM     .GAPI                                               :GammaRay Normalized
ILD         .OHMM                                               :          
ILM         .OHMM                                               :          
NPHI        .%                                                  :          
RHOB        .G/C3                                               :          
SFL         .OHMM                                               :          
SP          .MV                                                 :          
SP_NORM     .MV                                                 :SP Normalized
VSH_GR      .V/V                                                :Volume of Shale from GR
VSH_SP      .V/V                                                :Volume of Shale from SP
~A        DEPTH           CALI           DRHO             DT             GR           GR_1        GR_NORM            ILD            ILM           NPHI           RHOB            SFL             SP        SP_NORM         VSH_GR         VSH_SP
# ...
      4963.0000        12.6075        -0.0001       124.1962        53.0895        64.7368       82.00453         0.6081         0.6359        45.0275         2.3006         0.7386       -75.4817        -9.7506              1      0.9062417
      4963.5000        12.6268        -0.0016       126.1663          51.41        67.3668       78.99841         0.6024         0.6261        47.1529         2.2803         0.6942       -77.2284       -11.5004      0.9786896      0.8819389
      4964.0000        12.6547        -0.0075       127.0149        50.1933        69.9519       76.81861         0.5958         0.6197        48.9792         2.2272         0.6627       -79.2078       -13.4829      0.9323109      0.8544042
      4964.5000        12.6872        -0.0196       127.6235        49.7183        70.6259       84.64925         0.5885         0.6146        50.3527         2.2122         0.6408       -75.4366        -9.7148              1      0.9067389
      4965.0000        12.7235        -0.0366       128.3486        49.9379        72.3053       84.86896         0.5854         0.6107         51.373         2.1964           0.63        -66.288        -0.5693              1              1
      4965.5000        12.7425        -0.0465       128.9153        52.0344        71.0281       87.00311         0.5847         0.6094         51.463         2.1847          0.631       -65.7378        -0.0222              1              1
      4966.0000        12.7512        -0.0491       129.3193        57.0295        70.9817       92.09383         0.5826         0.6065        51.4094         2.1828         0.6426       -65.8033        -0.0908              1              1
      4966.5000        12.7435        -0.0408       129.6636        59.9833        73.0316       95.10252         0.5811          0.601        51.5073         2.1991         0.6636       -65.4612         0.2482              1              1
      4967.0000        12.7267        -0.0408       129.8513        59.4161        71.6387       94.51969         0.5786         0.5907        52.4853         2.1993         0.6804       -70.1503         -4.444              1      0.9799445
      4967.5000        12.7059        -0.0425       130.1519        57.3553        71.6134       92.41339         0.5706         0.5809        53.6399         2.1836         0.6727       -68.0516        -2.3484              1              1
      4968.0000        12.7016        -0.0458       130.9883        55.3365         71.212       84.56507         0.5553         0.5682        54.6326         2.1742         0.6396        -68.316        -2.6159              1              1
      4968.5000        12.6944        -0.0487       132.0276        54.4937        68.4434       83.35929         0.5352         0.5465         55.494         2.1702         0.6107       -68.0217        -2.3247              1              1
      4969.0000         12.686        -0.0457       132.8799        55.5759         68.656       84.89391         0.5169         0.5293        56.1807         2.1716         0.6157       -67.3677        -1.6738              1              1
      4969.5000        12.6471        -0.0464       133.0491        57.5231        68.6527       87.65996         0.5074         0.5225        55.8098         2.1751         0.6198       -76.2561       -10.5653              1      0.8949264
      4970.0000        12.5587        -0.0464       132.5361        58.5693        70.0774       89.14336         0.5102         0.5258        54.4889         2.1775         0.6043       -75.9253       -10.2376              1      0.8994778
      4970.5000        12.4751        -0.0418       128.8689        58.3469        70.5363       88.82076         0.5205         0.5365        52.7151          2.188          0.616       -78.9165       -13.2319              1      0.8578902
      4971.0000        12.3979        -0.0226       124.6477        57.6497         72.064       87.82224         0.5324         0.5571        51.7275         2.2193         0.6932        -81.962       -16.2805              1      0.8155486
      4971.5000        12.3262        -0.0107       122.4574        56.9944        73.8068       86.88338         0.5427         0.5734        50.3468           2.24          0.695       -82.6083       -16.9299              1      0.8065292
      4972.0000        12.2589        -0.0028       121.0682        56.2305        71.1682       85.78992         0.5528         0.5867        47.9479         2.2533         0.6572       -82.0928       -16.4175              1      0.8136458
      4972.5000        12.2197         0.0033       120.2528        55.1206        72.2992        84.2039          0.559          0.595        46.8707         2.2729          0.663       -86.1378       -20.4656              1      0.7574222
      4973.0000        12.1845         0.0015       119.7534        52.6588        70.0652       80.69333         0.5549         0.5962        46.1953         2.2803          0.789       -94.2302       -28.5611              1      0.6449847
      4973.5000        12.1578        -0.0101       119.5522         50.255        66.3529        77.2653          0.547         0.5931        45.5272         2.2543         0.8643       -93.9662       -28.3002       0.941815      0.6486083
      4974.0000        12.1391        -0.0204       119.5967        48.8896        64.0055       75.31556         0.5317         0.5858        44.8792         2.2496         0.8914       -88.4429         -22.78      0.9003311      0.7252778
      4974.5000        12.1298        -0.0303       120.0945        48.8964        62.2518       75.31924         0.5182         0.5696        44.8199         2.2524         0.7785       -90.6788        -25.019      0.9004095      0.6941805
      4975.0000        12.1093        -0.0338       121.2327        49.7978        60.9093       76.59651         0.5055         0.5564        45.2706         2.2519         0.6958       -92.3978       -26.7411      0.9275854      0.6702625
      4975.5000        12.0912        -0.0508       122.1659        49.7623        61.3073       76.53998         0.4905         0.5364        45.1741         2.2504         0.6616       -87.9839       -22.3303      0.9263825      0.7315236
      4976.0000        12.0783        -0.0489       121.4106        48.9723        63.1805       75.40938         0.4772         0.5157        45.7051         2.2469         0.6604       -83.4329       -17.7824      0.9023272      0.7946889
      4976.5000        12.0722        -0.0372       117.3979        48.5461         63.811       74.79665         0.4684         0.5044         45.599         2.2417         0.6835       -95.9307       -30.2833      0.8892905      0.6210653
      4977.0000        12.0695        -0.0278       114.2885          49.15        64.8684       75.65039         0.4607         0.4978        44.0881         2.2414         0.7092       -98.6528       -33.0085      0.9074551      0.5832153
      4977.5000        12.0706        -0.0261       114.2209        49.6707        67.6143        76.3858         0.4548          0.494        42.3325          2.241         0.7397       -99.5592        -33.918      0.9231022      0.5705833
      4978.0000        12.0719        -0.0219       115.4579        49.6343        67.8151       76.32802         0.4526         0.4956        41.7006         2.2512         0.7577      -103.6307       -37.9926      0.9218727      0.5139917
      4978.5000        12.0888        -0.0094       116.9268        48.7322        65.3851       75.03781         0.4575         0.5002        41.2905         2.2519         0.8115      -105.2662       -39.6312      0.8944215      0.4912333
      4979.0000        12.1318        -0.0013       118.1495        46.3877        63.1219       71.69421         0.4639         0.5077        41.1312         2.2449         0.8761       -105.377       -39.7451      0.8232812      0.4896514
      4979.5000        12.1959         0.0018       118.9429        42.5549        60.8514       66.23189         0.4705         0.5174        41.5266         2.2309         0.8942      -105.1139       -39.4851      0.7070615      0.4932625
