#------------------------------------------------------------------------------
# Created by    : vladimir.rabinovich
# Created on    : 09/19/2023 17:22:25
#------------------------------------------------------------------------------
~Version Information Section
VERS.           2.0     :   CWLS log ASCII Standard - VERSION 2.0
WRAP.           NO      :   One line per depth step
~Well Information Section
#MNEM       .UNIT                                         VALUE :DESCRIPTION
#------------------------------------------------------------------------------
STRT        .FT                                            2996 :START DEPTH
STOP        .FT                                            8909 :STOP DEPTH
STEP        .FT                                             0.5 :STEP      
NULL        .                                           -999.25 :NULL      
COMP        .                             PHILLIPS PETROLEUM CO :COMPANY   
WELL        .                                OCS 00299 ST00BP00 :WELL      
FLD         .                           WEST CAMERON BLOCK 0045 :FIELD     
LOC         .                                                   :LOCATION  
CNTY        .                                      WEST CAMERON :LOCATION  
STAT        .                                         LOUISIANA :STATE     
CTRY        .                                     UNITED STATES :COUNTRY   
SRVC        .                                                   :SERVICE COMPANY
DATE        .                             9/13/2023 11:18:09 AM :LOG DATE  
API         .                                    17700407290000 :API NUMBER
UWI         .                                    17700407290000 :UNIQUE WELL ID
XCOORD      .                                  1446390.31791034 :SURFACE X 
YCOORD      .                                  10761453.0604348 :SURFACE Y 
LAT         .                                        29.6510516 :LATITUDE  
LON         .                                       -93.6110308 :LONGITUDE 
ELEV        .FT                                              99 :ELEVATION VALUE
ELEV_TYPE   .                                                KB :ELEVATION REFERENCE TYPE
~Curve Information Section
#MNEM       .UNIT                                      API CODE :CURVE DESCRIPTION
#------------------------------------------------------------------------------
DEPT        .FT                                                 :DEPTH     
CALX        .IN                                                 :          
CDL         .%                                                  :          
CILD        .MMHO                                               :          
CNS         .%                                                  :          
DRHO        .G/C3                                               :          
GR_NORM     .GAPI                                               :GammaRay Normalized
RILD        .OHMM                                               :          
RILM        .OHMM                                               :          
RLL         .OHMM                                               :          
SP          .MV                                                 :          
SP_NORM     .MV                                                 :SP Normalized
TENS        .LB                                                 :          
VSH_GR      .V/V                                                :Volume of Shale from GR
VSH_SP      .V/V                                                :Volume of Shale from SP
~A        DEPTH           CALX            CDL           CILD            CNS           DRHO        GR_NORM           RILD           RILM            RLL             SP        SP_NORM           TENS         VSH_GR         VSH_SP
# ...
      8108.0000          11.28        19.4082           2736          36.96         0.0284       64.59499         0.3819            0.4          0.868           -3.8        -5.7048       2959.184      0.6722339         0.8068
      8108.5000        11.4571        18.8026           2464             33         0.0127       76.36764         0.4235          0.452          0.682        -1.1033        -3.0081       2938.775      0.9227157      0.9994214
      8109.0000        11.4924        18.8138       2236.735        28.9952         0.0167       74.33976         0.4702         0.5019         0.6961        -0.4032         -2.308       2938.775      0.8795694              1
      8109.5000        11.4067         19.006       2008.163        25.4899         0.0294       59.99921         0.5269         0.5623            0.8        -1.3171        -3.2219       2918.367      0.5744513        0.98415
      8110.0000        11.3219        19.6774       1812.245        25.1966         0.0373       46.75479         0.5891         0.6294         1.1401         -2.444        -4.3488       2938.775      0.2926551      0.9036571
      8110.5000          11.26        21.9849       1630.267         27.009         0.0461       41.70544         0.6801         0.6735         1.7056        -3.1538        -5.0586        2979.53      0.1852221      0.8529571
      8111.0000           11.3        25.6935       1561.134        31.2941          0.064       50.13306            0.7         0.6866          1.441        -2.5309        -4.4357       2979.424      0.3645331        0.89745
      8111.5000           11.9        28.7915       1508.963           36.3          0.084       63.60286            0.7         0.7063          1.088         0.5067        -1.3981       2979.318      0.6511247              1
      8112.0000          11.86        32.4118       1553.507        41.4118          0.093       77.62487         0.6671         0.7063         0.9159         2.7496         0.8448        2979.21      0.9494653              1
      8112.5000          11.42        34.8235           1568        45.5294          0.076       87.21851         0.6296         0.7063          0.832         4.2857         2.3809       2979.167              1              1
      8113.0000           11.2        33.5294           1600        46.5294         0.0382       90.66164         0.6176            0.7         0.7517              5         3.0952       2958.333              1              1
      8113.5000          11.06          29.94       1633.333        46.4706          0.002       90.16846         0.6176            0.7         0.6735         5.4082         3.5034       2958.333              1              1
      8114.0000             11             24           1650        41.3529        -0.0296       86.23099         0.6117         0.6866         0.6607         5.2041         3.2993       2958.333              1              1
      8114.5000        11.0429        19.0408       1666.667        35.5882        -0.0347       84.03078         0.5946         0.6671         0.6671         4.2857         2.3809       2958.333              1              1
      8115.0000        11.1076        18.4286           1750          28.08        -0.0204       80.39211         0.5785         0.6419            0.7         3.2653         1.3605       2958.333              1              1
      8115.5000        11.2333        19.1633       1816.667           23.1         -0.002       72.61438         0.5629         0.6296         0.7859          2.449         0.5442       2958.333      0.8428591              1
      8116.0000        11.2781        20.3265           1850           22.2         0.0127        62.8311         0.5477         0.6117         0.9322         1.7347        -0.1701       2958.333      0.6347042              1
      8116.5000          11.26        20.8776       1883.333        24.3673         0.0225       53.25853         0.5428         0.5946           1.51         0.5102        -1.3946       2958.333      0.4310326              1
      8117.0000          11.06        20.8776           1850        26.8776         0.0235       51.06731         0.5428         0.5785          2.153           -0.4        -2.3048       2958.333      0.3844109              1
      8117.5000             11        20.5714       1783.333          28.74         0.0206       53.01022         0.5629         0.5838         1.3495           -0.7        -2.6048       2958.333      0.4257493              1
      8118.0000        10.9804        20.5714       1716.667          29.22         0.0157       56.20732         0.5838         0.5892         0.8653           -0.1        -2.0048       2958.333      0.4937729              1
      8118.5000        10.9635          22.02       1649.841          28.62         0.0077       57.71748         0.6117         0.6117          0.832         0.6256        -1.2792        2976.14      0.5259038              1
      8119.0000        10.9878        24.3673       1633.056          28.56        -0.0004       57.77488         0.6236         0.6296          0.924         0.4453        -1.4595       2991.744      0.5271251              1
      8119.5000        10.9735        26.3265       1649.329          28.98         0.0003       58.82806         0.6117         0.6419         1.0094        -0.3391        -2.2439       2966.118      0.5495332              1
      8120.0000        10.9582          27.36       1681.791           29.4        -0.0009       59.86965         0.5838         0.6296         1.0094         -1.842        -3.7468       2981.614      0.5716947      0.9466571
      8120.5000          10.92        26.9388       1779.592        30.4706          0.004       59.64586         0.5578         0.5733         1.0189        -2.9592         -4.864       2959.184      0.5669332      0.8668572
      8121.0000          10.88        26.3878       1926.531        32.1176         0.0079       59.15266         0.5281         0.5281         1.0285        -3.8776        -5.7824       2959.184      0.5564396      0.8012571
      8121.5000          10.86          27.12        2024.49             34         0.0089        61.3657         0.4817         0.4862         0.9322        -4.2857        -6.1905       2959.184      0.6035255      0.7721072
      8122.0000          10.82          28.44       2285.714        34.4706         0.0049       64.80404          0.439         0.4472         0.8402        -3.9796        -5.8844       2959.184      0.6766817      0.7939714
      8122.5000          10.84          29.76           2496        34.1176          0.001       66.49122          0.389         0.4113         0.7254        -4.0816        -5.9864       2959.184      0.7125791      0.7866857
      8123.0000          10.86        30.2353           2848        32.8824         -0.003       64.80174          0.348         0.3783         0.7584           -5.3        -7.2048       2959.184      0.6766328      0.6996571
      8123.5000          10.86        30.4706           3184        31.6471         -0.007       60.62304         0.3172         0.3513         0.8159           -7.5        -9.4048       2938.775      0.5877241      0.5425143
      8124.0000          10.86        30.7647       3592.157             31         -0.007       56.19353         0.2835         0.3322         0.9159             -9       -10.9048       2938.775      0.4934795      0.4353714
      8124.5000        10.8573        30.5294       4016.326        30.8235         -0.004       50.50046         0.2484         0.3085         1.0578           -9.9       -11.8048       2938.775      0.3723502      0.3710857
      8125.0000        10.8316        30.1176       4522.449        31.2353         -0.003       49.93753         0.2304         0.2916         1.0778       -10.3061       -12.2109       2938.775       0.360373      0.3420785
      8125.5000        10.8268        30.2353       4816.327        31.8235         -0.001        50.1236         0.2116          0.273         1.0094       -10.9184       -12.8232       2938.775      0.3643318      0.2983429
