#------------------------------------------------------------------------------
# Created by    : vladimir.rabinovich
# Created on    : 09/19/2023 17:21:57
#------------------------------------------------------------------------------
~Version Information Section
VERS.           2.0     :   CWLS log ASCII Standard - VERSION 2.0
WRAP.           NO      :   One line per depth step
~Well Information Section
#MNEM       .UNIT                                         VALUE :DESCRIPTION
#------------------------------------------------------------------------------
STRT        .FT                                             570 :START DEPTH
STOP        .FT                                           10083 :STOP DEPTH
STEP        .FT                                             0.5 :STEP      
NULL        .                                           -999.25 :NULL      
COMP        .                                BP EXPLORATION INC :COMPANY   
WELL        .                               OCS G10548 ST00BP00 :WELL      
FLD         .                                           WILDCAT :FIELD     
LOC         .                                                   :LOCATION  
CNTY        .                                      WEST CAMERON :LOCATION  
STAT        .                                         LOUISIANA :STATE     
CTRY        .                                     UNITED STATES :COUNTRY   
SRVC        .                                                   :SERVICE COMPANY
DATE        .                             9/13/2023 11:18:09 AM :LOG DATE  
API         .                                    17700408010000 :API NUMBER
UWI         .                                    17700408010000 :UNIQUE WELL ID
XCOORD      .                                  1469734.01149431 :SURFACE X 
YCOORD      .                                  10675810.5973196 :SURFACE Y 
LAT         .                                        29.4157778 :LATITUDE  
LON         .                                        -93.536275 :LONGITUDE 
ELEV        .FT                                              80 :ELEVATION VALUE
ELEV_TYPE   .                                                KB :ELEVATION REFERENCE TYPE
~Curve Information Section
#MNEM       .UNIT                                      API CODE :CURVE DESCRIPTION
#------------------------------------------------------------------------------
DEPT        .FT                                                 :DEPTH     
CALI        .IN                                                 :          
DPHI        .%                                                  :          
GR          .GAPI                                               :          
GR_1        .GAPI                                               :          
GR_NORM     .GAPI                                               :GammaRay Normalized
ILD         .OHMM                                               :          
ILM         .OHMM                                               :          
NPHI        .%                                                  :          
SFL         .OHMM                                               :          
SP          .MV                                                 :          
SP_NORM     .MV                                                 :SP Normalized
VSH_GR      .V/V                                                :Volume of Shale from GR
VSH_SP      .V/V                                                :Volume of Shale from SP
~A        DEPTH           CALI           DPHI             GR           GR_1        GR_NORM            ILD            ILM           NPHI            SFL             SP        SP_NORM         VSH_GR         VSH_SP
# ...
      8170.0000        11.9262        20.0656        -999.25        82.0394         81.515         0.9707         0.9872        36.2508         0.9277       -53.4796        -2.0411              1      0.9988583
      8170.5000        11.9639         20.211        -999.25        81.3436        80.8149         0.9735         0.9832        34.6852         0.9361       -53.5957        -2.1605              1      0.9955417
      8171.0000        11.9888        20.0269        -999.25        81.1022        80.5692         0.9779         0.9809        33.2001         0.9558       -53.8587        -2.4268              1      0.9881445
      8171.5000        12.0106        20.3459        -999.25        80.3323         79.795         0.9809         0.9787        34.0128          0.976       -54.2728        -2.8442      0.9956383        0.97655
      8172.0000         12.024        21.5268        -999.25         79.188        78.6464         0.9821         0.9783        35.3472         0.9921       -54.6962         -3.272         0.9712      0.9646667
      8172.5000        12.0602         22.751        -999.25        79.3405        78.7946         0.9808         0.9779        36.7205         0.9974       -54.9734        -3.5537      0.9743532      0.9568416
      8173.0000        12.1074        24.1123        -999.25        80.4562        79.9059         0.9726         0.9638        37.5763         0.9868       -55.0202        -3.6051      0.9979979      0.9554139
      8173.5000        12.1739        23.7529        -999.25        81.1431        80.5885         0.9593         0.9455        37.6295         0.9452       -54.9149        -3.5043              1      0.9582139
      8174.0000         12.217        22.5482        -999.25        80.1078        79.5489         0.9387         0.9236        37.0813         0.9155       -54.8094        -3.4033       0.990402      0.9610195
      8174.5000        12.2913        22.7719        -999.25        79.6776        79.1144         0.9136         0.9032        37.4496         0.8885       -54.6326         -3.231      0.9811575      0.9658055
      8175.0000        12.4642        24.8921        -999.25        80.1512        79.5837         0.8899         0.8853        39.1225         0.8663       -54.4104        -3.0133      0.9911426      0.9718528
      8175.5000         12.854        26.5948        -999.25         80.879        80.3071         0.8703         0.8712         40.876         0.8482       -54.2009        -2.8083              1      0.9775472
      8176.0000        13.3518        28.4057        -999.25        80.4742         79.898         0.8629         0.8639         42.355         0.8339       -54.0103        -2.6222      0.9978299      0.9827167
      8176.5000        13.8492        27.5432        -999.25        80.4705          79.89          0.864         0.8618        42.4132         0.8206       -53.8193        -2.4357      0.9976596      0.9878972
      8177.0000        14.1974        26.5561        -999.25        80.8938         80.309         0.8692         0.8619        41.5901         0.8193       -53.6253        -2.2463              1      0.9931583
      8177.5000        14.0342        25.7509        -999.25        81.3098        80.7207         0.8719         0.8632        40.7448         0.8179       -53.4316        -2.0571              1      0.9984139
      8178.0000        13.6028         25.112        -999.25        80.4376        79.8442         0.8746         0.8644        39.5698         0.8181       -53.2701        -1.9001      0.9966851              1
      8178.5000        13.3077        24.7885        -999.25        79.1743        78.5765          0.873         0.8656         38.963         0.8202       -53.1224        -1.7569      0.9697128              1
      8179.0000        13.0464        24.9554        -999.25        77.8774        77.2753         0.8707         0.8648        39.2783         0.8224       -53.1026        -1.7416      0.9420276              1
      8179.5000        12.7761        25.4706        -999.25        78.2296        77.6232         0.8684         0.8638        39.8695         0.8224       -53.1603        -1.8038      0.9494298              1
      8180.0000        12.6517        25.7422        -999.25         81.686        81.0753         0.8659         0.8636        40.7358         0.8221       -53.0715        -1.7195              1              1
      8180.5000         12.756         25.326        -999.25        85.3533        84.7383         0.8635          0.864        40.9177         0.8195        -52.929        -1.5815              1              1
      8181.0000        12.9092        24.7445        -999.25        83.9647        83.3453         0.8625          0.864        40.5278         0.8122       -52.7231        -1.3802              1              1
      8181.5000        12.9063        24.1615        -999.25        82.8639        82.2402         0.8624         0.8628        40.0947          0.805       -52.5521        -1.2137              1              1
      8182.0000        12.7679        23.6851        -999.25        82.4188        81.7908         0.8622         0.8618        39.9717          0.802       -52.4605        -1.1266              1              1
      8182.5000        12.6308        23.2661        -999.25         82.937        82.3047         0.8626         0.8612        40.5558         0.7991       -52.4547        -1.1253              1              1
      8183.0000        12.5243        22.7867        -999.25        83.6523        83.0157         0.8635         0.8609        40.8279         0.8008       -53.2097        -1.8848              1              1
      8183.5000        12.5031        22.2507        -999.25        83.7045        83.0636         0.8643         0.8607        39.7458         0.8042       -54.1792        -2.8588              1      0.9761444
      8184.0000        12.7342        21.6797        -999.25        80.3273         79.682         0.8652         0.8606        37.8522         0.8028       -55.3027        -3.9868       0.993234      0.9448111
      8184.5000        12.9883        21.0728        -999.25        75.6658        75.0162         0.8661         0.8615        36.5356         0.8008       -55.5901        -4.2787      0.8939617      0.9367028
      8185.0000        13.1941        20.3757        -999.25         72.472        71.8181          0.867         0.8634        37.2639         0.8003       -56.5881        -5.2813       0.825917      0.9088528
      8185.5000        12.7796        19.7174        -999.25        68.9015        68.2433         0.8678         0.8654         37.993         0.8065       -59.1495        -7.8472      0.7498575      0.8375778
      8186.0000        12.3724          21.16        -999.25        64.7607        64.0982         0.8677         0.8686        36.5072         0.8277       -63.7565       -12.4587      0.6616638      0.7094805
      8186.5000        11.7436        22.3976        -999.25        59.2686        58.6018         0.8675         0.8733        32.8572         0.9032       -66.4071       -15.1138      0.5447191      0.6357278
      8187.0000        11.3419        23.0288        -999.25        64.1755        63.5043         0.8673         0.8754         28.563         0.9623       -67.5911       -16.3023      0.6490276      0.6027139
      8187.5000        11.2486        23.1017        -999.25          73.34        72.6645          0.867         0.8758        25.8642         0.9161       -67.6239       -16.3396      0.8439255      0.6016778
      8188.0000        11.2272        23.4547        -999.25        82.7026        82.0228         0.8666         0.8759        28.2231         0.8798       -67.1218        -15.842              1         0.6155
      8188.5000        11.3444        24.9338        -999.25        87.5266        86.8425         0.8622         0.8698        31.9208         0.8475       -66.0104       -14.7351              1      0.6462472
