#------------------------------------------------------------------------------
# Created by    : vladimir.rabinovich
# Created on    : 09/19/2023 17:20:47
#------------------------------------------------------------------------------
~Version Information Section
VERS.           2.0     :   CWLS log ASCII Standard - VERSION 2.0
WRAP.           NO      :   One line per depth step
~Well Information Section
#MNEM       .UNIT                                         VALUE :DESCRIPTION
#------------------------------------------------------------------------------
STRT        .FT                                             612 :START DEPTH
STOP        .FT                                            9868 :STOP DEPTH
STEP        .FT                                             0.5 :STEP      
NULL        .                                           -999.25 :NULL      
COMP        .                                      SHELL OIL CO :COMPANY   
WELL        .                               OCS G00950 ST00BP00 :WELL      
FLD         .                                           WILDCAT :FIELD     
LOC         .                                                   :LOCATION  
CNTY        .                                      EAST CAMERON :LOCATION  
STAT        .                                         LOUISIANA :STATE     
CTRY        .                                     UNITED STATES :COUNTRY   
SRVC        .                                                   :SERVICE COMPANY
DATE        .                             9/13/2023 11:18:15 AM :LOG DATE  
API         .                                    17703002450000 :API NUMBER
UWI         .                                    17703002450000 :UNIQUE WELL ID
XCOORD      .                                  1691932.89207312 :SURFACE X 
YCOORD      .                                   10460306.475122 :SURFACE Y 
LAT         .                                        28.8238717 :LATITUDE  
LON         .                                       -92.8390619 :LONGITUDE 
ELEV        .FT                                              75 :ELEVATION VALUE
ELEV_TYPE   .                                                KB :ELEVATION REFERENCE TYPE
~Curve Information Section
#MNEM       .UNIT                                      API CODE :CURVE DESCRIPTION
#------------------------------------------------------------------------------
DEPT        .FT                                                 :DEPTH     
ASN         .OHMM                                               :          
GR          .GAPI                                               :          
GR_NORM     .GAPI                                               :GammaRay Normalized
ILD         .OHMM                                               :          
SP          .MV                                                 :          
SP_NORM     .MV                                                 :SP Normalized
VSH_GR      .V/V                                                :Volume of Shale from GR
VSH_SP      .V/V                                                :Volume of Shale from SP
~A        DEPTH            ASN             GR        GR_NORM            ILD             SP        SP_NORM         VSH_GR         VSH_SP
# ...
      7397.0000         1.2553        -999.25        -999.25         0.5854       -94.6775       -61.7968        -999.25      0.1171886
      7397.5000         1.1123        -999.25        -999.25          0.591       -94.9611       -62.0835        -999.25      0.1130929
      7398.0000         1.0459        -999.25        -999.25         0.5829       -91.2874       -58.4129        -999.25        0.16553
      7398.5000         1.0175        -999.25        -999.25         0.5663       -87.6135       -54.7421        -999.25        0.21797
      7399.0000         1.0033        -999.25        -999.25           0.54       -80.0991       -47.2308        -999.25      0.3252743
      7399.5000         1.0049        -999.25        -999.25         0.5139       -68.2576       -35.3924        -999.25      0.4943943
      7400.0000         1.0056        -999.25        -999.25         0.4879       -63.4346       -30.5726        -999.25      0.5632486
      7400.5000         0.9822        -999.25        -999.25         0.4564       -60.9003       -28.0414        -999.25      0.5994086
      7401.0000         0.9194        -999.25        -999.25         0.4239       -61.6763       -28.8205        -999.25      0.5882786
      7401.5000         0.8388        -999.25        -999.25         0.3906       -66.2488       -33.3961        -999.25      0.5229129
      7402.0000         0.8059        -999.25        -999.25         0.3582        -76.553       -43.7034        -999.25      0.3756657
      7402.5000         0.7757        -999.25        -999.25         0.3272        -80.433       -47.5865        -999.25      0.3201929
      7403.0000         0.7445        -999.25        -999.25         0.2971       -85.0596       -52.2162        -999.25      0.2540542
      7403.5000         0.7113        -999.25        -999.25         0.2685       -90.2167       -57.3764        -999.25      0.1803371
      7404.0000         0.6752        -999.25        -999.25         0.2415       -92.9818       -60.1447        -999.25        0.14079
      7404.5000         0.6429        -999.25        -999.25         0.2186       -94.7365       -61.9025        -999.25      0.1156786
      7405.0000         0.6114        -999.25        -999.25          0.202       -95.5879        -62.757        -999.25      0.1034714
      7405.5000         0.5839        -999.25        -999.25         0.1891       -95.3516       -62.5238        -999.25      0.1068029
      7406.0000         0.5585        -999.25        -999.25         0.1878       -94.6646       -61.8399        -999.25      0.1165728
      7406.5000         0.5355        -999.25        -999.25         0.1871       -94.2969       -61.4753        -999.25      0.1217814
      7407.0000         0.5212        -999.25        -999.25         0.1908         -93.91       -61.0916        -999.25      0.1272629
      7407.5000         0.5181        -999.25        -999.25         0.2002       -93.4583        -60.643        -999.25      0.1336714
      7408.0000         0.5349        -999.25        -999.25         0.2217       -89.0477       -56.2355        -999.25      0.1966357
      7408.5000         0.5557        -999.25        -999.25         0.2575       -83.4683       -50.6592        -999.25      0.2762972
      7409.0000         0.5814        -999.25        -999.25         0.3222       -74.9716       -42.1656        -999.25      0.3976343
      7409.5000          0.635        -999.25        -999.25         0.4091       -63.4788       -30.6759        -999.25      0.5617729
      7410.0000         0.8007        -999.25        -999.25         0.5125       -56.3768        -23.577        -999.25      0.6631857
      7410.5000         0.9105        -999.25        -999.25         0.5985       -51.6618       -18.8651        -999.25      0.7304986
      7411.0000         0.9214        -999.25        -999.25          0.596       -51.7908       -18.9973        -999.25        0.72861
      7411.5000         0.9156        -999.25        -999.25         0.5485       -53.2703       -20.4799        -999.25        0.70743
      7412.0000         0.9022        -999.25        -999.25          0.507       -57.8699       -25.0826        -999.25      0.6416771
      7412.5000         0.9012        -999.25        -999.25         0.4778       -65.0652        -32.281        -999.25      0.5388429
      7413.0000         0.9193        -999.25        -999.25         0.4686       -68.7291        -35.948        -999.25      0.4864571
      7413.5000         0.9278        -999.25        -999.25         0.4916       -68.2675       -35.4895        -999.25      0.4930072
      7414.0000         0.9254        -999.25        -999.25         0.5168       -62.3983       -29.6234        -999.25      0.5768086
      7414.5000         0.9158        -999.25        -999.25         0.5409       -55.5959       -22.8242        -999.25        0.67394
      7415.0000         0.8864        -999.25        -999.25         0.5602       -49.8544       -17.0858        -999.25      0.7559171
      7415.5000         0.8711        -999.25        -999.25         0.5633       -46.5416       -13.7761        -999.25      0.8031986
      7416.0000         0.8532        -999.25        -999.25         0.4789       -45.2156       -12.4532        -999.25      0.8220971
      7416.5000         0.7927        -999.25        -999.25         0.4265       -47.2857       -14.5264        -999.25        0.79248
      7417.0000         0.7394        -999.25        -999.25         0.3934       -52.6932        -19.937        -999.25      0.7151857
      7417.5000         0.7244        -999.25        -999.25         0.3704       -60.2765       -27.5234        -999.25      0.6068086
      7418.0000         0.7318        -999.25        -999.25         0.3501       -69.5493       -36.7994        -999.25      0.4742943
      7418.5000         0.7348        -999.25        -999.25         0.3328       -76.8083       -44.0615        -999.25        0.37055
      7419.0000         0.7397        -999.25        -999.25         0.3155       -79.4545       -46.7108        -999.25      0.3327028
      7419.5000         0.7423        -999.25        -999.25         0.2993       -79.8721       -47.1315        -999.25      0.3266928
      7420.0000         0.7222        -999.25        -999.25         0.2833       -79.9171       -47.1796        -999.25      0.3260057
      7420.5000         0.6705        -999.25        -999.25          0.269       -80.0527       -47.3183        -999.25      0.3240243
      7421.0000          0.624        -999.25        -999.25         0.2572       -82.8102       -50.0789        -999.25      0.2845871
      7421.5000         0.5989        -999.25        -999.25         0.2455       -87.1372       -54.4091        -999.25      0.2227271
      7422.0000         0.6053        -999.25        -999.25         0.2441       -87.6111       -54.8861        -999.25      0.2159128
      7422.5000         0.6306        -999.25        -999.25         0.2435       -85.0989        -52.377        -999.25      0.2517571
      7423.0000         0.6613        -999.25        -999.25         0.2447       -82.1938        -49.475        -999.25      0.2932143
      7423.5000         0.6915        -999.25        -999.25         0.2639       -79.9542       -47.2385        -999.25      0.3251643
      7424.0000         0.7206        -999.25        -999.25         0.2892       -79.0283       -46.3157        -999.25      0.3383471
      7424.5000         0.7414        -999.25        -999.25         0.3222       -77.6335        -44.924        -999.25      0.3582286
      7425.0000         0.7632        -999.25        -999.25          0.355       -73.9204       -41.2141        -999.25      0.4112271
      7425.5000         0.7829        -999.25        -999.25         0.3874       -69.9717       -37.2685        -999.25      0.4675928
      7426.0000         0.7969        -999.25        -999.25         0.4197       -66.4747       -33.7746        -999.25      0.5175057
