#------------------------------------------------------------------------------
# Created by    : vladimir.rabinovich
# Created on    : 09/19/2023 17:22:32
#------------------------------------------------------------------------------
~Version Information Section
VERS.           2.0     :   CWLS log ASCII Standard - VERSION 2.0
WRAP.           NO      :   One line per depth step
~Well Information Section
#MNEM       .UNIT                                         VALUE :DESCRIPTION
#------------------------------------------------------------------------------
STRT        .FT                                            2450 :START DEPTH
STOP        .FT                                            9560 :STOP DEPTH
STEP        .FT                                             0.5 :STEP      
NULL        .                                           -999.25 :NULL      
COMP        .                               TALOS PETROLEUM LLC :COMPANY   
WELL        .                                OCS 00301 ST00BP00 :WELL      
FLD         .                           WEST CAMERON BLOCK 0045 :FIELD     
LOC         .                                                   :LOCATION  
CNTY        .                                      WEST CAMERON :LOCATION  
STAT        .                                         LOUISIANA :STATE     
CTRY        .                                     UNITED STATES :COUNTRY   
SRVC        .                                                   :SERVICE COMPANY
DATE        .                             9/13/2023 11:18:49 AM :LOG DATE  
API         .                                    17700410870000 :API NUMBER
UWI         .                                    17700410870000 :UNIQUE WELL ID
XCOORD      .                                  1447194.98921956 :SURFACE X 
YCOORD      .                                  10757079.9124673 :SURFACE Y 
LAT         .                                        29.6390336 :LATITUDE  
LON         .                                       -93.6084245 :LONGITUDE 
ELEV        .FT                                              96 :ELEVATION VALUE
ELEV_TYPE   .                                                KB :ELEVATION REFERENCE TYPE
~Curve Information Section
#MNEM       .UNIT                                      API CODE :CURVE DESCRIPTION
#------------------------------------------------------------------------------
DEPT        .FT                                                 :DEPTH     
CNC         .%                                                  :          
DCAL        .IN                                                 :          
GR          .GAPI                                               :          
GR_NORM     .GAPI                                               :GammaRay Normalized
M0C6        .MMHO                                               :          
M2R1        .OHMM                                               :          
M2R2        .OHMM                                               :          
M2R3        .OHMM                                               :          
M2R6        .OHMM                                               :          
M2R9        .OHMM                                               :          
M2RX        .OHMM                                               :          
SP          .MV                                                 :          
SP_NORM     .MV                                                 :SP Normalized
TEN         .LB/F                                               :          
VSH_GR      .V/V                                                :Volume of Shale from GR
VSH_SP      .V/V                                                :Volume of Shale from SP
ZCOR        .G/CC                                               :          
ZDEN        .G/CC                                               :          
~A        DEPTH            CNC           DCAL             GR        GR_NORM           M0C6           M2R1           M2R2           M2R3           M2R6           M2R9           M2RX             SP        SP_NORM            TEN         VSH_GR         VSH_SP           ZCOR           ZDEN
# ...
      5754.0000        -999.25          1.013         51.276         50.113        4280.56          0.312          0.236          0.218          0.212          0.208          0.206        -67.527        -61.302        -74.581      0.3641064     0.05869844        -999.25        -999.25
      5754.5000        -999.25          1.034         51.254       50.07555       4283.494          0.301          0.229          0.212          0.207          0.204          0.201         -68.11       -61.8828        -80.135      0.3633096     0.04947935        -999.25        -999.25
      5755.0000        -999.25          1.047         49.355       47.86853        4247.94          0.295          0.226           0.21          0.205          0.202          0.199        -68.326       -62.0967        -85.031      0.3163516     0.04608415        -999.25        -999.25
      5755.5000        -999.25          1.051         50.256        48.8979       4176.099          0.299          0.229          0.213           0.21          0.206          0.203        -68.283       -62.0515        -71.082      0.3382531     0.04680161        -999.25        -999.25
      5756.0000        -999.25          1.064         53.572       52.71855       4073.668          0.317          0.241          0.225          0.222          0.218          0.215        -67.988       -61.7543          -45.2      0.4195437     0.05151906        -999.25        -999.25
      5756.5000        -999.25           1.09         54.835       54.16632       3949.977          0.348          0.262          0.244          0.242          0.238          0.234        -67.403       -61.1672        -39.391      0.4503472     0.06083813        -999.25        -999.25
      5757.0000        -999.25            1.1         54.102       53.30709       3817.087          0.381          0.285          0.266          0.264          0.259          0.254        -66.609        -60.371        -66.662      0.4320657     0.07347622        -999.25        -999.25
      5757.5000        -999.25           1.08         53.528       52.63152       3688.078          0.403          0.304          0.286          0.283          0.279          0.273        -65.244       -59.0038        -93.927      0.4176918     0.09517778        -999.25        -999.25
      5758.0000        -999.25          1.041         54.167       53.35806       3575.385          0.417           0.32          0.303          0.301          0.296          0.289        -62.801       -56.5586        -92.867      0.4331502      0.1339905        -999.25        -999.25
      5758.5000        -999.25          0.992          57.83       57.57978       3488.446          0.429          0.334           0.32          0.318          0.313          0.305         -59.58       -53.3355        -79.432      0.5229741      0.1851508        -999.25        -999.25
      5759.0000        -999.25          0.939         62.637       63.12376       3432.734           0.44          0.347          0.334          0.332          0.327          0.318        -56.944       -50.6973        -75.456      0.6409311       0.227027        -999.25        -999.25
      5759.5000        -999.25          0.892         62.197       62.60307       3408.675          0.435          0.346          0.336          0.333          0.329          0.319        -56.785       -50.5361        -68.393      0.6298525      0.2295857        -999.25        -999.25
      5760.0000        -999.25          0.857         56.351       55.83416       3413.252          0.405          0.326          0.318          0.316          0.312          0.303        -59.529        -53.278        -55.151      0.4858332      0.1860635        -999.25        -999.25
      5760.5000        -999.25          0.824         52.747       51.65659       3439.901          0.372          0.302          0.295          0.293          0.291          0.282        -62.819       -56.5658        -52.784      0.3969487      0.1338762        -999.25        -999.25
      5761.0000        -999.25          0.798         54.395       53.54935       3481.898          0.359          0.291          0.284          0.283          0.281          0.273        -63.747       -57.4916        -61.834      0.4372202       0.119181        -999.25        -999.25
      5761.5000        -999.25          0.793         56.087       55.49297       3533.631          0.364          0.294          0.287          0.286          0.285          0.276        -62.331       -56.0735        -71.327      0.4785737      0.1416904        -999.25        -999.25
      5762.0000        -999.25          0.775         54.378       53.50554       3591.717          0.371          0.299          0.291          0.291           0.29          0.281         -60.91       -54.6503        -86.443      0.4362881       0.164281        -999.25        -999.25
      5762.5000        -999.25          0.729         49.679       48.06236       3653.741          0.364          0.294          0.287          0.288          0.287          0.278        -60.995       -54.7331        -103.66      0.3204758      0.1629667        -999.25        -999.25
      5763.0000        -999.25          0.695          45.37       43.06994       3718.423          0.346          0.282          0.275          0.276          0.275          0.267        -62.272        -56.008       -108.586       0.214254      0.1427302        -999.25        -999.25
      5763.5000        -999.25          0.727         44.773       42.36789       3783.753          0.327          0.267          0.261          0.262          0.262          0.254        -63.969       -57.7028        -97.149      0.1993168      0.1158286        -999.25        -999.25
      5764.0000        -999.25          0.824         47.138       45.08937       3847.251          0.314          0.256           0.25          0.251          0.251          0.244        -65.597       -59.3286        -80.441      0.2572207     0.09002219        -999.25        -999.25
      5764.5000        -999.25          0.922         48.802       47.00051       3905.592          0.306          0.249          0.243          0.244          0.243          0.236        -66.857       -60.5864        -70.382      0.2978831     0.07005716        -999.25        -999.25
      5765.0000        -999.25          0.934         48.151       46.23606       3955.798          0.302          0.244          0.237          0.238          0.238          0.231        -67.702       -61.4293        -75.547      0.2816182      0.0566778        -999.25        -999.25
      5765.5000        -999.25          0.886         46.993        44.8856       3996.071            0.3          0.241          0.234          0.234          0.233          0.228        -68.111       -61.8361        -92.405      0.2528852     0.05022061        -999.25        -999.25
      5766.0000        -999.25          0.872         47.579       45.55089       4026.893            0.3           0.24          0.232          0.233          0.232          0.226        -68.096       -61.8189       -104.041      0.2670403     0.05049364        -999.25        -999.25
      5766.5000        -999.25          0.931         49.942       48.27006       4051.114          0.304          0.242          0.234          0.234          0.232          0.227        -67.848       -61.5688       -104.886      0.3248948     0.05446346        -999.25        -999.25
      5767.0000        -999.25          1.029         50.452       48.84739       4073.286          0.311          0.247          0.238          0.237          0.235           0.23        -67.438       -61.1566       -101.796      0.3371784     0.06100633        -999.25        -999.25
      5767.5000        -999.25          1.124         47.983       45.98166       4098.623           0.32          0.252          0.242          0.241          0.238          0.234        -66.918       -60.6344       -106.484      0.2762056     0.06929525        -999.25        -999.25
