#------------------------------------------------------------------------------
# Created by    : vladimir.rabinovich
# Created on    : 09/19/2023 17:19:36
#------------------------------------------------------------------------------
~Version Information Section
VERS.           2.0     :   CWLS log ASCII Standard - VERSION 2.0
WRAP.           NO      :   One line per depth step
~Well Information Section
#MNEM       .UNIT                                         VALUE :DESCRIPTION
#------------------------------------------------------------------------------
STRT        .FT                                          2840.5 :START DEPTH
STOP        .FT                                            9365 :STOP DEPTH
STEP        .FT                                             0.5 :STEP      
NULL        .                                           -999.25 :NULL      
COMP        .                              MCMORAN OIL & GAS CO :COMPANY   
WELL        .                                OCS 00757 ST00BP00 :WELL      
FLD         .                           WEST CAMERON BLOCK 0118 :FIELD     
LOC         .                                                   :LOCATION  
CNTY        .                                      WEST CAMERON :LOCATION  
STAT        .                                         LOUISIANA :STATE     
CTRY        .                                     UNITED STATES :COUNTRY   
SRVC        .                                                   :SERVICE COMPANY
DATE        .                             9/13/2023 11:18:49 AM :LOG DATE  
API         .                                    17700410710000 :API NUMBER
UWI         .                                    17700410710000 :UNIQUE WELL ID
XCOORD      .                                  1441592.04714169 :SURFACE X 
YCOORD      .                                  10704369.2355959 :SURFACE Y 
LAT         .                                        29.4939537 :LATITUDE  
LON         .                                       -93.6251728 :LONGITUDE 
ELEV        .FT                                              90 :ELEVATION VALUE
ELEV_TYPE   .                                                KB :ELEVATION REFERENCE TYPE
~Curve Information Section
#MNEM       .UNIT                                      API CODE :CURVE DESCRIPTION
#------------------------------------------------------------------------------
DEPT        .FT                                                 :DEPTH     
AHT10       .OHMM                                               :          
AHT20       .OHMM                                               :          
AHT30       .OHMM                                               :          
AHT60       .OHMM                                               :          
AHT90       .OHMM                                               :          
AHTCO90     .MMHO                                               :          
DPHZ        .DEC                                                :          
GR          .GAPI                                               :          
GR_NORM     .GAPI                                               :GammaRay Normalized
HCAL        .IN                                                 :          
HDRA        .G/CC                                               :          
HMIN        .OHMM                                               :          
HMNO        .OHMM                                               :          
NPOR        .DEC                                                :          
RHOZ        .G/CC                                               :          
RWA         .OHMM                                               :          
TENS        .LB                                                 :          
VSH_GR      .V/V                                                :Volume of Shale from GR
~A        DEPTH          AHT10          AHT20          AHT30          AHT60          AHT90        AHTCO90           DPHZ             GR        GR_NORM           HCAL           HDRA           HMIN           HMNO           NPOR           RHOZ            RWA           TENS         VSH_GR
# ...
      6382.5000         0.9243         0.5324         0.4563         0.4292         0.4058       2464.242         0.2687        61.2724       56.43113           10.2         0.0049           1.54           1.36         0.3218          2.207         0.0388           3061      0.4985346
      6383.0000         1.0151         0.5757         0.5087         0.4645         0.4401       2272.425         0.2458        59.3568       54.17909        10.2473         0.0055          1.763          1.557         0.3638          2.244         0.0347           3065       0.450619
      6383.5000         0.9317         0.5612         0.5071         0.4606          0.438       2283.357         0.2491        53.4751       47.26354        10.2236         0.0014          1.803          1.635         0.3684          2.239         0.0356           3118      0.3034796
      6384.0000         0.8676         0.5489         0.5062         0.4565         0.4358       2294.648         0.2645        53.6771       47.50153         10.129        -0.0029          1.755          1.592         0.3294          2.214         0.0403           3066      0.3085431
      6384.5000         0.8414         0.5445         0.5028         0.4501         0.4313        2318.49         0.2667        55.5927       49.75451        10.1527        -0.0027          1.794          1.635          0.342           2.21         0.0406           3086      0.3564789
      6385.0000          0.815         0.5419         0.5021         0.4451         0.4283       2334.876         0.2613        57.9515       52.52864        10.1763        -0.0023          2.091          1.847         0.3549          2.219         0.0386           3065      0.4155029
      6385.5000          0.753         0.5261         0.4868         0.4321         0.4172       2397.108         0.2554        62.0223       57.31585           10.2        -0.0021          1.984          1.752         0.3437          2.229         0.0358           3014      0.5173585
      6386.0000         0.6655         0.4867         0.4613         0.4172         0.4041       2474.393         0.2625        60.3461        55.3454        10.1527        -0.0028          1.845           1.63          0.316          2.217         0.0367           3014      0.4754341
      6386.5000         0.6153         0.4589         0.4385         0.4012         0.3899       2564.654         0.2694        64.1747       59.84774        10.0935         0.0017          1.793          1.583         0.3378          2.205         0.0375           3030      0.5712285
      6387.0000          0.634         0.4719         0.4523         0.4182         0.4069       2457.875         0.2685        69.6823       66.32446         10.058         0.0046          1.757          1.552         0.3381          2.207         0.0388           3019      0.7090311
      6387.5000          0.686          0.513         0.4904         0.4622         0.4497       2223.809         0.2524        76.6804       74.55386        10.5785         0.0061          1.777          1.569         0.3197          2.233         0.0376           3064      0.8841246
      6388.0000         0.6867         0.5333         0.5205         0.4965         0.4818       2075.465         0.2345        81.4019       80.10616        10.7677         0.0055          1.306          1.154         0.3739          2.263         0.0344           3041              1
      6388.5000         0.6759         0.5487         0.5462         0.5254           0.51       1960.719         0.2142        78.7679       77.00938        10.7677         0.0162          0.855          0.757         0.4409          2.297         0.0299           3037      0.9363699
      6389.0000         0.7413         0.6156         0.6057         0.5849         0.5667       1764.739         0.2033        77.0378        74.9756        10.7914         0.0296          0.723           0.64         0.3808          2.315         0.0297           3097      0.8930979
      6389.5000         0.8048         0.6787         0.6658         0.6472         0.6261       1597.128         0.1957         72.608       69.76711        10.7204         0.0342          1.151          1.018         0.3079          2.327         0.0303           3072       0.782279
      6390.0000         0.7983          0.686         0.6794         0.6693         0.6473       1544.778         0.1932        69.3013       65.87934        11.2645         0.0319          1.205          1.065         0.2914          2.331         0.0305           3116      0.6995605
      6390.5000         0.8085         0.7177         0.7106         0.7097         0.6856       1458.509         0.1996        71.4564       68.41406        10.7559         0.0216           1.03          0.911         0.3234          2.321         0.0346           3080      0.7534907
      6391.0000          0.781         0.7318         0.7396         0.7455          0.719       1390.884         0.2092        70.6857       67.50818        10.6494          0.017          1.664          1.469         0.2988          2.305         0.0401           3048      0.7342166
      6391.5000         0.7173         0.6798           0.73         0.7448         0.7186       1391.665         0.2112         71.119        68.0182        10.9806         0.0178          0.872          0.772         0.3626          2.301          0.041           3035      0.7450682
      6392.0000         0.7281         0.6984         0.7359         0.7469         0.7211       1386.764         0.2032        67.0482       63.23206        11.1462         0.0244          0.655           0.58         0.3478          2.315         0.0378           3002      0.6432354
      6392.5000         0.8068         0.8111         0.8045         0.8059         0.7761       1288.429         0.1924        68.5253       64.96939        11.2408         0.0312          0.704          0.624         0.3559          2.332         0.0362           3033      0.6801998
      6393.0000         0.8489         0.8784         0.8731          0.883         0.8476       1179.804         0.1857        69.9621       66.65936        11.3591         0.0337          0.866          0.766         0.3434          2.344         0.0366           3008      0.7161565
      6393.5000         0.7887         0.8139         0.8297         0.8584         0.8246       1212.661         0.1824        72.1172       69.19391        11.4419         0.0331           0.83          0.735         0.3238          2.349         0.0343           2979      0.7700832
      6394.0000         0.7197         0.7466         0.7829         0.8169         0.7863       1271.828          0.186        73.0346       70.27321         11.501         0.0297          0.702          0.622         0.3827          2.343         0.0341           3007       0.793047
      6394.5000          0.721         0.7587         0.7709         0.8086         0.7785       1284.504          0.195        79.8035       78.23309        11.5483         0.0239          0.636          0.564         0.3995          2.328         0.0374           3019      0.9624061
      6395.0000         0.6917         0.7475         0.7463         0.7842         0.7558       1323.145         0.2014        78.6063        76.8258        11.5956         0.0228          0.846          0.748          0.381          2.318         0.0389           3025      0.9324638
      6395.5000         0.6096         0.6538         0.6648         0.6975         0.6749       1481.702         0.2052         79.622       78.02064        11.5956         0.0231          0.667          0.591         0.4536          2.311         0.0361           3046      0.9578859
      6396.0000         0.5729         0.6093         0.6265          0.653          0.633       1579.892          0.209        76.2284       74.03066        11.5956         0.0217          0.569          0.505          0.408          2.305         0.0353           3038      0.8729928
