#------------------------------------------------------------------------------
# Created by    : vladimir.rabinovich
# Created on    : 09/19/2023 17:21:14
#------------------------------------------------------------------------------
~Version Information Section
VERS.           2.0     :   CWLS log ASCII Standard - VERSION 2.0
WRAP.           NO      :   One line per depth step
~Well Information Section
#MNEM       .UNIT                                         VALUE :DESCRIPTION
#------------------------------------------------------------------------------
STRT        .FT                                            3520 :START DEPTH
STOP        .FT                                            8510 :STOP DEPTH
STEP        .FT                                             0.5 :STEP      
NULL        .                                           -999.25 :NULL      
COMP        .                      SPINNAKER EXPLORATION CO LLC :COMPANY   
WELL        .                               OCS G21537 ST00BP00 :WELL      
FLD         .                                           WILDCAT :FIELD     
LOC         .                                                   :LOCATION  
CNTY        .                                      WEST CAMERON :LOCATION  
STAT        .                                         LOUISIANA :STATE     
CTRY        .                                     UNITED STATES :COUNTRY   
SRVC        .                                                   :SERVICE COMPANY
DATE        .                             9/13/2023 11:18:49 AM :LOG DATE  
API         .                                    17700410830000 :API NUMBER
UWI         .                                    17700410830000 :UNIQUE WELL ID
XCOORD      .                                   1446389.6294369 :SURFACE X 
YCOORD      .                                  10699667.6074025 :SURFACE Y 
LAT         .                                        29.4810902 :LATITUDE  
LON         .                                       -93.6100108 :LONGITUDE 
ELEV        .FT                                              91 :ELEVATION VALUE
ELEV_TYPE   .                                                KB :ELEVATION REFERENCE TYPE
~Curve Information Section
#MNEM       .UNIT                                      API CODE :CURVE DESCRIPTION
#------------------------------------------------------------------------------
DEPT        .FT                                                 :DEPTH     
CAL         .IN                                                 :          
CNC         .%                                                  :          
GR          .GAPI                                               :          
GR_NORM     .GAPI                                               :GammaRay Normalized
M0C6        .MMHO                                               :          
M2R1        .OHMM                                               :          
M2R2        .OHMM                                               :          
M2R3        .OHMM                                               :          
M2R6        .OHMM                                               :          
M2R9        .OHMM                                               :          
M2RX        .OHMM                                               :          
PORZ        .%                                                  :          
SP          .MV                                                 :          
SP_NORM     .MV                                                 :SP Normalized
TEN         .LB/F                                               :          
VSH_GR      .V/V                                                :Volume of Shale from GR
VSH_SP      .V/V                                                :Volume of Shale from SP
ZCOR        .G/CC                                               :          
~A        DEPTH            CAL            CNC             GR        GR_NORM           M0C6           M2R1           M2R2           M2R3           M2R6           M2R9           M2RX           PORZ             SP        SP_NORM            TEN         VSH_GR         VSH_SP           ZCOR
# ...
      8490.0000        -999.25        -999.25        -999.25        -999.25       3048.308          0.335          0.284          0.271          0.266          0.266          0.273          9.017       -120.205       -46.0396        895.741        -999.25      0.2780393        -999.25
      8490.5000        -999.25        -999.25        -999.25        -999.25       2981.675          0.343          0.288          0.274           0.27          0.271          0.279          9.091       -130.982       -64.7645        954.106        -999.25              0        -999.25
      8491.0000        -999.25        -999.25        -999.25        -999.25       2873.538           0.38          0.315          0.297          0.295          0.296          0.307        -999.25       -119.443       -61.1735       1000.343        -999.25     0.02994262        -999.25
      8491.5000        -999.25        -999.25        -999.25        -999.25       2728.469           0.46          0.373          0.349          0.348           0.35          0.366        -999.25        -93.812       -43.4904       1022.461        -999.25      0.3198295        -999.25
      8492.0000        -999.25        -999.25        -999.25        -999.25       2557.882          0.576          0.453          0.421          0.424          0.428           0.45        -999.25        -67.617       -25.2433       1028.846        -999.25      0.6189623        -999.25
      8492.5000        -999.25        -999.25        -999.25        -999.25       2376.154          0.679          0.524          0.487          0.495          0.501           0.53        -999.25         -47.01       -12.5843       1036.989        -999.25      0.8264869        -999.25
      8493.0000        -999.25        -999.25        -999.25        -999.25       2197.839          0.733          0.568          0.533          0.546          0.554          0.585        -999.25        -33.503        -7.0252        1057.56        -999.25      0.9176196        -999.25
      8493.5000        -999.25        -999.25        -999.25        -999.25       2034.617          0.746          0.592          0.564          0.582          0.591          0.621        -999.25        -24.844        -6.3141        1081.53        -999.25      0.9292771        -999.25
      8494.0000        -999.25        -999.25        -999.25        -999.25       1894.119           0.73          0.605          0.586          0.608          0.616          0.646        -999.25        -18.686         -2.746       1093.247        -999.25      0.9877705        -999.25
      8494.5000        -999.25        -999.25        -999.25        -999.25       1780.093          0.709          0.619           0.61          0.633          0.641          0.668        -999.25        -14.511        -0.0281       1095.331        -999.25              1        -999.25
      8495.0000        -999.25        -999.25        -999.25        -999.25       1692.857          0.696          0.638          0.638          0.663          0.669          0.693        -999.25        -24.371          5.916       1108.181        -999.25              1        -999.25
      8495.5000        -999.25        -999.25        -999.25        -999.25       1630.888          0.684          0.657          0.664          0.687          0.692           0.71        -999.25       -114.805        -1.9048        1134.96        -999.25              1        -999.25
      8496.0000        -999.25        -999.25        -999.25        -999.25       1591.149          0.675          0.674          0.685          0.705          0.708          0.719        -999.25       -370.251        -1.2121       1157.479        -999.25              1        -999.25
      8496.5000        -999.25        -999.25        -999.25        -999.25       1570.368          0.673          0.693          0.705          0.719          0.721          0.724        -999.25       -780.555        -0.5195        1161.06        -999.25              1        -999.25
      8497.0000        -999.25        -999.25        -999.25        -999.25       1564.765          0.674          0.707          0.719          0.727          0.726          0.721        -999.25      -1226.097         0.1732       1146.889        -999.25              1        -999.25
      8497.5000        -999.25        -999.25        -999.25        -999.25       1570.981          0.666          0.707          0.717          0.719          0.715            0.7        -999.25      -1569.389         0.8658       1122.954        -999.25              1        -999.25
      8498.0000        -999.25        -999.25        -999.25        -999.25       1585.648          0.646          0.691          0.698          0.695          0.689          0.667        -999.25      -1668.567         1.5584       1103.978        -999.25              1        -999.25
      8498.5000        -999.25        -999.25        -999.25        -999.25       1605.949          0.625          0.669          0.674          0.667          0.659          0.632        -999.25      -1455.174         2.2511       1114.316        -999.25              1        -999.25
      8499.0000        -999.25        -999.25        -999.25        -999.25       1629.235          0.612           0.65          0.654          0.643          0.635          0.605        -999.25      -1023.654         2.9437       1165.671        -999.25              1        -999.25
      8499.5000        -999.25        -999.25        -999.25        -999.25       1653.231           0.61          0.641          0.642          0.629          0.621          0.589        -999.25       -526.799         3.6364       1230.951        -999.25              1        -999.25
      8500.0000        -999.25        -999.25        -999.25        -999.25       1675.861          0.615          0.637          0.636          0.622          0.614           0.58        -999.25        -26.988          4.329       1271.871        -999.25              1        -999.25
      8500.5000        -999.25        -999.25        -999.25        -999.25       1695.406          0.613          0.627          0.624           0.61          0.603          0.569        -999.25        472.835         5.0216       1280.882        -999.25              1        -999.25
      8501.0000        -999.25        -999.25        -999.25        -999.25         1710.6          0.601           0.61          0.604          0.591          0.586          0.553        -999.25        794.166         5.7143       1274.058        -999.25              1        -999.25
      8501.5000        -999.25        -999.25        -999.25        -999.25        -999.25        -999.25        -999.25        -999.25        -999.25        -999.25        -999.25        -999.25        293.511         5.7143       1266.019        -999.25              1        -999.25
      8502.0000        -999.25        -999.25        -999.25        -999.25        -999.25        -999.25        -999.25        -999.25        -999.25        -999.25        -999.25        -999.25       -996.135         5.7143       1271.256        -999.25              1        -999.25
      8502.5000        -999.25        -999.25        -999.25        -999.25        -999.25        -999.25        -999.25        -999.25        -999.25        -999.25        -999.25        -999.25      -1981.289         5.7143       1297.156        -999.25              1        -999.25
      8503.0000        -999.25        -999.25        -999.25        -999.25        -999.25        -999.25        -999.25        -999.25        -999.25        -999.25        -999.25        -999.25        -999.25         5.7143        1335.32        -999.25              1        -999.25
      8503.5000        -999.25        -999.25        -999.25        -999.25        -999.25        -999.25        -999.25        -999.25        -999.25        -999.25        -999.25        -999.25        -999.25         5.7143       1373.059        -999.25              1        -999.25
