#------------------------------------------------------------------------------
# Created by    : vladimir.rabinovich
# Created on    : 09/19/2023 17:22:25
#------------------------------------------------------------------------------
~Version Information Section
VERS.           2.0     :   CWLS log ASCII Standard - VERSION 2.0
WRAP.           NO      :   One line per depth step
~Well Information Section
#MNEM       .UNIT                                         VALUE :DESCRIPTION
#------------------------------------------------------------------------------
STRT        .FT                                            2996 :START DEPTH
STOP        .FT                                            8909 :STOP DEPTH
STEP        .FT                                             0.5 :STEP      
NULL        .                                           -999.25 :NULL      
COMP        .                             PHILLIPS PETROLEUM CO :COMPANY   
WELL        .                                OCS 00299 ST00BP00 :WELL      
FLD         .                           WEST CAMERON BLOCK 0045 :FIELD     
LOC         .                                                   :LOCATION  
CNTY        .                                      WEST CAMERON :LOCATION  
STAT        .                                         LOUISIANA :STATE     
CTRY        .                                     UNITED STATES :COUNTRY   
SRVC        .                                                   :SERVICE COMPANY
DATE        .                             9/13/2023 11:18:09 AM :LOG DATE  
API         .                                    17700407290000 :API NUMBER
UWI         .                                    17700407290000 :UNIQUE WELL ID
XCOORD      .                                  1446390.31791034 :SURFACE X 
YCOORD      .                                  10761453.0604348 :SURFACE Y 
LAT         .                                        29.6510516 :LATITUDE  
LON         .                                       -93.6110308 :LONGITUDE 
ELEV        .FT                                              99 :ELEVATION VALUE
ELEV_TYPE   .                                                KB :ELEVATION REFERENCE TYPE
~Curve Information Section
#MNEM       .UNIT                                      API CODE :CURVE DESCRIPTION
#------------------------------------------------------------------------------
DEPT        .FT                                                 :DEPTH     
CALX        .IN                                                 :          
CDL         .%                                                  :          
CILD        .MMHO                                               :          
CNS         .%                                                  :          
DRHO        .G/C3                                               :          
GR_NORM     .GAPI                                               :GammaRay Normalized
RILD        .OHMM                                               :          
RILM        .OHMM                                               :          
RLL         .OHMM                                               :          
SP          .MV                                                 :          
SP_NORM     .MV                                                 :SP Normalized
TENS        .LB                                                 :          
VSH_GR      .V/V                                                :Volume of Shale from GR
VSH_SP      .V/V                                                :Volume of Shale from SP
~A        DEPTH           CALX            CDL           CILD            CNS           DRHO        GR_NORM           RILD           RILM            RLL             SP        SP_NORM           TENS         VSH_GR         VSH_SP
# ...
      6542.0000          13.98        25.6834       1632.653        32.0802         -0.014       69.92554         0.6181         0.6484         0.9491        -3.8776        -5.7824       2428.572      0.7856499      0.8012571
      6542.5000          13.56          25.26           1600        31.7885         -0.014       65.61837         0.6236         0.6607         0.9159        -3.4694        -5.3742       2489.796      0.6940079      0.8304143
      6543.0000          13.44          25.44       1567.347        32.6538         -0.015       66.07059         0.6357         0.6735          0.957        -3.0612         -4.966       2469.388      0.7036295      0.8595714
      6543.5000          13.32          25.74        1551.02          33.66         -0.016       72.41538         0.6543         0.6866          0.957        -2.6531        -4.5579       2489.796      0.8386251      0.8887214
      6544.0000          13.28           25.8       1518.367          34.32         -0.013       79.66673         0.6671            0.7         0.8653        -1.9388        -3.8436       2510.204      0.9929092      0.9397429
      6544.5000          13.24          25.14       1485.714           34.2         -0.004       78.07921         0.6866         0.7126         0.7929        -1.1224        -3.0272       2510.204      0.9591321      0.9980571
      6545.0000          13.18          24.48       1453.061          34.14          0.008       75.13187         0.6933         0.7126         0.7929        -0.7143        -2.6191       2448.979      0.8964227              1
      6545.5000          13.14          24.12       1436.735          34.74          0.018        74.4509         0.6933         0.7126         0.7517        -0.2041        -2.1089       2469.388       0.881934              1
      6546.0000          13.12          24.12       1436.735        36.2353           0.02       76.03629         0.6933         0.7126         0.7384              0        -1.9048       2551.021      0.9156656              1
      6546.5000          12.92          24.42       1420.408        38.2353          0.022       78.98153         0.6933         0.7063         0.8159            0.1        -1.8048       2591.837      0.9783304              1
      6547.0000          12.78           24.6       1453.061          39.06           0.02       84.64642         0.6933         0.6933         0.8485            0.3        -1.6048       2530.612              1              1
      6547.5000          12.72           24.6       1469.388          39.84          0.022       90.08466         0.6801         0.6866            0.8            0.9        -1.0048       2448.979              1              1
      6548.0000          12.72          24.54       1485.714          40.32          0.028       88.95041         0.6671         0.6801         0.7584            1.2        -0.7048       2448.979              1              1
      6548.5000          12.72        24.5931       1502.041          41.88          0.035       85.54978         0.6481         0.6735            0.7            1.3        -0.6048       2469.388              1              1
      6549.0000           12.7        25.0653        1551.02        44.4118         0.0341       82.26814         0.6296         0.6607         0.6866            1.3        -0.6048       2469.388              1              1
      6549.5000          12.68        25.7838       1567.347           46.5         0.0322       81.41499         0.6176         0.6543         0.7063            1.3        -0.6048       2469.388              1              1
      6550.0000          12.68        26.3278           1600          47.04         0.0304       82.47919            0.6         0.6419         0.7384            1.1        -0.8048       2469.388              1              1
      6550.5000          12.68        26.5714       1616.327        47.2734         0.0275       85.24771            0.6         0.6117         0.7584            1.1        -0.8048       2448.979              1              1
      6551.0000          12.68        26.7551        1648.98        46.6075         0.0255        84.6076            0.6            0.6         0.7254              1        -0.9048       2489.796              1              1
      6551.5000          12.76        26.9388       1665.306        45.8294         0.0265       82.90229            0.6            0.6         0.6933            1.2        -0.7048       2591.837              1              1
      6552.0000          12.74          27.18       1665.306        45.2358         0.0265       81.83611            0.6            0.6         0.7126            1.1        -0.8048       2632.653              1              1
      6552.5000          12.64           27.3       1665.306        45.4706         0.0265       83.32638            0.6            0.6         0.7063              1        -0.9048       2571.428              1              1
      6553.0000          12.72           27.3       1665.306        46.1765         0.0265       85.45577            0.6            0.6         0.6801              1        -0.9048       2530.612              1              1
      6553.5000          12.76           27.3       1665.306        47.7059         0.0265       85.88087            0.6         0.6058         0.6866            0.8        -1.1048       2489.796              1              1
      6554.0000          12.78          27.12        1648.98           48.9         0.0255       83.74947         0.6117         0.6058         0.7254            0.8        -1.1048       2448.979              1              1
      6554.5000          12.82        26.8163       1632.653          49.56         0.0265       80.97896         0.6176         0.6058         0.7254            0.6        -1.3048       2428.572              1              1
      6555.0000          12.86        26.3878       1616.327          49.26         0.0284       77.99541         0.6236         0.6117         0.7652            0.4        -1.5048       2469.388      0.9573492              1
      6555.5000           12.9        25.9592       1583.673        46.7059         0.0275       77.56835         0.6357         0.6236         0.7859            0.2        -1.7048       2530.612      0.9482628              1
      6556.0000          12.94        25.9592       1567.347        45.3529         0.0255       77.14127         0.6419         0.6357         0.7859            0.3        -1.6048       2530.612      0.9391758              1
      6556.5000          12.98         25.898       1567.347        44.4118         0.0245       77.14027         0.6481         0.6419         0.7859            0.4        -1.5048       2469.388      0.9391546              1
      6557.0000          13.02        26.1429       1567.347        44.8235         0.0225        77.7784         0.6543         0.6543         0.7789            0.5        -1.4048       2448.979      0.9527318              1
      6557.5000          13.06        26.7551        1551.02        44.6471         0.0225        77.7774         0.6607         0.6671          0.772            0.6        -1.3048       2469.388      0.9527106              1
      6558.0000           13.1          27.42       1534.694        44.4118         0.0216       77.56338         0.6607         0.6801         0.7584            0.7        -1.2048       2469.388       0.948157              1
      6558.5000          13.06          27.84       1502.041         44.874         0.0225       77.56237         0.6607         0.6933         0.7584            0.8        -1.1048       2469.388      0.9481356              1
      6559.0000             13          27.66       1502.041        45.3925         0.0235       78.62658         0.6607         0.6933         0.8079            0.8        -1.1048       2448.979      0.9707783              1
      6559.5000          12.86          27.18       1485.714        45.9141         0.0245       80.75597         0.6671         0.6933         0.8079            0.9        -1.0048       2448.979              1              1
