#------------------------------------------------------------------------------
# Created by    : vladimir.rabinovich
# Created on    : 09/19/2023 17:21:14
#------------------------------------------------------------------------------
~Version Information Section
VERS.           2.0     :   CWLS log ASCII Standard - VERSION 2.0
WRAP.           NO      :   One line per depth step
~Well Information Section
#MNEM       .UNIT                                         VALUE :DESCRIPTION
#------------------------------------------------------------------------------
STRT        .FT                                            3520 :START DEPTH
STOP        .FT                                            8510 :STOP DEPTH
STEP        .FT                                             0.5 :STEP      
NULL        .                                           -999.25 :NULL      
COMP        .                      SPINNAKER EXPLORATION CO LLC :COMPANY   
WELL        .                               OCS G21537 ST00BP00 :WELL      
FLD         .                                           WILDCAT :FIELD     
LOC         .                                                   :LOCATION  
CNTY        .                                      WEST CAMERON :LOCATION  
STAT        .                                         LOUISIANA :STATE     
CTRY        .                                     UNITED STATES :COUNTRY   
SRVC        .                                                   :SERVICE COMPANY
DATE        .                             9/13/2023 11:18:49 AM :LOG DATE  
API         .                                    17700410830000 :API NUMBER
UWI         .                                    17700410830000 :UNIQUE WELL ID
XCOORD      .                                   1446389.6294369 :SURFACE X 
YCOORD      .                                  10699667.6074025 :SURFACE Y 
LAT         .                                        29.4810902 :LATITUDE  
LON         .                                       -93.6100108 :LONGITUDE 
ELEV        .FT                                              91 :ELEVATION VALUE
ELEV_TYPE   .                                                KB :ELEVATION REFERENCE TYPE
~Curve Information Section
#MNEM       .UNIT                                      API CODE :CURVE DESCRIPTION
#------------------------------------------------------------------------------
DEPT        .FT                                                 :DEPTH     
CAL         .IN                                                 :          
CNC         .%                                                  :          
GR          .GAPI                                               :          
GR_NORM     .GAPI                                               :GammaRay Normalized
M0C6        .MMHO                                               :          
M2R1        .OHMM                                               :          
M2R2        .OHMM                                               :          
M2R3        .OHMM                                               :          
M2R6        .OHMM                                               :          
M2R9        .OHMM                                               :          
M2RX        .OHMM                                               :          
PORZ        .%                                                  :          
SP          .MV                                                 :          
SP_NORM     .MV                                                 :SP Normalized
TEN         .LB/F                                               :          
VSH_GR      .V/V                                                :Volume of Shale from GR
VSH_SP      .V/V                                                :Volume of Shale from SP
ZCOR        .G/CC                                               :          
~A        DEPTH            CAL            CNC             GR        GR_NORM           M0C6           M2R1           M2R2           M2R3           M2R6           M2R9           M2RX           PORZ             SP        SP_NORM            TEN         VSH_GR         VSH_SP           ZCOR
# ...
      8154.0000         12.175         47.925        112.841        81.5623       1845.054          0.488          0.524          0.533          0.531          0.531          0.536         19.082         -2.161        -0.2562        570.856              1              1          0.046
      8154.5000          12.18         45.618        114.333        83.0656       1845.172          0.487          0.522          0.531          0.528          0.528          0.533         18.956         -2.176        -0.2712        576.268              1              1          0.044
      8155.0000         12.181         43.277        113.864        82.6079       1845.339          0.489          0.523          0.531          0.528          0.528          0.532         18.489         -2.244        -0.3392        594.697              1              1          0.047
      8155.5000         12.182         41.291        112.024        80.7792         1845.5          0.493          0.526          0.534           0.53           0.53          0.535         18.153          -2.35        -0.4452        600.904              1              1          0.049
      8156.0000         12.184         41.257        110.945        79.7115       1845.713          0.498           0.53          0.537          0.533          0.533          0.537         17.914         -2.562        -0.6572        591.124      0.9938617              1          0.048
      8156.5000         12.185         42.594        111.512        80.2898       1846.144            0.5          0.532          0.538          0.534          0.534          0.538          17.48          -2.68        -0.7752        579.387              1              1          0.043
      8157.0000         12.174         43.484        110.444        79.2332       1847.022          0.501          0.532          0.539          0.534          0.534          0.538         17.076          -2.51        -0.6052        574.902      0.9836851              1           0.04
      8157.5000         12.158         44.167        106.405        75.2055       1848.559            0.5          0.532          0.538          0.534          0.533          0.537         17.176          -2.22        -0.3152        577.888      0.8979893              1          0.048
      8158.0000         12.147         45.458        102.932        71.7438       1850.855          0.499          0.531          0.537          0.532          0.532          0.536         17.827         -1.988        -0.0832         581.18      0.8243361              1           0.06
      8158.5000         12.143         46.266        102.289        71.1121       1853.823          0.497          0.528          0.535           0.53           0.53          0.533         18.554         -1.831         0.0738        578.397      0.8108957              1           0.07
      8159.0000         12.139          45.69        101.787        70.6214       1857.159          0.494          0.525          0.532          0.527          0.527           0.53         18.892         -1.774         0.1308        572.878      0.8004553              1          0.075
      8159.5000          12.14          44.18         99.628        68.4737       1860.339          0.492          0.523           0.53          0.525          0.525          0.528         18.689         -1.815         0.0898        567.377      0.7547596              1          0.074
      8160.0000         12.147         42.829         97.578        66.4351       1862.687          0.492          0.522          0.529          0.524          0.524          0.527         18.196         -1.914        -0.0092        561.197       0.711385              1          0.068
      8160.5000         12.157          43.68          97.49        66.3584       1863.438           0.49           0.52          0.526          0.522          0.521          0.524         17.903         -2.048        -0.1432        557.372      0.7097532              1          0.066
      8161.0000         12.161          47.26         98.939        67.8187       1861.851          0.485          0.515          0.521          0.517          0.517           0.52          18.09         -2.006        -0.1012        556.213      0.7408234              1          0.064
      8161.5000         12.134         50.031        100.337         69.228       1857.263          0.482          0.512          0.519          0.515          0.515          0.518         18.508         -1.689         0.2158        557.536      0.7708085              1          0.061
      8162.0000          12.08         48.738        100.271        69.1733       1849.154          0.484          0.514          0.521          0.518          0.518          0.522         18.782         -1.374         0.5308        570.515      0.7696447              1          0.062
      8162.5000         12.027         45.548         99.426        68.3396       1837.142          0.488          0.519          0.526          0.523          0.523          0.528         18.764         -1.192         0.7128        598.815      0.7519064              1          0.065
      8163.0000         11.991         43.282         99.265          68.19       1821.018          0.494          0.525          0.532           0.53           0.53          0.536         18.422         -1.058         0.8468        620.671      0.7487234              1          0.064
      8163.5000         11.966         42.496         99.284        68.2203       1800.735          0.502          0.532           0.54          0.538          0.539          0.545         17.866         -1.212         0.6928        612.826      0.7493681              1          0.066
      8164.0000         11.955          43.05         98.315        67.2626        1776.49           0.51           0.54          0.548          0.547          0.547          0.554         17.529         -1.873         0.0318        588.112      0.7289916              1          0.076
      8164.5000         11.967         44.575         97.519        66.4779       1748.803          0.516          0.546          0.554          0.554          0.554          0.562          17.77         -2.472        -0.5672        584.054      0.7122957              1          0.081
      8165.0000         11.996          46.63         97.731        66.7012        1718.62          0.518          0.549          0.557          0.558          0.558          0.566          18.27         -2.358        -0.4532         606.61      0.7170469              1          0.072
      8165.5000         12.017         46.472         97.326        66.3075       1687.326          0.521          0.553          0.562          0.563          0.562          0.571         18.325          -1.83         0.0748        619.798      0.7086703              1          0.064
      8166.0000         11.981         43.044          95.73        64.7229       1656.597          0.535          0.569          0.578          0.579          0.579          0.587         17.448         -1.777         0.1278         608.29      0.6749553              1          0.074
      8166.5000         11.896           39.7         92.848        61.8522        1627.99           0.57          0.609          0.618           0.62           0.62          0.629         15.805         -2.413        -0.5082        598.346      0.6138766              1          0.096
      8167.0000         11.864         38.332         89.956        58.9715       1602.366          0.631          0.677          0.688          0.692          0.691          0.702         14.495          -3.12        -1.2152        601.527      0.5525851              1           0.09
      8167.5000         11.924         38.382          90.32        59.3468       1579.248           0.68          0.733          0.748          0.752          0.751          0.763         14.905         -3.428        -1.5232        598.927      0.5605702              1          0.052
