#------------------------------------------------------------------------------
# Created by    : vladimir.rabinovich
# Created on    : 09/19/2023 17:20:43
#------------------------------------------------------------------------------
~Version Information Section
VERS.           2.0     :   CWLS log ASCII Standard - VERSION 2.0
WRAP.           NO      :   One line per depth step
~Well Information Section
#MNEM       .UNIT                                         VALUE :DESCRIPTION
#------------------------------------------------------------------------------
STRT        .FT                                            2986 :START DEPTH
STOP        .FT                                           10006 :STOP DEPTH
STEP        .FT                                             0.5 :STEP      
NULL        .                                           -999.25 :NULL      
COMP        .                                        CONOCO INC :COMPANY   
WELL        .                                OCS 00764 ST00BP00 :WELL      
FLD         .                           WEST CAMERON BLOCK 0192 :FIELD     
LOC         .                                                   :LOCATION  
CNTY        .                                      WEST CAMERON :LOCATION  
STAT        .                                         LOUISIANA :STATE     
CTRY        .                                     UNITED STATES :COUNTRY   
SRVC        .                                                   :SERVICE COMPANY
DATE        .                             9/13/2023 11:18:18 AM :LOG DATE  
API         .                                    17700003670000 :API NUMBER
UWI         .                                    17700003670000 :UNIQUE WELL ID
XCOORD      .                                  1596137.97932418 :SURFACE X 
YCOORD      .                                  10614860.5046116 :SURFACE Y 
LAT         .                                         29.249106 :LATITUDE  
LON         .                                        -93.138896 :LONGITUDE 
ELEV        .FT                                              84 :ELEVATION VALUE
ELEV_TYPE   .                                                KB :ELEVATION REFERENCE TYPE
~Curve Information Section
#MNEM       .UNIT                                      API CODE :CURVE DESCRIPTION
#------------------------------------------------------------------------------
DEPT        .FT                                                 :DEPTH     
ASN         .OHMM                                               :          
CALI        .IN                                                 :          
CALI_1      .IN                                                 :          
DRHO        .G/C3                                               :          
DT          .US/F                                               :          
GR          .GAPI                                               :          
ILD         .OHMM                                               :          
RHOB        .G/C3                                               :          
SP          .MV                                                 :          
SP_NORM     .MV                                                 :SP Normalized
VSH_SP      .V/V                                                :Volume of Shale from SP
~A        DEPTH            ASN           CALI         CALI_1           DRHO             DT             GR            ILD           RHOB             SP        SP_NORM         VSH_SP
# ...
      4808.5000          0.768        10.7136        12.3714         0.0052       147.3574        77.9562         0.6056         2.2102       -48.6451      -2.491257      0.9171524
      4809.0000         0.7542        10.6908        12.3393         0.0072       148.4001        78.0143         0.6057         2.1977       -48.3284      -2.174557      0.9347469
      4809.5000         0.7377        10.6096        12.3397         0.0125       149.3291        76.7682         0.6099         2.1882       -48.0316      -1.877758      0.9512357
      4810.0000         0.7219        10.5608        12.4207         0.0331       150.2778        75.5043         0.6155         2.1977        -47.772      -1.618156      0.9656579
      4810.5000         0.7146        10.5571        12.4876         0.0367       152.4524         77.313         0.6178         2.1976       -47.5217      -1.367859      0.9795634
      4811.0000         0.7156        10.5474        12.5266         0.0345       154.3657         77.562         0.6179         2.1924       -47.2306      -1.076756      0.9957358
      4811.5000          0.719        10.5404        12.5416         0.0259       154.8472        79.3076          0.616         2.1851       -46.9761      -0.822258              1
      4812.0000         0.7198        10.5269        12.5419         0.0107       154.5867        81.3751         0.6115         2.1674       -46.7249     -0.5710564              1
      4812.5000         0.7186        10.5105        12.5274         0.0082       154.4309        80.5438         0.6085         2.1613       -46.4873     -0.3334579              1
      4813.0000         0.7168        10.4901        12.5022         0.0091       154.3599        79.7495         0.6061         2.1618       -46.2846     -0.1307564              1
      4813.5000         0.7151        10.4736        12.4823         0.0163       154.0747        78.8864         0.6006         2.1682       -46.0814      0.0724411              1
      4814.0000         0.7142        10.4661        12.4991         0.0315        153.554        76.7504         0.5946         2.1979       -45.9164       0.237442              1
      4814.5000         0.7131        10.4359        12.5454         0.0396       152.7319        76.2155         0.5947         2.2118       -45.7714      0.3824425              1
      4815.0000         0.7118        10.4004        12.5663         0.0429       151.7139        76.8823         0.5948         2.2126       -45.6752      0.4786415              1
      4815.5000         0.7106        10.3911        12.4916         0.0365       150.9211         78.595         0.5931         2.2135       -45.6988      0.4550438              1
      4816.0000         0.7094        10.3961        12.0344         0.0331       149.8701         80.349         0.5859         2.2202       -45.8853      0.2685432              1
      4816.5000         0.7079        10.3876        11.8622         0.0308       147.6572        81.2979         0.5775          2.225        -46.163   -0.009155273              1
      4817.0000         0.7068        10.3781        11.8016         0.0352       145.3804        79.6758         0.5685         2.2337       -46.5308     -0.3769569              1
      4817.5000         0.7062        10.3668        11.7524         0.0428       142.4001        78.7052         0.5675         2.2446       -47.0007      -0.846859              1
      4818.0000         0.7116         10.354        11.7107         0.0213       139.3755        77.9557         0.5685         2.2264       -47.5561      -1.402256      0.9776524
      4818.5000         0.7206        10.3396        11.6858         0.0164       135.5417        77.0782          0.572         2.2168       -48.0754      -1.921558      0.9488023
      4819.0000          0.729        10.3193        11.6849         0.0187       133.3337        77.2268         0.5754         2.2129       -48.4326      -2.278755      0.9289581
      4819.5000         0.7327        10.2945        11.7043         0.0184       132.3777        78.4847         0.5737           2.21       -48.6733      -2.519459      0.9155856
      4820.0000         0.7339        10.2771        11.7321         0.0171       131.4224        77.7563         0.5717         2.2136       -48.9133      -2.759457      0.9022524
      4820.5000         0.7329         10.292        11.7668         0.0195        133.707        77.2081         0.5701         2.2241       -49.1102      -2.956356      0.8913136
      4821.0000         0.7309        10.3396         11.809         0.0242       135.4441        77.2891         0.5686         2.2278       -49.0533      -2.899456      0.8944747
      4821.5000          0.733        10.3882        11.8841         0.0303       135.2544         77.781         0.5715         2.2299       -48.8891      -2.735256      0.9035969
      4822.0000         0.7392         10.431        12.0878         0.0441       134.4346        78.8962         0.5761         2.2305       -48.6765      -2.522655       0.915408
      4822.5000         0.7429        10.4633        12.0459          0.036       133.6316         79.661         0.5798         2.2157       -48.4902      -2.336357      0.9257579
      4823.0000         0.7409        10.4921        11.9554         0.0417       134.2903        79.5726         0.5768         2.2146       -48.3226      -2.168758       0.935069
      4823.5000         0.7342        10.5018        11.8706         0.0419       136.2122         79.226         0.5738         2.2211       -48.1901      -2.036259      0.9424301
      4824.0000         0.7259        10.5011        11.7721         0.0312       137.8711        77.4572         0.5716         2.2183        -48.153      -1.999157      0.9444913
      4824.5000         0.7199        10.4812        11.7264          0.027       139.4724        75.7528         0.5701         2.2097       -48.2802      -2.126358      0.9374245
      4825.0000         0.7189        10.4443        11.9102          0.027       138.4226        76.4581         0.5689         2.2086        -48.648      -2.494156      0.9169914
      4825.5000         0.7225        10.4139        12.2283         0.0247       137.1958        77.5792         0.5706         2.2068       -49.0372      -2.883358       0.895369
      4826.0000         0.7257        10.3965        12.3856         0.0198       135.9985        77.7288         0.5723         2.2026       -49.2529      -3.099056      0.8833858
      4826.5000         0.7273        10.5607        12.5026         0.0192       137.9265        75.6234         0.5739         2.2003        -49.052      -2.898155      0.8945469
      4827.0000         0.7254        10.7397        12.6147         0.0225       142.6543        74.6367         0.5756         2.2105        -48.608      -2.454159      0.9192134
      4827.5000         0.7185        10.8446        12.6529         0.0265       147.1069        74.2208         0.5783         2.2245       -48.2999      -2.146057      0.9363301
      4828.0000         0.7192        10.8663        12.6186         0.0303       149.0833        75.7957         0.5888         2.2268       -48.1636      -2.009758      0.9439023
      4828.5000         0.7263        10.8612        12.5466         0.0323       148.7354        76.5693         0.5994           2.22       -48.1832      -2.029358      0.9428135
      4829.0000          0.735        10.8253        12.4429         0.0308       147.2385         77.592         0.6205         2.2148       -48.2108      -2.056957      0.9412801
      4829.5000         0.7403        10.7738        12.3017         0.0263       146.1309        78.3125         0.6433         2.2228       -48.1113      -1.957458      0.9468079
      4830.0000         0.7399        10.7252        12.1909         0.0194       145.9219        77.0417         0.6602         2.2203       -47.8246      -1.670757      0.9627357
      4830.5000         0.7396        10.6801        12.1887         0.0151        145.657        76.0732         0.6732         2.2196       -47.3277      -1.173859      0.9903412
