#------------------------------------------------------------------------------
# Created by    : vladimir.rabinovich
# Created on    : 09/19/2023 17:20:44
#------------------------------------------------------------------------------
~Version Information Section
VERS.           2.0     :   CWLS log ASCII Standard - VERSION 2.0
WRAP.           NO      :   One line per depth step
~Well Information Section
#MNEM       .UNIT                                         VALUE :DESCRIPTION
#------------------------------------------------------------------------------
STRT        .FT                                             194 :START DEPTH
STOP        .FT                                           14521 :STOP DEPTH
STEP        .FT                                             0.5 :STEP      
NULL        .                                           -999.25 :NULL      
COMP        .                             MAGNOLIA PETROLEUM CO :COMPANY   
WELL        .                                OCS 00043 ST00BP00 :WELL      
FLD         .                          EUGENE ISLAND BLOCK 0089 :FIELD     
LOC         .                                                   :LOCATION  
CNTY        .                                     EUGENE ISLAND :LOCATION  
STAT        .                                         LOUISIANA :STATE     
CTRY        .                                     UNITED STATES :COUNTRY   
SRVC        .                                                   :SERVICE COMPANY
DATE        .                             9/13/2023 11:18:42 AM :LOG DATE  
API         .                                    17709003920000 :API NUMBER
UWI         .                                    17709003920000 :UNIQUE WELL ID
XCOORD      .                                  2056408.80151155 :SURFACE X 
YCOORD      .                                  10562022.8372996 :SURFACE Y 
LAT         .                                        29.0974849 :LATITUDE  
LON         .                                       -91.6970667 :LONGITUDE 
ELEV        .FT                                              50 :ELEVATION VALUE
ELEV_TYPE   .                                                KB :ELEVATION REFERENCE TYPE
~Curve Information Section
#MNEM       .UNIT                                      API CODE :CURVE DESCRIPTION
#------------------------------------------------------------------------------
DEPT        .FT                                                 :DEPTH     
ASN         .OHMM                                               :          
LAT         .OHMM                                               :          
LN          .OHMM                                               :          
SP          .MV                                                 :          
SP_NORM     .MV                                                 :SP Normalized
VSH_SP      .V/V                                                :Volume of Shale from SP
~A        DEPTH            ASN            LAT             LN             SP        SP_NORM         VSH_SP
# ...
     13532.0000         0.5442         0.2334          0.439       -85.6025      -34.42448              0
     13532.5000         0.5319         0.2213          0.444       -86.4171      -35.23862              0
     13533.0000          0.508         0.2048         0.4575       -87.1808      -36.00186              0
     13533.5000         0.4737         0.1883         0.4709       -87.5482       -36.3688              0
     13534.0000         0.4326         0.1718         0.4843       -87.8512      -36.67133              0
     13534.5000         0.4023         0.1553         0.4951       -88.1542      -36.97387              0
     13535.0000         0.3775         0.1388         0.4934       -88.4578      -37.27701              0
     13535.5000          0.364         0.1223         0.4918       -88.4152      -37.23394              0
     13536.0000         0.3533         0.1167         0.4902       -88.3589      -37.17719              0
     13536.5000         0.3639         0.1125         0.4886       -88.3027      -37.12052              0
     13537.0000         0.4184         0.1082         0.4869       -87.3096      -36.12696              0
     13537.5000         0.4746         0.1039         0.4815        -86.244       -35.0609              0
     13538.0000         0.5318         0.1136         0.4749       -85.0498      -33.86623              0
     13538.5000         0.5753         0.1376         0.4683       -83.4337      -32.24967     0.02273721
     13539.0000         0.6225         0.1617         0.4616       -81.7999      -30.61541     0.07226042
     13539.5000         0.7136         0.1857          0.455       -79.9309      -28.74595      0.1289106
     13540.0000         0.7453         0.2097         0.4485       -78.1772      -26.99179      0.1820671
     13540.5000         0.7773         0.2338         0.4424       -76.6189      -25.43302      0.2293024
     13541.0000         0.8097          0.258         0.4364       -75.1982      -24.01186      0.2723679
     13541.5000         0.8375         0.2824         0.4304       -74.2837       -23.0969       0.300094
     13542.0000         0.8573         0.3068         0.4243       -73.3713      -22.18404      0.3277565
     13542.5000         0.8462         0.3313         0.4183       -72.6033      -21.41558      0.3510431
     13543.0000         0.8289         0.3557         0.4123       -72.1194      -20.93121      0.3657208
     13543.5000         0.8098         0.3799         0.4077       -72.0905      -20.90185      0.3666106
     13544.0000         0.7834         0.3988         0.4031       -72.6377      -21.44859      0.3500426
     13544.5000         0.7566         0.4164         0.3986       -73.4668      -22.27723      0.3249326
     13545.0000         0.7075         0.3752         0.3941       -76.2104      -25.02037      0.2418071
     13545.5000         0.5917          0.334         0.3944       -80.6057       -29.4152      0.1086303
     13546.0000         0.4884         0.3061         0.3965       -83.8022      -32.61124     0.01178059
     13546.5000         0.4115         0.2843         0.3986       -85.1497      -33.95827              0
     13547.0000         0.3816         0.2626         0.4007       -86.0176      -34.82572              0
     13547.5000         0.3605         0.2408         0.4028       -86.4893      -35.29696              0
     13548.0000         0.3461          0.219         0.4049       -86.9622      -35.76939              0
     13548.5000         0.3355         0.2213         0.4054       -87.1259      -35.93263              0
     13549.0000         0.3301         0.2318         0.4057       -87.2579      -36.06416              0
     13549.5000         0.3248         0.2422          0.406       -87.3898      -36.19561              0
     13550.0000         0.3252         0.2525         0.4063       -87.4066      -36.21194              0
     13550.5000          0.328         0.2607         0.4066       -87.1985      -36.00338              0
     13551.0000         0.3349          0.269         0.4067        -86.991      -35.79542              0
     13551.5000         0.3538         0.2772         0.4032       -85.8445      -34.64846              0
     13552.0000         0.3727         0.2855         0.3997       -83.6824       -32.4859     0.01557888
     13552.5000         0.3936         0.2937         0.3963       -81.6979      -30.50093     0.07572937
     13553.0000         0.4157         0.3019         0.3928       -79.9575      -28.76007      0.1284828
     13553.5000         0.4423         0.2962         0.3893       -81.8755      -30.67761     0.07037538
     13554.0000         0.4479         0.2879         0.3892       -83.6824      -32.48405     0.01563483
     13554.5000         0.4437         0.2797         0.3937       -84.9454      -33.74658              0
     13555.0000         0.4395         0.2714         0.3982       -86.0376      -34.83832              0
     13555.5000         0.4353         0.2632         0.4026       -86.7268      -35.52706              0
     13556.0000         0.4311          0.255         0.4071       -87.3983       -36.1981              0
     13556.5000         0.4308         0.2467         0.4099       -87.7673      -36.56664              0
     13557.0000         0.4334         0.2385         0.4126       -88.0992      -36.89807              0
     13557.5000         0.4384         0.2389         0.4153        -88.009      -36.80742              0
     13558.0000         0.4575         0.2406         0.4181       -87.8018      -36.59975              0
     13558.5000         0.4741         0.2424         0.4184       -87.5592      -36.35669              0
     13559.0000         0.4761         0.2441         0.4143       -87.3873      -36.18433              0
     13559.5000         0.4711         0.2458         0.4101       -87.4164      -36.21296              0
     13560.0000          0.466         0.2586          0.406       -87.4454       -36.2415              0
     13560.5000         0.4689         0.2852         0.4018       -87.4746      -36.27024              0
     13561.0000         0.4737         0.3117         0.3981       -87.3639      -36.15908              0
     13561.5000         0.4786         0.3382         0.3946        -86.839      -35.63371              0
     13562.0000         0.4934         0.3647          0.391       -86.3151      -35.10936              0
     13562.5000          0.509         0.3945         0.3875       -85.6736      -34.46739              0
     13563.0000         0.5204         0.4245         0.3839       -84.7456      -33.53893              0
     13563.5000         0.5238         0.4545         0.3803       -83.8088      -32.60167     0.01207074
     13564.0000         0.5055         0.4382         0.3766       -84.3572       -33.1496              0
     13564.5000         0.4855         0.3989         0.3729       -85.2407      -34.03264              0
     13565.0000         0.4695         0.3596         0.3701       -86.1219      -34.91338              0
     13565.5000         0.4536         0.3203         0.3748       -86.6259      -35.41692              0
     13566.0000         0.4376         0.2906         0.3795       -86.9733      -35.76385              0
     13566.5000         0.4219         0.2637         0.3842       -87.3196       -36.1097              0
     13567.0000         0.4078         0.2369         0.3889       -87.5209      -36.31053              0
     13567.5000         0.3937         0.2101         0.3919       -87.5087      -36.29787              0
     13568.0000         0.3892         0.2063         0.3946       -87.4963      -36.28501              0
     13568.5000         0.3909         0.2157         0.3973       -87.4841      -36.27235              0
     13569.0000         0.3957         0.2251         0.4001       -87.4719      -36.25969              0
     13569.5000         0.4146         0.2345         0.4021       -87.0476      -35.83492              0
