#------------------------------------------------------------------------------
# Created by    : vladimir.rabinovich
# Created on    : 09/19/2023 17:20:47
#------------------------------------------------------------------------------
~Version Information Section
VERS.           2.0     :   CWLS log ASCII Standard - VERSION 2.0
WRAP.           NO      :   One line per depth step
~Well Information Section
#MNEM       .UNIT                                         VALUE :DESCRIPTION
#------------------------------------------------------------------------------
STRT        .FT                                             612 :START DEPTH
STOP        .FT                                            9868 :STOP DEPTH
STEP        .FT                                             0.5 :STEP      
NULL        .                                           -999.25 :NULL      
COMP        .                                      SHELL OIL CO :COMPANY   
WELL        .                               OCS G00950 ST00BP00 :WELL      
FLD         .                                           WILDCAT :FIELD     
LOC         .                                                   :LOCATION  
CNTY        .                                      EAST CAMERON :LOCATION  
STAT        .                                         LOUISIANA :STATE     
CTRY        .                                     UNITED STATES :COUNTRY   
SRVC        .                                                   :SERVICE COMPANY
DATE        .                             9/13/2023 11:18:15 AM :LOG DATE  
API         .                                    17703002450000 :API NUMBER
UWI         .                                    17703002450000 :UNIQUE WELL ID
XCOORD      .                                  1691932.89207312 :SURFACE X 
YCOORD      .                                   10460306.475122 :SURFACE Y 
LAT         .                                        28.8238717 :LATITUDE  
LON         .                                       -92.8390619 :LONGITUDE 
ELEV        .FT                                              75 :ELEVATION VALUE
ELEV_TYPE   .                                                KB :ELEVATION REFERENCE TYPE
~Curve Information Section
#MNEM       .UNIT                                      API CODE :CURVE DESCRIPTION
#------------------------------------------------------------------------------
DEPT        .FT                                                 :DEPTH     
ASN         .OHMM                                               :          
GR          .GAPI                                               :          
GR_NORM     .GAPI                                               :GammaRay Normalized
ILD         .OHMM                                               :          
SP          .MV                                                 :          
SP_NORM     .MV                                                 :SP Normalized
VSH_GR      .V/V                                                :Volume of Shale from GR
VSH_SP      .V/V                                                :Volume of Shale from SP
~A        DEPTH            ASN             GR        GR_NORM            ILD             SP        SP_NORM         VSH_GR         VSH_SP
# ...
      7987.0000         1.0408        -999.25        -999.25         0.7851        -35.405        -0.5535        -999.25      0.9920928
      7987.5000         1.0371        -999.25        -999.25         0.7799       -35.2877        -0.4483        -999.25      0.9935957
      7988.0000         1.0367        -999.25        -999.25         0.7735       -34.9521        -0.1247        -999.25      0.9982186
      7988.5000         1.0314        -999.25        -999.25         0.7672       -35.4135        -0.5982        -999.25      0.9914543
      7989.0000         1.0224        -999.25        -999.25         0.7608       -36.1441        -1.3408        -999.25      0.9808457
      7989.5000          1.015        -999.25        -999.25         0.7533       -36.3566        -1.5654        -999.25      0.9776372
      7990.0000         1.0106        -999.25        -999.25         0.7433       -35.6579        -0.8788        -999.25      0.9874457
      7990.5000         1.0101        -999.25        -999.25         0.7424       -35.4587        -0.6916        -999.25        0.99012
      7991.0000         1.0147        -999.25        -999.25         0.7415       -35.2576        -0.5026        -999.25        0.99282
      7991.5000           1.02        -999.25        -999.25         0.7434       -35.1418        -0.3988        -999.25      0.9943029
      7992.0000         1.0256        -999.25        -999.25         0.7477       -35.4958        -0.7649        -999.25      0.9890729
      7992.5000         1.0312        -999.25        -999.25         0.7492       -35.9397        -1.2208        -999.25        0.98256
      7993.0000         1.0379        -999.25        -999.25         0.7478       -35.8316        -1.1248        -999.25      0.9839314
      7993.5000         1.0446        -999.25        -999.25         0.7494       -35.5572        -0.8624        -999.25        0.98768
      7994.0000         1.0496        -999.25        -999.25         0.7549       -35.2153        -0.5326        -999.25      0.9923914
      7994.5000         1.0483        -999.25        -999.25         0.7601       -34.8518        -0.1812        -999.25      0.9974114
      7995.0000          1.044        -999.25        -999.25         0.7623        -34.489         0.1696        -999.25              1
      7995.5000         1.0427        -999.25        -999.25         0.7645       -34.0654         0.5811        -999.25              1
      7996.0000         1.0428        -999.25        -999.25         0.7638       -33.6319         1.0026        -999.25              1
      7996.5000         1.0446        -999.25        -999.25         0.7622        -32.816         1.8064        -999.25              1
      7997.0000         1.0467        -999.25        -999.25         0.7647        -33.246         1.3644        -999.25              1
      7997.5000         1.0488        -999.25        -999.25         0.7686       -33.4922         1.1061        -999.25              1
      7998.0000         1.0515        -999.25        -999.25          0.774       -33.8143         0.7719        -999.25              1
      7998.5000         1.0541        -999.25        -999.25         0.7814       -33.9972          0.577        -999.25              1
      7999.0000          1.057        -999.25        -999.25         0.7892       -33.9611          0.601        -999.25              1
      7999.5000           1.06        -999.25        -999.25         0.7956       -33.9173         0.6328        -999.25              1
      8000.0000         1.0612        -999.25        -999.25          0.801       -33.8704         0.6676        -999.25              1
      8000.5000         1.0525        -999.25        -999.25         0.8017       -33.8213         0.7047        -999.25              1
      8001.0000         1.0368        -999.25        -999.25         0.8044       -33.7859          0.728        -999.25              1
      8001.5000         1.0229        -999.25        -999.25         0.8166       -33.7599          0.742        -999.25              1
      8002.0000         1.0348        -999.25        -999.25         0.8273       -33.9241         0.5657        -999.25              1
      8002.5000         1.0388        -999.25        -999.25          0.831       -34.1985         0.2792        -999.25              1
      8003.0000         1.0389        -999.25        -999.25         0.8291       -34.6762        -0.2105        -999.25      0.9969929
      8003.5000         1.0444        -999.25        -999.25         0.8223       -36.3234        -1.8698        -999.25      0.9732886
      8004.0000          1.081        -999.25        -999.25         0.7885        -39.064        -4.6224        -999.25      0.9339657
      8004.5000         1.1401        -999.25        -999.25         0.7386       -42.2957        -7.8662        -999.25      0.8876257
      8005.0000         1.1894        -999.25        -999.25         0.6811       -46.9174       -12.4999        -999.25        0.82143
      8005.5000         1.2209        -999.25        -999.25         0.6268       -49.8519       -15.4465        -999.25      0.7793357
      8006.0000         1.1857        -999.25        -999.25         0.5707        -54.756       -20.3626        -999.25      0.7091057
      8006.5000         1.1385        -999.25        -999.25         0.5213       -57.6882       -23.3069        -999.25      0.6670443
      8007.0000         1.0869        -999.25        -999.25         0.4775       -60.0162        -25.647        -999.25      0.6336143
      8007.5000         1.0335        -999.25        -999.25         0.4301       -61.4749       -27.1177        -999.25      0.6126043
      8008.0000          0.956        -999.25        -999.25         0.3913        -64.682       -30.3369        -999.25      0.5666157
      8008.5000         0.8852        -999.25        -999.25         0.3678       -67.3833       -33.0502        -999.25      0.5278543
      8009.0000         0.8292        -999.25        -999.25         0.3508       -71.0375       -36.7165        -999.25      0.4754786
      8009.5000         0.7849        -999.25        -999.25         0.3388       -74.7112       -40.4022        -999.25      0.4228257
      8010.0000         0.7452        -999.25        -999.25         0.3346       -77.4911       -43.1942        -999.25        0.38294
      8010.5000         0.7429        -999.25        -999.25         0.3363       -77.0049         -42.72        -999.25      0.3897143
      8011.0000         0.7679        -999.25        -999.25         0.3485       -69.7556       -35.4828        -999.25      0.4931029
      8011.5000         0.8021        -999.25        -999.25         0.3691       -64.4561       -30.1954        -999.25      0.5686371
      8012.0000         0.8453        -999.25        -999.25         0.3952       -64.7201       -30.4714        -999.25      0.5646943
      8012.5000          0.847        -999.25        -999.25         0.4358       -64.5995       -30.3629        -999.25      0.5662443
      8013.0000         0.8478        -999.25        -999.25         0.4811       -63.3388       -29.1142        -999.25      0.5840828
      8013.5000         0.8642        -999.25        -999.25         0.5308       -55.0605        -20.848        -999.25      0.7021714
      8014.0000         0.8855        -999.25        -999.25          0.587       -47.2513       -13.0508        -999.25        0.81356
      8014.5000         0.9071        -999.25        -999.25         0.6495       -40.0659        -5.8775        -999.25      0.9160357
      8015.0000         0.9276        -999.25        -999.25         0.6956       -37.5292        -3.3529        -999.25      0.9521014
      8015.5000         0.9441        -999.25        -999.25         0.7284       -36.4536        -2.2893        -999.25      0.9672957
      8016.0000         0.9581        -999.25        -999.25         0.7401       -36.0435        -1.8913        -999.25      0.9729815
