#------------------------------------------------------------------------------
# Created by    : vladimir.rabinovich
# Created on    : 09/19/2023 17:20:47
#------------------------------------------------------------------------------
~Version Information Section
VERS.           2.0     :   CWLS log ASCII Standard - VERSION 2.0
WRAP.           NO      :   One line per depth step
~Well Information Section
#MNEM       .UNIT                                         VALUE :DESCRIPTION
#------------------------------------------------------------------------------
STRT        .FT                                             612 :START DEPTH
STOP        .FT                                            9868 :STOP DEPTH
STEP        .FT                                             0.5 :STEP      
NULL        .                                           -999.25 :NULL      
COMP        .                                      SHELL OIL CO :COMPANY   
WELL        .                               OCS G00950 ST00BP00 :WELL      
FLD         .                                           WILDCAT :FIELD     
LOC         .                                                   :LOCATION  
CNTY        .                                      EAST CAMERON :LOCATION  
STAT        .                                         LOUISIANA :STATE     
CTRY        .                                     UNITED STATES :COUNTRY   
SRVC        .                                                   :SERVICE COMPANY
DATE        .                             9/13/2023 11:18:15 AM :LOG DATE  
API         .                                    17703002450000 :API NUMBER
UWI         .                                    17703002450000 :UNIQUE WELL ID
XCOORD      .                                  1691932.89207312 :SURFACE X 
YCOORD      .                                   10460306.475122 :SURFACE Y 
LAT         .                                        28.8238717 :LATITUDE  
LON         .                                       -92.8390619 :LONGITUDE 
ELEV        .FT                                              75 :ELEVATION VALUE
ELEV_TYPE   .                                                KB :ELEVATION REFERENCE TYPE
~Curve Information Section
#MNEM       .UNIT                                      API CODE :CURVE DESCRIPTION
#------------------------------------------------------------------------------
DEPT        .FT                                                 :DEPTH     
ASN         .OHMM                                               :          
GR          .GAPI                                               :          
GR_NORM     .GAPI                                               :GammaRay Normalized
ILD         .OHMM                                               :          
SP          .MV                                                 :          
SP_NORM     .MV                                                 :SP Normalized
VSH_GR      .V/V                                                :Volume of Shale from GR
VSH_SP      .V/V                                                :Volume of Shale from SP
~A        DEPTH            ASN             GR        GR_NORM            ILD             SP        SP_NORM         VSH_GR         VSH_SP
# ...
      9845.5000         0.5078        -999.25        -999.25         0.3313       -39.9894        -2.2535        -999.25      0.9678071
      9846.0000          0.508        -999.25        -999.25         0.3284       -39.6025        -1.8666        -999.25      0.9733343
      9846.5000         0.5082        -999.25        -999.25         0.3258       -39.9777        -2.2418        -999.25      0.9679743
      9847.0000         0.5097        -999.25        -999.25          0.329       -40.2087        -2.4728        -999.25      0.9646743
      9847.5000         0.5115        -999.25        -999.25         0.3315       -40.4385        -2.7026        -999.25      0.9613914
      9848.0000         0.4945        -999.25        -999.25         0.3324       -40.6671        -2.9312        -999.25      0.9581257
      9848.5000         0.4947        -999.25        -999.25         0.3373       -40.8865        -3.1507        -999.25        0.95499
      9849.0000         0.4978        -999.25        -999.25         0.3469       -41.1123        -3.3764        -999.25      0.9517657
      9849.5000         0.5016        -999.25        -999.25         0.3577       -41.3538         -3.618        -999.25      0.9483143
      9850.0000         0.5058        -999.25        -999.25         0.3693       -41.5054        -3.7696        -999.25      0.9461486
      9850.5000         0.5015        -999.25        -999.25         0.3769       -40.9653        -3.2295        -999.25      0.9538643
      9851.0000         0.5012        -999.25        -999.25         0.3803       -40.3825        -2.6466        -999.25      0.9621914
      9851.5000         0.5011        -999.25        -999.25          0.378        -39.889        -2.1531        -999.25      0.9692414
      9852.0000           0.49        -999.25        -999.25         0.3715       -39.7203        -1.9844        -999.25      0.9716514
      9852.5000         0.4756        -999.25        -999.25          0.365       -39.6619         -1.926        -999.25      0.9724857
      9853.0000         0.4624        -999.25        -999.25         0.3566       -39.6863        -1.9504        -999.25      0.9721372
      9853.5000         0.4527        -999.25        -999.25         0.3475       -39.7117        -1.9758        -999.25      0.9717743
      9854.0000         0.4529        -999.25        -999.25         0.3376        -39.725        -1.9891        -999.25      0.9715843
      9854.5000         0.4534        -999.25        -999.25         0.3293       -39.6932        -1.9573        -999.25      0.9720386
      9855.0000         0.4505        -999.25        -999.25         0.2887       -39.4814        -1.7455        -999.25      0.9750643
      9855.5000         0.4459        -999.25        -999.25         0.2721       -39.3084        -1.5725        -999.25      0.9775357
      9856.0000         0.4438        -999.25        -999.25         0.2788       -39.3123        -1.5765        -999.25      0.9774786
      9856.5000         0.4451        -999.25        -999.25         0.2857        -39.584        -1.8481        -999.25      0.9735986
      9857.0000         0.4481        -999.25        -999.25         0.2894       -39.2007        -1.4648        -999.25      0.9790743
      9857.5000          0.453        -999.25        -999.25         0.2928        -40.035        -2.2991        -999.25      0.9671557
      9858.0000          0.458        -999.25        -999.25         0.2994       -40.9247        -3.1889        -999.25      0.9544443
      9858.5000         0.4638        -999.25        -999.25         0.3049       -41.6394        -3.9035        -999.25      0.9442357
      9859.0000         0.4694        -999.25        -999.25         0.3086       -42.8223        -5.0864        -999.25      0.9273372
      9859.5000         0.4744        -999.25        -999.25         0.3106       -45.0034        -7.2675        -999.25      0.8961785
      9860.0000         0.4805        -999.25        -999.25         0.3118       -46.6768        -8.9409        -999.25      0.8722728
      9860.5000         0.4858        -999.25        -999.25         0.3102       -48.4537       -10.7178        -999.25      0.8468885
      9861.0000         0.4867        -999.25        -999.25         0.3073       -50.3021       -12.5662        -999.25      0.8204829
      9861.5000         0.4818        -999.25        -999.25         0.3061       -51.3052       -13.5693        -999.25      0.8061529
      9862.0000         0.4801        -999.25        -999.25         0.3061       -51.8536       -14.1177        -999.25      0.7983186
      9862.5000         0.4885        -999.25        -999.25         0.3099        -52.434       -14.6981        -999.25      0.7900271
      9863.0000         0.4965        -999.25        -999.25         0.3144       -53.5775       -15.8416        -999.25      0.7736914
      9863.5000         0.4974        -999.25        -999.25         0.3193       -54.4431       -16.7072        -999.25      0.7613257
      9864.0000         0.4927        -999.25        -999.25         0.3217       -54.8442       -17.1083        -999.25      0.7555957
      9864.5000         0.4908        -999.25        -999.25         0.3212        -55.172       -17.4361        -999.25      0.7509128
      9865.0000         0.4927        -999.25        -999.25         0.3204       -55.8768       -18.1409        -999.25      0.7408443
      9865.5000         0.4962        -999.25        -999.25         0.3196       -56.8047       -19.0688        -999.25      0.7275886
      9866.0000         0.4979        -999.25        -999.25         0.3188       -57.9224       -20.1866        -999.25        0.71162
      9866.5000         0.4996        -999.25        -999.25         0.3171       -59.1128       -21.3769        -999.25      0.6946157
      9867.0000         0.5014        -999.25        -999.25         0.3144       -60.2908       -22.5549        -999.25      0.6777871
      9867.5000         0.5009        -999.25        -999.25         0.3095       -61.1472       -23.4114        -999.25      0.6655514
      9868.0000            0.5        -999.25        -999.25         0.3058       -61.8915       -24.1556        -999.25        0.65492
