#------------------------------------------------------------------------------
# Created by    : vladimir.rabinovich
# Created on    : 09/19/2023 17:21:07
#------------------------------------------------------------------------------
~Version Information Section
VERS.           2.0     :   CWLS log ASCII Standard - VERSION 2.0
WRAP.           NO      :   One line per depth step
~Well Information Section
#MNEM       .UNIT                                         VALUE :DESCRIPTION
#------------------------------------------------------------------------------
STRT        .FT                                            3895 :START DEPTH
STOP        .FT                                         10595.5 :STOP DEPTH
STEP        .FT                                             0.5 :STEP      
NULL        .                                           -999.25 :NULL      
COMP        .                               TALOS PETROLEUM LLC :COMPANY   
WELL        .                                OCS 00300 ST00BP00 :WELL      
FLD         .                           WEST CAMERON BLOCK 0045 :FIELD     
LOC         .                                                   :LOCATION  
CNTY        .                                      WEST CAMERON :LOCATION  
STAT        .                                         LOUISIANA :STATE     
CTRY        .                                     UNITED STATES :COUNTRY   
SRVC        .                                                   :SERVICE COMPANY
DATE        .                             9/13/2023 11:18:36 AM :LOG DATE  
API         .                                    17700410070000 :API NUMBER
UWI         .                                    17700410070000 :UNIQUE WELL ID
XCOORD      .                                  1453771.49108141 :SURFACE X 
YCOORD      .                                  10773222.7644816 :SURFACE Y 
LAT         .                                        29.6835328 :LATITUDE  
LON         .                                       -93.5879752 :LONGITUDE 
ELEV        .FT                                             100 :ELEVATION VALUE
ELEV_TYPE   .                                                KB :ELEVATION REFERENCE TYPE
~Curve Information Section
#MNEM       .UNIT                                      API CODE :CURVE DESCRIPTION
#------------------------------------------------------------------------------
DEPT        .FT                                                 :DEPTH     
ATR         .OHMM                                               :          
CATR        .MMHO                                               :          
DCAL        .IN                                                 :          
DRHB        .G/C3                                               :          
GR          .GAPI                                               :          
GR_NORM     .GAPI                                               :GammaRay Normalized
PSR         .OHMM                                               :          
RHOB        .G/C3                                               :          
ROP5        .F/HR                                               :          
TNPH        .%                                                  :          
VSH_GR      .V/V                                                :Volume of Shale from GR
~A        DEPTH            ATR           CATR           DCAL           DRHB             GR        GR_NORM            PSR           RHOB           ROP5           TNPH         VSH_GR
# ...
      8372.5000           0.18       5555.555           0.58           0.08        61.1899        56.2272           0.19           2.14         122.46             37      0.4941957
      8373.0000           0.17       5882.352           0.66           0.09           53.9        51.4729           0.19           2.14          129.5             35      0.3930404
      8373.5000           0.18       5555.555           0.66            0.1          49.23        48.4273           0.19           2.15       145.1699             34      0.3282404
      8374.0000           0.18       5555.555           0.68            0.1           46.5        46.6468           0.19           2.15       165.1499             35      0.2903575
      8374.5000           0.18       5555.555           0.67            0.1          47.31        47.1751            0.2           2.16         178.22             34      0.3015978
      8375.0000           0.18       5555.555            0.7           0.12           48.2        47.7555            0.2           2.16            180             34      0.3139468
      8375.5000           0.17       5882.352           0.79            0.1          47.11        47.0447           0.19           2.13         174.75             35      0.2988234
      8376.0000           0.17       5882.352           0.84            0.1          47.15        47.0708           0.19           2.12         174.75             35      0.2993788
      8376.5000           0.17       5882.352           0.84            0.1          46.05        46.3534           0.19           2.12         176.47             36      0.2841149
      8377.0000           0.18       5555.555           0.77           0.11          47.89        47.5534            0.2           2.14       174.7598             35      0.3096468
      8377.5000           0.18       5555.555           0.68           0.12          47.43        47.2534            0.2           2.15         168.22             35      0.3032638
      8378.0000           0.18       5555.555           0.62           0.11          47.28        47.1555           0.19           2.17       163.6399             35      0.3011808
      8378.5000           0.19       5263.156           0.53           0.08          46.74        46.8034            0.2           2.18       162.1699             36      0.2936893
      8379.0000            0.2           5000           0.56           0.06          48.48        47.9381           0.22           2.19       147.5398             38      0.3178319
      8379.5000            0.2           5000           0.56           0.07          51.36        49.8164           0.24           2.19       150.0098             38      0.3577957
      8380.0000           0.19       5263.156           0.59           0.06          53.42        51.1599           0.22           2.17       150.0098             37      0.3863809
      8380.5000           0.18       5555.555           0.58           0.06          55.47        52.4968           0.19           2.16       151.2598             37      0.4148255
      8381.0000           0.17       5882.352           0.59           0.07          56.34        53.0642           0.19           2.16       148.7698             37      0.4268979
      8381.5000           0.17       5882.352           0.67           0.08          57.11        53.5664           0.18           2.14       148.7598             37      0.4375829
      8382.0000           0.17       5882.352           0.69           0.08          54.83        52.0794           0.18           2.13       148.7598             38      0.4059447
      8382.5000           0.17       5882.352           0.75           0.08          53.86        51.4468           0.18           2.11            150             38      0.3924851
      8383.0000           0.17       5882.352           0.74           0.07        54.7599        52.0337           0.18           2.12       148.7598             39      0.4049723
      8383.5000           0.17       5882.352           0.72           0.09          55.77        52.6925           0.18           2.13       146.3499             37      0.4189894
      8384.0000           0.17       5882.352           0.68           0.07          55.92        52.7903           0.18           2.12       156.5298             37      0.4210702
      8384.5000           0.17       5882.352           0.64           0.09          53.37        51.1273           0.18           2.14       153.8499             38      0.3856872
      8385.0000           0.17       5882.352            0.6           0.09          52.95        50.8534           0.18           2.15       156.5198             39      0.3798596
      8385.5000           0.17       5882.352           0.56            0.1          53.41        51.1534           0.18           2.17       152.5498             40      0.3862426
      8386.0000           0.17       5882.352           0.58           0.09        55.5099        52.5229           0.18           2.16       151.2698             38      0.4153808
      8386.5000           0.17       5882.352            0.6           0.07          56.18        52.9599           0.18           2.14       153.8499             38      0.4246787
      8387.0000           0.16           6250           0.63           0.05          55.11        52.2621           0.18           2.13       153.8499             37      0.4098319
      8387.5000           0.16           6250           0.57           0.05          51.14        49.6729           0.19           2.13       156.5298             38      0.3547426
      8388.0000           0.17       5882.352           0.53           0.07          46.99        46.9664           0.18           2.15       156.5298             37      0.2971574
      8388.5000           0.16           6250           0.49            0.1          42.41        43.9794           0.18           2.15       155.1699             37      0.2336043
      8389.0000           0.16           6250           0.57            0.1           41.2        43.1903           0.17           2.14       159.2898             37      0.2168149
      8389.5000           0.16           6250            0.7            0.1           41.8        43.5816           0.17           2.13         160.71             37      0.2251404
      8390.0000           0.15       6666.664           0.79           0.08          43.73        44.8403           0.17           2.11         160.72             39      0.2519213
      8390.5000           0.18       5555.555            0.8           0.08          47.75        47.4621           0.18           2.13       166.6599             39      0.3077043
      8391.0000           0.19       5263.156           0.82           0.08          52.17        50.3447           0.19           2.14         174.74             39      0.3690362
      8391.5000           0.26       3846.152           0.81           0.08        59.5699        55.1707           0.27           2.17         174.74             38       0.471717
      8392.0000           0.31       3225.805           0.79           0.11          73.45        64.2229           0.32           2.21            180             38       0.664317
      8392.5000            0.4           2500           0.72           0.16        87.0299        73.0794           0.49           2.24       185.5598             38      0.8527532
      8393.0000           0.41       2439.023           0.77           0.22           86.6         72.799           0.62            2.3       193.5498             37      0.8467873
      8393.5000           0.29       3448.273           0.75           0.17          73.59        64.3142           0.35           2.25          187.5             38      0.6662596
      8394.0000           0.24       4166.664           0.73           0.12          53.53        51.2316           0.23           2.23          187.5             37      0.3879064
      8394.5000           0.22       4545.453            0.7           0.07        43.0099        44.3707           0.19           2.21       137.3999             36      0.2419298
