#------------------------------------------------------------------------------
# Created by    : vladimir.rabinovich
# Created on    : 09/19/2023 17:22:32
#------------------------------------------------------------------------------
~Version Information Section
VERS.           2.0     :   CWLS log ASCII Standard - VERSION 2.0
WRAP.           NO      :   One line per depth step
~Well Information Section
#MNEM       .UNIT                                         VALUE :DESCRIPTION
#------------------------------------------------------------------------------
STRT        .FT                                            2450 :START DEPTH
STOP        .FT                                            9560 :STOP DEPTH
STEP        .FT                                             0.5 :STEP      
NULL        .                                           -999.25 :NULL      
COMP        .                               TALOS PETROLEUM LLC :COMPANY   
WELL        .                                OCS 00301 ST00BP00 :WELL      
FLD         .                           WEST CAMERON BLOCK 0045 :FIELD     
LOC         .                                                   :LOCATION  
CNTY        .                                      WEST CAMERON :LOCATION  
STAT        .                                         LOUISIANA :STATE     
CTRY        .                                     UNITED STATES :COUNTRY   
SRVC        .                                                   :SERVICE COMPANY
DATE        .                             9/13/2023 11:18:49 AM :LOG DATE  
API         .                                    17700410870000 :API NUMBER
UWI         .                                    17700410870000 :UNIQUE WELL ID
XCOORD      .                                  1447194.98921956 :SURFACE X 
YCOORD      .                                  10757079.9124673 :SURFACE Y 
LAT         .                                        29.6390336 :LATITUDE  
LON         .                                       -93.6084245 :LONGITUDE 
ELEV        .FT                                              96 :ELEVATION VALUE
ELEV_TYPE   .                                                KB :ELEVATION REFERENCE TYPE
~Curve Information Section
#MNEM       .UNIT                                      API CODE :CURVE DESCRIPTION
#------------------------------------------------------------------------------
DEPT        .FT                                                 :DEPTH     
CNC         .%                                                  :          
DCAL        .IN                                                 :          
GR          .GAPI                                               :          
GR_NORM     .GAPI                                               :GammaRay Normalized
M0C6        .MMHO                                               :          
M2R1        .OHMM                                               :          
M2R2        .OHMM                                               :          
M2R3        .OHMM                                               :          
M2R6        .OHMM                                               :          
M2R9        .OHMM                                               :          
M2RX        .OHMM                                               :          
SP          .MV                                                 :          
SP_NORM     .MV                                                 :SP Normalized
TEN         .LB/F                                               :          
VSH_GR      .V/V                                                :Volume of Shale from GR
VSH_SP      .V/V                                                :Volume of Shale from SP
ZCOR        .G/CC                                               :          
ZDEN        .G/CC                                               :          
~A        DEPTH            CNC           DCAL             GR        GR_NORM           M0C6           M2R1           M2R2           M2R3           M2R6           M2R9           M2RX             SP        SP_NORM            TEN         VSH_GR         VSH_SP           ZCOR           ZDEN
# ...
      3388.0000        -999.25          4.544         56.001       55.83576       2010.605          0.875          0.643          0.537          0.481          0.454          0.451         -29.33       -30.5431         -4.659      0.4858672      0.3657089        -999.25        -999.25
      3388.5000        -999.25          4.104         58.657       59.17242       1963.723          0.886          0.652           0.55          0.496          0.471          0.469        -28.273       -29.4902         -6.332      0.5568599      0.3891067        -999.25        -999.25
      3389.0000        -999.25          3.819         61.446       62.67616       1908.522          0.909          0.671          0.572           0.52          0.495          0.494        -26.508       -27.7293        -14.483      0.6314077      0.4282378        -999.25        -999.25
      3389.5000        -999.25          3.712         65.189        67.3784       1847.972          0.929          0.694          0.598          0.548          0.523          0.524        -24.258       -25.4834        -24.346      0.7314552      0.4781467        -999.25        -999.25
      3390.0000        -999.25          3.867         69.576       72.88966       1785.545           0.93           0.71          0.621          0.575          0.551          0.554         -21.85       -23.0795        -39.123      0.8487163      0.5315667        -999.25        -999.25
      3390.5000        -999.25          4.188         70.884       74.53286       1724.678          0.914          0.718          0.638          0.597          0.575           0.58        -19.695       -20.9286        -46.942      0.8836778      0.5793644        -999.25        -999.25
      3391.0000        -999.25          4.391         68.324       71.31682       1668.305            0.9          0.727          0.656           0.62          0.599          0.607        -18.462       -19.6997         -35.49      0.8152515      0.6066734        -999.25        -999.25
      3391.5000        -999.25          4.503         65.467       67.72763       1618.566          0.891          0.741          0.678          0.646          0.627          0.637        -18.451       -19.6928        -18.492      0.7388858      0.6068267        -999.25        -999.25
      3392.0000        -999.25          4.808         62.749       64.31309       1576.753          0.876           0.75          0.695          0.668          0.651          0.664        -19.182       -20.4279        -15.843      0.6662359      0.5904911        -999.25        -999.25
      3392.5000        -999.25          5.294         60.396       61.35707       1543.376          0.845          0.748          0.701          0.678          0.664          0.679        -19.829        -21.079        -31.364      0.6033419      0.5760222        -999.25        -999.25
      3393.0000        -999.25           5.73         61.239       62.41611       1518.373          0.809          0.736          0.697          0.678          0.668          0.683        -19.846       -21.1001        -55.196      0.6258747      0.5755534        -999.25        -999.25
      3393.5000        -999.25          5.958         64.297        66.2578       1501.286          0.781          0.725          0.692          0.676          0.668          0.684        -19.184       -20.4422        -65.168      0.7076127      0.5901734        -999.25        -999.25
      3394.0000        -999.25          5.903         66.323       68.80302       1491.431          0.768          0.719          0.688          0.675          0.669          0.685        -18.285       -19.5473        -49.076      0.7617663        0.61006        -999.25        -999.25
      3394.5000        -999.25          5.647         65.748       68.08065       1487.955          0.767          0.717          0.687          0.675           0.67          0.686        -17.655       -18.9214        -32.777      0.7463968      0.6239689        -999.25        -999.25
      3395.0000        -999.25          5.421         63.347       65.06434       1489.864          0.779          0.721          0.689          0.677          0.673          0.689         -17.55       -18.8205        -36.823        0.68222      0.6262111        -999.25        -999.25
      3395.5000        -999.25          5.356         60.613       61.62969       1495.997          0.798          0.728          0.693          0.679          0.676          0.691        -17.858       -19.1326        -44.163      0.6091424      0.6192755        -999.25        -999.25
      3396.0000        -999.25          5.354         59.341        60.0317       1505.048          0.813           0.73           0.69          0.674          0.671          0.685        -18.229       -19.5077        -39.126      0.5751426        0.61094        -999.25        -999.25
      3396.5000        -999.25          5.278         59.375       60.07442       1515.622          0.812          0.719          0.676          0.658          0.654          0.666        -18.375       -19.6578        -27.904      0.5760516      0.6076044        -999.25        -999.25
      3397.0000        -999.25          5.145         60.393       61.35331       1526.354          0.808          0.708          0.661          0.641          0.636          0.647        -18.457       -19.7439        -16.821      0.6032619      0.6056911        -999.25        -999.25
      3397.5000        -999.25          5.016         60.843       61.91863       1536.039          0.827          0.716          0.662           0.64          0.634          0.643        -19.032        -20.323         -8.983        0.61529      0.5928222        -999.25        -999.25
      3398.0000        -999.25          4.834         59.299       59.97894       1543.713          0.876          0.746          0.684          0.658           0.65          0.658         -20.29       -21.5851        -15.437      0.5740201      0.5647755        -999.25        -999.25
      3398.5000        -999.25          4.652          57.35       57.53047       1548.701          0.923          0.776          0.705          0.675          0.665          0.672        -21.713       -23.0121        -30.281      0.5219249      0.5330644        -999.25        -999.25
      3399.0000        -999.25          4.668         57.651       57.90862        1550.59          0.925          0.775          0.702          0.671           0.66          0.666        -22.708       -24.0112        -39.714      0.5299705      0.5108622        -999.25        -999.25
      3399.5000        -999.25          4.896         61.016       62.13597       1549.151           0.89          0.749           0.68          0.649          0.638          0.643        -23.052       -24.3593         -44.86      0.6199142      0.5031267        -999.25        -999.25
      3400.0000        -999.25          5.071         64.912        67.0304       1544.288          0.856          0.725          0.661          0.631           0.62          0.623        -22.749       -24.0604        -44.482      0.7240511      0.5097689        -999.25        -999.25
      3400.5000        -999.25          4.867         66.203       68.65224       1535.943          0.851          0.723           0.66           0.63          0.618          0.621        -22.032       -23.3475         -39.87      0.7585584      0.5256111        -999.25        -999.25
      3401.0000        -999.25          4.227         65.066       67.22388       1524.078           0.88          0.745          0.678          0.647          0.634          0.637        -21.275       -22.5946        -38.662      0.7281678      0.5423422        -999.25        -999.25
      3401.5000        -999.25           3.46         63.847       65.69247       1508.643          0.923          0.775          0.704           0.67          0.656          0.659        -20.701       -22.0247        -35.132      0.6955845      0.5550067        -999.25        -999.25
