#------------------------------------------------------------------------------
# Created by    : vladimir.rabinovich
# Created on    : 09/19/2023 17:20:47
#------------------------------------------------------------------------------
~Version Information Section
VERS.           2.0     :   CWLS log ASCII Standard - VERSION 2.0
WRAP.           NO      :   One line per depth step
~Well Information Section
#MNEM       .UNIT                                         VALUE :DESCRIPTION
#------------------------------------------------------------------------------
STRT        .FT                                            2030 :START DEPTH
STOP        .FT                                            9342 :STOP DEPTH
STEP        .FT                                             0.5 :STEP      
NULL        .                                           -999.25 :NULL      
COMP        .                                      SHELL OIL CO :COMPANY   
WELL        .                               OCS G00950 ST00BP00 :WELL      
FLD         .                           EAST CAMERON BLOCK 0193 :FIELD     
LOC         .                                                   :LOCATION  
CNTY        .                                      EAST CAMERON :LOCATION  
STAT        .                                         LOUISIANA :STATE     
CTRY        .                                     UNITED STATES :COUNTRY   
SRVC        .                                                   :SERVICE COMPANY
DATE        .                             9/13/2023 11:18:15 AM :LOG DATE  
API         .                                    17703004920000 :API NUMBER
UWI         .                                    17703004920000 :UNIQUE WELL ID
XCOORD      .                                  1684363.85071557 :SURFACE X 
YCOORD      .                                  10458597.1936422 :SURFACE Y 
LAT         .                                        28.8191951 :LATITUDE  
LON         .                                       -92.8627139 :LONGITUDE 
ELEV        .FT                                              75 :ELEVATION VALUE
ELEV_TYPE   .                                                KB :ELEVATION REFERENCE TYPE
~Curve Information Section
#MNEM       .UNIT                                      API CODE :CURVE DESCRIPTION
#------------------------------------------------------------------------------
DEPT        .FT                                                 :DEPTH     
ASN         .OHMM                                               :          
CILM        .MMHO                                               :          
ILM         .OHMM                                               :          
LN          .OHMM                                               :          
SP          .MV                                                 :          
SP_NORM     .MV                                                 :SP Normalized
VSH_SP      .V/V                                                :Volume of Shale from SP
~A        DEPTH            ASN           CILM            ILM             LN             SP        SP_NORM         VSH_SP
# ...
      5413.5000         0.3311       4569.125         0.4161        -999.25      -120.8917        -56.579      0.1973677
      5414.0000          0.337       4498.016          0.429        -999.25      -118.1271       -53.8293      0.2378044
      5414.5000         0.3429       4401.664         0.4419        -999.25      -113.8347       -49.5518      0.3007088
      5415.0000         0.3485       4342.594         0.4548        -999.25      -109.9851        -45.717       0.357103
      5415.5000         0.3536       4279.977         0.4596        -999.25      -107.3168       -43.0636      0.3961236
      5416.0000         0.3586        4205.68         0.4573        -999.25      -105.9901       -41.7518      0.4154147
      5416.5000          0.355       4131.266         0.4549        -999.25        -112.77       -48.5466      0.3154912
      5417.0000         0.3488       4098.406         0.4525        -999.25      -123.5583       -59.3498      0.1566206
      5417.5000         0.3468        4126.93         0.4502        -999.25      -128.3853       -64.1917     0.08541612
      5418.0000         0.3503        4159.32         0.4473        -999.25      -127.5161       -63.3374     0.09797943
      5418.5000         0.3538       4307.555         0.4434        -999.25      -126.1101       -61.9463      0.1184368
      5419.0000         0.3552       4537.273         0.4395        -999.25      -124.7042       -60.5553      0.1388926
      5419.5000         0.3475       4613.414         0.4356        -999.25        -122.46        -58.326      0.1716765
      5420.0000         0.3397       4559.914         0.4317        -999.25      -119.1038       -54.9847      0.2208132
      5420.5000         0.3319       4457.406         0.4278        -999.25      -116.3796       -52.2754      0.2606559
      5421.0000         0.3253       4378.531         0.4258        -999.25      -113.9597       -49.8704      0.2960235
      5421.5000          0.319       4309.891         0.4271        -999.25      -112.4203       -48.3459      0.3184426
      5422.0000         0.3238       4265.781         0.4284        -999.25      -110.8875        -46.828      0.3407647
      5422.5000          0.329       4228.719         0.4297        -999.25      -109.6632       -45.6186        0.35855
      5423.0000         0.3341       4196.602          0.431        -999.25      -110.7971       -46.7674      0.3416559
      5423.5000         0.3393       4168.234         0.4356        -999.25      -112.1685       -48.1537      0.3212691
      5424.0000         0.3444       4129.313         0.4413        -999.25      -114.2859       -50.2859      0.2899132
      5424.5000         0.3487       4248.352         0.4471        -999.25      -119.9623       -55.9772      0.2062176
      5425.0000         0.3527       4350.227         0.4528        -999.25      -122.4076       -58.4374      0.1700382
      5425.5000         0.3568       4420.125         0.4585        -999.25      -123.5736       -59.6183       0.152672
      5426.0000         0.3601       4460.148          0.477        -999.25      -124.3044        -60.364      0.1417059
      5426.5000         0.3594       4424.977         0.4965        -999.25      -124.2419       -60.3164      0.1424059
      5427.0000         0.3588       4339.445         0.5161        -999.25      -118.5225       -54.6119      0.2262956
      5427.5000         0.3581       4251.047         0.5356        -999.25      -114.5073       -50.6116      0.2851236
      5428.0000         0.3683       4149.523         0.5552        -999.25       -98.5613       -34.6805      0.5194044
      5428.5000         0.3864       4070.559         0.5609        -999.25       -87.2389        -23.373      0.6856912
      5429.0000         0.4028       2938.805         0.5638        -999.25       -80.8679       -17.0169      0.7791632
      5429.5000           0.41       2709.352         0.5667        -999.25       -76.8021        -12.966      0.8387353
      5430.0000         0.4171       2602.801         0.5636        -999.25       -74.9077       -11.0865       0.866375
      5430.5000          0.423       2452.227          0.552        -999.25       -74.0662       -10.2599      0.8785309
      5431.0000         0.4248       2555.543         0.5404        -999.25       -73.3809        -9.5895      0.8883897
      5431.5000         0.4267       2698.164         0.5288        -999.25       -72.6626        -8.8861      0.8987339
      5432.0000         0.4264        2765.77         0.5172        -999.25       -79.9824       -16.2208      0.7908706
      5432.5000         0.4247       2824.121         0.5056        -999.25       -84.1396       -20.3929      0.7295161
      5433.0000          0.423       2872.141         0.4996        -999.25       -86.7354       -23.0036      0.6911235
      5433.5000         0.4216       2917.063         0.4962        -999.25       -87.9005       -24.1835       0.673772
      5434.0000         0.4246       2955.109         0.4928        -999.25       -89.0657       -25.3636      0.6564177
      5434.5000         0.4276       2993.156         0.4894        -999.25        -86.928       -23.2408      0.6876353
      5435.0000         0.4306       3025.973         0.4859        -999.25       -84.3204       -20.6481      0.7257633
      5435.5000         0.4337       3052.383         0.4825        -999.25       -85.6251       -21.9677      0.7063574
      5436.0000         0.4382       3064.559         0.4791        -999.25       -90.0205        -26.378         0.6415
      5436.5000         0.4438       3075.613         0.4757        -999.25       -92.8376         -29.21       0.599853
      5437.0000         0.4494       3075.734         0.4723        -999.25       -95.2863       -31.6736      0.5636235
      5437.5000         0.4549       3029.227         0.4777        -999.25       -97.0201       -33.4223      0.5379074
      5438.0000          0.452       2972.941         0.4915        -999.25       -95.0564       -31.4735      0.5665662
      5438.5000          0.448       2873.039         0.5053        -999.25       -90.8689       -27.3009       0.627928
      5439.0000         0.4447       2819.496         0.5191        -999.25       -84.6635       -21.1104      0.7189647
      5439.5000         0.4415       2765.996         0.5328        -999.25        -71.418        -7.8798      0.9135324
      5440.0000         0.4382       2686.172         0.5466        -999.25       -67.2878        -3.7645      0.9740515
      5440.5000         0.4471       2577.105         0.5604        -999.25       -66.3508        -2.8424      0.9876118
      5441.0000         0.4566       2404.254         0.5742        -999.25       -65.4628        -1.9693              1
      5441.5000          0.466       2162.535          0.588        -999.25        -64.535        -1.0564              1
      5442.0000         0.4754        2102.84         0.5988        -999.25       -63.5574        -0.0937              1
      5442.5000         0.4848       2070.563         0.6087        -999.25       -63.7607        -0.3119              1
      5443.0000         0.4916       2051.402         0.6186        -999.25       -64.3977        -0.9637              1
      5443.5000         0.4972       2032.246         0.6286        -999.25       -65.0344        -1.6153              1
      5444.0000         0.5028       2012.594         0.6298        -999.25        -65.671        -2.2668      0.9960765
      5444.5000         0.5084       1988.629         0.6238        -999.25        -65.241        -1.8517              1
      5445.0000         0.5107       1993.256         0.6179        -999.25       -64.4633        -1.0889              1
      5445.5000          0.507       2016.457         0.6119        -999.25        -63.647        -0.2875              1
      5446.0000          0.501       2039.637         0.6059        -999.25       -62.8316          0.513              1
      5446.5000         0.4951       2062.836         0.5999        -999.25       -62.1498         1.1799              1
