#------------------------------------------------------------------------------
# Created by    : vladimir.rabinovich
# Created on    : 09/19/2023 17:22:07
#------------------------------------------------------------------------------
~Version Information Section
VERS.           2.0     :   CWLS log ASCII Standard - VERSION 2.0
WRAP.           NO      :   One line per depth step
~Well Information Section
#MNEM       .UNIT                                         VALUE :DESCRIPTION
#------------------------------------------------------------------------------
STRT        .FT                                            4421 :START DEPTH
STOP        .FT                                           11895 :STOP DEPTH
STEP        .FT                                             0.5 :STEP      
NULL        .                                           -999.25 :NULL      
COMP        .                MURPHY EXPLORATION & PRODUCTION CO :COMPANY   
WELL        .                               OCS G02828 ST00BP00 :WELL      
FLD         .                           WEST CAMERON BLOCK 0116 :FIELD     
LOC         .                                                   :LOCATION  
CNTY        .                                      WEST CAMERON :LOCATION  
STAT        .                                         LOUISIANA :STATE     
CTRY        .                                     UNITED STATES :COUNTRY   
SRVC        .                                                   :SERVICE COMPANY
DATE        .                             9/13/2023 11:18:31 AM :LOG DATE  
API         .                                    17700404120000 :API NUMBER
UWI         .                                    17700404120000 :UNIQUE WELL ID
XCOORD      .                                  1472413.58592246 :SURFACE X 
YCOORD      .                                  10706677.6123634 :SURFACE Y 
LAT         .                                         29.500724 :LATITUDE  
LON         .                                        -93.528296 :LONGITUDE 
ELEV        .FT                                              75 :ELEVATION VALUE
ELEV_TYPE   .                                                KB :ELEVATION REFERENCE TYPE
~Curve Information Section
#MNEM       .UNIT                                      API CODE :CURVE DESCRIPTION
#------------------------------------------------------------------------------
DEPT        .FT                                                 :DEPTH     
CALI        .IN                                                 :          
DRHO        .G/C3                                               :          
DT          .US/F                                               :          
GR          .GAPI                                               :          
GR_1        .GAPI                                               :          
GR_NORM     .GAPI                                               :GammaRay Normalized
ILD         .OHMM                                               :          
NPHI        .%                                                  :          
RHOB        .G/C3                                               :          
SFL         .OHMM                                               :          
SP          .MV                                                 :          
SP_NORM     .MV                                                 :SP Normalized
VSH_GR      .V/V                                                :Volume of Shale from GR
VSH_SP      .V/V                                                :Volume of Shale from SP
~A        DEPTH           CALI           DRHO             DT             GR           GR_1        GR_NORM            ILD           NPHI           RHOB            SFL             SP        SP_NORM         VSH_GR         VSH_SP
# ...
      5501.0000        11.0233        -0.0016       120.2491        60.1778        -999.25       67.79085         0.4712        38.6976         2.1161         1.1036       -80.2317       -25.8503      0.7402308      0.6214238
      5501.5000        11.0076         0.0084       123.0894        64.0027        -999.25       71.85926         0.4811        37.9939         2.1587         0.7374       -75.0354       -20.6128      0.8267928      0.7045587
      5502.0000          11.02         0.0201        126.882        66.9092        -999.25       74.95064         0.5008        39.2736          2.188         0.5832        -71.595       -17.1311      0.8925667      0.7598238
      5502.5000        11.1398         0.0151        128.231        67.8986        -999.25       76.00256         0.5196        40.9155         2.1955          0.511       -75.4548       -20.9497       0.914948      0.6992111
      5503.0000        11.2333         0.0123       123.9977         65.854        -999.25       73.82681         0.5428        42.5862         2.1787         0.6762       -82.0258       -27.4795      0.8686554      0.5955635
      5503.5000        11.2849         0.0115       118.4545        62.8181        -999.25       70.59648         0.5695        42.2838         2.1517         0.9847       -87.3751       -32.7875      0.7999251      0.5113096
      5504.0000        11.2351         0.0096       113.2883        60.8397        -999.25       68.49117         0.6057        41.0276         2.1297         1.2813       -91.5178        -36.889      0.7551314      0.4462064
      5504.5000        11.1714         0.0047       108.8027         60.063        -999.25       67.66426         0.6429        39.2751         2.1158         1.4298       -91.0946       -36.4245      0.7375374      0.4535794
      5505.0000        11.1443         0.0041       105.3616        61.0143        -999.25       68.67564         0.6748        37.7439         2.1181         1.4016       -86.5182       -31.8069      0.7590563      0.5268746
      5505.5000        11.1631         0.0084       106.4731        63.0233        -999.25       70.81224         0.6974        36.9944         2.1417         1.1732       -82.1388       -27.3863      0.8045158      0.5970429
      5506.0000        11.2144         0.0227       109.0011        65.0675        -999.25       72.98627         0.7029        37.0919         2.1636         0.9988       -78.4813       -23.6875      0.8507718       0.655754
      5506.5000        11.3449         0.0327       112.7888        66.3486        -999.25       74.34851         0.6983        38.2086         2.1807          0.889       -74.3353       -19.5003      0.8797556      0.7222174
      5507.0000        11.7682         0.0347       116.7161        66.7799        -999.25        74.8067         0.6932        40.5806         2.1753         0.8085       -71.1191       -16.2428      0.8895043      0.7739238
      5507.5000        12.5463         0.0273       119.6982         66.069        -999.25       74.04979         0.6879        42.8466         2.1296         0.7761       -67.9576       -13.0401      0.8733998      0.8247603
      5508.0000        13.3244         0.0169       122.4038        64.2762        -999.25       72.14192         0.6834        45.8176         2.0731         0.7792        -65.808       -10.8493      0.8328068      0.8595349
      5508.5000        14.1025         0.0116       125.3101        62.5701        -999.25       70.32628         0.6796        49.1102         2.0152         0.7913       -64.1726        -9.1726      0.7941762      0.8861492
      5509.0000        14.8806         0.0117       129.1589        61.4228        -999.25        69.1051         0.6752        51.9986         2.0023         0.8068       -62.6283        -7.5871      0.7681937      0.9113159
      5509.5000        15.5281         0.0125        133.708         60.615        -999.25        68.2451         0.6704        54.1789         1.9743         0.8223         -60.94        -5.8575      0.7498958      0.9387698
      5510.0000         16.035         0.0123       140.3335        59.8004        -999.25       67.37788         0.6645        54.4899         1.9391         0.8189       -59.2845        -4.1608      0.7314442      0.9657016
      5510.5000        16.4684         0.0107       145.4604        58.7807        -999.25       66.29234         0.6578        54.3593         1.9274         0.7969       -58.2626        -3.0977      0.7083476      0.9825762
      5511.0000        16.4474         0.0077       148.0112        57.4337        -999.25       64.85872          0.651        54.6841         1.9053          0.781       -57.8934        -2.6872      0.6778451      0.9890921
      5511.5000         16.144          0.003       144.5596         56.493        -999.25       63.85734         0.6442        57.0142         1.8677         0.7754       -58.0875        -2.8544      0.6565391      0.9864381
      5512.0000        16.9467        -0.0027       140.6982        57.0807        -999.25       64.48192         0.6375        59.1089         1.8842         0.7878       -58.6741        -3.4631      0.6698281      0.9767762
      5512.5000        17.4713         -0.009       136.8616        59.9335        -999.25       67.51617         0.6304        60.0932         1.9342         0.8088       -59.6564        -4.4675      0.7343865      0.9608333
      5513.0000        16.0424        -0.0127       134.0398        61.7568        -999.25       69.45521         0.6233        59.4866         1.9819         0.8372       -59.5908        -4.4241      0.7756427      0.9615222
      5513.5000        15.4063        -0.0072       135.9214        62.3482        -999.25       70.08372         0.6155          56.97          2.042         0.8682       -59.2612        -4.1166      0.7890154      0.9664032
      5514.0000        15.1543         0.0048       140.0789        61.8973        -999.25       69.60341         0.6076        54.3146         2.0318         0.8256       -59.2031        -4.0806       0.778796      0.9669746
      5514.5000        14.6701         0.0156       140.0078        58.3533        -999.25       65.83256         0.5993        53.4479         2.0009         0.7827        -59.219        -4.1186      0.6985651      0.9663714
      5515.0000        15.1588         0.0218       137.8459        56.2601        -999.25       63.60511         0.5904        53.5342         1.9648         0.7475       -59.3911        -4.3129      0.6511725      0.9632873
      5515.5000         16.284         0.0211       136.9236        55.7815        -999.25       63.09532         0.5934        55.1584         1.8998         0.7197       -59.7877        -4.7316      0.6403259      0.9566413
      5516.0000        17.3491         0.0024       136.1001        56.1239        -999.25       63.45893         0.6079        55.5825         1.8654         0.7036       -60.4012        -5.3672      0.6480625      0.9465524
      5516.5000        17.8712        -0.0048       132.2341        57.1748        -999.25       64.57628         0.6373        54.8331         1.8623         0.7052       -61.5024        -6.4905      0.6718357      0.9287222
      5517.0000        17.3239        -0.0061       125.8977        58.4571        -999.25       65.93979         0.6669        54.0439         1.8683         0.7224       -63.0677        -8.0779      0.7008466      0.9035254
      5517.5000        17.5569        -0.0037       122.9877        59.4811        -999.25       67.02851         0.6985        53.2916         1.8871         0.7988       -65.4889       -10.5213      0.7240109      0.8647413
      5518.0000        16.5162          0.006       122.5923         58.738        -999.25       66.23734         0.7375        53.1035         2.0102         0.9242       -68.3733       -13.4278      0.7071775      0.8186063
      5518.5000        16.0581         0.0141        125.359        56.2405        -999.25       63.57979         0.7753        55.0271         2.0546         0.9735       -70.3206       -15.3972      0.6506339      0.7873461
