#------------------------------------------------------------------------------
# Created by    : vladimir.rabinovich
# Created on    : 09/19/2023 17:21:14
#------------------------------------------------------------------------------
~Version Information Section
VERS.           2.0     :   CWLS log ASCII Standard - VERSION 2.0
WRAP.           NO      :   One line per depth step
~Well Information Section
#MNEM       .UNIT                                         VALUE :DESCRIPTION
#------------------------------------------------------------------------------
STRT        .FT                                            3520 :START DEPTH
STOP        .FT                                            8510 :STOP DEPTH
STEP        .FT                                             0.5 :STEP      
NULL        .                                           -999.25 :NULL      
COMP        .                      SPINNAKER EXPLORATION CO LLC :COMPANY   
WELL        .                               OCS G21537 ST00BP00 :WELL      
FLD         .                                           WILDCAT :FIELD     
LOC         .                                                   :LOCATION  
CNTY        .                                      WEST CAMERON :LOCATION  
STAT        .                                         LOUISIANA :STATE     
CTRY        .                                     UNITED STATES :COUNTRY   
SRVC        .                                                   :SERVICE COMPANY
DATE        .                             9/13/2023 11:18:49 AM :LOG DATE  
API         .                                    17700410830000 :API NUMBER
UWI         .                                    17700410830000 :UNIQUE WELL ID
XCOORD      .                                   1446389.6294369 :SURFACE X 
YCOORD      .                                  10699667.6074025 :SURFACE Y 
LAT         .                                        29.4810902 :LATITUDE  
LON         .                                       -93.6100108 :LONGITUDE 
ELEV        .FT                                              91 :ELEVATION VALUE
ELEV_TYPE   .                                                KB :ELEVATION REFERENCE TYPE
~Curve Information Section
#MNEM       .UNIT                                      API CODE :CURVE DESCRIPTION
#------------------------------------------------------------------------------
DEPT        .FT                                                 :DEPTH     
CAL         .IN                                                 :          
CNC         .%                                                  :          
GR          .GAPI                                               :          
GR_NORM     .GAPI                                               :GammaRay Normalized
M0C6        .MMHO                                               :          
M2R1        .OHMM                                               :          
M2R2        .OHMM                                               :          
M2R3        .OHMM                                               :          
M2R6        .OHMM                                               :          
M2R9        .OHMM                                               :          
M2RX        .OHMM                                               :          
PORZ        .%                                                  :          
SP          .MV                                                 :          
SP_NORM     .MV                                                 :SP Normalized
TEN         .LB/F                                               :          
VSH_GR      .V/V                                                :Volume of Shale from GR
VSH_SP      .V/V                                                :Volume of Shale from SP
ZCOR        .G/CC                                               :          
~A        DEPTH            CAL            CNC             GR        GR_NORM           M0C6           M2R1           M2R2           M2R3           M2R6           M2R9           M2RX           PORZ             SP        SP_NORM            TEN         VSH_GR         VSH_SP           ZCOR
# ...
      5172.0000         10.312          37.85         67.278       49.01091       2092.815          0.528          0.461          0.436           0.43          0.429          0.437         33.246         -37.39       -35.4852        560.237      0.3406577      0.2212744          0.003
      5172.5000         10.351         37.138          70.07       51.32915       2032.757          0.516          0.455          0.433          0.427          0.427          0.435         32.705        -37.604       -35.6992        560.649      0.3899819      0.2162977          0.018
      5173.0000         10.389         37.028         73.405        54.0984       1962.111          0.542          0.482          0.459          0.455          0.454          0.464         32.666        -35.232       -33.3272        560.739      0.4489022      0.2714604          0.048
      5173.5000         10.419         38.169         75.748       56.04371       1882.619           0.61          0.545          0.519          0.514          0.513          0.526         32.514        -31.663       -29.7582        560.853      0.4902917      0.3544605          0.066
      5174.0000         10.457         39.498         76.879       56.98236       1797.622           0.68          0.614          0.584           0.58          0.579          0.595         31.746        -29.088       -27.1832        566.218       0.510263      0.4143442          0.068
      5174.5000         10.501         39.022         77.594       57.57548       1711.364          0.715          0.654          0.624          0.621          0.619          0.637          30.62        -27.829       -25.9242        573.166      0.5228825      0.4436232          0.067
      5175.0000         10.528         37.459         78.658       58.45848           1628          0.735          0.679          0.651          0.649          0.646          0.665         29.225         -26.91       -25.0052        576.676      0.5416697      0.4649954          0.064
      5175.5000         10.533          36.49         81.768       61.04084       1550.853          0.774          0.718          0.691           0.69          0.686          0.707         27.087        -25.758       -23.8532        577.774      0.5966136       0.491786          0.054
      5176.0000         10.529         35.737         87.567       65.85664       1481.984          0.829          0.772          0.746          0.745           0.74          0.764          24.79         -24.02       -22.1152        577.059      0.6990775      0.5322046          0.038
      5176.5000         10.527         34.755         94.038       71.23061       1422.201          0.874          0.822          0.799          0.797          0.792          0.819         23.016        -21.459       -19.5542        575.197      0.8134171      0.5917628          0.022
      5177.0000         10.545         34.478         98.801       75.18594       1371.347           0.88          0.845          0.827          0.827          0.822           0.85         22.023        -18.161       -16.2562        575.699      0.8975733      0.6684604          0.016
      5177.5000         10.601         35.823         102.31        78.0997       1328.731          0.844          0.834          0.824          0.825          0.822          0.849         21.636        -14.676       -12.7712        579.705      0.9595681       0.749507          0.018
      5178.0000         10.695         38.318        105.641       80.86564       1293.514          0.805          0.819          0.818          0.821           0.82          0.845         21.346        -11.692        -9.7872         585.36              1      0.8189023          0.024
      5178.5000         10.787         41.028        108.684        84.0843       1264.975          0.786          0.822           0.83          0.837          0.838          0.864         21.338         -9.397        -7.4922        592.113              1      0.8722744          0.029
      5179.0000         10.839         43.228        111.326        86.7254       1242.575          0.779          0.833          0.852          0.862          0.866          0.892         21.742         -7.555        -5.6502        599.279              1      0.9151116          0.032
      5179.5000         10.853         44.491        112.726        88.1245       1225.913          0.777          0.845          0.874          0.889          0.895          0.922         22.377         -6.244        -4.3392        600.805              1         0.9456           0.03
      5180.0000         10.842         44.635        111.099        86.4966        1214.53           0.77          0.849          0.889          0.909          0.918          0.945         23.401         -5.866        -3.9612        594.855              1      0.9543907          0.027
      5180.5000         10.784         44.311         107.55        82.9467       1207.794          0.739          0.827          0.876          0.899           0.91          0.936         25.093         -6.414        -4.5092        600.324              1      0.9416465          0.032
      5181.0000         10.687         44.882        106.329        81.7248       1204.839          0.687          0.781          0.835          0.861          0.874          0.898         26.935         -7.244        -5.3392         624.21              1      0.9223442          0.045
      5181.5000         10.608         46.346        107.441        82.8359       1204.637          0.644          0.744          0.803           0.83          0.845          0.866         27.999         -7.617        -5.7122        638.749              1      0.9136698           0.05
      5182.0000         10.582         47.541        108.356          83.75       1206.142          0.622          0.729          0.792          0.822          0.837          0.858         28.005         -7.384        -5.4792        634.388              1      0.9190884          0.043
      5182.5000          10.58         49.222        109.838        85.2311       1208.471          0.615          0.727          0.793          0.826          0.842          0.862         27.396         -7.104        -5.1992        633.665              1         0.9256          0.035
      5183.0000         10.581         51.116        112.478        87.8702       1211.019          0.614           0.73          0.799          0.833          0.851           0.87         26.815         -7.094        -5.1892        628.228              1      0.9258326          0.035
      5183.5000         10.594         50.902        113.657        89.0483       1213.487          0.614          0.731          0.803          0.839          0.857          0.875         26.625         -7.021        -5.1162        602.767              1      0.9275302          0.037
      5184.0000         10.625         50.259        112.894        88.2844       1215.833           0.61          0.726          0.798          0.835          0.854          0.871         26.787         -6.758        -4.8532        595.522              1      0.9336465           0.04
      5184.5000         10.654         50.128        112.575        87.9645       1218.181          0.604          0.718           0.79          0.827          0.845          0.861         27.029         -6.634        -4.7292         624.21              1      0.9365302          0.042
      5185.0000         10.652          48.74        113.743        89.1316       1220.707          0.605          0.717          0.788          0.825          0.844          0.859         27.066         -6.637        -4.7322        638.099              1      0.9364604          0.043
      5185.5000         10.603          47.59        115.163        90.5507       1223.563          0.612          0.723          0.794          0.832          0.851          0.866         26.788         -6.462        -4.5572        613.779              1      0.9405302          0.046
