#------------------------------------------------------------------------------
# Created by    : vladimir.rabinovich
# Created on    : 09/19/2023 17:20:42
#------------------------------------------------------------------------------
~Version Information Section
VERS.           2.0     :   CWLS log ASCII Standard - VERSION 2.0
WRAP.           NO      :   One line per depth step
~Well Information Section
#MNEM       .UNIT                                         VALUE :DESCRIPTION
#------------------------------------------------------------------------------
STRT        .FT                                            1866 :START DEPTH
STOP        .FT                                            8637 :STOP DEPTH
STEP        .FT                                             0.5 :STEP      
NULL        .                                           -999.25 :NULL      
COMP        .                           GENERAL AMERICAN OIL CO :COMPANY   
WELL        .                               OCS G01862 ST00BP00 :WELL      
FLD         .                           WEST CAMERON BLOCK 0045 :FIELD     
LOC         .                                                   :LOCATION  
CNTY        .                                      WEST CAMERON :LOCATION  
STAT        .                                         LOUISIANA :STATE     
CTRY        .                                     UNITED STATES :COUNTRY   
SRVC        .                                                   :SERVICE COMPANY
DATE        .                             9/13/2023 11:18:18 AM :LOG DATE  
API         .                                    17700004060000 :API NUMBER
UWI         .                                    17700004060000 :UNIQUE WELL ID
XCOORD      .                                  1439968.94212662 :SURFACE X 
YCOORD      .                                  10754878.8884152 :SURFACE Y 
LAT         .                                        29.6328727 :LATITUDE  
LON         .                                       -93.6311393 :LONGITUDE 
ELEV        .FT                                              51 :ELEVATION VALUE
ELEV_TYPE   .                                                KB :ELEVATION REFERENCE TYPE
~Curve Information Section
#MNEM       .UNIT                                      API CODE :CURVE DESCRIPTION
#------------------------------------------------------------------------------
DEPT        .FT                                                 :DEPTH     
ASN         .OHMM                                               :          
CALI        .IN                                                 :          
DRHO        .G/C3                                               :          
DT          .US/F                                               :          
GR          .GAPI                                               :          
GR_NORM     .GAPI                                               :GammaRay Normalized
ILD         .OHMM                                               :          
RHOB        .G/C3                                               :          
SP          .MV                                                 :          
SP_NORM     .MV                                                 :SP Normalized
VSH_GR      .V/V                                                :Volume of Shale from GR
VSH_SP      .V/V                                                :Volume of Shale from SP
~A        DEPTH            ASN           CALI           DRHO             DT             GR        GR_NORM            ILD           RHOB             SP        SP_NORM         VSH_GR         VSH_SP
# ...
      2768.0000         0.5259        -999.25        -999.25        -999.25        -999.25        -999.25         0.4671        -999.25       -62.8289       -19.9427        -999.25      0.6012734
      2768.5000         0.5338        -999.25        -999.25        -999.25        -999.25        -999.25          0.489        -999.25       -66.6033       -23.7111        -999.25      0.5175311
      2769.0000         0.5252        -999.25        -999.25        -999.25        -999.25        -999.25         0.4859        -999.25       -69.4871       -26.5889        -999.25        0.45358
      2769.5000         0.5167        -999.25        -999.25        -999.25        -999.25        -999.25         0.4703        -999.25       -67.8785       -24.9743        -999.25        0.48946
      2770.0000         0.5144        -999.25        -999.25        -999.25        -999.25        -999.25         0.4526        -999.25       -65.8289       -22.9187        -999.25        0.53514
      2770.5000         0.5283        -999.25        -999.25        -999.25        -999.25        -999.25         0.4415        -999.25       -65.5068       -22.5906        -999.25      0.5424311
      2771.0000         0.5712        -999.25        -999.25        -999.25        -999.25        -999.25         0.4296        -999.25       -66.7323       -23.8102        -999.25      0.5153289
      2771.5000         0.6127        -999.25        -999.25        -999.25        -999.25        -999.25         0.4159        -999.25       -68.9518       -26.0237        -999.25        0.46614
      2772.0000          0.646        -999.25        -999.25        -999.25        -999.25        -999.25         0.4028        -999.25       -73.8419       -30.9078        -999.25      0.3576044
      2772.5000         0.6604        -999.25        -999.25        -999.25        -999.25        -999.25         0.3906        -999.25       -78.5721        -35.632        -999.25      0.2526222
      2773.0000         0.6517        -999.25        -999.25        -999.25        -999.25        -999.25         0.3784        -999.25       -82.8124       -39.8663        -999.25      0.1585267
      2773.5000         0.6334        -999.25        -999.25        -999.25        -999.25        -999.25         0.3659        -999.25       -85.8596       -42.9075        -999.25     0.09094442
      2774.0000         0.6107        15.9682        -999.25       144.3293        -999.25        -999.25         0.3658        -999.25       -85.7999       -42.8418        -999.25     0.09240443
      2774.5000         0.5859        15.9764        -999.25       142.9119        -999.25        -999.25          0.377        -999.25       -84.8883       -41.9243        -999.25      0.1127933
      2775.0000         0.5585        15.9782        -999.25       141.9033        -999.25        -999.25         0.3893        -999.25       -82.1895       -39.2195        -999.25         0.1729
      2775.5000          0.537        15.9754        -999.25        142.356        -999.25        -999.25         0.4021        -999.25       -79.7505       -36.7745        -999.25      0.2272333
      2776.0000         0.5247        15.9685        -999.25       143.9441        -999.25        -999.25         0.4192        -999.25       -75.1691       -32.1871        -999.25      0.3291756
      2776.5000         0.5523        15.9607        -999.25       145.3218        -999.25        -999.25         0.4346        -999.25       -69.2559       -26.2679        -999.25      0.4607133
      2777.0000         0.6151          15.96        -999.25       147.5713        -999.25        -999.25         0.4435        -999.25       -65.5442       -22.5502        -999.25      0.5433289
      2777.5000         0.6803        15.9604        -999.25       150.3203        -999.25        -999.25         0.4472        -999.25       -70.8715       -27.8715        -999.25      0.4250778
      2778.0000         0.7091        15.9621        -999.25       150.5967        -999.25        -999.25         0.4485        -999.25       -77.9418       -34.9359        -999.25      0.2680911
      2778.5000          0.715        15.9662        -999.25       144.0859        -999.25        -999.25         0.4442        -999.25       -80.8812       -37.8693        -999.25      0.2029044
      2779.0000         0.7233        15.9715        -999.25       144.0051        -999.25        -999.25          0.428        -999.25       -81.0465       -38.0286        -999.25      0.1993645
      2779.5000         0.7496        15.9729        -999.25       144.8745        -999.25        -999.25         0.4123        -999.25       -80.1974       -37.1735        -999.25      0.2183667
      2780.0000         0.7762        15.9723        -999.25       144.7366        -999.25        -999.25         0.3975        -999.25       -80.0675       -37.0376        -999.25      0.2213866
      2780.5000         0.7953        15.9729        -999.25       144.0442        -999.25        -999.25         0.3954        -999.25       -81.6838       -38.6479        -999.25      0.1856022
      2781.0000         0.7931        15.9745        -999.25       143.0464        -999.25        -999.25         0.3909        -999.25       -83.1405       -40.0987        -999.25      0.1533622
      2781.5000         0.7701        15.9745        -999.25       142.7651        -999.25        -999.25         0.3804        -999.25       -84.1921       -41.1443        -999.25      0.1301267
      2782.0000         0.7476         15.974        -999.25       143.1353        -999.25        -999.25         0.3709        -999.25       -84.9318        -41.878        -999.25      0.1138223
      2782.5000         0.7459        15.9759        -999.25       143.9153        -999.25        -999.25         0.3616        -999.25       -85.6219       -42.5621        -999.25     0.09862001
      2783.0000         0.7369        15.9818        -999.25       143.5137        -999.25        -999.25         0.3515        -999.25       -86.6274       -43.5616        -999.25     0.07640889
      2783.5000           0.72        15.9919        -999.25       141.9348        -999.25        -999.25         0.3433        -999.25       -87.5211       -44.4493        -999.25     0.05668225
      2784.0000         0.7076         15.994        -999.25       141.1067        -999.25        -999.25         0.3434        -999.25        -88.296       -45.2182        -999.25     0.03959554
      2784.5000          0.703        15.9904        -999.25       141.8611        -999.25        -999.25         0.3394        -999.25       -88.8938       -45.8101        -999.25     0.02644221
      2785.0000         0.6903        15.9823        -999.25        142.895        -999.25        -999.25         0.3283        -999.25        -89.217       -46.1273        -999.25     0.01939333
      2785.5000         0.6721        15.9839        -999.25       144.0293        -999.25        -999.25         0.3203        -999.25       -89.3311       -46.2354        -999.25     0.01699109
      2786.0000         0.6538        15.9875        -999.25       143.6768        -999.25        -999.25         0.3141        -999.25        -89.012       -45.9103        -999.25     0.02421553
      2786.5000         0.6486        15.9961        -999.25       143.1536        -999.25        -999.25         0.3112        -999.25       -88.5621       -45.4544        -999.25     0.03434668
      2787.0000         0.6404        16.0057        -999.25       142.6333        -999.25        -999.25         0.3094        -999.25       -88.1609       -45.0472        -999.25     0.04339557
      2787.5000         0.6294        16.0158        -999.25       142.1821        -999.25        -999.25          0.312        -999.25       -87.7841       -44.6645        -999.25     0.05189997
      2788.0000         0.6153        16.0109        -999.25       143.1033        -999.25        -999.25         0.3166        -999.25       -87.7546        -44.629        -999.25     0.05268885
