#------------------------------------------------------------------------------
# Created by    : vladimir.rabinovich
# Created on    : 09/19/2023 17:21:57
#------------------------------------------------------------------------------
~Version Information Section
VERS.           2.0     :   CWLS log ASCII Standard - VERSION 2.0
WRAP.           NO      :   One line per depth step
~Well Information Section
#MNEM       .UNIT                                         VALUE :DESCRIPTION
#------------------------------------------------------------------------------
STRT        .FT                                             570 :START DEPTH
STOP        .FT                                           10083 :STOP DEPTH
STEP        .FT                                             0.5 :STEP      
NULL        .                                           -999.25 :NULL      
COMP        .                                BP EXPLORATION INC :COMPANY   
WELL        .                               OCS G10548 ST00BP00 :WELL      
FLD         .                                           WILDCAT :FIELD     
LOC         .                                                   :LOCATION  
CNTY        .                                      WEST CAMERON :LOCATION  
STAT        .                                         LOUISIANA :STATE     
CTRY        .                                     UNITED STATES :COUNTRY   
SRVC        .                                                   :SERVICE COMPANY
DATE        .                             9/13/2023 11:18:09 AM :LOG DATE  
API         .                                    17700408010000 :API NUMBER
UWI         .                                    17700408010000 :UNIQUE WELL ID
XCOORD      .                                  1469734.01149431 :SURFACE X 
YCOORD      .                                  10675810.5973196 :SURFACE Y 
LAT         .                                        29.4157778 :LATITUDE  
LON         .                                        -93.536275 :LONGITUDE 
ELEV        .FT                                              80 :ELEVATION VALUE
ELEV_TYPE   .                                                KB :ELEVATION REFERENCE TYPE
~Curve Information Section
#MNEM       .UNIT                                      API CODE :CURVE DESCRIPTION
#------------------------------------------------------------------------------
DEPT        .FT                                                 :DEPTH     
CALI        .IN                                                 :          
DPHI        .%                                                  :          
GR          .GAPI                                               :          
GR_1        .GAPI                                               :          
GR_NORM     .GAPI                                               :GammaRay Normalized
ILD         .OHMM                                               :          
ILM         .OHMM                                               :          
NPHI        .%                                                  :          
SFL         .OHMM                                               :          
SP          .MV                                                 :          
SP_NORM     .MV                                                 :SP Normalized
VSH_GR      .V/V                                                :Volume of Shale from GR
VSH_SP      .V/V                                                :Volume of Shale from SP
~A        DEPTH           CALI           DPHI             GR           GR_1        GR_NORM            ILD            ILM           NPHI            SFL             SP        SP_NORM         VSH_GR         VSH_SP
# ...
      5662.0000        11.7644        25.1397        -999.25        90.2823        80.9071         0.8822         0.8991        47.3867         0.9599       -72.1772        -1.5853              1              1
      5662.5000        11.5962        24.7199        -999.25        91.0826        81.7035         0.8886         0.9032        45.8666         0.9739       -72.1599        -1.5711              1              1
      5663.0000        11.4119         24.864        -999.25        93.0453        83.6622          0.895          0.905        44.8073         0.9763       -72.1426        -1.5568              1              1
      5663.5000        11.2773        25.4042        -999.25        94.8855        85.4985         0.8985         0.9041        44.5342         0.9705       -72.1066        -1.5239              1              1
      5664.0000        11.1812        25.8305        -999.25         95.526        86.1351         0.8997         0.9001        45.8787         0.9567       -72.0695        -1.4899              1              1
      5664.5000         11.113        25.8972        -999.25        95.3824        85.9875            0.9         0.8929        47.5877         0.9418       -72.0306        -1.4541              1              1
      5665.0000        11.0653        25.8479        -999.25        94.4635        85.0647         0.8935         0.8836        47.5247         0.9277       -72.0402        -1.4668              1              1
      5665.5000        11.0309        25.6902        -999.25        93.1283        83.7256         0.8843         0.8774        46.6454          0.914       -72.0546        -1.4843              1              1
      5666.0000        11.0119        25.7097        -999.25        92.8268        83.4202         0.8728         0.8724        45.0729         0.9021        -72.069        -1.5018              1              1
      5666.5000        11.0021        26.0734        -999.25        93.3406          83.93         0.8615         0.8688        44.3253         0.8915       -72.0834        -1.5193              1              1
      5667.0000        11.0233        26.5211        -999.25        93.6957        84.2812         0.8503         0.8631        46.2253          0.882       -72.0978        -1.5368              1              1
      5667.5000        11.0609        26.7321        -999.25        92.4459        83.0275         0.8396         0.8561        49.1033         0.8757       -72.1287        -1.5707              1              1
      5668.0000        11.1181        26.9527        -999.25        91.3573         81.935         0.8316         0.8453        51.1004         0.8717        -72.179        -1.6241              1              1
      5668.5000        11.2617        27.4869        -999.25        90.1238        80.6975          0.824         0.8329        52.1346         0.8691       -72.2427        -1.6909              1              1
      5669.0000        11.4923        27.9712        -999.25        88.3608        78.9306         0.8179         0.8191         51.988         0.8675       -72.3376        -1.7889      0.9772469              1
      5669.5000        11.8794        28.0664        -999.25        87.6021         78.168         0.8137         0.8103        50.9219         0.8664       -72.4561        -1.9105      0.9610212              1
      5670.0000        12.0151        27.9848        -999.25        89.3546        79.9165         0.8134         0.8051        49.6194         0.8705        -72.531        -1.9885      0.9982233              1
      5670.5000        12.0217        28.1749        -999.25        89.6799        80.2379         0.8176         0.8047        48.5225         0.8754        -72.558        -2.0186              1      0.9991913
      5671.0000        11.9584         28.631        -999.25        89.1649         79.719         0.8297         0.8142        47.8712         0.8836       -72.5724        -2.0361      0.9940213      0.9984304
      5671.5000        11.7928        29.3325        -999.25        87.4644        78.0146         0.8572         0.8304        47.6337         0.9026       -72.5684        -2.0351      0.9577575      0.9984739
      5672.0000        11.6162        29.4213        -999.25        86.4806        77.0268         0.8915          0.859        47.4545         0.9285       -72.5706        -2.0404      0.9367405      0.9982435
      5672.5000        11.6998        29.0812        -999.25         86.905        77.4473         0.9312         0.8935         46.905          0.956       -72.6155        -2.0884      0.9456873      0.9961565
      5673.0000        11.9927        28.2731        -999.25        87.7759        78.3143         0.9799         0.9374        45.8066         0.9833       -72.6299        -2.1059       0.964134      0.9953957
      5673.5000        12.2746        27.3961        -999.25        87.3895         77.924         1.0378         0.9828        44.3616         1.0073       -72.5824        -2.0615      0.9558299      0.9973261
      5674.0000        12.4649        26.8582        -999.25        85.0823        75.6128         1.0918         1.0265        42.8341         1.0233       -72.5503        -2.0325      0.9066553       0.998587
      5674.5000        12.5577        26.6525        -999.25        84.9662        75.4928         1.1317         1.0365        41.8145          1.031       -72.5532        -2.0385      0.9041021      0.9983261
      5675.0000        12.5659        26.9932        -999.25        85.1797        75.7024         1.1539         1.0463        41.3857         1.0322       -72.6575        -2.1459      0.9085617      0.9936565
      5675.5000        12.5167         30.752        -999.25        80.2056        70.7244         1.1688         1.0358        41.5317         1.0252       -72.8499        -2.3413      0.8026469      0.9851609
      5676.0000        12.4687        37.0241        -999.25        77.0244        67.5392         1.1801          1.019        42.8326         1.0139       -73.1404        -2.6349      0.7348766      0.9723957
      5676.5000        12.5551        41.1415        -999.25        75.1348        65.6457         1.1902         1.0122        44.7037         1.0007       -73.4561        -2.9537      0.6945893      0.9585348
      5677.0000        13.0025        43.8109        -999.25         74.627         65.134         1.2011         1.0201        46.6529         0.9966       -73.8005        -3.3012      0.6837022      0.9434261
      5677.5000        13.3516        40.0012        -999.25        74.6725        65.1756         1.2116         1.0454        47.5281         0.9924        -74.085        -3.5888      0.6845872      0.9309217
      5678.0000        13.4346        35.8717        -999.25        74.9459         65.445         1.2205         1.0846        46.7069         0.9951        -74.205        -3.7119      0.6903191      0.9255696
      5678.5000        13.3791        32.2495        -999.25        75.0405        65.5357         1.2301         1.1291        43.6024         1.0116       -74.3737        -3.8837      0.6922489         0.9181
      5679.0000        12.9011        31.3237        -999.25        72.9991        63.4904          1.244         1.1821        40.2232         1.0679       -74.5013        -4.0144      0.6487319      0.9124174
      5679.5000        12.5322        31.8504        -999.25        70.8912        61.3785         1.2644         1.2231        38.5336         1.1424       -74.7032        -4.2194      0.6037979      0.9035044
      5680.0000        12.5823        34.0741        -999.25         71.064        61.5474         1.2977         1.2519        39.4714         1.1845       -74.8605        -4.3797      0.6073915      0.8965348
      5680.5000        12.8557        34.1713        -999.25        74.2002        64.6797         1.3249         1.2543        41.3351         1.2058       -74.9427         -4.465      0.6740362      0.8928261
