#------------------------------------------------------------------------------
# Created by    : vladimir.rabinovich
# Created on    : 09/19/2023 17:20:43
#------------------------------------------------------------------------------
~Version Information Section
VERS.           2.0     :   CWLS log ASCII Standard - VERSION 2.0
WRAP.           NO      :   One line per depth step
~Well Information Section
#MNEM       .UNIT                                         VALUE :DESCRIPTION
#------------------------------------------------------------------------------
STRT        .FT                                            2986 :START DEPTH
STOP        .FT                                           10006 :STOP DEPTH
STEP        .FT                                             0.5 :STEP      
NULL        .                                           -999.25 :NULL      
COMP        .                                        CONOCO INC :COMPANY   
WELL        .                                OCS 00764 ST00BP00 :WELL      
FLD         .                           WEST CAMERON BLOCK 0192 :FIELD     
LOC         .                                                   :LOCATION  
CNTY        .                                      WEST CAMERON :LOCATION  
STAT        .                                         LOUISIANA :STATE     
CTRY        .                                     UNITED STATES :COUNTRY   
SRVC        .                                                   :SERVICE COMPANY
DATE        .                             9/13/2023 11:18:18 AM :LOG DATE  
API         .                                    17700003670000 :API NUMBER
UWI         .                                    17700003670000 :UNIQUE WELL ID
XCOORD      .                                  1596137.97932418 :SURFACE X 
YCOORD      .                                  10614860.5046116 :SURFACE Y 
LAT         .                                         29.249106 :LATITUDE  
LON         .                                        -93.138896 :LONGITUDE 
ELEV        .FT                                              84 :ELEVATION VALUE
ELEV_TYPE   .                                                KB :ELEVATION REFERENCE TYPE
~Curve Information Section
#MNEM       .UNIT                                      API CODE :CURVE DESCRIPTION
#------------------------------------------------------------------------------
DEPT        .FT                                                 :DEPTH     
ASN         .OHMM                                               :          
CALI        .IN                                                 :          
CALI_1      .IN                                                 :          
DRHO        .G/C3                                               :          
DT          .US/F                                               :          
GR          .GAPI                                               :          
ILD         .OHMM                                               :          
RHOB        .G/C3                                               :          
SP          .MV                                                 :          
SP_NORM     .MV                                                 :SP Normalized
VSH_SP      .V/V                                                :Volume of Shale from SP
~A        DEPTH            ASN           CALI         CALI_1           DRHO             DT             GR            ILD           RHOB             SP        SP_NORM         VSH_SP
# ...
      9983.5000          0.928        10.4211         10.519          0.062       113.5281        77.1812         0.6709         2.3135       -40.1929     -0.6324615              1
      9984.0000         0.9268        10.4951        10.4902         0.0687       114.2117        77.1635          0.675         2.3023       -40.1242     -0.5637589              1
      9984.5000         0.9264        10.4314        10.5655         0.0766       115.1494        74.9425          0.679         2.3109       -40.1196     -0.5591583              1
      9985.0000         0.9259        10.2975        10.6672         0.0741       114.6219        72.9772         0.6806         2.3134          -40.2     -0.6395607              1
      9985.5000         0.9251        10.3341        10.6235         0.0636       114.2499        71.0117         0.6807         2.3069       -40.3955     -0.8350601              1
      9986.0000         0.9236        10.4233         10.717         0.0522       113.8785        71.9395         0.6809         2.3032        -40.645       -1.08456              1
      9986.5000         0.9213        10.3324        10.6439         0.0428       113.6971        74.4001         0.6769         2.3024       -40.7913      -1.230862              1
      9987.0000         0.9199        10.3085        10.5712         0.0404       114.2302        76.4756         0.6704         2.3027        -40.821      -1.260559              1
      9987.5000         0.9188        10.3923         10.501         0.0464       114.8632        77.3463          0.664          2.302       -40.7697      -1.209259              1
      9988.0000         0.9178        10.3899        10.4001         0.0305       115.4974        79.0699         0.6568         2.2814       -40.6102      -1.049759              1
      9988.5000         0.9159        10.3943        10.2568         0.0256       115.9055        80.2128         0.6493         2.2581       -40.4474     -0.8869591              1
      9989.0000         0.9138        10.4852        10.2147         0.0174       115.9325        80.5519         0.6419         2.2522       -40.2636     -0.7031593              1
      9989.5000         0.9114        10.3734        10.2856         0.0167       115.9213        81.5483         0.6351         2.2463       -40.0873     -0.5268593              1
      9990.0000         0.9086        10.3395        10.3422         0.0281       116.3525        80.2924         0.6284         2.2669       -39.9584     -0.3979607              1
      9990.5000         0.9055        10.4147         10.317         0.0339       117.0558        78.7869         0.6242          2.291       -39.8796     -0.3191605              1
      9991.0000         0.9021        10.4757        10.2772         0.0394       116.4081        77.6608         0.6208         2.3116       -39.8401     -0.2796593              1
      9991.5000         0.8995        10.5368        10.3315         0.0355       116.1045        76.5326         0.6162         2.3054       -39.8155     -0.2550583              1
      9992.0000         0.8977        10.5103        10.3005         0.0422       116.4784        77.0358          0.611         2.3011       -39.7966     -0.2361603              1
      9992.5000         0.8971         10.331        10.2606         0.0539       116.4701        78.2562         0.6065         2.3064        -39.781     -0.2205582              1
      9993.0000         0.8968        10.2515          10.38         0.0466       116.1564        79.5278         0.6031         2.3011       -39.7638     -0.2033615              1
      9993.5000         0.8984        10.0356        10.4539         0.0471        115.548        79.0188         0.6014         2.3173       -39.7652     -0.2047615              1
      9994.0000         0.9003         9.5005        10.5276         0.0533       114.5004        80.0703         0.6051          2.332       -39.8136     -0.2531586              1
      9994.5000         0.9027         8.8539        10.6013         0.0529        113.902        79.2507         0.6087         2.3466       -39.8734     -0.3129616              1
      9995.0000           0.91         8.3065        10.6751         0.0616       114.3425        77.4818         0.6072         2.3448       -39.9417     -0.3812599              1
      9995.5000         0.9193          7.763        10.4964         0.0669       114.8811        76.9924         0.6057         2.3534       -39.9392     -0.3787613              1
      9996.0000         0.9294         7.5011        10.2947          0.061        114.824        77.9025         0.6077         2.3627       -40.0479     -0.4874611              1
      9996.5000         0.9352         7.2672        10.1156         0.0489        114.667        79.7578         0.6115         2.3662       -40.1316     -0.5711594              1
      9997.0000         0.9341         7.4355         9.9483         0.0458       114.4825        78.6847         0.6192         2.3646       -40.1804     -0.6199608              1
      9997.5000         0.9265         7.5431         9.7704         0.0496       114.3889        77.7845         0.6306         2.3602       -40.2325     -0.6720581              1
      9998.0000         0.9156         7.6692         9.7398         0.0417       114.3611        77.4425         0.6412         2.3521       -40.2996     -0.7391586              1
      9998.5000          0.906         7.8967         9.8039         0.0246       114.3718        78.7279         0.6516         2.3467       -40.3436     -0.7831612              1
      9999.0000         0.9028         8.4613         9.8813         0.0192       114.4341        78.6542         0.6625         2.3423       -40.3018     -0.7413597              1
      9999.5000         0.9042         8.5172         9.9509         0.0162       114.4125        77.9978         0.6713         2.3381       -39.7802     -0.2197609              1
     10000.0000         0.9137         8.5803         9.7863         0.0291       114.3817        79.1426         0.6764         2.3404       -40.9173      -1.356861              1
     10000.5000          0.925         8.6868         9.3068          0.039       114.3434         80.485         0.6816         2.3472        -40.439     -0.8785591              1
     10001.0000         0.9338         8.8585         8.5894         0.0363       114.2966        81.8254         0.6856         2.3529       -40.1457     -0.5852585              1
     10001.5000         0.9404         9.0381          9.239         0.0381       114.2395         82.926         0.6896         2.3586       -40.1323     -0.5718613              1
     10002.0000         0.9442         9.2327         9.8561         0.0463       114.2203        83.7034         0.6917         2.3618       -40.2192     -0.6587601              1
     10002.5000         0.9409         9.3612        10.0098         0.0459       114.2184        83.2228         0.6938         2.3561       -40.2327     -0.6722603              1
     10003.0000         0.9354         9.1816        10.0301          0.045       114.1962        82.4072         0.6922         2.3421       -40.2145     -0.6540604              1
     10003.5000         0.9364         9.0355         9.8237         0.0494        114.198        81.3655         0.6903         2.3258        -40.212     -0.6515617              1
     10004.0000         0.9316         8.9781         9.6588         0.0641       114.1895        80.4752         0.6905         2.3192       -40.2285     -0.6680603              1
     10004.5000         0.9186          8.963         9.7023         0.0534       114.1941        79.5848         0.6923         2.3265       -40.2911     -0.7306595              1
     10005.0000          0.918         8.9655         9.8392         0.0312       114.1925        78.6965          0.696         2.3274       -40.3461     -0.7856598              1
     10005.5000         0.9227         8.9702         9.9379         0.0189       114.2137        79.2291         0.7038         2.3041       -40.3434      -0.782959              1
