#------------------------------------------------------------------------------
# Created by    : vladimir.rabinovich
# Created on    : 09/19/2023 17:21:07
#------------------------------------------------------------------------------
~Version Information Section
VERS.           2.0     :   CWLS log ASCII Standard - VERSION 2.0
WRAP.           NO      :   One line per depth step
~Well Information Section
#MNEM       .UNIT                                         VALUE :DESCRIPTION
#------------------------------------------------------------------------------
STRT        .FT                                            3895 :START DEPTH
STOP        .FT                                         10595.5 :STOP DEPTH
STEP        .FT                                             0.5 :STEP      
NULL        .                                           -999.25 :NULL      
COMP        .                               TALOS PETROLEUM LLC :COMPANY   
WELL        .                                OCS 00300 ST00BP00 :WELL      
FLD         .                           WEST CAMERON BLOCK 0045 :FIELD     
LOC         .                                                   :LOCATION  
CNTY        .                                      WEST CAMERON :LOCATION  
STAT        .                                         LOUISIANA :STATE     
CTRY        .                                     UNITED STATES :COUNTRY   
SRVC        .                                                   :SERVICE COMPANY
DATE        .                             9/13/2023 11:18:36 AM :LOG DATE  
API         .                                    17700410070000 :API NUMBER
UWI         .                                    17700410070000 :UNIQUE WELL ID
XCOORD      .                                  1453771.49108141 :SURFACE X 
YCOORD      .                                  10773222.7644816 :SURFACE Y 
LAT         .                                        29.6835328 :LATITUDE  
LON         .                                       -93.5879752 :LONGITUDE 
ELEV        .FT                                             100 :ELEVATION VALUE
ELEV_TYPE   .                                                KB :ELEVATION REFERENCE TYPE
~Curve Information Section
#MNEM       .UNIT                                      API CODE :CURVE DESCRIPTION
#------------------------------------------------------------------------------
DEPT        .FT                                                 :DEPTH     
ATR         .OHMM                                               :          
CATR        .MMHO                                               :          
DCAL        .IN                                                 :          
DRHB        .G/C3                                               :          
GR          .GAPI                                               :          
GR_NORM     .GAPI                                               :GammaRay Normalized
PSR         .OHMM                                               :          
RHOB        .G/C3                                               :          
ROP5        .F/HR                                               :          
TNPH        .%                                                  :          
VSH_GR      .V/V                                                :Volume of Shale from GR
~A        DEPTH            ATR           CATR           DCAL           DRHB             GR        GR_NORM            PSR           RHOB           ROP5           TNPH         VSH_GR
# ...
     10555.0000           0.51       1960.783        -999.25        -999.25         107.87       80.40661           0.52        -999.25          17.82        -999.25              1
     10555.5000           0.49       2040.814        -999.25        -999.25       106.9299       79.61228           0.45        -999.25          21.87        -999.25      0.9917507
     10556.0000           0.47       2127.656        -999.25        -999.25       104.9299        77.9304           0.48        -999.25          20.71        -999.25      0.9559661
     10556.5000           0.47       2127.656        -999.25        -999.25         103.36       76.60871           0.48        -999.25          19.19        -999.25      0.9278449
     10557.0000           0.47       2127.656        -999.25        -999.25       103.5299       76.74393           0.44        -999.25          18.26        -999.25      0.9307219
     10557.5000           0.47       2127.656        -999.25        -999.25       102.1699       75.59802           0.45        -999.25          17.53        -999.25      0.9063409
     10558.0000           0.49       2040.814        -999.25        -999.25         104.33       77.39996           0.49        -999.25          16.01        -999.25      0.9446799
     10558.5000            0.5           2000        -999.25        -999.25       105.1899       78.11301           0.52        -999.25          15.72        -999.25      0.9598512
     10559.0000           0.48       2083.332        -999.25        -999.25       106.3799        79.1025           0.48        -999.25          14.94        -999.25      0.9809043
     10559.5000           0.46        2173.91        -999.25        -999.25         103.45       76.64184           0.42        -999.25          15.25        -999.25      0.9285498
     10560.0000           0.46        2173.91        -999.25        -999.25         104.47       77.48906           0.45        -999.25          14.96        -999.25      0.9465758
     10560.5000           0.46        2173.91        -999.25        -999.25         104.62        77.6076           0.46        -999.25          15.46        -999.25      0.9490978
     10561.0000           0.46        2173.91        -999.25        -999.25       107.8999       80.34728           0.44        -999.25          15.33        -999.25              1
     10561.5000           0.47       2127.656        -999.25        -999.25       104.6699       77.63532           0.44        -999.25          15.92        -999.25      0.9496877
     10562.0000           0.49       2040.814        -999.25        -999.25         101.97       75.36739           0.49        -999.25          16.13        -999.25      0.9014339
     10562.5000            0.5           2000        -999.25        -999.25          100.2       73.87813           0.51        -999.25          15.94        -999.25      0.8697474
     10563.0000            0.5           2000        -999.25        -999.25         101.45       74.91785           0.49        -999.25          16.95        -999.25      0.8918691
     10563.5000           0.51       1960.783        -999.25        -999.25       102.1899       75.53047           0.49        -999.25          16.98        -999.25      0.9049037
     10564.0000           0.52       1923.076        -999.25        -999.25       101.7699       75.17169           0.52        -999.25          16.97        -999.25        0.89727
     10564.5000           0.52       1923.076        -999.25        -999.25         101.71       75.11457           0.51        -999.25          17.89        -999.25      0.8960547
     10565.0000           0.52       1923.076        -999.25        -999.25         102.36       75.65182            0.5        -999.25          19.09        -999.25      0.9074857
     10565.5000           0.52       1923.076        -999.25        -999.25       102.9099       76.10535           0.51        -999.25          17.49        -999.25      0.9171352
     10566.0000           0.52       1923.076        -999.25        -999.25       103.1599       76.30759           0.51        -999.25          15.79        -999.25      0.9214382
     10566.5000           0.52       1923.076        -999.25        -999.25       103.6799       76.73608           0.51        -999.25          15.56        -999.25       0.930555
     10567.0000           0.52       1923.076        -999.25        -999.25         101.85       75.19662           0.51        -999.25          14.86        -999.25      0.8978004
     10567.5000           0.53       1886.791        -999.25        -999.25         102.48       75.71719           0.52        -999.25          15.82        -999.25      0.9088763
     10568.0000           0.53       1886.791        -999.25        -999.25       102.5099       75.73528           0.52        -999.25           16.5        -999.25      0.9092612
     10568.5000           0.53       1886.791        -999.25        -999.25         104.08       77.04311           0.53        -999.25          16.97        -999.25      0.9370875
     10569.0000           0.53       1886.791        -999.25        -999.25       103.5099       76.55863           0.53        -999.25          18.09        -999.25      0.9267794
     10569.5000           0.54       1851.852        -999.25        -999.25          104.1       77.04581           0.53        -999.25          18.54        -999.25      0.9371448
     10570.0000           0.54       1851.852        -999.25        -999.25         103.36       76.41905           0.53        -999.25          18.73        -999.25      0.9238096
     10570.5000           0.53       1886.791        -999.25        -999.25       102.8199       75.95974           0.53        -999.25          20.81        -999.25       0.914037
     10571.0000           0.53       1886.791        -999.25        -999.25       103.7899       76.76498           0.52        -999.25          23.84        -999.25      0.9311697
     10571.5000           0.52       1923.076        -999.25        -999.25         104.62       77.45312           0.51        -999.25          26.55        -999.25       0.945811
     10572.0000           0.52       1923.076        -999.25        -999.25          104.5       77.34564           0.52        -999.25           30.2        -999.25      0.9435243
     10572.5000           0.52       1923.076        -999.25        -999.25       102.0199       75.26171           0.52        -999.25          30.05        -999.25      0.8991854
     10573.0000           0.51       1960.783        -999.25        -999.25         103.25       76.28474           0.51        -999.25          28.99        -999.25      0.9209518
     10573.5000           0.51       1960.783        -999.25        -999.25       105.0699       77.80187           0.51        -999.25          28.66        -999.25      0.9532313
     10574.0000            0.5           2000        -999.25        -999.25        -999.25        -999.25            0.5        -999.25          28.13        -999.25        -999.25
     10574.5000           0.49       2040.814        -999.25        -999.25        -999.25        -999.25           0.48        -999.25           25.5        -999.25        -999.25
     10575.0000           0.47       2127.656        -999.25        -999.25        -999.25        -999.25           0.46        -999.25          25.28        -999.25        -999.25
     10575.5000           0.46        2173.91        -999.25        -999.25        -999.25        -999.25           0.47        -999.25          24.23        -999.25        -999.25
     10576.0000           0.45       2222.219        -999.25        -999.25        -999.25        -999.25           0.45        -999.25           24.1        -999.25        -999.25
     10576.5000           0.44       2272.727        -999.25        -999.25        -999.25        -999.25           0.42        -999.25          23.44        -999.25        -999.25
     10577.0000           0.44       2272.727        -999.25        -999.25        -999.25        -999.25           0.45        -999.25          22.56        -999.25        -999.25
