#------------------------------------------------------------------------------
# Created by    : vladimir.rabinovich
# Created on    : 09/19/2023 17:22:11
#------------------------------------------------------------------------------
~Version Information Section
VERS.           2.0     :   CWLS log ASCII Standard - VERSION 2.0
WRAP.           NO      :   One line per depth step
~Well Information Section
#MNEM       .UNIT                                         VALUE :DESCRIPTION
#------------------------------------------------------------------------------
STRT        .FT                                             714 :START DEPTH
STOP        .FT                                            7955 :STOP DEPTH
STEP        .FT                                             0.5 :STEP      
NULL        .                                           -999.25 :NULL      
COMP        .                                ODECO OIL & GAS CO :COMPANY   
WELL        .                               OCS G04756 ST00BP00 :WELL      
FLD         .                           WEST CAMERON BLOCK 0165 :FIELD     
LOC         .                                                   :LOCATION  
CNTY        .                                      WEST CAMERON :LOCATION  
STAT        .                                         LOUISIANA :STATE     
CTRY        .                                     UNITED STATES :COUNTRY   
SRVC        .                                                   :SERVICE COMPANY
DATE        .                             9/13/2023 11:19:06 AM :LOG DATE  
API         .                                    17700406200000 :API NUMBER
UWI         .                                    17700406200000 :UNIQUE WELL ID
XCOORD      .                                  1451757.14487559 :SURFACE X 
YCOORD      .                                  10673474.8616073 :SURFACE Y 
LAT         .                                        29.4091131 :LATITUDE  
LON         .                                       -93.5927176 :LONGITUDE 
ELEV        .FT                                             113 :ELEVATION VALUE
ELEV_TYPE   .                                                KB :ELEVATION REFERENCE TYPE
~Curve Information Section
#MNEM       .UNIT                                      API CODE :CURVE DESCRIPTION
#------------------------------------------------------------------------------
DEPT        .FT                                                 :DEPTH     
CALI        .IN                                                 :          
CILD        .MMHO                                               :          
DRHO        .G/C3                                               :          
DT          .US/F                                               :          
GR          .GAPI                                               :          
GR_NORM     .GAPI                                               :GammaRay Normalized
ILD         .OHMM                                               :          
NPSS        .%                                                  :Neutron Porosity Sandstone
RFOC        .OHMM                                               :          
RHOB        .G/C3                                               :          
RILD        .OHMM                                               :          
RILM        .OHMM                                               :          
SN          .OHMM                                               :          
SP          .MV                                                 :          
SP_NORM     .MV                                                 :SP Normalized
VSH_GR      .V/V                                                :Volume of Shale from GR
VSH_SP      .V/V                                                :Volume of Shale from SP
~A        DEPTH           CALI           CILD           DRHO             DT             GR        GR_NORM            ILD           NPSS           RFOC           RHOB           RILD           RILM             SN             SP        SP_NORM         VSH_GR         VSH_SP
# ...
      5544.0000        11.6458           1072         0.0473        -999.25        94.1176       85.93249        -999.25          40.26         1.0294         2.2206          0.934          0.934        -999.25          -16.8        -3.4667              1       0.991025
      5544.5000        11.6458           1064         0.0453        -999.25        94.7059       86.59789        -999.25          42.84          1.037         2.2343         0.9392         0.9392        -999.25          -16.2        -2.8667              1              1
      5545.0000        11.6458           1056         0.0409        -999.25        94.5098       86.37453        -999.25          41.76         1.0465         2.2333         0.9444         0.9444        -999.25         -13.75        -0.4167              1              1
      5545.5000         11.625           1048         0.0349        -999.25        93.3333       85.04012        -999.25          38.28         1.0408         2.2275         0.9513         0.9513        -999.25         -11.25         2.0833              1              1
      5546.0000        11.6458           1056         0.0333        -999.25        92.3529        83.9279        -999.25          38.22         1.0351         2.2275         0.9513         0.9513        -999.25       -11.5625         1.7708              1              1
      5546.5000        11.6458           1064         0.0393        -999.25        91.9608       83.48235        -999.25          39.42         1.0275         2.2363         0.9513         0.9513        -999.25        -10.625         2.7083              1              1
      5547.0000        11.6458           1072         0.0453        -999.25        92.1569       83.70331        -999.25           39.9         1.0219         2.2422         0.9392         0.9513        -999.25       -10.3125         3.0208              1              1
      5547.5000        11.6458           1088         0.0493        -999.25        92.7451       84.36871        -999.25           40.5         1.0144         2.2461         0.9272         0.9426        -999.25       -12.8125         0.5208              1              1
      5548.0000        11.6458           1104         0.0512        -999.25        93.9216       85.70063        -999.25          41.94          1.007          2.251         0.9154          0.934        -999.25          -15.3        -1.9667              1              1
      5548.5000         11.625       1104.811         0.0532        -999.25        96.2745       88.36563        -999.25          45.06         0.9978          2.255          0.907         0.9255        -999.25       -14.6875        -1.3542              1              1
      5549.0000         11.625       1106.589         0.0409        -999.25        97.6471       89.91976        -999.25          53.64         0.9887         2.2441         0.8987         0.9154        -999.25        -14.375        -1.0417              1              1
      5549.5000         11.625       1091.866         0.0273        -999.25        97.8431       90.14062        -999.25          53.64         0.9887         2.2216         0.9272         0.9444        -999.25          -16.2        -2.8667              1              1
      5550.0000        11.6458       1060.709         0.0249        -999.25        98.2353        90.5838        -999.25        50.8235         0.9887         2.2049         0.9566         0.9743        -999.25            -18        -4.6667              1      0.9679481
      5550.5000        11.6458       1028.571         0.0309        -999.25        99.4118       91.91584        -999.25           40.5         0.9978         2.2127         0.9887          1.007        -999.25            -18        -4.6667              1      0.9679481
      5551.0000        11.6667       1004.082         0.0393        -999.25        98.2353       90.58142        -999.25           40.5          1.007         2.2284         0.9854          0.959        -999.25          -17.7        -4.3667              1      0.9737173
      5551.5000         11.625       971.4286         0.0493        -999.25        91.7647       83.24789        -999.25          43.08         1.1128         2.2461         1.0154         1.0061        -999.25          -19.5        -6.1667              1      0.9391019
      5552.0000         11.625       946.9388         0.0612        -999.25           87.2       78.07407        -999.25          43.14         1.2215          2.261         1.0554         1.0458        -999.25            -21        -7.6667      0.9590227      0.9102558
      5552.5000        11.6458       906.1224         0.0716        -999.25           85.6       76.25975        -999.25          38.94         1.1571          2.294         1.1055         1.0955        -999.25          -21.9        -8.5667      0.9204202      0.8929481
      5553.0000        11.6458       865.3062         0.0732        -999.25           87.4       78.29832        -999.25          37.02         1.0562          2.291         1.1571         1.1466        -999.25          -19.5        -6.1667      0.9637941      0.9391019
      5553.5000        11.6458       824.4898         0.0552        -999.25        91.1765       82.57649        -999.25        35.5962         0.9624          2.263         1.2111         1.2001        -999.25          -17.1        -3.7667              1      0.9852558
      5554.0000        11.6875       816.3265         0.0393        -999.25           88.2       79.20236        -999.25        35.0192         1.0092         2.2235         1.2561         1.2334        -999.25          -18.3        -4.9667       0.983029      0.9621788
      5554.5000        11.7083       832.6531         0.0373        -999.25           82.4       72.62875        -999.25        35.7115         1.1055         2.2402         1.2561         1.2334        -999.25          -20.1        -6.7667      0.8431648      0.9275635
      5555.0000        11.7292       857.1429         0.0473        -999.25        71.2963       60.04512        -999.25          36.18         1.2111          2.266         1.2447         1.2111        -999.25          -18.3        -4.9667      0.5754282      0.9621788
      5555.5000        11.7292       857.1429         0.0572        -999.25           67.2       55.40208        -999.25        34.8462         1.2447          2.284         1.2111         1.1892        -999.25          -18.9        -5.5667        0.47664      0.9506404
      5556.0000        11.7292       840.8163         0.0473        -999.25           69.2       57.66728        -999.25        32.9375         1.1571          2.272         1.2222         1.2001        -999.25            -21        -7.6667      0.5248358      0.9102558
      5556.5000        11.7708       816.3265         0.0273        -999.25        73.7037       62.76949        -999.25        32.9375         1.0855          2.259         1.2334         1.2111        -999.25            -21        -7.6667      0.6333935      0.9102558
      5557.0000        11.8125       808.1633         0.0189        -999.25        75.5556       64.86676        -999.25         32.875         1.0467          2.252         1.2447         1.2222        -999.25          -19.5        -6.1667      0.6780162      0.9391019
      5557.5000        11.8542            800         0.0289        -999.25        75.9259       65.28513        -999.25        32.5625         1.0467          2.252         1.2561         1.2447        -999.25          -20.7        -7.3667      0.6869175       0.916025
      5558.0000         11.875            784         0.0433        -999.25        72.2222       61.08696        -999.25         32.625         1.0855           2.26         1.2792         1.2561        -999.25          -20.4        -7.0667      0.5975948      0.9217942
      5558.5000         11.875            776         0.0532        -999.25           69.6       58.11444        -999.25        33.8077         1.1469           2.27         1.2917         1.2683        -999.25          -20.1        -6.7667      0.5343497      0.9275635
