#------------------------------------------------------------------------------
# Created by    : vladimir.rabinovich
# Created on    : 09/19/2023 17:19:36
#------------------------------------------------------------------------------
~Version Information Section
VERS.           2.0     :   CWLS log ASCII Standard - VERSION 2.0
WRAP.           NO      :   One line per depth step
~Well Information Section
#MNEM       .UNIT                                         VALUE :DESCRIPTION
#------------------------------------------------------------------------------
STRT        .FT                                          2840.5 :START DEPTH
STOP        .FT                                            9365 :STOP DEPTH
STEP        .FT                                             0.5 :STEP      
NULL        .                                           -999.25 :NULL      
COMP        .                              MCMORAN OIL & GAS CO :COMPANY   
WELL        .                                OCS 00757 ST00BP00 :WELL      
FLD         .                           WEST CAMERON BLOCK 0118 :FIELD     
LOC         .                                                   :LOCATION  
CNTY        .                                      WEST CAMERON :LOCATION  
STAT        .                                         LOUISIANA :STATE     
CTRY        .                                     UNITED STATES :COUNTRY   
SRVC        .                                                   :SERVICE COMPANY
DATE        .                             9/13/2023 11:18:49 AM :LOG DATE  
API         .                                    17700410710000 :API NUMBER
UWI         .                                    17700410710000 :UNIQUE WELL ID
XCOORD      .                                  1441592.04714169 :SURFACE X 
YCOORD      .                                  10704369.2355959 :SURFACE Y 
LAT         .                                        29.4939537 :LATITUDE  
LON         .                                       -93.6251728 :LONGITUDE 
ELEV        .FT                                              90 :ELEVATION VALUE
ELEV_TYPE   .                                                KB :ELEVATION REFERENCE TYPE
~Curve Information Section
#MNEM       .UNIT                                      API CODE :CURVE DESCRIPTION
#------------------------------------------------------------------------------
DEPT        .FT                                                 :DEPTH     
AHT10       .OHMM                                               :          
AHT20       .OHMM                                               :          
AHT30       .OHMM                                               :          
AHT60       .OHMM                                               :          
AHT90       .OHMM                                               :          
AHTCO90     .MMHO                                               :          
DPHZ        .DEC                                                :          
GR          .GAPI                                               :          
GR_NORM     .GAPI                                               :GammaRay Normalized
HCAL        .IN                                                 :          
HDRA        .G/CC                                               :          
HMIN        .OHMM                                               :          
HMNO        .OHMM                                               :          
NPOR        .DEC                                                :          
RHOZ        .G/CC                                               :          
RWA         .OHMM                                               :          
TENS        .LB                                                 :          
VSH_GR      .V/V                                                :Volume of Shale from GR
~A        DEPTH          AHT10          AHT20          AHT30          AHT60          AHT90        AHTCO90           DPHZ             GR        GR_NORM           HCAL           HDRA           HMIN           HMNO           NPOR           RHOZ            RWA           TENS         VSH_GR
# ...
      7656.5000        10.6843         9.8675        11.6533        19.8286        37.6331         26.572         0.3153        34.4121       31.16279         9.7978          -0.01          2.085          2.451         0.2177           2.13         5.0755           3663              0
      7657.0000        10.4158        10.0741        12.1065        24.2318        51.2742         19.503         0.3076         33.958       30.72975         9.8215        -0.0095          2.181          2.582         0.1726          2.142         6.5582           3709              0
      7657.5000         9.1364         8.6742        11.2882        24.0759        57.2412          17.47         0.3027        36.6891       33.35645         9.8924        -0.0032          2.928           3.16         0.1584          2.151         7.0693           3704    0.007584105
      7658.0000         8.8618         8.3129        10.9009        25.5597        65.9726         15.158         0.3042        40.7598          37.27         10.058         -0.005          3.309          3.384         0.1792          2.148         8.2384           3733     0.09085108
      7658.5000         8.6719         8.5759        11.7278        32.0159        78.7101         12.705         0.3074        38.4535       35.05764        10.1053        -0.0064          3.504          3.391         0.1606          2.143        10.0515           3665     0.04377966
      7659.0000         7.3722         7.4667         10.476        36.9828        80.2416         12.462         0.3173        38.2138       34.83055         9.9398        -0.0144          2.741          2.896         0.1752          2.126        10.9674           3580      0.0389479
      7659.5000         7.5492          7.189         9.0555         32.498        65.6287         15.237         0.3388        36.2475        32.9448         9.8215        -0.0207          1.969          2.296         0.1763          2.091        10.3326           3574              0
      7660.0000        10.3303        10.8297         12.463        42.1236        61.2208         16.334          0.365        43.3054        39.7279         9.8215        -0.0303          2.461          3.107          0.137          2.048        11.3084           3500      0.1431468
      7660.5000        13.8132        19.9845        14.6156        53.7207        54.4424         18.368         0.3902         45.217       41.56742         9.8215        -0.0364          2.502          3.208         0.1062          2.006        11.6067           3602      0.1822855
      7661.0000        12.5849        20.0626         20.699        53.7188        46.0703         21.706         0.3924        42.4059       38.87013         9.8215        -0.0248          2.472           3.25          0.109          2.002         9.9461           3625      0.1248964
      7661.5000         9.1673        12.8694        15.4544        37.5633        27.4728           36.4         0.3702        40.3667       36.91444         9.8451        -0.0021          3.508           4.42         0.1132          2.039         5.2317           3626     0.08328604
      7662.0000         8.2714        12.4533        12.3977        23.1744        16.2058         61.706         0.3421        39.1742       35.77208        10.0344         0.0127          3.718          4.221         0.1316          2.086         2.6042           3647     0.05898049
      7662.5000         7.7107         12.061         8.3032        14.5443        11.0553         90.455         0.3185        41.7965       38.29428        10.1527         0.0098          3.399          3.337         0.1681          2.124         1.5239           3525      0.1126442
      7663.0000          6.033         8.2272         6.2591        12.1579         8.3961        119.103         0.3077        41.1808       37.70587        10.1053        -0.0054          3.706          3.726         0.1893          2.142         1.0746           3479      0.1001248
      7663.5000          4.305         5.1753         5.3663         9.5199         6.9418        144.055          0.299          38.18       34.82646         9.8924        -0.0147          2.633          2.881         0.2095          2.157          0.835           3532     0.03886081
      7664.0000         3.4586         4.2603         4.0787         8.8638         6.2554        159.861          0.286        39.6329       36.22524         9.9161        -0.0143          2.537          2.891         0.2094          2.178         0.6841           3502      0.0686221
      7664.5000         2.8632         3.2578         2.9637         6.1793         5.1429        194.444         0.2689        44.9218       41.30907         9.9871         -0.008          2.865          2.657         0.2332          2.206         0.4924           3519      0.1767887
      7665.0000         3.3791          3.964         3.6085         8.6179         5.9327        168.558         0.2581        48.9054       45.13886         9.9634        -0.0121          1.515          1.338         0.2725          2.224         0.5203           3557      0.2582737
      7665.5000         8.6684        11.7725         6.4288        13.8396        11.3377         88.202         0.2676        51.5423       47.67514           10.2        -0.0105          0.785           0.76         0.1862          2.209         1.0743           3558      0.3122371
      7666.0000        22.1022        24.0189         7.3672        19.9444        14.0216         71.319         0.2936        51.2853        47.4314        10.2946         -0.007          1.111          1.219         0.0846          2.166         1.6218           3527      0.3070511
      7666.5000        64.4209        61.7465         7.0116        11.5485         9.3803        106.607         0.3276        54.5979       50.61667         10.058        -0.0046          3.783          4.535         0.0978          2.109         1.3736           3385      0.3748228
      7667.0000       182.3501        45.9416         5.1687         5.9601         5.3256        187.772         0.3414        52.7936       48.88654           10.2        -0.0109          3.805          4.339         0.1683          2.087         0.8521           3392      0.3380116
      7667.5000        73.5643        21.1902         3.8537         3.1019         2.8437        351.649         0.3343        48.9957       45.24146         9.9161        -0.0178          3.073          3.342         0.2223          2.098         0.4349           3454      0.2604565
      7668.0000        35.9987         8.5944         3.2174         2.4953         2.3652        422.791         0.3194        46.0882       42.45156         9.8215        -0.0155          2.232          2.642         0.1975          2.123          0.328           3477      0.2010971
      7668.5000        13.5321         5.2341         2.3127         1.9362         1.8571        538.474         0.3166        42.6187       39.12194         9.7978        -0.0152          1.894          2.271         0.1947          2.128         0.2526           3502      0.1302541
      7669.0000         7.1807         3.3629         2.1969          1.627         1.5766        634.291         0.3126        40.7557       37.33546         9.8688        -0.0062          1.982           2.34         0.1687          2.134         0.2087           3585     0.09224376
      7669.5000         4.2657         2.2195         1.6574         1.2728         1.2383         807.54         0.2998         41.987       38.52137         9.9161         0.0079          2.491          2.737         0.2022          2.155         0.1498           3612       0.117476
      7670.0000         2.8648         1.5365         1.2267         1.0072         0.9842       1016.015         0.2852        46.9241       43.26719         9.9871         0.0193          3.243          3.044         0.2067          2.179         0.1069           3593      0.2184509
