#------------------------------------------------------------------------------
# Created by    : vladimir.rabinovich
# Created on    : 09/19/2023 17:20:42
#------------------------------------------------------------------------------
~Version Information Section
VERS.           2.0     :   CWLS log ASCII Standard - VERSION 2.0
WRAP.           NO      :   One line per depth step
~Well Information Section
#MNEM       .UNIT                                         VALUE :DESCRIPTION
#------------------------------------------------------------------------------
STRT        .FT                                            1866 :START DEPTH
STOP        .FT                                            8637 :STOP DEPTH
STEP        .FT                                             0.5 :STEP      
NULL        .                                           -999.25 :NULL      
COMP        .                           GENERAL AMERICAN OIL CO :COMPANY   
WELL        .                               OCS G01862 ST00BP00 :WELL      
FLD         .                           WEST CAMERON BLOCK 0045 :FIELD     
LOC         .                                                   :LOCATION  
CNTY        .                                      WEST CAMERON :LOCATION  
STAT        .                                         LOUISIANA :STATE     
CTRY        .                                     UNITED STATES :COUNTRY   
SRVC        .                                                   :SERVICE COMPANY
DATE        .                             9/13/2023 11:18:18 AM :LOG DATE  
API         .                                    17700004060000 :API NUMBER
UWI         .                                    17700004060000 :UNIQUE WELL ID
XCOORD      .                                  1439968.94212662 :SURFACE X 
YCOORD      .                                  10754878.8884152 :SURFACE Y 
LAT         .                                        29.6328727 :LATITUDE  
LON         .                                       -93.6311393 :LONGITUDE 
ELEV        .FT                                              51 :ELEVATION VALUE
ELEV_TYPE   .                                                KB :ELEVATION REFERENCE TYPE
~Curve Information Section
#MNEM       .UNIT                                      API CODE :CURVE DESCRIPTION
#------------------------------------------------------------------------------
DEPT        .FT                                                 :DEPTH     
ASN         .OHMM                                               :          
CALI        .IN                                                 :          
DRHO        .G/C3                                               :          
DT          .US/F                                               :          
GR          .GAPI                                               :          
GR_NORM     .GAPI                                               :GammaRay Normalized
ILD         .OHMM                                               :          
RHOB        .G/C3                                               :          
SP          .MV                                                 :          
SP_NORM     .MV                                                 :SP Normalized
VSH_GR      .V/V                                                :Volume of Shale from GR
VSH_SP      .V/V                                                :Volume of Shale from SP
~A        DEPTH            ASN           CALI           DRHO             DT             GR        GR_NORM            ILD           RHOB             SP        SP_NORM         VSH_GR         VSH_SP
# ...
      4777.0000         0.4484        14.3553         0.0645       113.6841        47.1025       46.67191         0.3458         2.0698       -91.5699       -50.9643      0.2908916      0.1531475
      4777.5000         0.4478        14.4304         0.0416       105.0511        49.0267       48.86858         0.3285         2.1076       -90.6582       -50.0508      0.3376293      0.1686305
      4778.0000         0.4464        14.3468          0.028        100.135        54.1118       54.67595         0.3284         2.1386        -89.496       -48.8868      0.4611903      0.1883593
      4778.5000         0.4457        14.1941         0.0462        98.2196        56.6017       57.51879         0.3613         2.2306       -87.7559       -47.1449      0.5216763       0.217883
      4779.0000         0.4468        14.3872         0.0603       102.0579        60.6188       62.10622          0.409          2.254       -84.9991       -44.3863      0.6192813       0.264639
      4779.5000          0.459        14.7873         0.0582       109.7789        63.0147        64.8417         0.4572         2.2808       -81.6248       -41.0102      0.6774829       0.321861
      4780.0000         0.4838        15.1157         0.0438       116.6824        64.5992       66.65034         0.5058         2.2787       -75.4955       -34.8791      0.7159646      0.4257779
      4780.5000         0.5149        15.0932         0.0294       118.5408        63.2261       65.08077         0.5606         2.2462       -68.0565       -27.4383      0.6825696      0.5518932
      4781.0000         0.5448        14.8771         0.0253       121.8413         63.358       65.23019          0.609         2.2382       -62.3466       -21.7266      0.6857488      0.6487017
      4781.5000         0.5738        14.5259         0.0356       127.7683        67.2212        69.6418         0.6454         2.2453       -58.0428        -17.421      0.7796128       0.721678
      4782.0000         0.5855        14.8123         0.0348       128.3728         72.118       75.23396          0.666         2.2456       -54.8057       -14.1821      0.8985948      0.7765746
      4782.5000         0.5939        15.1376         0.0301       120.5106        78.9769       83.06747         0.6818         2.2398       -52.2623       -11.6369              1      0.8197135
      4783.0000         0.5984        15.0985         0.0305       117.6908        80.3093       84.58815         0.6943         2.2445       -49.3572          -8.73              1       0.868983
      4783.5000          0.599        14.9887         0.0218       115.1526         80.118       84.36849         0.7014         2.2358       -46.5375        -5.9085              1      0.9168051
      4784.0000         0.6006        15.0273         0.0324       117.5695        84.4431       89.30762         0.7075         2.2244       -46.4478         -5.817              1      0.9183559
      4784.5000         0.6023        15.0314         0.0431       120.8674        88.3038        93.7164         0.7119         2.2287       -46.6951        -6.0625              1      0.9141949
      4785.0000         0.6037         14.766         0.0384       125.4485        93.8556       100.0567          0.717         2.2344        -44.764        -4.1296              1      0.9469559
      4785.5000         0.6051        14.2351          0.044       126.3163        97.9924       104.7809         0.7229         2.2376       -42.8347        -2.1985              1      0.9796864
      4786.0000         0.6069        13.5943         0.0609       124.9807        98.0813       104.8812         0.7255         2.2559       -41.1744        -0.5364              1              1
      4786.5000         0.6067         13.134         0.0597       124.7484        96.0376       103.9847         0.7254         2.2561       -39.8842         0.7556              1              1
      4787.0000         0.6016        13.1606         0.0489       126.5765        92.5825       99.78481         0.7229         2.2394       -39.8366          0.805              1              1
      4787.5000         0.5949          13.14         0.0508       128.8562        89.0663       95.51081         0.7212         2.2344       -40.7199        -0.0764              1              1
      4788.0000         0.5856        13.1089         0.0693       131.4529        87.3485       93.42207         0.7211         2.2534       -42.1557        -1.5104              1      0.9913492
      4788.5000         0.5728        13.0521         0.0615        136.426        89.7334       96.31889         0.7179         2.2553         -42.47        -1.8229              1      0.9860525
      4789.0000         0.5787         12.977         0.0611        140.175        92.7316       99.96088         0.7137         2.2476       -42.4116        -1.7627              1      0.9870729
      4789.5000         0.5849        12.9044         0.0397       142.5508        94.2185       101.7665         0.7098         2.2378       -42.1442        -1.4935              1      0.9916356
      4790.0000         0.5916        12.8588         0.0259        -999.25        90.5323        97.2858         0.7061         2.2199        -41.538        -0.8855              1              1
      4790.5000         0.5942        -999.25         0.0218        -999.25        91.5293       98.49612         0.7004         2.2103       -41.7671        -1.1128              1      0.9980881
      4791.0000         0.5932        -999.25         0.0124        -999.25         92.574       99.76426         0.6938         2.2005       -42.3378        -1.6817              1      0.9884458
      4791.5000         0.5868        -999.25         0.0083        -999.25        92.1298       99.22328         0.6882         2.1895        -42.722        -2.0641              1      0.9819644
      4792.0000         0.5802        -999.25          0.012        -999.25        91.8861       98.92581         0.6861         2.1826       -42.9377         -2.278              1       0.978339
      4792.5000         0.5733        -999.25         0.0184        -999.25        89.9801       96.60847         0.6873         2.1853       -42.2722        -1.6107              1      0.9896492
      4793.0000         0.5665        -999.25         0.0287        -999.25        87.3363       93.39448         0.6973         2.1955       -41.6066        -0.9433              1              1
      4793.5000         0.5633        -999.25         0.0377        -999.25        84.9905       90.54259         0.6942         2.2078         -41.83        -1.1649              1      0.9972051
      4794.0000         0.5637        -999.25         0.0325        -999.25        83.9336       89.25706         0.6859         2.2195       -41.5528        -0.8859              1              1
      4794.5000         0.5732        -999.25         0.0374        -999.25        83.3167       88.50622         0.6791         2.2109       -41.1044        -0.4357              1              1
      4795.0000         0.5866        -999.25         0.0433        -999.25        87.0234       93.00914         0.6727         2.2216       -40.3985          0.272              1              1
      4795.5000         0.5945        -999.25         0.0301        -999.25        89.6539       96.20431         0.6696         2.2341       -40.7069        -0.0346              1              1
      4796.0000         0.6043        -999.25         0.0238        -999.25        90.7328       97.51415         0.6707         2.2316         -41.66        -0.9859              1              1
      4796.5000         0.6111        -999.25         0.0243        -999.25        92.1403       99.22314         0.6811         2.2252       -41.9401        -1.2642              1       0.995522
      4797.0000         0.6163        -999.25         0.0307        -999.25        89.7089        96.2674         0.6991         2.2275       -41.5101        -0.8324              1              1
