#------------------------------------------------------------------------------
# Created by    : vladimir.rabinovich
# Created on    : 09/19/2023 17:22:32
#------------------------------------------------------------------------------
~Version Information Section
VERS.           2.0     :   CWLS log ASCII Standard - VERSION 2.0
WRAP.           NO      :   One line per depth step
~Well Information Section
#MNEM       .UNIT                                         VALUE :DESCRIPTION
#------------------------------------------------------------------------------
STRT        .FT                                            2450 :START DEPTH
STOP        .FT                                            9560 :STOP DEPTH
STEP        .FT                                             0.5 :STEP      
NULL        .                                           -999.25 :NULL      
COMP        .                               TALOS PETROLEUM LLC :COMPANY   
WELL        .                                OCS 00301 ST00BP00 :WELL      
FLD         .                           WEST CAMERON BLOCK 0045 :FIELD     
LOC         .                                                   :LOCATION  
CNTY        .                                      WEST CAMERON :LOCATION  
STAT        .                                         LOUISIANA :STATE     
CTRY        .                                     UNITED STATES :COUNTRY   
SRVC        .                                                   :SERVICE COMPANY
DATE        .                             9/13/2023 11:18:49 AM :LOG DATE  
API         .                                    17700410870000 :API NUMBER
UWI         .                                    17700410870000 :UNIQUE WELL ID
XCOORD      .                                  1447194.98921956 :SURFACE X 
YCOORD      .                                  10757079.9124673 :SURFACE Y 
LAT         .                                        29.6390336 :LATITUDE  
LON         .                                       -93.6084245 :LONGITUDE 
ELEV        .FT                                              96 :ELEVATION VALUE
ELEV_TYPE   .                                                KB :ELEVATION REFERENCE TYPE
~Curve Information Section
#MNEM       .UNIT                                      API CODE :CURVE DESCRIPTION
#------------------------------------------------------------------------------
DEPT        .FT                                                 :DEPTH     
CNC         .%                                                  :          
DCAL        .IN                                                 :          
GR          .GAPI                                               :          
GR_NORM     .GAPI                                               :GammaRay Normalized
M0C6        .MMHO                                               :          
M2R1        .OHMM                                               :          
M2R2        .OHMM                                               :          
M2R3        .OHMM                                               :          
M2R6        .OHMM                                               :          
M2R9        .OHMM                                               :          
M2RX        .OHMM                                               :          
SP          .MV                                                 :          
SP_NORM     .MV                                                 :SP Normalized
TEN         .LB/F                                               :          
VSH_GR      .V/V                                                :Volume of Shale from GR
VSH_SP      .V/V                                                :Volume of Shale from SP
ZCOR        .G/CC                                               :          
ZDEN        .G/CC                                               :          
~A        DEPTH            CNC           DCAL             GR        GR_NORM           M0C6           M2R1           M2R2           M2R3           M2R6           M2R9           M2RX             SP        SP_NORM            TEN         VSH_GR         VSH_SP           ZCOR           ZDEN
# ...
      4816.0000        -999.25          0.752         28.964        34.8838       3394.878          0.461           0.32          0.283          0.273          0.269          0.271        -61.514       -63.4188        -27.101     0.04008086     0.02509841        -999.25        -999.25
      4816.5000        -999.25          0.745         28.507        34.4254       3253.214          0.494          0.345          0.305          0.294          0.288           0.29        -61.134       -63.0388        -19.156     0.03032766     0.03113017        -999.25        -999.25
      4817.0000        -999.25          0.743         28.026         33.943       3101.009          0.546          0.382          0.336          0.324          0.316          0.318        -60.732       -62.6368        -27.103     0.02006385     0.03751113        -999.25        -999.25
      4817.5000        -999.25          0.751         27.646        33.5616       2950.495          0.607          0.426          0.374          0.359          0.348          0.352          -60.3       -62.2048        -33.797     0.01194893     0.04436826        -999.25        -999.25
      4818.0000        -999.25           0.77         26.364        32.2782       2811.227          0.657          0.468          0.411          0.393          0.379          0.383        -59.765       -61.6698        -32.572              0     0.05286032        -999.25        -999.25
      4818.5000        -999.25           0.79         24.364        30.2768       2689.725          0.683          0.499           0.44          0.419          0.403          0.409         -59.26       -61.1648        -32.259              0     0.06087621        -999.25        -999.25
      4819.0000        -999.25          0.803         23.067        28.9784       2589.375          0.683          0.514          0.458          0.435          0.418          0.425        -58.866       -60.7708        -37.254              0     0.06713013        -999.25        -999.25
      4819.5000        -999.25          0.807         23.191         29.101       2510.803           0.66          0.512          0.461           0.44          0.423          0.431         -58.43       -60.3348         -36.44              0     0.07405078        -999.25        -999.25
      4820.0000        -999.25          0.802         23.585        29.4936       2452.717          0.632          0.502          0.458          0.437          0.422          0.431        -57.974       -59.8788        -27.428              0      0.0812889        -999.25        -999.25
      4820.5000        -999.25          0.786         23.252        29.1592       2412.834          0.616          0.496          0.456          0.437          0.424          0.435        -57.823       -59.7278        -36.223              0     0.08368574        -999.25        -999.25
      4821.0000        -999.25          0.757         23.366        29.2718       2389.042          0.617          0.498          0.462          0.444          0.433          0.446        -58.257       -60.1618        -58.592              0     0.07679682        -999.25        -999.25
      4821.5000        -999.25          0.712         24.647        30.5514       2380.041          0.622          0.503          0.469          0.453          0.445          0.458        -59.224       -61.1288         -63.55              0     0.06144763        -999.25        -999.25
      4822.0000        -999.25          0.668         25.672         31.575       2385.784          0.615            0.5           0.47          0.456           0.45          0.464        -60.379       -62.2838         -54.42              0     0.04311432        -999.25        -999.25
      4822.5000        -999.25           0.64          25.61        31.5117       2407.079          0.595          0.489          0.464          0.452          0.449          0.462        -61.332       -63.2368         -57.59              0     0.02798728        -999.25        -999.25
      4823.0000        -999.25          0.637         24.342        30.2423       2444.994          0.573          0.477          0.455          0.445          0.444          0.456        -61.814       -63.7188         -66.18              0     0.02033651        -999.25        -999.25
      4823.5000        -999.25          0.649         22.342        28.2409       2499.752          0.551          0.461          0.442          0.434          0.434          0.445        -61.736       -63.6408        -62.214              0      0.0215746        -999.25        -999.25
      4824.0000        -999.25          0.663         21.752        27.6495       2570.079          0.526           0.44          0.422          0.415          0.417          0.425        -61.212       -63.1168        -52.069              0     0.02989209        -999.25        -999.25
      4824.5000        -999.25          0.667         24.441        30.3371       2652.679          0.498          0.413          0.395          0.389          0.391          0.397        -60.418       -62.3228        -48.706              0     0.04249524        -999.25        -999.25
      4825.0000        -999.25          0.664         27.853        33.7477       2742.549          0.473          0.387          0.369          0.363          0.365          0.369        -59.518       -61.4228        -43.209     0.01590851     0.05678098        -999.25        -999.25
      4825.5000        -999.25          0.659         28.138        34.0313       2833.599          0.459          0.368           0.35          0.344          0.346          0.348            -59       -60.9048        -25.653     0.02194254     0.06500317        -999.25        -999.25
      4826.0000        -999.25          0.649         25.798        31.6899       2919.605          0.458          0.361           0.34          0.335          0.336          0.337        -59.425       -61.3298         -16.85              0     0.05825715        -999.25        -999.25
      4826.5000        -999.25          0.637          23.32        29.2105       2995.052          0.461          0.358          0.337          0.331          0.332          0.332        -60.576       -62.4808        -31.126              0     0.03998729        -999.25        -999.25
      4827.0000        -999.25          0.626         21.878        27.7671       3053.707          0.457          0.354          0.332          0.327          0.328          0.327        -61.414       -63.3188        -52.372              0     0.02668568        -999.25        -999.25
      4827.5000        -999.25           0.62         21.713        27.6007       3090.674          0.443          0.346          0.325          0.321          0.321          0.321        -61.185       -63.0898        -63.398              0     0.03032061        -999.25        -999.25
      4828.0000        -999.25          0.621         22.564        28.4503       3106.648          0.425          0.336          0.316          0.313          0.314          0.313        -60.317       -62.2218        -64.177              0     0.04409838        -999.25        -999.25
      4828.5000        -999.25          0.623         23.066        28.9509       3101.372          0.409          0.326          0.308          0.305          0.306          0.306        -59.878       -61.7828        -57.207              0     0.05106669        -999.25        -999.25
      4829.0000        -999.25          0.623         23.199        29.0825       3075.175          0.398          0.319          0.302            0.3          0.301          0.301        -60.197       -62.1018         -46.51              0     0.04600319        -999.25        -999.25
      4829.5000        -999.25          0.622         23.552        29.4341       3032.315          0.396           0.32          0.303          0.301          0.301          0.302         -60.38       -62.2848        -27.638              0     0.04309839        -999.25        -999.25
