#------------------------------------------------------------------------------
# Created by    : vladimir.rabinovich
# Created on    : 09/19/2023 17:22:24
#------------------------------------------------------------------------------
~Version Information Section
VERS.           2.0     :   CWLS log ASCII Standard - VERSION 2.0
WRAP.           NO      :   One line per depth step
~Well Information Section
#MNEM       .UNIT                                         VALUE :DESCRIPTION
#------------------------------------------------------------------------------
STRT        .FT                                             955 :START DEPTH
STOP        .FT                                            8851 :STOP DEPTH
STEP        .FT                                             0.5 :STEP      
NULL        .                                           -999.25 :NULL      
COMP        .                                SHELL OFFSHORE INC :COMPANY   
WELL        .                               OCS G08627 ST00BP00 :WELL      
FLD         .                                           WILDCAT :FIELD     
LOC         .                                                   :LOCATION  
CNTY        .                                 WEST CAMERON WEST :LOCATION  
STAT        .                                         LOUISIANA :STATE     
CTRY        .                                     UNITED STATES :COUNTRY   
SRVC        .                                                   :SERVICE COMPANY
DATE        .                             9/13/2023 11:18:15 AM :LOG DATE  
API         .                                    17701402000000 :API NUMBER
UWI         .                                    17701402000000 :UNIQUE WELL ID
XCOORD      .                                  1405165.89752093 :SURFACE X 
YCOORD      .                                  10654404.2103889 :SURFACE Y 
LAT         .                                        29.3559214 :LATITUDE  
LON         .                                       -93.7387067 :LONGITUDE 
ELEV        .FT                                             100 :ELEVATION VALUE
ELEV_TYPE   .                                                KB :ELEVATION REFERENCE TYPE
~Curve Information Section
#MNEM       .UNIT                                      API CODE :CURVE DESCRIPTION
#------------------------------------------------------------------------------
DEPT        .FT                                                 :DEPTH     
CALX        .IN                                                 :          
DRHO        .G/C3                                               :          
DT          .US/F                                               :          
GR          .GAPI                                               :          
GR_NORM     .GAPI                                               :GammaRay Normalized
ILD         .OHMM                                               :          
ILM         .OHMM                                               :          
LL          .OHMM                                               :          
NPHI        .%                                                  :          
RHOB        .G/C3                                               :          
SP          .MV                                                 :          
SP_NORM     .MV                                                 :SP Normalized
VSH_GR      .V/V                                                :Volume of Shale from GR
VSH_SP      .V/V                                                :Volume of Shale from SP
~A        DEPTH           CALX           DRHO             DT             GR        GR_NORM            ILD            ILM             LL           NPHI           RHOB             SP        SP_NORM         VSH_GR         VSH_SP
# ...
      5707.0000        11.9112         0.0678       124.4241        70.9839       59.75303         0.9249         0.8621         0.7296        52.2589         1.7436       -82.0088      -2.500595      0.5692133      0.9317911
      5707.5000        11.9134         0.0726       118.8623        72.5531       61.45732          0.936         0.8655         0.7247           55.8         1.7786       -81.3778      -1.855705       0.605475      0.9611043
      5708.0000        12.3723         0.0654       114.6621        74.6467        63.7316         0.9703         0.8807         0.7545        53.1706         1.8357       -80.9568      -1.420822      0.6538638      0.9808717
      5708.5000        12.1643         0.0641        112.444        76.7068       65.96946         1.0122         0.8969         0.7704        49.2076         1.8899       -80.8021      -1.252228      0.7014779      0.9885351
      5709.0000        12.4848         0.0661       108.0804        78.0504       67.42855         1.0453         0.9246         0.7711        47.1413         1.8896       -80.9114      -1.347641      0.7325224      0.9841982
      5709.5000        12.5545         0.0778        98.2834        76.4292       65.66515         1.0804         0.9713         0.7913        46.1974         1.8559       -80.8054      -1.227745      0.6950031      0.9896479
      5710.0000         12.966         0.0893        91.8224        72.5593        61.4576         1.1011         1.0069         0.8502        45.8323         1.8472       -80.8918      -1.300262      0.6054808      0.9863517
      5710.5000        13.0751         0.1021        89.9685        70.5549       59.27768          1.101         1.0134         0.8873        45.5226         1.8249       -81.2402      -1.634766      0.5590996       0.971147
      5711.0000        13.1257         0.1101        91.4305        69.8732       58.53543         1.0924         1.0014         0.8729        45.0809         1.7893       -81.5903      -1.970978      0.5433071      0.9558647
      5711.5000        13.2343         0.1008        96.6104        69.9438       58.61088         1.0806         0.9842         0.8359        44.6708         1.7666       -82.1226      -2.489388      0.5449124      0.9323006
      5712.0000        13.7777         0.0874       103.7246        68.4613       56.99824         1.0708         0.9572          0.797        44.8871         1.7858       -81.7585      -2.111397      0.5106008       0.949482
      5712.5000        14.5125         0.0869        105.866        66.4607       54.82245         1.0723         0.9439         0.7644        46.7584         1.8461       -81.5411      -1.880112      0.4643075      0.9599949
      5713.0000        14.6484         0.1006       105.6099        64.4911       52.68036         1.0683         0.9421         0.7404        49.3387         1.8887       -81.6969      -2.022018      0.4187311      0.9535446
      5713.5000        14.1714         0.1088       105.4429        64.5803       52.77602         1.0592         0.9561         0.7329        51.7493         1.9018       -81.6351      -1.946327      0.4207665      0.9569851
      5714.0000        12.2169         0.0841       105.6982        67.2268       55.65126         1.0434          0.976         0.7704        54.7737         1.9335       -81.3759      -1.673241      0.4819416      0.9693981
      5714.5000        11.2879         0.0735       105.2406        69.8757       58.52911         1.0398         0.9959         0.8262        52.8369          1.994        -81.281      -1.564445      0.5431725      0.9743434
      5715.0000        11.1748         0.0747       104.4152        71.6669        60.4747         1.0441          1.012         0.8685        49.1779         2.0948       -81.3198      -1.589363      0.5845681      0.9732108
      5715.5000        11.0502         0.0844       107.3168        73.5063       62.47269         1.0492         1.0164         0.8798        47.1502         2.1534       -81.3427      -1.598366      0.6270784      0.9728016
      5716.0000        10.8828         0.0883       112.7064        75.0385       64.13676         1.0456         1.0205         0.8658        46.1885         2.1965       -81.5887      -1.830475      0.6624842      0.9622511
      5716.5000        10.9062         0.0882       114.2094        77.8969       67.24231          1.044         1.0287         0.8353        45.6838         2.2025       -81.7976       -2.02549      0.7285598      0.9533868
      5717.0000        10.9899         0.0878       113.8809        79.7623       69.26855         1.0564         1.0325          0.824        45.1121         2.2046       -81.8875      -2.107254      0.7716714      0.9496703
      5717.5000        11.0883         0.0893       112.0194        79.6644       69.16085         1.0589         1.0342         0.8047        44.4208         2.2049       -81.9153      -2.138626      0.7693798      0.9482443
      5718.0000        11.1388         0.1016       107.7137        77.0638       66.33292           1.05         1.0358         0.8334        43.5515         2.1932       -82.0033      -2.230202      0.7092112      0.9440817
      5718.5000        11.1136         0.1107       106.1287        72.9982       61.91266         1.0542         1.0321         0.8703        42.6561         2.1772       -81.9395      -2.169975       0.615163      0.9468193
      5719.0000        11.0128         0.1107       107.4877        69.8496        58.4891         1.0428         1.0216         0.8753         42.011         2.1685       -82.0078      -2.241844      0.5423212      0.9435526
      5719.5000        11.0673         0.0954        109.025        68.7731       57.31774         1.0319         1.0112         0.8734        41.1563         2.1699       -83.0641       -3.30172      0.5173987      0.8953764
      5720.0000        11.0348         0.0685       108.8225        70.1521        58.8153         1.0147         0.9996         0.9059        40.7957         2.1874       -84.0746      -4.315788      0.5492618      0.8492823
      5720.5000        10.9965          0.064       109.8741        72.3412       61.19338         0.9765         0.9836         0.9344        41.1112         2.1948       -84.1979      -4.442657      0.5998592      0.8435156
      5721.0000        11.0807         0.0642       113.1499        76.3895       65.59225         0.9403         0.9599         0.9109        42.3217          2.187       -83.5693      -3.817627      0.6934522      0.8719261
      5721.5000        11.2941         0.0701       117.2646        81.5411       71.19032         0.9025         0.9045         0.8426        44.4462         2.1545       -83.0483      -3.300201      0.8125599      0.8954454
      5722.0000        12.3557         0.0872       120.9323        84.1931       74.07153         0.8583         0.8395         0.7843        46.3055         2.0255       -82.8718      -3.127274      0.8738624      0.9033058
      5722.5000        13.1966         0.1064       124.6803          84.04       73.90384         0.8191         0.7865         0.7385        47.8027         1.9573       -82.0765      -2.335541      0.8702945      0.9392936
      5723.0000        13.9879         0.1139       127.9735        79.8057       69.30021         0.7932         0.7418         0.6984        48.9298         1.8842        -81.384      -1.646614      0.7723449      0.9706085
      5723.5000        14.9221         0.1156       130.2922        76.8953       66.13556         0.7744         0.7157         0.6705        49.8498         1.8363       -80.9216      -1.187782      0.7050119      0.9914644
      5724.0000        16.1586         0.1164       131.4338        74.4335       63.45849         0.7592         0.6914         0.6498        50.5831         1.8226       -80.9415       -1.21125      0.6480529      0.9903977
      5724.5000        16.4144         0.1239       131.1958        72.5122        61.3689         0.7471         0.6844         0.6349        50.1269          1.836       -81.3784      -1.651726      0.6035936      0.9703761
