#------------------------------------------------------------------------------
# Created by    : vladimir.rabinovich
# Created on    : 09/19/2023 17:20:43
#------------------------------------------------------------------------------
~Version Information Section
VERS.           2.0     :   CWLS log ASCII Standard - VERSION 2.0
WRAP.           NO      :   One line per depth step
~Well Information Section
#MNEM       .UNIT                                         VALUE :DESCRIPTION
#------------------------------------------------------------------------------
STRT        .FT                                            2986 :START DEPTH
STOP        .FT                                           10006 :STOP DEPTH
STEP        .FT                                             0.5 :STEP      
NULL        .                                           -999.25 :NULL      
COMP        .                                        CONOCO INC :COMPANY   
WELL        .                                OCS 00764 ST00BP00 :WELL      
FLD         .                           WEST CAMERON BLOCK 0192 :FIELD     
LOC         .                                                   :LOCATION  
CNTY        .                                      WEST CAMERON :LOCATION  
STAT        .                                         LOUISIANA :STATE     
CTRY        .                                     UNITED STATES :COUNTRY   
SRVC        .                                                   :SERVICE COMPANY
DATE        .                             9/13/2023 11:18:18 AM :LOG DATE  
API         .                                    17700003670000 :API NUMBER
UWI         .                                    17700003670000 :UNIQUE WELL ID
XCOORD      .                                  1596137.97932418 :SURFACE X 
YCOORD      .                                  10614860.5046116 :SURFACE Y 
LAT         .                                         29.249106 :LATITUDE  
LON         .                                        -93.138896 :LONGITUDE 
ELEV        .FT                                              84 :ELEVATION VALUE
ELEV_TYPE   .                                                KB :ELEVATION REFERENCE TYPE
~Curve Information Section
#MNEM       .UNIT                                      API CODE :CURVE DESCRIPTION
#------------------------------------------------------------------------------
DEPT        .FT                                                 :DEPTH     
ASN         .OHMM                                               :          
CALI        .IN                                                 :          
CALI_1      .IN                                                 :          
DRHO        .G/C3                                               :          
DT          .US/F                                               :          
GR          .GAPI                                               :          
ILD         .OHMM                                               :          
RHOB        .G/C3                                               :          
SP          .MV                                                 :          
SP_NORM     .MV                                                 :SP Normalized
VSH_SP      .V/V                                                :Volume of Shale from SP
~A        DEPTH            ASN           CALI         CALI_1           DRHO             DT             GR            ILD           RHOB             SP        SP_NORM         VSH_SP
# ...
      4583.5000         0.7189        -999.25        -999.25        -999.25        -999.25        -999.25         0.5768        -999.25       -45.7299     0.07769012              1
      4584.0000         0.7105        -999.25        -999.25        -999.25        -999.25        -999.25         0.5771        -999.25       -45.6076      0.2032738              1
      4584.5000         0.7021        -999.25        -999.25        -999.25        -999.25        -999.25          0.574        -999.25       -45.4969      0.3172607              1
      4585.0000          0.697        -999.25        -999.25        -999.25        -999.25        -999.25         0.5693        -999.25        -45.394      0.4234428              1
      4585.5000          0.694        -999.25        -999.25        -999.25        -999.25        -999.25         0.5592        -999.25       -45.2719      0.5488243              1
      4586.0000         0.6947        -999.25        -999.25        -999.25        -999.25        -999.25         0.5559        -999.25       -45.1826      0.6414108              1
      4586.5000         0.6996        -999.25        -999.25        -999.25        -999.25        -999.25         0.5502        -999.25        -45.163      0.6642952              1
      4587.0000         0.7053        -999.25        -999.25        -999.25        -999.25        -999.25          0.551        -999.25       -45.2018      0.6287766              1
      4587.5000         0.7115        -999.25        -999.25        -999.25        -999.25        -999.25         0.5571        -999.25       -45.3976       0.436264              1
      4588.0000         0.7169        -999.25        -999.25        -999.25        -999.25        -999.25         0.5644        -999.25       -45.6774      0.1597443              1
      4588.5000         0.7203        -999.25        -999.25        -999.25        -999.25        -999.25         0.5708        -999.25       -45.8679    -0.02747345              1
      4589.0000         0.7217        -999.25        -999.25        -999.25        -999.25        -999.25          0.576        -999.25       -45.9216    -0.07788849              1
      4589.5000         0.7147        -999.25        -999.25        -999.25        -999.25        -999.25         0.5725        -999.25       -45.8754    -0.02840424              1
      4590.0000         0.7052        11.2155        -999.25        -999.25       139.1851        -999.25         0.5695        -999.25       -45.6592       0.191082              1
      4590.5000         0.6978        11.1808        -999.25        -999.25       139.3972        -999.25         0.5699        -999.25       -45.5051      0.3484612              1
      4591.0000         0.6966        11.1459        -999.25        -999.25       139.3821        -999.25         0.5707        -999.25        -45.311       0.545845              1
      4591.5000         0.6986        11.1131        -999.25        -999.25       139.2446        -999.25         0.5733        -999.25       -45.1125      0.7476311              1
      4592.0000         0.7005        11.0775        -999.25        -999.25       139.1057        -999.25         0.5739        -999.25       -44.9414      0.9220161              1
      4592.5000         0.7025        11.0398        -999.25        -999.25       139.1321        -999.25         0.5721        -999.25       -44.8535       1.013195              1
      4593.0000         0.7011        10.9798        -999.25        -999.25       139.2026        -999.25         0.5729        -999.25       -44.9135      0.9564781              1
      4593.5000         0.6995        10.9438        -999.25        -999.25       139.3188        -999.25         0.5753        -999.25       -44.9766      0.8966637              1
      4594.0000         0.6988        10.9343        -999.25        -999.25       139.4089        -999.25          0.579        -999.25        -45.046      0.8305473              1
      4594.5000          0.698        10.9347        -999.25        -999.25       139.4263        -999.25         0.5832        -999.25       -45.1165      0.7633324              1
      4595.0000         0.6973        10.9426        -999.25        -999.25       139.4114        -999.25         0.5877        -999.25       -45.1895       0.693615              1
      4595.5000          0.697        10.9409        -999.25        -999.25       139.4517        -999.25         0.5924        -999.25        -45.329      0.5573997              1
      4596.0000         0.6975         10.925        -999.25        -999.25       139.5667        -999.25         0.5893        -999.25       -45.4169      0.4727821              1
      4596.5000         0.6979         10.913        -999.25        -999.25       139.6699        -999.25         0.5825        -999.25       -45.3688      0.5241661              1
      4597.0000         0.6984        10.9129        -999.25        -999.25       139.6672        -999.25         0.5703        -999.25       -45.1921      0.7041473              1
      4597.5000         0.6997        10.9213        -999.25        -999.25       139.5691        -999.25         0.5679        -999.25       -45.0798      0.8197327              1
      4598.0000         0.7023        10.9233        -999.25        -999.25       139.4978        -999.25         0.5812        -999.25       -45.0919      0.8109169              1
      4598.5000         0.7111        10.9294        -999.25        -999.25       139.5244        -999.25         0.5992        -999.25       -45.1509      0.7551994              1
      4599.0000         0.7256        10.9574        -999.25        -999.25       139.5508        -999.25         0.6185        -999.25       -45.2494      0.6599846              1
      4599.5000         0.7498        10.9877        -999.25        -999.25       139.5884        -999.25         0.6384        -999.25       -45.4788      0.4338646              1
      4600.0000         0.7735        11.0197        -999.25        -999.25       139.6096        -999.25         0.6718        -999.25       -45.8185     0.09745026              1
      4600.5000         0.7998        11.0543        -999.25        -999.25        139.584        -999.25         0.7102        -999.25       -46.3347     -0.4154663              1
      4601.0000         0.8399        11.0897        -999.25        -999.25        139.491        -999.25         0.7479        -999.25        -46.997      -1.074482      0.9958621
      4601.5000          0.866        11.1354        -999.25        -999.25       135.0996        -999.25         0.7724        -999.25       -47.7042      -1.778397      0.9567558
      4602.0000         0.8831        11.1823        -999.25        -999.25       103.1666        -999.25         0.7912        -999.25       -48.6669      -2.737816      0.9034547
      4602.5000         0.8899        11.1832        -999.25        -999.25       100.0291        -999.25          0.795        -999.25       -49.7006       -3.76823      0.8462094
      4603.0000         0.8873        11.1697        -999.25        -999.25       100.6554        -999.25         0.7546        -999.25         -50.42      -4.484344      0.8064253
      4603.5000         0.8797        11.1663        -999.25        -999.25       103.6431        -999.25         0.7053        -999.25       -50.9034      -4.964462      0.7797521
      4604.0000         0.8657        11.1665        -999.25        -999.25       114.9554        -999.25         0.6731        -999.25       -51.0812      -5.138981      0.7700566
      4604.5000         0.8417        11.1752        -999.25        -999.25       130.3645        -999.25         0.6399        -999.25       -50.9356      -4.990097      0.7783279
      4605.0000         0.8071         11.177        -999.25        -999.25       135.9446        -999.25         0.6036        -999.25       -50.3984      -4.449612      0.8083549
      4605.5000         0.7762        11.1682        -999.25        -999.25       139.7795        -999.25          0.573        -999.25       -49.7203      -3.768227      0.8462096
