#------------------------------------------------------------------------------
# Created by    : vladimir.rabinovich
# Created on    : 09/19/2023 17:19:36
#------------------------------------------------------------------------------
~Version Information Section
VERS.           2.0     :   CWLS log ASCII Standard - VERSION 2.0
WRAP.           NO      :   One line per depth step
~Well Information Section
#MNEM       .UNIT                                         VALUE :DESCRIPTION
#------------------------------------------------------------------------------
STRT        .FT                                          2840.5 :START DEPTH
STOP        .FT                                            9365 :STOP DEPTH
STEP        .FT                                             0.5 :STEP      
NULL        .                                           -999.25 :NULL      
COMP        .                              MCMORAN OIL & GAS CO :COMPANY   
WELL        .                                OCS 00757 ST00BP00 :WELL      
FLD         .                           WEST CAMERON BLOCK 0118 :FIELD     
LOC         .                                                   :LOCATION  
CNTY        .                                      WEST CAMERON :LOCATION  
STAT        .                                         LOUISIANA :STATE     
CTRY        .                                     UNITED STATES :COUNTRY   
SRVC        .                                                   :SERVICE COMPANY
DATE        .                             9/13/2023 11:18:49 AM :LOG DATE  
API         .                                    17700410710000 :API NUMBER
UWI         .                                    17700410710000 :UNIQUE WELL ID
XCOORD      .                                  1441592.04714169 :SURFACE X 
YCOORD      .                                  10704369.2355959 :SURFACE Y 
LAT         .                                        29.4939537 :LATITUDE  
LON         .                                       -93.6251728 :LONGITUDE 
ELEV        .FT                                              90 :ELEVATION VALUE
ELEV_TYPE   .                                                KB :ELEVATION REFERENCE TYPE
~Curve Information Section
#MNEM       .UNIT                                      API CODE :CURVE DESCRIPTION
#------------------------------------------------------------------------------
DEPT        .FT                                                 :DEPTH     
AHT10       .OHMM                                               :          
AHT20       .OHMM                                               :          
AHT30       .OHMM                                               :          
AHT60       .OHMM                                               :          
AHT90       .OHMM                                               :          
AHTCO90     .MMHO                                               :          
DPHZ        .DEC                                                :          
GR          .GAPI                                               :          
GR_NORM     .GAPI                                               :GammaRay Normalized
HCAL        .IN                                                 :          
HDRA        .G/CC                                               :          
HMIN        .OHMM                                               :          
HMNO        .OHMM                                               :          
NPOR        .DEC                                                :          
RHOZ        .G/CC                                               :          
RWA         .OHMM                                               :          
TENS        .LB                                                 :          
VSH_GR      .V/V                                                :Volume of Shale from GR
~A        DEPTH          AHT10          AHT20          AHT30          AHT60          AHT90        AHTCO90           DPHZ             GR        GR_NORM           HCAL           HDRA           HMIN           HMNO           NPOR           RHOZ            RWA           TENS         VSH_GR
# ...
      8496.5000          0.558         0.4545         0.3657         0.3341         0.3032       3298.309         0.2356        76.4053       75.46405        10.3419         0.0042          0.617          0.547         0.3928          2.261         0.0219           3754      0.9034904
      8497.0000         0.5707         0.4424         0.3479         0.3151          0.284       3521.316          0.236        73.8893       72.61597        10.2709         0.0023          0.681          0.604         0.3935          2.261         0.0205           3779      0.8428931
      8497.5000         0.5862         0.4295           0.33         0.2938         0.2639       3788.799         0.2417        73.6498       72.34489        10.1763          0.001          0.618          0.548         0.4103          2.251         0.0201           3733      0.8371254
      8498.0000         0.5457         0.3874         0.3197         0.2863         0.2545       3929.104         0.2555         60.945        57.9632         9.9161         0.0008          1.162          1.027         0.3651          2.228         0.0218           3738       0.531132
      8498.5000         0.4692         0.3385          0.293         0.2686         0.2393       4179.154         0.2849        51.7395       47.54258         9.8451        -0.0049          2.042          1.804         0.3175           2.18          0.026           3745      0.3094165
      8499.0000         0.4164         0.3075         0.2716         0.2526         0.2251       4441.761         0.3042        48.0992       43.42183         9.8215        -0.0081          1.605          1.418         0.2842          2.148         0.0281           3763       0.221741
      8499.5000         0.3796          0.284         0.2512         0.2378         0.2124       4707.756         0.3169        47.8595       43.15046         9.8215        -0.0123          1.376          1.215         0.2835          2.127          0.029           3823      0.2159672
      8500.0000         0.3538         0.2676         0.2349         0.2242         0.2006       4986.266         0.3126        49.7752       45.31905         9.8215        -0.0104          1.305          1.153         0.3013          2.134         0.0266           3765      0.2621074
      8500.5000         0.3338          0.254         0.2231         0.2137         0.1913       5226.543         0.3102        48.9365       44.36968         9.8215        -0.0101          1.246          1.101         0.3116          2.138         0.0249           3760      0.2419081
      8501.0000         0.3191         0.2426         0.2142         0.2048         0.1835       5450.955         0.3069        50.5963       46.24848         9.8215        -0.0085          1.231          1.087         0.3099          2.144         0.0233           3817      0.2818825
      8501.5000         0.3112         0.2367         0.2094         0.2001          0.179       5585.575         0.3105        49.1765       44.64136         9.8215        -0.0091          1.237          1.093         0.2966          2.138         0.0234           3749      0.2476885
      8502.0000         0.3015         0.2345         0.2099         0.2004         0.1786       5600.582         0.3098        45.4025       40.36924         9.8215        -0.0076          1.226          1.083         0.2957          2.139         0.0232           3716      0.1567923
      8502.5000         0.2977         0.2306          0.213          0.202          0.179       5587.626         0.3079        41.5712        36.0322         9.8215         -0.006            1.2          1.061         0.3298          2.142         0.0229           3773     0.06451497
      8503.0000           0.32         0.2353          0.214         0.1951         0.1728        5785.71         0.3065        46.8449       42.00202         9.7978        -0.0051          1.072          0.947         0.3379          2.144         0.0219           3780      0.1915323
      8503.5000         0.3723         0.2569         0.2249         0.1993         0.1759       5685.335         0.3097        52.5058       48.41012          9.786        -0.0053          1.345          1.188         0.3396          2.139         0.0228           3823      0.3278748
      8504.0000         0.4408         0.2855         0.2331         0.2088         0.1829       5467.657         0.3144        57.5345       54.10252         9.7742        -0.0048          1.888          1.668         0.3196          2.131         0.0245           3835      0.4489897
      8504.5000         0.5127         0.3135         0.2546         0.2069         0.1813       5516.188         0.3152        55.1373       51.38892         9.7978        -0.0051          1.869          1.651          0.305           2.13         0.0244           3824      0.3912537
      8505.0000         0.5477         0.3221         0.2752         0.2299         0.1977       5057.056         0.3165        57.0109       53.50981          9.786        -0.0061          2.176          1.922         0.3087          2.128         0.0269           3872      0.4363789
      8505.5000         0.4813         0.3013         0.2621          0.227         0.1962       5097.194         0.3152        59.7786       56.64285         9.7742        -0.0072          2.225          1.965         0.2864           2.13         0.0264           3875      0.5030394
      8506.0000         0.3926         0.2728         0.2455         0.2183         0.1898       5268.223         0.3172        58.1006       54.74338         9.7742        -0.0066          1.808          1.597         0.3056          2.127         0.0259           3930      0.4626251
      8506.5000         0.3395         0.2498         0.2303         0.2095         0.1833       5455.653         0.3172        56.4244       52.84586         9.7742        -0.0061           1.21          1.069         0.3039          2.127          0.025           3865      0.4222523
      8507.0000          0.313          0.237         0.2193         0.2044           0.18       5556.481         0.3171        49.9248       45.48838         9.7742        -0.0058          1.024          0.905         0.2662          2.127         0.0246           3824      0.2657103
      8507.5000         0.3004         0.2311         0.2139         0.2027         0.1791       5582.475         0.3172         48.966       44.40304         9.7742        -0.0067          1.058          0.935         0.3103          2.127         0.0245           3796      0.2426178
      8508.0000         0.2952         0.2297         0.2131         0.2076         0.1835       5449.064          0.314        45.6136       40.60816         9.7505        -0.0071          1.158          1.023         0.2831          2.132         0.0245           3794      0.1618757
      8508.5000         0.2942         0.2306         0.2131         0.2076          0.184       5435.254         0.3134        49.3875       44.88013         9.7505        -0.0078          1.174          1.037         0.3017          2.133         0.0245           3808      0.2527688
      8509.0000         0.2943         0.2305         0.2134         0.2102         0.1867       5357.176         0.3116        50.3464       45.96564         9.7269        -0.0074          1.199          1.059         0.3414          2.136         0.0245           3841      0.2758646
      8509.5000         0.2954         0.2315         0.2146         0.2104         0.1874       5336.159         0.3116        52.0226       47.86315         9.7505         -0.007          1.159          1.024         0.3389          2.136         0.0246           3757      0.3162373
      8510.0000         0.2899         0.2328         0.2161         0.2117         0.1889       5292.981         0.3101        50.5549       46.20169         9.7269        -0.0051          0.984           0.87         0.3162          2.138         0.0246           3794      0.2808871
