#------------------------------------------------------------------------------
# Created by    : vladimir.rabinovich
# Created on    : 09/19/2023 17:20:42
#------------------------------------------------------------------------------
~Version Information Section
VERS.           2.0     :   CWLS log ASCII Standard - VERSION 2.0
WRAP.           NO      :   One line per depth step
~Well Information Section
#MNEM       .UNIT                                         VALUE :DESCRIPTION
#------------------------------------------------------------------------------
STRT        .FT                                            1866 :START DEPTH
STOP        .FT                                            8637 :STOP DEPTH
STEP        .FT                                             0.5 :STEP      
NULL        .                                           -999.25 :NULL      
COMP        .                           GENERAL AMERICAN OIL CO :COMPANY   
WELL        .                               OCS G01862 ST00BP00 :WELL      
FLD         .                           WEST CAMERON BLOCK 0045 :FIELD     
LOC         .                                                   :LOCATION  
CNTY        .                                      WEST CAMERON :LOCATION  
STAT        .                                         LOUISIANA :STATE     
CTRY        .                                     UNITED STATES :COUNTRY   
SRVC        .                                                   :SERVICE COMPANY
DATE        .                             9/13/2023 11:18:18 AM :LOG DATE  
API         .                                    17700004060000 :API NUMBER
UWI         .                                    17700004060000 :UNIQUE WELL ID
XCOORD      .                                  1439968.94212662 :SURFACE X 
YCOORD      .                                  10754878.8884152 :SURFACE Y 
LAT         .                                        29.6328727 :LATITUDE  
LON         .                                       -93.6311393 :LONGITUDE 
ELEV        .FT                                              51 :ELEVATION VALUE
ELEV_TYPE   .                                                KB :ELEVATION REFERENCE TYPE
~Curve Information Section
#MNEM       .UNIT                                      API CODE :CURVE DESCRIPTION
#------------------------------------------------------------------------------
DEPT        .FT                                                 :DEPTH     
ASN         .OHMM                                               :          
CALI        .IN                                                 :          
DRHO        .G/C3                                               :          
DT          .US/F                                               :          
GR          .GAPI                                               :          
GR_NORM     .GAPI                                               :GammaRay Normalized
ILD         .OHMM                                               :          
RHOB        .G/C3                                               :          
SP          .MV                                                 :          
SP_NORM     .MV                                                 :SP Normalized
VSH_GR      .V/V                                                :Volume of Shale from GR
VSH_SP      .V/V                                                :Volume of Shale from SP
~A        DEPTH            ASN           CALI           DRHO             DT             GR        GR_NORM            ILD           RHOB             SP        SP_NORM         VSH_GR         VSH_SP
# ...
      4674.5000         0.9109        13.6378          0.174       133.0908         37.968       33.89909         0.5411         1.9436       -84.7502        -44.514     0.01912965      0.2624746
      4675.0000         0.9428        14.4721         0.1672       140.9136        38.9301       35.06395         0.5449         1.9507        -84.707        -44.469      0.0439139      0.2632373
      4675.5000          0.935        15.2405         0.1487       123.0802        39.1769        35.3596         0.5514          1.921       -84.6844       -44.4446     0.05020434      0.2636509
      4676.0000         0.9039        15.7695         0.1228        93.0087        37.4255       33.22699         0.5595         1.8544        -84.686       -44.4444    0.004829488      0.2636542
      4676.5000         0.8701         15.902         0.0841        85.2008        39.0572       35.20552         0.5675         1.8405       -84.7085       -44.4651     0.04692605      0.2633034
      4677.0000         0.8495        15.9506         0.0939        76.1144        40.9216       37.46684         0.5752          1.875       -84.8374       -44.5922     0.09503904      0.2611491
      4677.5000         0.8499         15.913         0.0746        107.757        43.3773       40.44667         0.5838         2.0031       -84.9795       -44.7325      0.1584398      0.2587712
      4678.0000         0.8635        15.4493          0.016       120.0176        43.9708       41.16361         0.5937         2.1349       -85.1898        -44.941      0.1736939      0.2552373
      4678.5000         0.8887        14.5146         0.0295       129.8955        44.4537       41.74617         0.5969         2.1252       -85.2839       -45.0333      0.1860886      0.2536729
      4679.0000         0.9384        14.0829         0.0662       128.3394        44.2692       41.51772         0.6346         2.1003       -85.2058       -44.9534      0.1812281      0.2550271
      4679.5000         1.0493         14.862         0.1187       128.5215        41.9528       38.69864         0.7214         2.0764       -84.8427       -44.5885      0.1212477      0.2612118
      4680.0000         1.1379        15.7438         0.1486       130.6055        39.7792       36.05298          0.853         1.9742       -84.3657       -44.1097     0.06495707      0.2693271
      4680.5000         1.2316        15.9523         0.0669        131.386        39.2487       35.40408         0.9977          1.839       -83.7998        -43.542     0.05115071      0.2789491
      4681.0000         1.3056        15.9459         0.0092       121.2466        39.0288       35.13262         1.1348         1.8483       -82.6163       -42.3567     0.04537485       0.299039
      4681.5000         1.4444          15.94         0.0219       105.1602         39.315       35.47614         1.2312         1.8804       -81.3029       -41.0415     0.05268381      0.3213305
      4682.0000         1.6395        15.9489         0.0002       101.1361        39.6954       35.93414         1.2864         2.0254        -80.238       -39.9748     0.06242841      0.3394102
      4682.5000         1.8209        15.9578         0.0534       118.3822        39.3272       35.48246         1.2844         2.1703       -80.2836       -40.0186      0.0528183      0.3386678
      4683.0000         1.8289        15.9586         0.1301       109.1842        37.4493       33.19624         1.2275         2.0927       -80.3062       -40.0394    0.004175308      0.3383153
      4683.5000         1.8031        15.9562         0.1882         130.95        36.5905       32.14828         1.1488         1.9069       -80.2578       -39.9892              0      0.3391661
      4684.0000         1.6198        15.9507         0.1585       138.1309        37.7679       33.57476         1.0465          1.825       -80.1874        -39.917     0.01222903      0.3403898
      4684.5000         1.4494        15.9421         0.1404        133.844        37.4952       33.23914         0.9471         1.8866       -80.1276       -39.8554    0.005088076      0.3414339
      4685.0000          1.392        15.8905         0.1153       130.0876        36.4023       31.90682         0.8604          1.928       -80.4143       -40.1403              0      0.3366051
      4685.5000         1.2571        15.1975         0.1037       133.0115        35.6487       30.98682         0.7808          2.017       -81.4216       -41.1458              0      0.3195627
      4686.0000         1.1042        13.7066         0.0653       126.1428        37.1732       32.83509         0.7127         2.1021       -82.4298       -42.1522              0      0.3025051
      4686.5000         1.0145        13.7977         0.0704       117.1531        40.1446       36.44159         0.6538         2.1282       -83.8314       -43.5519     0.07322539      0.2787814
      4687.0000         0.9801        14.9511         0.0834       108.1633        43.4283       40.42759         0.5984         2.1617       -85.2487       -44.9675      0.1580339      0.2547882
      4687.5000          0.927        15.2351          0.062       109.5015        42.0383       38.73413         0.5578         2.1807       -86.5065       -46.2234      0.1220027      0.2335017
      4688.0000         0.9141        13.8744         0.0088        128.353        37.7841        33.5603         0.5273         2.1952       -87.7048       -47.4199     0.01192134      0.2132221
      4688.5000         0.8933         13.239         0.0567       137.1296        35.7438       31.07675         0.5156          2.126         -88.24       -47.9533              0      0.2041813
      4689.0000         0.8505        12.6116         0.1402       139.5828         35.442       30.70575         0.5166         1.9834       -88.3296       -48.0411              0      0.2026932
      4689.5000         0.8066        12.3562         0.1874       140.9011        36.6919       32.22034         0.5177         1.8496       -87.6348       -47.3445              0         0.2145
      4690.0000         0.7849         12.761         0.1877       116.5585         35.905       31.25987         0.5202         1.8511       -86.2513       -45.9592              0      0.2379796
      4690.5000         0.8611        14.2831         0.1635        122.208           35.8       31.12803         0.5228         1.8329       -84.7098       -44.4159              0      0.2641373
      4691.0000           0.96        15.7601         0.1532       120.6222         37.388       33.05346         0.5221         1.8304       -83.2985       -43.0028    0.001137348      0.2880881
      4691.5000          1.043        15.9249         0.1233       124.3291        36.8189       32.35753         0.5218         1.8854       -83.8982       -43.6007              0      0.2779542
      4692.0000         1.1041        15.9523         0.0687       142.2271        39.6681       35.81554         0.5357         2.1108       -84.5712       -44.2719     0.05990503       0.266578
      4692.5000         1.1475        15.9688         0.0264        134.875        44.4867       41.66669         0.5668         2.3611       -85.2213       -44.9202      0.1843978      0.2555898
      4693.0000         1.1782        15.9651        -0.0055       123.3651        45.4324       42.81163         0.6122         2.5043       -84.9653       -44.6624       0.208758      0.2599593
      4693.5000         1.1841        15.9656          0.001       120.6816        41.8917       38.50483         0.6613         2.4926       -84.7482       -44.4435       0.117124      0.2636695
      4694.0000          1.173        15.8581         0.0049       112.9259          38.18       33.99023         0.6916         2.3859       -84.5535        -44.247     0.02106882          0.267
      4694.5000         1.1989        15.3806         0.0022       109.9474        39.7316       35.87144         0.7176         2.3066       -83.9941       -43.6858     0.06109441      0.2765119
