#------------------------------------------------------------------------------
# Created by    : vladimir.rabinovich
# Created on    : 09/19/2023 17:21:58
#------------------------------------------------------------------------------
~Version Information Section
VERS.           2.0     :   CWLS log ASCII Standard - VERSION 2.0
WRAP.           NO      :   One line per depth step
~Well Information Section
#MNEM       .UNIT                                         VALUE :DESCRIPTION
#------------------------------------------------------------------------------
STRT        .FT                                            3382 :START DEPTH
STOP        .FT                                           10910 :STOP DEPTH
STEP        .FT                                             0.5 :STEP      
NULL        .                                           -999.25 :NULL      
COMP        .                               B P EXPLORATION INC :COMPANY   
WELL        .                               OCS G07597 ST00BP00 :WELL      
FLD         .                           WEST CAMERON BLOCK 0045 :FIELD     
LOC         .                                                   :LOCATION  
CNTY        .                                      WEST CAMERON :LOCATION  
STAT        .                                         LOUISIANA :STATE     
CTRY        .                                     UNITED STATES :COUNTRY   
SRVC        .                                                   :SERVICE COMPANY
DATE        .                             9/13/2023 11:18:09 AM :LOG DATE  
API         .                                    17700407640000 :API NUMBER
UWI         .                                    17700407640000 :UNIQUE WELL ID
XCOORD      .                                  1473636.79229916 :SURFACE X 
YCOORD      .                                   10762774.556795 :SURFACE Y 
LAT         .                                        29.6550545 :LATITUDE  
LON         .                                       -93.5252479 :LONGITUDE 
ELEV        .FT                                              90 :ELEVATION VALUE
ELEV_TYPE   .                                                KB :ELEVATION REFERENCE TYPE
~Curve Information Section
#MNEM       .UNIT                                      API CODE :CURVE DESCRIPTION
#------------------------------------------------------------------------------
DEPT        .FT                                                 :DEPTH     
CALI        .IN                                                 :          
DRHO        .G/C3                                               :          
DT          .US/F                                               :          
GR          .GAPI                                               :          
GR_1        .GAPI                                               :          
GR_NORM     .GAPI                                               :GammaRay Normalized
ILD         .OHMM                                               :          
ILM         .OHMM                                               :          
NPHI        .%                                                  :          
RHOB        .G/C3                                               :          
SFL         .OHMM                                               :          
SP          .MV                                                 :          
SP_NORM     .MV                                                 :SP Normalized
VSH_GR      .V/V                                                :Volume of Shale from GR
VSH_SP      .V/V                                                :Volume of Shale from SP
~A        DEPTH           CALI           DRHO             DT             GR           GR_1        GR_NORM            ILD            ILM           NPHI           RHOB            SFL             SP        SP_NORM         VSH_GR         VSH_SP
# ...
      7938.0000         11.048        -0.0278       110.1338        43.1533        54.6254       51.82298         0.2119         0.2271        34.5817         2.1532         0.5114      -129.3262       -82.5212      0.4004889      0.0859632
      7938.5000        11.0534        -0.0263       109.8933        42.8974        52.1744       51.44538         0.2063         0.2183        34.5693         2.1447          0.496      -129.3437       -82.5413      0.3924548     0.08573221
      7939.0000        11.0606         -0.025        109.043        42.5505        50.5016       50.93386         0.2025         0.2148         34.593         2.1362         0.4599       -131.356       -84.5563      0.3815715     0.06257129
      7939.5000        11.0786        -0.0238       107.8799        42.0381        49.1363       50.17881         0.2031         0.2173        34.7271         2.1305         0.4284      -133.2478       -86.4507      0.3655067     0.04079657
      7940.0000         11.113        -0.0225       106.7106        41.3891        48.3985       49.22274          0.208         0.2305        35.0098         2.1285         0.4159      -131.2219       -84.4274      0.3451646     0.06405289
      7940.5000        11.1486        -0.0206       105.4812        40.7195        49.8086       48.23637         0.2196         0.2462         35.462         2.1282         0.4613       -124.842       -78.0501       0.324178      0.1373551
      7941.0000        11.1499        -0.0181       104.2468        40.6413        51.7319       48.12027         0.2407         0.2692        35.8019         2.1277         0.5282       -118.462       -71.6728      0.3217078      0.2106575
      7941.5000        11.1653        -0.0147       102.5831        42.4909        52.9446       50.84101         0.2592         0.2877        35.5556         2.1282         0.5598      -114.9939       -68.2073      0.3795959      0.2504908
      7942.0000        11.1834        -0.0124       101.3623        43.3924        51.0122       52.16658         0.2698         0.2954          35.15         2.1361         0.6021      -110.8312       -64.0472      0.4077995       0.298308
      7942.5000        11.2015        -0.0132       100.7599        42.3319        53.5823       50.60497         0.2637         0.2929         34.798         2.1679         0.5837      -111.5803        -64.799      0.3745737      0.2896666
      7943.0000        11.2013        -0.0116       101.4493        41.5555        57.2004       49.46143         0.2385           0.28        34.6387         2.2041          0.541      -118.0348       -71.2561      0.3502431      0.2154471
      7943.5000        11.1926         -0.005       103.1917        43.0847        58.1499       51.71069         0.2153          0.248        34.5493         2.2325         0.4451      -124.7426       -77.9665      0.3980997      0.1383161
      7944.0000        11.1891        -0.0021       105.1744        43.9901        54.7105       53.04216         0.2047         0.2292        34.6006         2.2335         0.4014      -128.2183       -81.4449       0.426429     0.09833448
      7944.5000        11.2234        -0.0088       107.1818        42.1257        50.6596       50.29756         0.2013         0.2218        34.8119         2.1771         0.4289      -129.5176       -82.7468      0.3680332     0.08337007
      7945.0000        11.3829        -0.0189       108.9412        39.8003        46.4045       46.87459            0.2         0.2162        35.2762         2.1413         0.5279      -130.2046       -83.4364      0.2952041     0.07544366
      7945.5000        11.5685        -0.0343        109.005        38.1208         42.429       44.40209         0.1995         0.2153        36.0684         2.1143         0.5876      -130.8145        -84.049      0.2425977     0.06840226
      7946.0000        11.7897        -0.0472       108.0123        36.8911        41.0309        42.5915         0.1994         0.2148        36.9318         2.1002         0.6006      -131.2349        -84.472      0.2040745     0.06354023
      7946.5000        12.0168        -0.0585       106.9375        35.1967        38.9106       40.09708          0.199         0.2158        38.3457         2.1027         0.6056      -131.1001       -84.3398      0.1510017      0.0650598
      7947.0000        12.1866        -0.0773       106.1124        33.7508        36.3356       37.96833         0.1986         0.2173        39.6393         2.1084         0.6082       -131.207       -84.4493      0.1057092     0.06380112
      7947.5000        12.3276        -0.1073       105.6111        32.5012         35.467       36.12845         0.1981         0.2169        40.4527         2.1029           0.61      -131.7932       -85.0382     0.06656282     0.05703218
      7948.0000        12.3338         -0.117       105.4958        32.1111        34.1108       35.55338         0.1974         0.2152        41.2933         2.1046         0.6118       -132.166       -85.4136     0.05432721     0.05271728
      7948.5000        12.2403        -0.1224       105.5123        34.5582        32.1169       39.15337         0.1968         0.2129        41.4217          2.116         0.6115      -132.3311       -85.5813      0.1309228     0.05078967
      7949.0000         12.065         -0.126       105.8719        36.2277        32.4792        41.6091         0.1955         0.2101        41.1549         2.1178         0.6082      -131.9883       -85.2412      0.1831723     0.05469881
      7949.5000        11.8936        -0.1233       106.3627         37.001        35.9368       42.74602          0.194         0.2068        40.6685         2.1422         0.6012      -131.1877       -84.4432      0.2073621     0.06387127
      7950.0000        11.8332        -0.1098       106.8418        36.2327        36.9654       41.61439         0.1922         0.2055        40.1671         2.1584         0.5945      -131.0559        -84.314      0.1832848     0.06535628
      7950.5000        11.7892        -0.0914       107.3756        33.4601        40.9822       37.53334         0.1909         0.2051        39.4332         2.1574          0.594      -131.5132        -84.774     0.09645397     0.06006894
      7951.0000        11.7642        -0.0792       107.6267        32.5161        42.6454       36.14317         0.1899         0.2055        39.3138         2.1582         0.5977      -131.9194       -85.1828     0.06687586     0.05537011
      7951.5000        11.7876        -0.0706       106.6492        31.2217        42.9104       34.23737         0.1903         0.2063        39.1147         2.1657         0.6052      -132.1704       -85.4364     0.02632693     0.05245516
      7952.0000        11.8179        -0.0654       105.7947        29.3658         40.936       31.50529         0.1919         0.2059        38.8119          2.163         0.6104      -131.9758       -85.2445              0     0.05466093
      7952.5000         11.839        -0.0656       105.4486        27.4852        38.9799       28.73685         0.1948          0.205        38.1901         2.1563         0.6046      -131.3584       -84.6297              0     0.06172759
      7953.0000        11.8371         -0.067       105.3883        26.1393        37.8517       26.75527         0.1972         0.2038        37.9968         2.1521         0.5918      -130.6604       -83.9343              0     0.06972065
      7953.5000        11.8407        -0.0658       105.8462        27.3361        37.0499       28.51538         0.1997          0.203        37.9568         2.1473         0.5787      -130.3184        -83.595              0     0.07362068
      7954.0000        11.8429        -0.0627       106.4462        30.4764         36.983       33.13547         0.2016         0.2042        38.0113         2.1467          0.568      -130.2656       -83.5448    0.002882369      0.0741977
      7954.5000        11.8432        -0.0589       106.7914        32.8738        37.4428       36.66233         0.2011         0.2069        38.3049         2.1578         0.5588      -130.5188       -83.8006     0.07792185     0.07125749
