#------------------------------------------------------------------------------
# Created by    : vladimir.rabinovich
# Created on    : 09/19/2023 17:20:44
#------------------------------------------------------------------------------
~Version Information Section
VERS.           2.0     :   CWLS log ASCII Standard - VERSION 2.0
WRAP.           NO      :   One line per depth step
~Well Information Section
#MNEM       .UNIT                                         VALUE :DESCRIPTION
#------------------------------------------------------------------------------
STRT        .FT                                             194 :START DEPTH
STOP        .FT                                           14521 :STOP DEPTH
STEP        .FT                                             0.5 :STEP      
NULL        .                                           -999.25 :NULL      
COMP        .                             MAGNOLIA PETROLEUM CO :COMPANY   
WELL        .                                OCS 00043 ST00BP00 :WELL      
FLD         .                          EUGENE ISLAND BLOCK 0089 :FIELD     
LOC         .                                                   :LOCATION  
CNTY        .                                     EUGENE ISLAND :LOCATION  
STAT        .                                         LOUISIANA :STATE     
CTRY        .                                     UNITED STATES :COUNTRY   
SRVC        .                                                   :SERVICE COMPANY
DATE        .                             9/13/2023 11:18:42 AM :LOG DATE  
API         .                                    17709003920000 :API NUMBER
UWI         .                                    17709003920000 :UNIQUE WELL ID
XCOORD      .                                  2056408.80151155 :SURFACE X 
YCOORD      .                                  10562022.8372996 :SURFACE Y 
LAT         .                                        29.0974849 :LATITUDE  
LON         .                                       -91.6970667 :LONGITUDE 
ELEV        .FT                                              50 :ELEVATION VALUE
ELEV_TYPE   .                                                KB :ELEVATION REFERENCE TYPE
~Curve Information Section
#MNEM       .UNIT                                      API CODE :CURVE DESCRIPTION
#------------------------------------------------------------------------------
DEPT        .FT                                                 :DEPTH     
ASN         .OHMM                                               :          
LAT         .OHMM                                               :          
LN          .OHMM                                               :          
SP          .MV                                                 :          
SP_NORM     .MV                                                 :SP Normalized
VSH_SP      .V/V                                                :Volume of Shale from SP
~A        DEPTH            ASN            LAT             LN             SP        SP_NORM         VSH_SP
# ...
      7832.0000         0.3359         0.1076          0.295       -99.5186      -40.08627              0
      7832.5000         0.3437         0.1082         0.3105      -100.2058      -40.77256              0
      7833.0000         0.3515         0.1089          0.326        -96.069      -36.63484     0.08412905
      7833.5000         0.4036         0.1095         0.3415       -90.2168      -30.78172       0.230457
      7834.0000         0.4556         0.1101         0.3573       -86.8171      -27.38111      0.3154723
      7834.5000         0.5038         0.1107         0.3733       -81.2217      -21.78479      0.4553803
      7835.0000         0.5428         0.1113         0.3883       -75.3341      -15.89627      0.6025932
      7835.5000         0.5772         0.1188         0.4003       -73.3398      -13.90105      0.6524737
      7836.0000         0.6029         0.1275         0.4123        -72.293      -12.85334      0.6786666
      7836.5000         0.6262         0.1361         0.4243       -71.1044      -11.66382      0.7084045
      7837.0000         0.6412         0.1448         0.4364       -70.3374       -10.8959      0.7276024
      7837.5000         0.6362         0.1535          0.449       -70.6472      -11.20478      0.7198804
      7838.0000         0.6309         0.1621         0.4617       -70.9832      -11.53987      0.7115033
      7838.5000         0.6252         0.1708         0.4744       -71.5016      -12.05735      0.6985663
      7839.0000         0.6195         0.1795         0.4871       -72.1667      -12.72153      0.6819617
      7839.5000         0.6138         0.1873         0.4997       -72.8285      -13.38241      0.6654397
      7840.0000         0.6081         0.1916         0.5092       -73.4838       -14.0368        0.64908
      7840.5000          0.606         0.1958         0.5178       -73.9884      -14.54049      0.6364878
      7841.0000         0.6079         0.2001         0.5264       -74.4791      -15.03027      0.6242434
      7841.5000         0.6098         0.2043         0.5349        -74.647      -15.19725      0.6200687
      7842.0000         0.6133         0.2086         0.5435       -74.6307      -15.18003      0.6204993
      7842.5000         0.6187         0.2128         0.5521       -74.2479      -14.79631      0.6300921
      7843.0000         0.6241          0.217         0.5607        -73.865      -14.41249      0.6396877
      7843.5000         0.6295         0.2198         0.5655       -73.4825      -14.02908      0.6492731
      7844.0000         0.6349         0.2213         0.5689         -73.02      -13.56565      0.6608586
      7844.5000         0.6403         0.2227         0.5723       -72.5204      -13.06514      0.6733714
      7845.0000         0.6464         0.2242         0.5758       -72.0206      -12.56442      0.6858894
      7845.5000         0.6538         0.2257         0.5792        -71.521      -12.06391      0.6984022
      7846.0000         0.6611         0.2271         0.5827        -71.038      -11.57999      0.7105002
      7846.5000         0.6684         0.2286         0.5861       -70.7977      -11.33877      0.7165307
      7847.0000         0.6757           0.23         0.5897       -70.5574      -11.09756       0.722561
      7847.5000          0.683         0.2338         0.5932       -70.3169      -10.85614      0.7285965
      7848.0000          0.689          0.238         0.5968       -70.0768      -10.61512       0.734622
      7848.5000         0.6949         0.2421         0.6003        -69.835       -10.3724      0.7406899
      7849.0000         0.7008         0.2462         0.6039       -69.5669      -10.10339      0.7474152
      7849.5000         0.7067         0.2504         0.6059       -69.2988      -9.834366      0.7541409
      7850.0000         0.7126         0.2545          0.606       -69.0306      -9.565254      0.7608687
      7850.5000         0.7205         0.2586          0.606       -68.7626      -9.296337      0.7675916
      7851.0000         0.7284         0.2628          0.606       -68.4945      -9.027317      0.7743171
      7851.5000         0.7364         0.2714         0.6061       -68.2225      -8.754402        0.78114
      7852.0000         0.7444           0.28         0.6061       -67.9364      -8.467384      0.7883154
      7852.5000         0.7522         0.2885         0.6051       -67.6504      -8.180462      0.7954885
      7853.0000         0.7597         0.2971         0.5992        -67.364      -7.893147      0.8026713
      7853.5000         0.7673         0.3057         0.5934       -67.0779      -7.606136      0.8098466
      7854.0000         0.7748         0.3143         0.5876       -66.8096      -7.336914      0.8165771
      7854.5000         0.7823         0.3287         0.5818       -66.5409      -7.067299      0.8233175
      7855.0000         0.7873         0.3449         0.5754       -66.2722       -6.79768       0.830058
      7855.5000         0.7919         0.3612         0.5679       -66.0037      -6.528263      0.8367934
      7856.0000         0.7966         0.3774         0.5604       -65.7352      -6.258842      0.8435289
      7856.5000         0.8011         0.3936         0.5529       -65.3036      -5.826324      0.8543419
      7857.0000         0.8034         0.4182         0.5454       -64.8698      -5.391605      0.8652099
      7857.5000         0.8058         0.4435         0.5379        -64.436       -4.95689      0.8760778
      7858.0000         0.8051         0.4687         0.5289       -64.0022      -4.522171      0.8869457
      7858.5000         0.8026          0.494         0.5193       -63.5319      -4.050957      0.8987261
      7859.0000         0.7946         0.5193         0.5097        -63.035      -3.553139      0.9111716
      7859.5000          0.774         0.5445         0.5001        -62.538      -3.055222      0.9236194
      7860.0000         0.7538         0.5698         0.4905       -62.0411      -2.557407      0.9360648
      7860.5000         0.7445         0.5951         0.4809       -61.5569      -2.072289      0.9481928
      7861.0000         0.7371         0.6203         0.4729       -61.0955      -1.609974      0.9597507
      7861.5000         0.7296         0.6456         0.4669       -60.6334      -1.146954      0.9713262
      7862.0000         0.7221         0.6709         0.4608       -60.1719     -0.6845398      0.9828865
      7862.5000         0.7142         0.6805         0.4548       -59.7769       -0.28862      0.9927845
      7863.0000         0.7061         0.6821         0.4487       -59.4039     0.08529663              1
      7863.5000         0.6954          0.679         0.4445       -60.0198     -0.5296822      0.9867579
      7864.0000         0.6837         0.6615         0.4477       -61.1752       -1.68417      0.9578958
      7864.5000         0.6684          0.644         0.4509        -62.895      -3.403049      0.9149238
      7865.0000          0.645         0.6219         0.4541       -64.5748      -5.081932      0.8729517
      7865.5000         0.6365         0.5998         0.4572       -65.9052      -6.411415      0.8397146
      7866.0000         0.6344         0.5777         0.4604       -67.0383      -7.543598      0.8114101
      7866.5000         0.6371         0.5556         0.4675       -67.6841       -8.18848       0.795288
      7867.0000         0.6398          0.535         0.4777       -68.2446      -8.748062      0.7812985
      7867.5000         0.6434         0.5167         0.4879        -68.295      -8.797546      0.7800614
      7868.0000         0.6471         0.4985         0.4981       -68.2417      -8.743328      0.7814168
      7868.5000         0.6508         0.4803         0.5082        -67.807      -8.307713      0.7923072
      7869.0000         0.6543          0.462         0.5198        -67.288      -7.787796      0.8053051
      7869.5000         0.6502         0.4488         0.5345       -66.7689      -7.267776      0.8183056
