#------------------------------------------------------------------------------
# Created by    : vladimir.rabinovich
# Created on    : 09/19/2023 17:22:11
#------------------------------------------------------------------------------
~Version Information Section
VERS.           2.0     :   CWLS log ASCII Standard - VERSION 2.0
WRAP.           NO      :   One line per depth step
~Well Information Section
#MNEM       .UNIT                                         VALUE :DESCRIPTION
#------------------------------------------------------------------------------
STRT        .FT                                             714 :START DEPTH
STOP        .FT                                            7955 :STOP DEPTH
STEP        .FT                                             0.5 :STEP      
NULL        .                                           -999.25 :NULL      
COMP        .                                ODECO OIL & GAS CO :COMPANY   
WELL        .                               OCS G04756 ST00BP00 :WELL      
FLD         .                           WEST CAMERON BLOCK 0165 :FIELD     
LOC         .                                                   :LOCATION  
CNTY        .                                      WEST CAMERON :LOCATION  
STAT        .                                         LOUISIANA :STATE     
CTRY        .                                     UNITED STATES :COUNTRY   
SRVC        .                                                   :SERVICE COMPANY
DATE        .                             9/13/2023 11:19:06 AM :LOG DATE  
API         .                                    17700406200000 :API NUMBER
UWI         .                                    17700406200000 :UNIQUE WELL ID
XCOORD      .                                  1451757.14487559 :SURFACE X 
YCOORD      .                                  10673474.8616073 :SURFACE Y 
LAT         .                                        29.4091131 :LATITUDE  
LON         .                                       -93.5927176 :LONGITUDE 
ELEV        .FT                                             113 :ELEVATION VALUE
ELEV_TYPE   .                                                KB :ELEVATION REFERENCE TYPE
~Curve Information Section
#MNEM       .UNIT                                      API CODE :CURVE DESCRIPTION
#------------------------------------------------------------------------------
DEPT        .FT                                                 :DEPTH     
CALI        .IN                                                 :          
CILD        .MMHO                                               :          
DRHO        .G/C3                                               :          
DT          .US/F                                               :          
GR          .GAPI                                               :          
GR_NORM     .GAPI                                               :GammaRay Normalized
ILD         .OHMM                                               :          
NPSS        .%                                                  :Neutron Porosity Sandstone
RFOC        .OHMM                                               :          
RHOB        .G/C3                                               :          
RILD        .OHMM                                               :          
RILM        .OHMM                                               :          
SN          .OHMM                                               :          
SP          .MV                                                 :          
SP_NORM     .MV                                                 :SP Normalized
VSH_GR      .V/V                                                :Volume of Shale from GR
VSH_SP      .V/V                                                :Volume of Shale from SP
~A        DEPTH           CALI           CILD           DRHO             DT             GR        GR_NORM            ILD           NPSS           RFOC           RHOB           RILD           RILM             SN             SP        SP_NORM         VSH_GR         VSH_SP
# ...
      7464.0000        13.2264           1160         0.1599        -999.25        80.3922       83.06817        -999.25        50.5882         0.9404         2.2167         0.8569         0.8825        -999.25          -25.2        -4.2395              1      0.9613879
      7464.5000        13.1321           1152         0.1559        -999.25        81.1765       83.99306        -999.25          53.82          0.924         2.2088         0.8569         0.8825        -999.25          -24.3         -3.333              1      0.9770172
      7465.0000             13           1144         0.1579        -999.25             80       82.69593        -999.25          53.82         0.9159         2.2216         0.8739            0.9        -999.25            -24        -3.0264              1      0.9823034
      7465.5000        12.8367           1120         0.1639        -999.25        75.0943       77.17297        -999.25        49.7647         0.9487         2.2382         0.8825         0.9159        -999.25          -23.7        -2.7198      0.9398505      0.9875897
      7466.0000        12.6735           1096         0.1659        -999.25        72.4528       74.21574        -999.25          43.02         0.9913         2.2235            0.9          0.924        -999.25          -23.7        -2.7132      0.8769307      0.9877034
      7466.5000        12.7551           1088         0.1619        -999.25        71.5094       73.18285        -999.25        36.8571         1.0377          2.197         0.9159         0.9404        -999.25          -24.3        -3.3067      0.8549544      0.9774707
      7467.0000        12.9592           1072         0.1539        -999.25        71.3208       73.00517        -999.25        37.4694         1.0377         2.1449          0.924          0.957        -999.25          -25.2        -4.2001      0.8511737      0.9620672
      7467.5000        13.3585           1064          0.144        -999.25        71.8868       73.68258        -999.25        38.8776         1.0377         2.0913         0.9322          0.957        -999.25          -26.7        -5.6935      0.8655868       0.936319
      7468.0000         13.566           1064         0.1196        -999.25        73.7736       75.85679        -999.25          43.26         1.0281         2.0112         0.9322          0.957        -999.25          -27.9        -6.8869      0.9118466      0.9157431
      7468.5000         13.566           1072         0.1076        -999.25        75.0943       77.38941        -999.25        48.2353              1         2.0112          0.924         0.9404        -999.25          -29.7        -8.6804      0.9444556      0.8848207
      7469.0000        13.4151           1088         0.1096        -999.25         74.717       76.99789        -999.25          47.58         0.9655         2.0316         0.9079         0.9322        -999.25       -31.4706       -10.4444      0.9361254      0.8544069
      7469.5000        13.4151           1096         0.1276        -999.25        72.6415       74.68216        -999.25          46.08         0.9404         2.0519            0.9          0.924        -999.25       -33.5294       -12.4966      0.8868545      0.8190241
      7470.0000        13.2453           1120         0.1396        -999.25        73.5849       75.78722        -999.25           44.7         0.9159         2.0779         0.8825         0.9079        -999.25       -34.1176       -13.0782      0.9103663      0.8089966
      7470.5000        13.0189           1128         0.1519        -999.25         75.283       77.74749        -999.25           43.2            0.9            2.1         0.8912          0.924        -999.25       -33.5294       -12.4835      0.9520742        0.81925
      7471.0000          12.66           1112         0.1539        -999.25        77.1698        79.9217        -999.25          41.82            0.9         2.1312         0.9079         0.9404        -999.25       -32.3529       -11.3004      0.9983341      0.8396483
      7471.5000          12.46           1088         0.1759        -999.25        78.3019        81.2406        -999.25          41.82          0.924         2.1529          0.924          0.957        -999.25       -31.1765       -10.1174              1      0.8600448
      7472.0000          12.16           1056         0.1899        -999.25        78.4906       81.49047        -999.25          42.48          0.957         2.1755         0.9404          0.974        -999.25            -30        -8.9343              1      0.8804431
      7472.5000          12.02           1024         0.2003        -999.25        77.9245       80.88502        -999.25           42.9         0.9913         2.1755          0.957         0.9913        -999.25          -28.5        -7.4278              1      0.9064173
      7473.0000          12.02            984         0.2003        -999.25        76.9811       79.85213        -999.25           41.1         1.0281         2.1608          0.974         1.0093        -999.25            -27        -5.9212      0.9968539      0.9323931
      7473.5000        11.9792            968         0.1983        -999.25        75.6604       78.39159        -999.25         36.551          1.057          2.151         0.9913         1.0281        -999.25          -26.1        -5.0146      0.9657784      0.9480242
      7474.0000        11.9583            960         0.1983        -999.25        73.5849       76.07572        -999.25        34.9615          1.057         2.1814         1.0093         1.0377        -999.25          -26.4         -5.308      0.9165047      0.9429655
      7474.5000          12.12            960         0.1959        -999.25        70.7547       72.90477        -999.25        35.5962          1.057          2.201         1.0093         1.0377        -999.25            -27        -5.9015      0.8490376      0.9327328
      7475.0000          12.28            968         0.1943        -999.25             69       70.95245        -999.25        36.7347         1.0473         2.1892              1         1.0187        -999.25          -27.3        -6.1949      0.8074989      0.9276741
      7475.5000          12.44            992         0.1899        -999.25           67.8       69.62868        -999.25         38.449         1.0281         2.1794          0.974              1        -999.25          -27.6        -6.4883      0.7793335      0.9226155
      7476.0000          12.58           1008         0.1883        -999.25             69       71.02463        -999.25          40.86              1         2.1784          0.957          0.974        -999.25          -28.8        -7.6817      0.8090346      0.9020396
      7476.5000           12.7           1040         0.1919        -999.25        70.7547       73.04903        -999.25          41.82         0.9826         2.1804         0.9404          0.957        -999.25       -30.8824        -9.7576      0.8521069      0.8662483
      7477.0000           12.7           1056         0.1919        -999.25        72.2642       74.79559        -999.25           41.4          0.957         2.1784          0.924         0.9487        -999.25       -34.1176       -12.9862      0.8892678      0.8105828
      7477.5000          12.68           1072         0.1823        -999.25        72.2642       74.83162        -999.25          40.14         0.9404         2.1755         0.9079         0.9322        -999.25       -37.6471       -16.5091      0.8900344      0.7498431
      7478.0000          12.64           1088         0.1759        -999.25        72.2642       74.86776        -999.25          39.42         0.9404         2.1804            0.9          0.924        -999.25       -37.9412       -16.7966      0.8908034      0.7448862
      7478.5000          12.64           1088         0.1759        -999.25        70.9434       73.40712        -999.25           40.5          0.957         2.1941         0.9079         0.9404        -999.25       -36.1765       -15.0254       0.859726      0.7754241
