#------------------------------------------------------------------------------
# Created by    : vladimir.rabinovich
# Created on    : 09/19/2023 17:20:44
#------------------------------------------------------------------------------
~Version Information Section
VERS.           2.0     :   CWLS log ASCII Standard - VERSION 2.0
WRAP.           NO      :   One line per depth step
~Well Information Section
#MNEM       .UNIT                                         VALUE :DESCRIPTION
#------------------------------------------------------------------------------
STRT        .FT                                             194 :START DEPTH
STOP        .FT                                           14521 :STOP DEPTH
STEP        .FT                                             0.5 :STEP      
NULL        .                                           -999.25 :NULL      
COMP        .                             MAGNOLIA PETROLEUM CO :COMPANY   
WELL        .                                OCS 00043 ST00BP00 :WELL      
FLD         .                          EUGENE ISLAND BLOCK 0089 :FIELD     
LOC         .                                                   :LOCATION  
CNTY        .                                     EUGENE ISLAND :LOCATION  
STAT        .                                         LOUISIANA :STATE     
CTRY        .                                     UNITED STATES :COUNTRY   
SRVC        .                                                   :SERVICE COMPANY
DATE        .                             9/13/2023 11:18:42 AM :LOG DATE  
API         .                                    17709003920000 :API NUMBER
UWI         .                                    17709003920000 :UNIQUE WELL ID
XCOORD      .                                  2056408.80151155 :SURFACE X 
YCOORD      .                                  10562022.8372996 :SURFACE Y 
LAT         .                                        29.0974849 :LATITUDE  
LON         .                                       -91.6970667 :LONGITUDE 
ELEV        .FT                                              50 :ELEVATION VALUE
ELEV_TYPE   .                                                KB :ELEVATION REFERENCE TYPE
~Curve Information Section
#MNEM       .UNIT                                      API CODE :CURVE DESCRIPTION
#------------------------------------------------------------------------------
DEPT        .FT                                                 :DEPTH     
ASN         .OHMM                                               :          
LAT         .OHMM                                               :          
LN          .OHMM                                               :          
SP          .MV                                                 :          
SP_NORM     .MV                                                 :SP Normalized
VSH_SP      .V/V                                                :Volume of Shale from SP
~A        DEPTH            ASN            LAT             LN             SP        SP_NORM         VSH_SP
# ...
     14482.0000         1.0259         0.8592          1.029       -60.9426      -20.05862       0.392163
     14482.5000          1.017         0.8566         1.0227        -62.077      -21.19302      0.3577873
     14483.0000         1.0082          0.854         1.0165        -62.996      -22.11202      0.3299388
     14483.5000         0.9993         0.8513         1.0102       -62.9005      -22.01652      0.3328327
     14484.0000         0.9898         0.8487         1.0039       -60.2012      -19.31722      0.4146297
     14484.5000         0.9801         0.8461         0.9976       -58.6429      -17.75892      0.4618509
     14485.0000         0.9705         0.8435         0.9991       -57.1779      -16.29392      0.5062449
     14485.5000         0.9608         0.8409         1.0025       -56.1634      -15.27942      0.5369873
     14486.0000         0.9566         0.8382         1.0059       -55.2821      -14.39812      0.5636933
     14486.5000         0.9661         0.8356         1.0093       -54.4009      -13.51692      0.5903963
     14487.0000         0.9755          0.833         1.0127       -53.7127      -12.82872      0.6112509
     14487.5000          0.988         0.8338         1.0161       -53.2787      -12.39472      0.6244023
     14488.0000         1.0011         0.8361         1.0216       -52.8448      -11.96082       0.637551
     14488.5000         1.0141         0.8383         1.0277       -52.4108      -11.52682      0.6507024
     14489.0000         1.0272         0.8405         1.0337       -51.9768      -11.09282      0.6638539
     14489.5000         1.0403         0.8427         1.0398       -51.5428      -10.65882      0.6770054
     14490.0000         1.0534          0.845         1.0458       -51.3561      -10.47212      0.6826631
     14490.5000         1.0648         0.8472         1.0519       -51.2607      -10.37672      0.6855539
     14491.0000         1.0736         0.8494         1.0579       -51.1652      -10.28122      0.6884479
     14491.5000         1.0825         0.8516         1.0639       -51.0698      -10.18582      0.6913387
     14492.0000         1.0913         0.8539         1.0685       -50.9745      -10.09052      0.6942267
     14492.5000         1.1001         0.8561         1.0727       -50.8792       -9.99522      0.6971145
     14493.0000         1.1089         0.8583         1.0768       -50.7837      -9.899719      0.7000085
     14493.5000         1.1177         0.8605          1.081       -50.6882      -9.804222      0.7029024
     14494.0000         1.1246         0.8629         1.0851       -50.6274       -9.74342      0.7047449
     14494.5000          1.129         0.8658         1.0892       -50.6393      -9.755322      0.7043842
     14495.0000         1.1333         0.8687         1.0929       -50.6512       -9.76722      0.7040237
     14495.5000         1.1376         0.8716         1.0941       -50.6631      -9.779121       0.703663
     14496.0000          1.142         0.8744         1.0953        -50.675      -9.791019      0.7033024
     14496.5000         1.1463         0.8773         1.0965       -50.6868      -9.802818      0.7029449
     14497.0000         1.1506         0.8802         1.0976       -50.6987       -9.81472      0.7025843
     14497.5000         1.1549         0.8831         1.0988       -50.7106      -9.826622      0.7022236
     14498.0000         1.1588          0.886            1.1       -50.7225       -9.83852      0.7018631
     14498.5000         1.1597         0.8889         1.1012       -50.7344      -9.850422      0.7015024
     14499.0000         1.1605         0.8918         1.1023       -50.7462      -9.862221      0.7011448
     14499.5000         1.1614         0.8947         1.1029        -50.706      -9.822021       0.702363
     14500.0000         1.1622         0.8976         1.1036       -50.6503      -9.766319       0.704051
     14500.5000         1.1631         0.9001         1.1042       -50.5947       -9.71072      0.7057357
     14501.0000          1.164         0.9017         1.1048       -50.5389      -9.654919      0.7074267
     14501.5000         1.1648         0.9032         1.1055       -50.4833      -9.599319      0.7091115
     14502.0000         1.1657         0.9048         1.1061       -50.4277       -9.54372      0.7107964
     14502.5000         1.1654         0.9063         1.1067        -50.372      -9.488022      0.7124842
     14503.0000         1.1644         0.9079         1.1073       -50.3163       -9.43232      0.7141721
     14503.5000         1.1634         0.9094         1.1079       -50.2609      -9.376919      0.7158509
     14504.0000         1.1624          0.911         1.1085       -50.2291      -9.345119      0.7168146
     14504.5000         1.1614         0.9125         1.1091       -50.1974      -9.313419      0.7177752
     14505.0000         1.1604         0.9141         1.1097       -50.1656       -9.28162      0.7187388
     14505.5000         1.1589         0.9156         1.1103        -50.134      -9.250019      0.7196964
     14506.0000          1.157         0.9172         1.1109       -50.1022       -9.21822        0.72066
     14506.5000         1.1551         0.9195         1.1115       -50.0705       -9.18652      0.7216206
     14507.0000         1.1532         0.9225         1.1097       -50.0387       -9.15472      0.7225842
     14507.5000         1.1513         0.9256         1.1076       -50.0614      -9.177422      0.7218963
     14508.0000         1.1495         0.9286         1.1055       -50.1727      -9.288719      0.7185237
     14508.5000         1.1476         0.9317         1.1035       -50.2839      -9.399921      0.7151539
     14509.0000         1.1443         0.9347         1.1014       -50.3952      -9.511219      0.7117813
     14509.5000         1.1399         0.9378         1.0993       -50.5065       -9.62252      0.7084085
     14510.0000         1.1356         0.9408         1.0972       -50.6177      -9.733719      0.7050388
     14510.5000         1.1312         0.9439         1.0951        -50.729       -9.84502      0.7016661
     14511.0000         1.1268          0.947         1.0934       -50.8406      -9.956619      0.6982843
     14511.5000         1.1224           0.95         1.0917       -50.9435      -10.05952      0.6951661
     14512.0000          1.118         0.9531         1.0901       -51.0464      -10.16242       0.692048
     14512.5000         1.1136          0.956         1.0884       -51.1491      -10.26512      0.6889357
     14513.0000         1.1089         0.9589         1.0868       -51.2521      -10.36812      0.6858145
     14513.5000         1.1041         0.9618         1.0851        -51.355      -10.47102      0.6826963
     14514.0000         1.0992         0.9647         1.0834       -51.4418      -10.55782      0.6800661
     14514.5000         1.0943         0.9676         1.0818       -51.2984      -10.41442      0.6844115
     14515.0000         1.0894         0.9705         1.0801        -51.155      -10.27102       0.688757
     14515.5000         1.0838         0.9734         1.0785       -51.0115      -10.12752      0.6931054
     14516.0000         1.0781         0.9763         1.0768       -50.8677      -9.983719       0.697463
     14516.5000         1.0725         0.9792         1.0754       -50.5739      -9.689919      0.7063661
     14517.0000         1.0669         0.9821         1.0739       -50.0411       -9.15712      0.7225115
     14517.5000          1.058          0.985         1.0725       -49.5095      -8.625519      0.7386206
     14518.0000         1.0487         0.9879          1.071       -48.9767       -8.09272       0.754766
     14518.5000         1.0395         0.9905         1.0696       -48.2742      -7.390221      0.7760539
     14519.0000         1.0314         0.9928         1.0682       -47.3085      -6.424519      0.8053176
     14519.5000         1.0264          0.995         1.0667        -46.343      -5.459019      0.8345752
