#------------------------------------------------------------------------------
# Created by    : vladimir.rabinovich
# Created on    : 09/19/2023 17:21:14
#------------------------------------------------------------------------------
~Version Information Section
VERS.           2.0     :   CWLS log ASCII Standard - VERSION 2.0
WRAP.           NO      :   One line per depth step
~Well Information Section
#MNEM       .UNIT                                         VALUE :DESCRIPTION
#------------------------------------------------------------------------------
STRT        .FT                                            2600 :START DEPTH
STOP        .FT                                          9205.5 :STOP DEPTH
STEP        .FT                                             0.5 :STEP      
NULL        .                                           -999.25 :NULL      
COMP        .                              MCMORAN OIL & GAS CO :COMPANY   
WELL        .                                OCS 00757 ST00BP00 :WELL      
FLD         .                           WEST CAMERON BLOCK 0118 :FIELD     
LOC         .                                                   :LOCATION  
CNTY        .                                      WEST CAMERON :LOCATION  
STAT        .                                         LOUISIANA :STATE     
CTRY        .                                     UNITED STATES :COUNTRY   
SRVC        .                                                   :SERVICE COMPANY
DATE        .                             9/13/2023 11:18:49 AM :LOG DATE  
API         .                                    17700410700000 :API NUMBER
UWI         .                                    17700410700000 :UNIQUE WELL ID
XCOORD      .                                  1436864.54905534 :SURFACE X 
YCOORD      .                                  10703419.9985863 :SURFACE Y 
LAT         .                                        29.4912718 :LATITUDE  
LON         .                                       -93.6400205 :LONGITUDE 
ELEV        .FT                                             118 :ELEVATION VALUE
ELEV_TYPE   .                                                KB :ELEVATION REFERENCE TYPE
~Curve Information Section
#MNEM       .UNIT                                      API CODE :CURVE DESCRIPTION
#------------------------------------------------------------------------------
DEPT        .FT                                                 :DEPTH     
CAL         .IN                                                 :          
CNC         .%                                                  :          
DT24        .US/F                                               :          
GR          .GAPI                                               :          
GR_NORM     .GAPI                                               :GammaRay Normalized
M0C6        .MMHO                                               :          
M2R1        .OHMM                                               :          
M2R2        .OHMM                                               :          
M2R3        .OHMM                                               :          
M2R6        .OHMM                                               :          
M2R9        .OHMM                                               :          
M2RX        .OHMM                                               :          
PORZ        .%                                                  :          
RWAZ        .OHMM                                               :          
SP          .MV                                                 :          
SP_NORM     .MV                                                 :SP Normalized
TTEN        .LB/F                                               :          
VSH_GR      .V/V                                                :Volume of Shale from GR
VSH_SP      .V/V                                                :Volume of Shale from SP
ZCOR        .G/CC                                               :          
~A        DEPTH            CAL            CNC           DT24             GR        GR_NORM           M0C6           M2R1           M2R2           M2R3           M2R6           M2R9           M2RX           PORZ           RWAZ             SP        SP_NORM           TTEN         VSH_GR         VSH_SP           ZCOR
# ...
      8307.0000         10.276         34.993        101.155         37.262       32.48619       3761.723          0.322           0.26          0.247          0.244          0.241          0.237         32.171          0.033        -70.504       -66.2814       3541.133              0              0         -0.039
      8307.5000         10.274         35.092         99.872         38.106       33.65777       3677.239          0.351          0.277          0.261          0.256          0.252          0.248         32.102          0.035        -70.223       -65.9949       3541.538     0.01399515              0         -0.041
      8308.0000         10.263         34.702         98.858         39.723       35.90022       3589.228          0.401          0.306          0.285          0.278          0.272          0.267         32.283          0.038        -70.061       -65.8274       3537.436     0.06170671              0         -0.038
      8308.5000         10.247         33.359         99.001         42.301       39.47397       3506.323          0.477          0.349          0.319          0.308            0.3          0.294         32.348          0.042        -69.937       -65.6978       3533.066       0.137744              0         -0.031
      8309.0000         10.238         31.949        100.152         44.507       42.53237        3438.66          0.568          0.397          0.356           0.34           0.33          0.323         32.028          0.045        -69.654       -65.4093       3531.057      0.2028164              0         -0.024
      8309.5000         10.235         32.089        100.839         45.149       43.42411       3394.778          0.636          0.431          0.382          0.362           0.35          0.342         31.529          0.046        -69.221       -64.9708       3533.936      0.2217896    0.000456214         -0.018
      8310.0000         10.227         33.706        102.183         43.739       41.47315       3381.055          0.646          0.438          0.388          0.365          0.353          0.345         31.194          0.046        -68.838       -64.5822       3539.534      0.1802797    0.006528139         -0.018
      8310.5000         10.213         34.663        103.941          41.49       38.35987        3399.21          0.608          0.421          0.376          0.354          0.343          0.337         30.978          0.044        -68.584       -64.3227       3539.464      0.1140399      0.0105828         -0.028
      8311.0000         10.191         34.089        102.843         41.112       37.83857       3446.721          0.556          0.396          0.357          0.337          0.329          0.324         30.657          0.041        -68.277       -64.0101       3534.589      0.1029484     0.01546717         -0.037
      8311.5000         10.161         32.986        101.031         41.852       38.86609       3516.757          0.499          0.366          0.335          0.319          0.312          0.309         30.411          0.039        -67.819       -63.5466         3534.6      0.1248103     0.02270937         -0.035
      8312.0000         10.128         31.497        100.515         40.719       37.29885        3599.59          0.433           0.33          0.307          0.295          0.291          0.289         30.521          0.036        -67.404       -63.1261        3540.75     0.09146483     0.02927971          -0.02
      8312.5000         10.099         30.535         99.175         39.005       34.92674       3684.727          0.367          0.291          0.275          0.267          0.265          0.265         30.867          0.034        -67.255       -62.9715       3541.205     0.04099452     0.03169531         -0.007
      8313.0000          10.09          31.16         98.862         38.274       33.91641       3763.113          0.318          0.261           0.25          0.245          0.244          0.245           31.2          0.032        -67.325        -63.036       3533.078     0.01949814     0.03068751         -0.005
      8313.5000         10.112         32.167         99.766         37.541       32.90332       3828.649          0.293          0.245          0.236          0.233          0.234          0.235         31.273          0.031        -67.309       -63.0144       3527.458              0     0.03102499         -0.011
      8314.0000         10.153         31.946          99.02         37.233       32.47898       3879.289          0.288          0.241          0.234          0.232          0.233          0.236         30.678           0.03        -66.901       -62.6009        3531.05              0     0.03748596         -0.013
      8314.5000         10.187         31.009         97.967         38.107       33.69213       3916.428          0.295          0.246          0.239          0.239           0.24          0.244         29.341          0.028         -66.24       -61.9344       3536.012     0.01472611     0.04790002         -0.014
      8315.0000         10.206         30.031         98.012         37.954       33.48252        3943.98          0.309          0.255          0.247          0.248           0.25          0.255         28.017          0.027        -66.063       -61.7518       3536.076     0.01026641     0.05075312          -0.02
      8315.5000         10.227         29.777         99.468         36.267       31.14782       3966.822          0.319          0.261          0.253          0.254          0.257          0.262         27.846          0.027        -66.951       -62.6343       3533.446              0     0.03696406         -0.023
      8316.0000         10.265         30.207         99.051         35.674       30.32867       3989.123          0.316          0.258          0.251          0.253          0.256          0.261         28.938          0.029        -68.456       -64.1338       3533.445              0     0.01353443         -0.022
      8316.5000         10.313         30.929         99.602         36.908       32.04067       4013.562          0.303           0.25          0.244          0.245          0.248          0.254         30.093          0.031        -69.622       -65.2942       3536.537              0              0         -0.023
      8317.0000         10.349         31.522        103.951         38.111       33.70958       4040.539          0.288          0.242          0.236          0.238          0.241          0.246         30.361          0.031        -69.986       -65.6527       3538.126     0.01509752              0         -0.026
      8317.5000         10.367         31.953          104.7         39.043       35.00307       4068.469          0.278          0.236          0.232          0.234          0.236          0.242         30.054          0.029        -69.713       -65.3741       3535.323     0.04261853              0          -0.02
      8318.0000         10.377         31.871         105.13         39.359        35.4432       4094.235          0.269          0.232          0.228           0.23          0.233          0.239          29.87          0.029        -69.234       -64.8896       3531.851     0.05198288    0.001724958          -0.01
      8318.5000         10.378         31.473        104.359         37.862        33.3717       4114.391          0.261          0.227          0.224          0.227          0.229          0.235         29.916          0.028        -68.955       -64.6051       3530.899    0.007908517    0.006170273         -0.008
      8319.0000         10.348         31.362         98.527         35.719       30.40528       4126.374          0.253          0.223          0.221          0.223          0.226          0.231         29.775          0.028        -68.885       -64.5295       3532.328              0    0.007351518         -0.011
      8319.5000         10.288         31.446         94.686         35.311       29.84242       4128.339          0.249           0.22          0.219          0.222          0.224           0.23          29.21          0.026        -68.856        -64.495       3537.638              0    0.007890582         -0.014
