#------------------------------------------------------------------------------
# Created by    : vladimir.rabinovich
# Created on    : 09/19/2023 17:22:04
#------------------------------------------------------------------------------
~Version Information Section
VERS.           2.0     :   CWLS log ASCII Standard - VERSION 2.0
WRAP.           NO      :   One line per depth step
~Well Information Section
#MNEM       .UNIT                                         VALUE :DESCRIPTION
#------------------------------------------------------------------------------
STRT        .FT                                            4308 :START DEPTH
STOP        .FT                                           11086 :STOP DEPTH
STEP        .FT                                             0.5 :STEP      
NULL        .                                           -999.25 :NULL      
COMP        .                                     GULF OIL CORP :COMPANY   
WELL        .                               OCS G01859 ST00BP00 :WELL      
FLD         .                           WEST CAMERON BLOCK 0045 :FIELD     
LOC         .                                                   :LOCATION  
CNTY        .                                      WEST CAMERON :LOCATION  
STAT        .                                         LOUISIANA :STATE     
CTRY        .                                     UNITED STATES :COUNTRY   
SRVC        .                                                   :SERVICE COMPANY
DATE        .                             9/13/2023 11:18:18 AM :LOG DATE  
API         .                                    17700402800000 :API NUMBER
UWI         .                                    17700402800000 :UNIQUE WELL ID
XCOORD      .                                  1464540.60646957 :SURFACE X 
YCOORD      .                                  10776790.0411311 :SURFACE Y 
LAT         .                                        29.6934919 :LATITUDE  
LON         .                                       -93.5541052 :LONGITUDE 
ELEV        .FT                                              79 :ELEVATION VALUE
ELEV_TYPE   .                                                KB :ELEVATION REFERENCE TYPE
~Curve Information Section
#MNEM       .UNIT                                      API CODE :CURVE DESCRIPTION
#------------------------------------------------------------------------------
DEPT        .FT                                                 :DEPTH     
CALI        .IN                                                 :          
DRHO        .G/C3                                               :          
DT          .US/F                                               :          
GR          .GAPI                                               :          
GR_NORM     .GAPI                                               :GammaRay Normalized
ILD         .OHMM                                               :          
NPHI        .%                                                  :          
RHOB        .G/C3                                               :          
SFLU        .OHMM                                               :          
SP          .MV                                                 :          
SP_NORM     .MV                                                 :SP Normalized
VSH_GR      .V/V                                                :Volume of Shale from GR
VSH_SP      .V/V                                                :Volume of Shale from SP
~A        DEPTH           CALI           DRHO             DT             GR        GR_NORM            ILD           NPHI           RHOB           SFLU             SP        SP_NORM         VSH_GR         VSH_SP
# ...
      8374.0000         9.9387         0.0535        115.947        70.3181       75.53099         0.6858        38.2891         2.2626         0.6516       -52.7261        -10.325      0.9049147      0.8648551
      8374.5000         9.9375         0.0646       123.5012        69.3873       73.37341         0.6384        39.0735          2.238         0.6029       -58.5718       -16.1714      0.8590086      0.7801247
      8375.0000         9.9468         0.0579       124.9872        68.4624       71.22974         0.6007        39.6484          2.241          0.578       -75.3512       -32.9515      0.8133987      0.5369348
      8375.5000         9.9996          0.038        123.049        67.4739       68.93848         0.5608        38.9975         2.2248         0.5846       -81.7678       -39.3688      0.7646486      0.4439304
      8376.0000        10.0368         0.0277       118.1139        66.2925       66.20043         0.5153        37.7776         2.2016         0.5756       -87.0476       -44.6493      0.7063922      0.3674015
      8376.5000        10.0584         0.0114       110.6989        65.2026       63.67429          0.472        37.0774         2.1358         0.5225       -80.5967       -38.1992      0.6526445      0.4608812
      8377.0000        10.0921        -0.0057       106.6807        63.8557       60.55304         0.4277        36.8272         2.1246         0.5203       -75.2528        -32.856       0.586235      0.5383189
      8377.5000        10.1613         -0.012       107.8263        62.6284       57.70864         0.3883        37.1661         2.1327         0.5393       -73.7341        -31.338      0.5257157      0.5603188
      8378.0000        10.2597        -0.0163       112.7563        61.9874       56.22237         0.3629        37.6024         2.1598         0.4784       -80.7935       -38.3981       0.494093      0.4579985
      8378.5000        10.3266        -0.0251       118.1537        60.8052       53.48266         0.3433         37.595         2.1063         0.4089       -91.6582       -49.2635      0.4358013       0.300529
      8379.0000        10.2514        -0.0513       121.7816        58.6168       48.41188         0.3301        37.4452         2.0437           0.36       -98.7588       -56.3649      0.3279124      0.1976102
      8379.5000        10.2274        -0.0666       120.3354         56.727       44.03279         0.3223         37.443         2.0031         0.3465      -100.5597       -58.1665      0.2347402         0.1715
      8380.0000        10.1618        -0.0677        115.788         55.201       40.49667         0.3178        37.9147         2.0094         0.4391       -98.8276       -56.4351      0.1595036      0.1965927
      8380.5000         9.9368        -0.0645       109.8142        54.2192       38.22096         0.3147        38.7794         2.0211         0.5967       -97.5089       -55.1171      0.1110842      0.2156942
      8381.0000         9.9272        -0.0682       106.8422        53.6677       36.94202         0.3158         38.947         2.0256         0.6594       -97.6615       -55.2704     0.08387285      0.2134725
      8381.5000         9.9555        -0.0734       104.4591        53.3741       36.26073         0.3175        39.0801         2.0342         0.6317       -98.7784       -56.3881     0.06937725      0.1972739
      8382.0000          9.992        -0.0643       100.6597        53.3265       36.14908         0.3229        38.9736         2.0537         0.4716       -99.9348       -57.5452     0.06700175      0.1805043
      8382.5000        10.0723        -0.0492        98.8258        53.5401       36.64249         0.3298        38.8441         2.0655         0.4114      -100.6366       -58.2477     0.07749972      0.1703232
      8383.0000        10.2018        -0.0425        97.5697        53.7838       37.20586         0.3367         38.894         2.0621         0.4772      -100.8654       -58.4772     0.08948646      0.1669971
      8383.5000        10.2161        -0.0403        98.8407        53.5386       36.63646         0.3426        38.8279         2.0761         0.5172      -100.0431       -57.6556     0.07737156      0.1789043
      8384.0000        10.2229        -0.0368       102.0115        53.6071       36.79376         0.3486        37.7075         2.1032         0.5031       -96.9381       -54.5514     0.08071835      0.2238928
      8384.5000        10.1878        -0.0311       105.2146        55.4258       41.00536         0.3524        36.6993         2.1588         0.5221       -85.3795       -42.9935      0.1703269      0.3913985
      8385.0000         10.059         -0.022       107.8312        56.5688       43.65195         0.3561        36.1461         2.1801         0.5788       -84.0165       -41.6312      0.2266373      0.4111421
      8385.5000        10.0053        -0.0086       110.8778        57.5358       45.89062         0.3592         36.149         2.1797         0.6759       -87.2986        -44.914      0.2742684      0.3635652
      8386.0000         9.9976        -0.0073       109.7744        57.3466       45.45093         0.3621        36.5636         2.1428         0.7431        -96.697       -54.3131      0.2649134      0.2273464
      8386.5000        10.0119        -0.0144        105.903        55.6298       41.47282         0.3583        37.2534         2.0937         0.6797      -101.5881        -59.205      0.1802728      0.1564492
      8387.0000        10.0681        -0.0225       103.3011        54.4188       38.66619         0.3527        37.0889         2.0698         0.6956      -103.5392       -61.1568      0.1205572      0.1281623
      8387.5000        10.2431        -0.0248       101.9792        53.6617       36.91097         0.3463        36.8157         2.0524         0.7427      -105.0941       -62.7124      0.0832121      0.1056174
      8388.0000        10.4972        -0.0216       103.1807        53.3701       36.23433         0.3406        37.2585         2.0445         0.7829      -106.6705       -64.2895     0.06881543     0.08276091
      8388.5000        10.6584        -0.0162        104.484         53.587       36.73539          0.337         37.694         2.0439         0.7419      -106.6318       -64.2515     0.07947638     0.08331155
      8389.0000        10.7259        -0.0132       105.3873        54.0831       37.88321         0.3367        37.7596         2.0624         0.6875      -105.3696       -62.9901       0.103898      0.1015927
      8389.5000        10.7424        -0.0226       106.5887        54.7293       39.37896         0.3405        37.2541         2.0688         0.6546      -103.1676       -60.7888      0.1357225      0.1334957
      8390.0000        10.7664        -0.0379       109.5458        56.0173       42.36122         0.3493        37.0401         2.0852          0.695        -98.439       -56.0609      0.1991749      0.2020159
      8390.5000        10.7178        -0.0063       111.9612        57.4663       45.71641         0.3681         37.151         2.1638         0.6521       -85.3204        -42.943      0.2705619      0.3921304
      8391.0000        10.2914         0.0182       111.8158        59.4388       50.28451         0.3998        36.8976         2.2049         0.5806        -75.922       -33.5453      0.3677555       0.528329
      8391.5000        10.1943         0.0484       110.8505        61.4942       55.04444         0.4495        36.6647         2.2317         0.5576        -69.781       -27.4051      0.4690307      0.6173174
      8392.0000        10.5465         0.0519       113.6708        63.0202         58.578         0.5076        36.6055          2.286         0.6026       -63.6328       -21.2576      0.5442128      0.7064116
      8392.5000        10.4388         0.0543       116.7521        64.8567       62.83084         0.5594        37.2094         2.2851         0.6284       -65.5032       -23.1287      0.6346987      0.6792942
