#------------------------------------------------------------------------------
# Created by    : vladimir.rabinovich
# Created on    : 09/19/2023 17:21:14
#------------------------------------------------------------------------------
~Version Information Section
VERS.           2.0     :   CWLS log ASCII Standard - VERSION 2.0
WRAP.           NO      :   One line per depth step
~Well Information Section
#MNEM       .UNIT                                         VALUE :DESCRIPTION
#------------------------------------------------------------------------------
STRT        .FT                                            2600 :START DEPTH
STOP        .FT                                          9205.5 :STOP DEPTH
STEP        .FT                                             0.5 :STEP      
NULL        .                                           -999.25 :NULL      
COMP        .                              MCMORAN OIL & GAS CO :COMPANY   
WELL        .                                OCS 00757 ST00BP00 :WELL      
FLD         .                           WEST CAMERON BLOCK 0118 :FIELD     
LOC         .                                                   :LOCATION  
CNTY        .                                      WEST CAMERON :LOCATION  
STAT        .                                         LOUISIANA :STATE     
CTRY        .                                     UNITED STATES :COUNTRY   
SRVC        .                                                   :SERVICE COMPANY
DATE        .                             9/13/2023 11:18:49 AM :LOG DATE  
API         .                                    17700410700000 :API NUMBER
UWI         .                                    17700410700000 :UNIQUE WELL ID
XCOORD      .                                  1436864.54905534 :SURFACE X 
YCOORD      .                                  10703419.9985863 :SURFACE Y 
LAT         .                                        29.4912718 :LATITUDE  
LON         .                                       -93.6400205 :LONGITUDE 
ELEV        .FT                                             118 :ELEVATION VALUE
ELEV_TYPE   .                                                KB :ELEVATION REFERENCE TYPE
~Curve Information Section
#MNEM       .UNIT                                      API CODE :CURVE DESCRIPTION
#------------------------------------------------------------------------------
DEPT        .FT                                                 :DEPTH     
CAL         .IN                                                 :          
CNC         .%                                                  :          
DT24        .US/F                                               :          
GR          .GAPI                                               :          
GR_NORM     .GAPI                                               :GammaRay Normalized
M0C6        .MMHO                                               :          
M2R1        .OHMM                                               :          
M2R2        .OHMM                                               :          
M2R3        .OHMM                                               :          
M2R6        .OHMM                                               :          
M2R9        .OHMM                                               :          
M2RX        .OHMM                                               :          
PORZ        .%                                                  :          
RWAZ        .OHMM                                               :          
SP          .MV                                                 :          
SP_NORM     .MV                                                 :SP Normalized
TTEN        .LB/F                                               :          
VSH_GR      .V/V                                                :Volume of Shale from GR
VSH_SP      .V/V                                                :Volume of Shale from SP
ZCOR        .G/CC                                               :          
~A        DEPTH            CAL            CNC           DT24             GR        GR_NORM           M0C6           M2R1           M2R2           M2R3           M2R6           M2R9           M2RX           PORZ           RWAZ             SP        SP_NORM           TTEN         VSH_GR         VSH_SP           ZCOR
# ...
      5252.0000        -999.25        -999.25        112.958         62.612        62.2339       1419.305          0.778          0.754          0.738          0.724          0.721           0.72        -999.25        -999.25         -18.73       -16.8252       2526.665      0.6219978      0.6552279        -999.25
      5252.5000        -999.25        -999.25        115.423         69.662        69.2856       1432.355          0.751          0.732          0.718          0.705          0.702          0.701        -999.25        -999.25        -14.441       -12.5362       2529.556       0.772034      0.7549721        -999.25
      5253.0000        -999.25        -999.25        118.428         71.375        71.0002       1444.885          0.739          0.721          0.707          0.694          0.692          0.692        -999.25        -999.25        -12.582       -10.6772       2530.139      0.8085148      0.7982047        -999.25
      5253.5000        -999.25        -999.25        118.621         69.165        68.7919       1454.147          0.717          0.693           0.68          0.669          0.667          0.667        -999.25        -999.25        -13.174       -11.2692       2529.765      0.7615298      0.7844372        -999.25
      5254.0000        -999.25        -999.25        116.523         65.421        65.0495        1457.38           0.69          0.659          0.646          0.637          0.635          0.636        -999.25        -999.25         -15.33       -13.4252       2530.917      0.6819043      0.7342977        -999.25
      5254.5000        -999.25        -999.25        116.286         63.455        63.0852        1452.46          0.681          0.646          0.633          0.625          0.623          0.624        -999.25        -999.25        -17.315       -15.4102       2533.148      0.6401107      0.6881349        -999.25
      5255.0000        -999.25        -999.25         115.31         64.749        64.3809        1438.51          0.693          0.657          0.643          0.636          0.635          0.637        -999.25        -999.25        -16.832       -14.9272       2538.872      0.6676787      0.6993675        -999.25
      5255.5000        -999.25        -999.25        114.218         66.562        66.1955       1416.386          0.714          0.686          0.673          0.667          0.666          0.668        -999.25        -999.25        -13.719       -11.8142       2543.804      0.7062873      0.7717628        -999.25
      5256.0000        -999.25        -999.25        116.364         68.097        67.7322       1388.606          0.747          0.733          0.724          0.719          0.718          0.721        -999.25        -999.25        -10.321        -8.4162       2539.518       0.738983       0.850786        -999.25
      5256.5000        -999.25        -999.25        119.216         70.522        70.1588       1358.847          0.782           0.79          0.787          0.785          0.783          0.787        -999.25        -999.25         -8.142        -6.2372       2531.844      0.7906128      0.9014605        -999.25
      5257.0000        -999.25        -999.25        120.897         73.666        73.3045       1330.982          0.797          0.828          0.833          0.833          0.831          0.836        -999.25        -999.25         -6.727        -4.8222       2531.071      0.8575425      0.9343674        -999.25
      5257.5000        -999.25        -999.25        124.018         77.278        76.9182       1308.124          0.778          0.825          0.838           0.84          0.838          0.843        -999.25        -999.25         -5.557        -3.6522       2536.769      0.9344298      0.9615768        -999.25
      5258.0000        -999.25        -999.25        126.208         80.682        80.3238       1291.872          0.741          0.793           0.81          0.813          0.812          0.817        -999.25        -999.25         -4.816        -2.9112        2542.51              1      0.9788093        -999.25
      5258.5000        -999.25        -999.25        124.523          81.95        81.5935       1282.107          0.711          0.758          0.776          0.779          0.779          0.784        -999.25        -999.25         -4.941        -3.0362       2542.543              1      0.9759023        -999.25
      5259.0000        -999.25        -999.25        120.373         80.649        80.2942       1277.289          0.704          0.743           0.76          0.764          0.763          0.769        -999.25        -999.25         -6.138        -4.2332       2534.275              1      0.9480651        -999.25
      5259.5000        -999.25        -999.25        114.901         77.646        77.2928       1275.142          0.722          0.752          0.768          0.772          0.772          0.779        -999.25        -999.25         -7.818        -5.9132       2524.423         0.9424      0.9089953        -999.25
      5260.0000        -999.25        -999.25        110.812         74.876        74.5245       1273.471          0.743          0.769          0.785           0.79          0.791          0.798        -999.25        -999.25         -8.662        -6.7572       2521.134         0.8835      0.8893675        -999.25
      5260.5000        -999.25        -999.25        111.917         75.513        75.1631       1270.794          0.743          0.774          0.792          0.798            0.8          0.808        -999.25        -999.25         -7.987        -6.0822        2523.52      0.8970873      0.9050651        -999.25
      5261.0000        -999.25        -999.25         118.23         78.821        78.4728       1266.642          0.724          0.765          0.787          0.795          0.798          0.805        -999.25        -999.25         -6.487        -4.5822       2524.533      0.9675064      0.9399489        -999.25
      5261.5000        -999.25        -999.25        125.565         81.193        80.8465       1261.437          0.701          0.755          0.781          0.791          0.795          0.803        -999.25        -999.25         -5.207        -3.3022       2521.923              1      0.9697163        -999.25
      5262.0000        -999.25        -999.25        130.758         81.747        81.4021       1256.096          0.686           0.75          0.782          0.793          0.798          0.806        -999.25        -999.25         -4.373        -2.4682       2516.859              1      0.9891116        -999.25
      5262.5000        -999.25        -999.25        132.598         82.282        81.9388       1251.518          0.679          0.748          0.783          0.796          0.801          0.809        -999.25        -999.25          -3.77        -1.8652       2511.121              1              1        -999.25
      5263.0000        -999.25        -999.25        131.064         82.321        81.9794       1248.203          0.673           0.74          0.776           0.79          0.795          0.803        -999.25        -999.25         -3.326        -1.4212       2508.566              1              1        -999.25
      5263.5000        -999.25        -999.25        128.069         79.814        79.4741       1246.081          0.673          0.733          0.766           0.78          0.785          0.793        -999.25        -999.25         -3.175        -1.2702       2509.912      0.9888106              1        -999.25
      5264.0000        -999.25        -999.25        122.606          76.28        75.9418       1244.617           0.69          0.741          0.771          0.786          0.791          0.799        -999.25        -999.25         -3.453        -1.5482       2511.018      0.9136554              1        -999.25
      5264.5000        -999.25        -999.25        116.209         74.246        73.9094       1243.049           0.73          0.775          0.804          0.819          0.825          0.833        -999.25        -999.25         -4.078        -2.1732       2511.653      0.8704128      0.9959721        -999.25
