#------------------------------------------------------------------------------
# Created by    : vladimir.rabinovich
# Created on    : 09/19/2023 17:19:36
#------------------------------------------------------------------------------
~Version Information Section
VERS.           2.0     :   CWLS log ASCII Standard - VERSION 2.0
WRAP.           NO      :   One line per depth step
~Well Information Section
#MNEM       .UNIT                                         VALUE :DESCRIPTION
#------------------------------------------------------------------------------
STRT        .FT                                          2840.5 :START DEPTH
STOP        .FT                                            9365 :STOP DEPTH
STEP        .FT                                             0.5 :STEP      
NULL        .                                           -999.25 :NULL      
COMP        .                              MCMORAN OIL & GAS CO :COMPANY   
WELL        .                                OCS 00757 ST00BP00 :WELL      
FLD         .                           WEST CAMERON BLOCK 0118 :FIELD     
LOC         .                                                   :LOCATION  
CNTY        .                                      WEST CAMERON :LOCATION  
STAT        .                                         LOUISIANA :STATE     
CTRY        .                                     UNITED STATES :COUNTRY   
SRVC        .                                                   :SERVICE COMPANY
DATE        .                             9/13/2023 11:18:49 AM :LOG DATE  
API         .                                    17700410710000 :API NUMBER
UWI         .                                    17700410710000 :UNIQUE WELL ID
XCOORD      .                                  1441592.04714169 :SURFACE X 
YCOORD      .                                  10704369.2355959 :SURFACE Y 
LAT         .                                        29.4939537 :LATITUDE  
LON         .                                       -93.6251728 :LONGITUDE 
ELEV        .FT                                              90 :ELEVATION VALUE
ELEV_TYPE   .                                                KB :ELEVATION REFERENCE TYPE
~Curve Information Section
#MNEM       .UNIT                                      API CODE :CURVE DESCRIPTION
#------------------------------------------------------------------------------
DEPT        .FT                                                 :DEPTH     
AHT10       .OHMM                                               :          
AHT20       .OHMM                                               :          
AHT30       .OHMM                                               :          
AHT60       .OHMM                                               :          
AHT90       .OHMM                                               :          
AHTCO90     .MMHO                                               :          
DPHZ        .DEC                                                :          
GR          .GAPI                                               :          
GR_NORM     .GAPI                                               :GammaRay Normalized
HCAL        .IN                                                 :          
HDRA        .G/CC                                               :          
HMIN        .OHMM                                               :          
HMNO        .OHMM                                               :          
NPOR        .DEC                                                :          
RHOZ        .G/CC                                               :          
RWA         .OHMM                                               :          
TENS        .LB                                                 :          
VSH_GR      .V/V                                                :Volume of Shale from GR
~A        DEPTH          AHT10          AHT20          AHT30          AHT60          AHT90        AHTCO90           DPHZ             GR        GR_NORM           HCAL           HDRA           HMIN           HMNO           NPOR           RHOZ            RWA           TENS         VSH_GR
# ...
      4268.5000          0.861         0.6342         0.5983         0.5747         0.5722       1747.747         0.3222        27.7021       30.06496        10.1053         0.0035          1.965          1.746         0.2841          2.118         0.0808           2286              0
      4269.0000         0.8719         0.6403         0.6028         0.5814         0.5786        1728.36           0.32        24.3497       27.21978        10.0817          0.003          2.038           1.82         0.2995          2.122         0.0806           2302              0
      4269.5000         0.8698         0.6413         0.6054         0.5841          0.581       1721.276         0.3185        24.9413       27.72227         9.9398         -0.001          2.055          1.898         0.2866          2.124         0.0801           2291              0
      4270.0000         0.8481           0.63         0.5947         0.5776         0.5747       1740.146         0.3191        25.4033       28.11476         9.8924        -0.0034          2.157          1.952         0.3025          2.123         0.0795           2286              0
      4270.5000         0.8261         0.6191         0.5866         0.5754         0.5728        1745.85         0.3178        28.8726       31.05987         9.9871        -0.0048          1.939          1.712         0.3366          2.126         0.0785           2303              0
      4271.0000         0.8133         0.6164         0.5827         0.5747         0.5723         1747.4         0.3229        29.5925       31.67134         9.9398        -0.0052          1.383          1.241         0.3874          2.117         0.0812           2293              0
      4271.5000         0.7971         0.6081         0.5782         0.5742         0.5718       1748.839          0.328        31.7476        33.5009         9.9871        -0.0053           1.61          1.489           0.39          2.109          0.084           2299     0.01065753
      4272.0000         0.7892         0.6031         0.5708          0.568          0.566       1766.721         0.3337        30.7002       32.61216        10.0107        -0.0052          1.924          1.757         0.3862          2.099         0.0862           2317              0
      4272.5000         0.7966         0.6076         0.5752         0.5678          0.566       1766.804         0.3329        31.6601       33.42734         9.9871        -0.0038          2.012          1.837         0.3253          2.101         0.0858           2318    0.009092372
      4273.0000          0.809         0.6143         0.5812           0.57         0.5682       1759.997          0.329         29.505       31.59846         9.9871        -0.0038          1.911          1.808         0.3294          2.107         0.0839           2319              0
      4273.5000         0.8204         0.6192         0.5863         0.5709          0.569       1757.383         0.3226        30.5523       32.48778        10.0107        -0.0033           1.88          1.765         0.3386          2.118         0.0806           2329              0
      4274.0000         0.8464         0.6353         0.6026         0.5819         0.5794       1725.825         0.3152        34.8718       36.15448        10.0935        -0.0023          1.989          1.756         0.3189           2.13         0.0781           2294      0.0671166
      4274.5000         0.8966         0.6691         0.6307         0.6027         0.5998       1667.336         0.3118         39.182       39.81326        10.1763        -0.0007          1.598          1.412         0.3418          2.136         0.0789           2294       0.144963
      4275.0000         0.9198          0.684         0.6442         0.6079         0.6045       1654.197         0.3142        37.1496       38.08861        10.2709        -0.0003          1.973           1.78         0.3536          2.132         0.0809           2313      0.1082683
      4275.5000          0.894         0.6676         0.6284         0.5856         0.5821       1717.889         0.3174        33.0939       34.64644        10.1763        -0.0011          1.933          1.769         0.3472          2.126         0.0796           2336     0.03503069
      4276.0000         0.8573         0.6469         0.6123         0.5759          0.572       1748.182         0.3227        31.6571       33.42723        10.1053        -0.0025          1.968          1.794         0.3411          2.118         0.0811           2324    0.009090018
      4276.5000         0.8306         0.6317         0.6009         0.5689         0.5647       1770.838         0.3233        34.5306       35.86657        10.0817        -0.0038          2.062          1.902         0.3105          2.117         0.0804           2352     0.06099084
      4277.0000         0.8119         0.6201          0.592         0.5634          0.559       1789.049         0.3205        31.8482       33.59008        10.0344         -0.004          1.914          1.812         0.3074          2.121         0.0781           2317     0.01255498
      4277.5000         0.7932         0.6091         0.5836         0.5598         0.5551        1801.61         0.3157        31.0868       32.94421        10.0344        -0.0035          1.895          1.795         0.3081          2.129          0.075           2334              0
      4278.0000         0.7766          0.601         0.5785         0.5591         0.5542       1804.513         0.3154          29.65       31.72499        10.0344        -0.0025          2.015          1.865         0.3161           2.13         0.0748           2322              0
      4278.5000         0.7632         0.5955         0.5754         0.5636         0.5581       1791.812          0.319         32.763        34.3677        10.0817        -0.0027           1.97          1.804         0.3208          2.124         0.0772           2324     0.02909997
      4279.0000         0.7501         0.5895         0.5711         0.5669         0.5616       1780.731         0.3208        31.6087        33.3883        10.2473        -0.0016           2.03          1.811          0.311          2.121         0.0786           2316     0.00826166
      4279.5000         0.7421         0.5885         0.5666         0.5677         0.5621       1778.993         0.3222        30.9657        32.8428        10.3182        -0.0009          1.935          1.709         0.3471          2.118         0.0794           2330              0
      4280.0000         0.7356         0.5879         0.5661         0.5679         0.5622       1778.739         0.3248        29.7684       31.82696        10.2473        -0.0013            1.9          1.678           0.32          2.114         0.0808           2310              0
      4280.5000         0.7298         0.5846         0.5664         0.5712         0.5652       1769.189         0.3288        30.4868       32.43708        10.2473        -0.0031          1.862          1.645         0.3162          2.108         0.0834           2301              0
      4281.0000         0.7405         0.5918         0.5776         0.5859         0.5797       1725.059         0.3321        37.2023        38.1375        10.2946        -0.0051          1.698            1.5         0.3363          2.102         0.0874           2308      0.1093086
      4281.5000         0.7778          0.621          0.606         0.6133         0.6058       1650.682         0.3338        44.8649       44.64192        10.3419         -0.006          1.763          1.558         0.3332          2.099         0.0923           2332      0.2477004
      4282.0000         0.8356         0.6678         0.6389         0.6359         0.6275       1593.643         0.3249        54.9221       53.17881        10.2946         -0.005          1.505           1.33         0.3761          2.114         0.0903           2323      0.4293365
