#------------------------------------------------------------------------------
# Created by    : vladimir.rabinovich
# Created on    : 09/19/2023 17:20:47
#------------------------------------------------------------------------------
~Version Information Section
VERS.           2.0     :   CWLS log ASCII Standard - VERSION 2.0
WRAP.           NO      :   One line per depth step
~Well Information Section
#MNEM       .UNIT                                         VALUE :DESCRIPTION
#------------------------------------------------------------------------------
STRT        .FT                                            2030 :START DEPTH
STOP        .FT                                            9342 :STOP DEPTH
STEP        .FT                                             0.5 :STEP      
NULL        .                                           -999.25 :NULL      
COMP        .                                      SHELL OIL CO :COMPANY   
WELL        .                               OCS G00950 ST00BP00 :WELL      
FLD         .                           EAST CAMERON BLOCK 0193 :FIELD     
LOC         .                                                   :LOCATION  
CNTY        .                                      EAST CAMERON :LOCATION  
STAT        .                                         LOUISIANA :STATE     
CTRY        .                                     UNITED STATES :COUNTRY   
SRVC        .                                                   :SERVICE COMPANY
DATE        .                             9/13/2023 11:18:15 AM :LOG DATE  
API         .                                    17703004920000 :API NUMBER
UWI         .                                    17703004920000 :UNIQUE WELL ID
XCOORD      .                                  1684363.85071557 :SURFACE X 
YCOORD      .                                  10458597.1936422 :SURFACE Y 
LAT         .                                        28.8191951 :LATITUDE  
LON         .                                       -92.8627139 :LONGITUDE 
ELEV        .FT                                              75 :ELEVATION VALUE
ELEV_TYPE   .                                                KB :ELEVATION REFERENCE TYPE
~Curve Information Section
#MNEM       .UNIT                                      API CODE :CURVE DESCRIPTION
#------------------------------------------------------------------------------
DEPT        .FT                                                 :DEPTH     
ASN         .OHMM                                               :          
CILM        .MMHO                                               :          
ILM         .OHMM                                               :          
LN          .OHMM                                               :          
SP          .MV                                                 :          
SP_NORM     .MV                                                 :SP Normalized
VSH_SP      .V/V                                                :Volume of Shale from SP
~A        DEPTH            ASN           CILM            ILM             LN             SP        SP_NORM         VSH_SP
# ...
      9299.5000         0.8518        -999.25        -999.25         0.9102       -48.3971        -9.1448      0.8949294
      9300.0000         0.8783        -999.25        -999.25         1.2383       -49.1754        -9.9231      0.8834838
      9300.5000         0.8702        -999.25        -999.25         1.3521       -49.9425       -10.6902      0.8722029
      9301.0000         0.8623        -999.25        -999.25          1.529       -50.4708       -11.2185      0.8644338
      9301.5000         0.8667        -999.25        -999.25         1.6646       -51.1388       -11.8865      0.8546103
      9302.0000         0.8853        -999.25        -999.25           1.99       -51.7369       -12.4846      0.8458147
      9302.5000         0.9104        -999.25        -999.25         2.3523       -52.3148       -13.0625      0.8373162
      9303.0000         0.9667        -999.25        -999.25         3.1274       -53.0492       -13.7969      0.8265162
      9303.5000         0.9974        -999.25        -999.25         3.9457       -53.9211       -14.6688      0.8136941
      9304.0000         1.1257        -999.25        -999.25         4.7623       -55.0745       -15.8222      0.7967324
      9304.5000         1.2663        -999.25        -999.25         5.5806       -56.2866       -17.0343      0.7789074
      9305.0000         1.4069        -999.25        -999.25          6.399       -57.4929       -18.2406      0.7611676
      9305.5000         1.5475        -999.25        -999.25         7.2173       -58.3817       -19.1294      0.7480971
      9306.0000         1.6881        -999.25        -999.25         8.0356       -59.2682       -20.0159      0.7350603
      9306.5000         1.8689        -999.25        -999.25         8.8041       -59.9294       -20.6771      0.7253368
      9307.0000         1.9872        -999.25        -999.25         8.9232       -60.3265       -21.0742      0.7194971
      9307.5000         2.4268        -999.25        -999.25         9.1992       -60.4171       -21.1648      0.7181647
      9308.0000         2.8809        -999.25        -999.25         9.5601       -60.2817       -21.0294      0.7201559
      9308.5000          3.335        -999.25        -999.25         9.9204       -60.1462       -20.8939      0.7221485
      9309.0000         3.7891        -999.25        -999.25        10.2808       -59.9573        -20.705      0.7249265
      9309.5000         4.2432        -999.25        -999.25         11.063       -59.7489       -20.4966      0.7279912
      9310.0000         4.6973        -999.25        -999.25        13.1674       -59.5402       -20.2879      0.7310603
      9310.5000         5.1514        -999.25        -999.25        16.2993       -59.3318       -20.0795       0.734125
      9311.0000         5.6055        -999.25        -999.25        19.3794       -59.1232       -19.8709      0.7371926
      9311.5000         6.0596        -999.25        -999.25         20.916       -58.9145       -19.6622      0.7402617
      9312.0000         6.5137        -999.25        -999.25        21.6393       -59.0429       -19.7906      0.7383735
      9312.5000         6.9678        -999.25        -999.25        23.1027       -59.2152       -19.9629      0.7358397
      9313.0000         7.4219        -999.25        -999.25        23.9375       -59.4324       -20.1801      0.7326456
      9313.5000          7.876        -999.25        -999.25        25.3097       -59.6492       -20.3969      0.7294574
      9314.0000         8.3538        -999.25        -999.25        26.8936       -59.3668       -20.1145      0.7336103
      9314.5000         9.0013        -999.25        -999.25         28.161       -59.0018       -19.7495      0.7389779
      9315.0000         9.0982        -999.25        -999.25        29.0195       -58.7441       -19.4918      0.7427676
      9315.5000         9.3233        -999.25        -999.25         29.878       -58.4907       -19.2384      0.7464941
      9316.0000         9.4691        -999.25        -999.25        30.7691       -58.2369       -18.9846      0.7502265
      9316.5000         9.5822        -999.25        -999.25        31.6861       -57.9835       -18.7312       0.753953
      9317.0000         9.7791        -999.25        -999.25        32.5367         -57.73       -18.4777      0.7576809
      9317.5000        10.0195        -999.25        -999.25        33.1929       -57.4766       -18.2243      0.7614074
      9318.0000        10.0269        -999.25        -999.25        33.6086       -57.5555       -18.3032      0.7602471
      9318.5000        10.0316        -999.25        -999.25        33.9517       -57.8376       -18.5853      0.7560985
      9319.0000        10.0348        -999.25        -999.25        34.2733       -58.1497       -18.8974      0.7515088
      9319.5000         10.037        -999.25        -999.25        34.6107       -58.5168       -19.2645      0.7461103
      9320.0000        10.0391        -999.25        -999.25        34.9487       -58.4352       -19.1829      0.7473103
      9320.5000        10.0413        -999.25        -999.25        35.2697       -58.2983        -19.046      0.7493235
      9321.0000        10.0448        -999.25        -999.25        35.3953       -58.1615       -18.9092      0.7513353
      9321.5000        10.0484        -999.25        -999.25        35.2368       -58.1685       -18.9162      0.7512323
      9322.0000        10.0519        -999.25        -999.25        34.7706       -58.4127       -19.1604      0.7476411
      9322.5000        10.4375        -999.25        -999.25        34.1105       -58.6568       -19.4045      0.7440515
      9323.0000        10.9312        -999.25        -999.25        33.3489       -58.9009       -19.6486      0.7404618
      9323.5000        11.3153        -999.25        -999.25        32.6437       -59.1454       -19.8931      0.7368662
      9324.0000        11.5576        -999.25        -999.25         31.997       -59.4512       -20.1989      0.7323691
      9324.5000         11.755        -999.25        -999.25        31.5808       -59.7666       -20.5143      0.7277309
      9325.0000        11.9178        -999.25        -999.25         31.229       -60.0826       -20.8303      0.7230839
      9325.5000        12.0286        -999.25        -999.25        31.4118       -60.3335       -21.0812      0.7193941
      9326.0000        12.1207        -999.25        -999.25        31.6523       -60.1713        -20.919      0.7217794
      9326.5000        12.2053        -999.25        -999.25         31.948        -59.837       -20.5847      0.7266956
      9327.0000        12.2874        -999.25        -999.25        32.3339        -59.472       -20.2197      0.7320632
      9327.5000        12.3573        -999.25        -999.25        32.6273       -59.1178       -19.8655      0.7372721
      9328.0000        12.4467        -999.25        -999.25        32.8516        -59.044       -19.7917      0.7383574
      9328.5000        12.5692        -999.25        -999.25        32.6324         -60.22       -20.9677      0.7210633
      9329.0000        12.7157        -999.25        -999.25        32.0466       -61.0175       -21.7652      0.7093353
      9329.5000        12.8785        -999.25        -999.25        30.8524       -61.8162       -22.5639      0.6975897
      9330.0000        13.0452        -999.25        -999.25        29.5321       -62.5855       -23.3332      0.6862764
      9330.5000        13.2131        -999.25        -999.25        27.9887       -63.1385       -23.8862      0.6781441
      9331.0000        13.4043        -999.25        -999.25        27.1426       -63.6905       -24.4382      0.6700265
      9331.5000        13.6276        -999.25        -999.25        26.4684       -64.1202       -24.8679      0.6637073
      9332.0000         13.902        -999.25        -999.25        26.0121       -64.3275       -25.0752      0.6606588
      9332.5000         14.163        -999.25        -999.25        25.8944       -64.0037       -24.7514      0.6654206
