#------------------------------------------------------------------------------
# Created by    : vladimir.rabinovich
# Created on    : 09/19/2023 17:22:24
#------------------------------------------------------------------------------
~Version Information Section
VERS.           2.0     :   CWLS log ASCII Standard - VERSION 2.0
WRAP.           NO      :   One line per depth step
~Well Information Section
#MNEM       .UNIT                                         VALUE :DESCRIPTION
#------------------------------------------------------------------------------
STRT        .FT                                             955 :START DEPTH
STOP        .FT                                            8851 :STOP DEPTH
STEP        .FT                                             0.5 :STEP      
NULL        .                                           -999.25 :NULL      
COMP        .                                SHELL OFFSHORE INC :COMPANY   
WELL        .                               OCS G08627 ST00BP00 :WELL      
FLD         .                                           WILDCAT :FIELD     
LOC         .                                                   :LOCATION  
CNTY        .                                 WEST CAMERON WEST :LOCATION  
STAT        .                                         LOUISIANA :STATE     
CTRY        .                                     UNITED STATES :COUNTRY   
SRVC        .                                                   :SERVICE COMPANY
DATE        .                             9/13/2023 11:18:15 AM :LOG DATE  
API         .                                    17701402000000 :API NUMBER
UWI         .                                    17701402000000 :UNIQUE WELL ID
XCOORD      .                                  1405165.89752093 :SURFACE X 
YCOORD      .                                  10654404.2103889 :SURFACE Y 
LAT         .                                        29.3559214 :LATITUDE  
LON         .                                       -93.7387067 :LONGITUDE 
ELEV        .FT                                             100 :ELEVATION VALUE
ELEV_TYPE   .                                                KB :ELEVATION REFERENCE TYPE
~Curve Information Section
#MNEM       .UNIT                                      API CODE :CURVE DESCRIPTION
#------------------------------------------------------------------------------
DEPT        .FT                                                 :DEPTH     
CALX        .IN                                                 :          
DRHO        .G/C3                                               :          
DT          .US/F                                               :          
GR          .GAPI                                               :          
GR_NORM     .GAPI                                               :GammaRay Normalized
ILD         .OHMM                                               :          
ILM         .OHMM                                               :          
LL          .OHMM                                               :          
NPHI        .%                                                  :          
RHOB        .G/C3                                               :          
SP          .MV                                                 :          
SP_NORM     .MV                                                 :SP Normalized
VSH_GR      .V/V                                                :Volume of Shale from GR
VSH_SP      .V/V                                                :Volume of Shale from SP
~A        DEPTH           CALX           DRHO             DT             GR        GR_NORM            ILD            ILM             LL           NPHI           RHOB             SP        SP_NORM         VSH_GR         VSH_SP
# ...
      4645.0000        12.7375         0.0073        127.637        88.7906       81.85396         1.0127         0.9684         0.8256        43.8613         2.1836       -81.1434      0.7110138              1              1
      4645.5000        12.9468           0.01        124.799        87.3789       80.31827         1.0065          0.967         0.8298        44.4202         2.1811       -81.1056      0.7443314              1              1
      4646.0000        12.9113         0.0183       121.1719        87.2325       80.15784         1.0017         0.9648         0.8381         45.338         2.1946       -81.5034       0.342041              1              1
      4646.5000        12.7315         0.0264       120.3942        88.5753       81.61607         0.9903         0.9594         0.8415         46.129         2.2051        -82.145     -0.3040314              1              1
      4647.0000        12.2679         0.0252       123.2058        91.2334        84.5039         0.9753         0.9417         0.8374        46.5191           2.21       -82.9291      -1.092621              1      0.9957899
      4647.5000        11.8978         0.0223       126.9507        93.4159       86.87481          0.956          0.913         0.8222        46.1032         2.2086        -83.422      -1.590004              1      0.9731817
      4648.0000        11.9448         0.0189       133.8416        94.5911       88.15086         0.9335         0.8797         0.7896        45.6885          2.198       -83.1063      -1.278793              1      0.9873276
      4648.5000        11.5602         0.0153       136.5605        95.0143       88.60954         0.9057         0.8528         0.7749        46.5509         2.1862       -83.1123      -1.289268              1      0.9868515
      4649.0000        11.1648          0.012       137.7021        95.1718       88.77944         0.8869          0.836         0.7686         47.173         2.1719       -83.8085       -1.98996              1      0.9550018
      4649.5000        11.1287         0.0078       137.5361        95.4128        89.0401         0.8661         0.8271          0.756        46.9514         2.1558       -83.9143      -2.100243              1       0.949989
      4650.0000        11.2701         0.0027       134.9487        94.9933       88.58285         0.8474         0.8196         0.7337        46.7131         2.1435       -83.8423      -2.032722              1      0.9530581
      4650.5000        11.4042         0.0003       133.0005        93.3788       86.82673         0.8382         0.8151         0.7421        46.6907         2.1394       -83.7126      -1.907509              1      0.9587496
      4651.0000        11.5065         0.0003       132.6846        94.1317       87.64378         0.8375         0.8154         0.7415        47.5931         2.1386       -83.5663      -1.765694              1      0.9651957
      4651.5000        11.5864         0.0012       133.0339         95.175       88.77647         0.8433         0.8183         0.7717         48.455         2.1398        -83.525      -1.728882              1       0.966869
      4652.0000        11.6033         0.0025       133.4165         95.824       89.48058         0.8492         0.8237         0.7696        48.7233          2.144       -83.4792      -1.687561              1      0.9687472
      4652.5000        11.5704         0.0045       133.6211        95.5798       89.21386         0.8573         0.8269         0.7601        48.5176         2.1488       -83.2574      -1.470245              1      0.9786252
      4653.0000        11.5327         0.0064       133.6023        95.3483       88.96095         0.8704         0.8309         0.7839         48.357         2.1545       -82.8657      -1.083031              1      0.9962259
      4653.5000        11.5177         0.0083       133.4375        95.7583       89.40529         0.8908         0.8405          0.794        48.6517         2.1626       -82.6774     -0.8992081              1              1
      4654.0000        11.5689         0.0102       132.7004         96.542       90.25581          0.917         0.8508         0.7978        49.2847         2.1682       -82.3276      -0.553894              1              1
      4654.5000        11.7337         0.0116       130.9434        97.0881       90.84808         0.9507         0.8659         0.7937        49.8364         2.1683       -82.3453     -0.5760803              1              1
      4655.0000        11.7237         0.0131          126.6        96.9218       90.66603         0.9819         0.8884         0.7629        49.9929          2.168       -82.2762     -0.5114594              1              1
      4655.5000         11.697         0.0148       121.5476        95.4191       89.03143         1.0131         0.9148         0.8147        49.5278         2.1705        -83.149      -1.388748              1      0.9823296
      4656.0000        11.7154         0.0175       118.3289        92.1447       85.47114         1.0547         0.9649         0.8761        48.6428         2.1855       -83.3054      -1.549629              1      0.9750168
      4656.5000        12.0129         0.0189       116.7583        88.9501       81.99758         1.1057         1.0248         0.9024        44.8243         2.2027       -82.5585     -0.8072205              1              1
      4657.0000        12.1482         0.0162       116.9061        84.3959       77.04624         1.1583          1.077          0.938        42.0122         2.2149       -83.7736      -2.026794      0.9371541      0.9533275
      4657.5000        12.1265         0.0121       117.9757        81.4478       73.84061         1.2013         1.1173         0.9732        39.5535         2.2254        -84.603       -2.86068      0.8689492      0.9154236
      4658.0000        12.5975         0.0104       120.6108        80.0634       72.33459         1.2341         1.1462          0.977        37.5615         2.2334       -84.8822      -3.144371      0.8369063      0.9025286
      4658.5000        14.3159         0.0116       122.6198        78.8071       70.96781         1.2437         1.1564         0.9453        37.6659         2.2385       -86.8611      -5.127747      0.8078258      0.8123751
      4659.0000        13.6488         0.0113       123.9999        77.6571       69.71656         1.2344         1.1446         0.9236        39.0137         2.2356       -86.9639      -5.235031      0.7812034      0.8074986
      4659.5000        12.9013         0.0092       125.1785        77.4421       69.48158         1.2153         1.1253          0.917        40.0489         2.2209       -86.9163      -5.191917      0.7762039      0.8094583
      4660.0000        12.5857         0.0059       126.0896        77.8267       69.89831         1.1811         1.0912         0.9266        40.5558         2.2085       -86.9044      -5.184509      0.7850704       0.809795
      4660.5000        12.0497         0.0028       126.8035        78.4803       70.60743         1.1408         1.0445          0.908           40.4         2.2044       -86.6742      -4.958786      0.8001581      0.8200552
      4661.0000        12.0911         0.0029       127.4285        79.3356       71.53577         1.0965         1.0021         0.8922        39.9425         2.2021       -86.5151      -4.804169      0.8199101      0.8270832
      4661.5000        12.6428         0.0037       128.0105         80.504       72.80443         1.0517         0.9703           0.86        40.5473         2.1997        -86.234      -4.527557      0.8469027      0.8396565
      4662.0000         12.784         0.0053        128.333        82.5209       74.99535         1.0103         0.9374         0.8237        41.6499         2.1963       -84.2434      -2.541435       0.893518      0.9299347
      4662.5000        12.4896          0.008       127.7496        86.3878       79.19705         0.9804         0.9126          0.801        42.8375         2.1923       -83.1141      -1.416618       0.982916      0.9810628
