#------------------------------------------------------------------------------
# Created by    : vladimir.rabinovich
# Created on    : 09/19/2023 17:20:42
#------------------------------------------------------------------------------
~Version Information Section
VERS.           2.0     :   CWLS log ASCII Standard - VERSION 2.0
WRAP.           NO      :   One line per depth step
~Well Information Section
#MNEM       .UNIT                                         VALUE :DESCRIPTION
#------------------------------------------------------------------------------
STRT        .FT                                            1866 :START DEPTH
STOP        .FT                                            8637 :STOP DEPTH
STEP        .FT                                             0.5 :STEP      
NULL        .                                           -999.25 :NULL      
COMP        .                           GENERAL AMERICAN OIL CO :COMPANY   
WELL        .                               OCS G01862 ST00BP00 :WELL      
FLD         .                           WEST CAMERON BLOCK 0045 :FIELD     
LOC         .                                                   :LOCATION  
CNTY        .                                      WEST CAMERON :LOCATION  
STAT        .                                         LOUISIANA :STATE     
CTRY        .                                     UNITED STATES :COUNTRY   
SRVC        .                                                   :SERVICE COMPANY
DATE        .                             9/13/2023 11:18:18 AM :LOG DATE  
API         .                                    17700004060000 :API NUMBER
UWI         .                                    17700004060000 :UNIQUE WELL ID
XCOORD      .                                  1439968.94212662 :SURFACE X 
YCOORD      .                                  10754878.8884152 :SURFACE Y 
LAT         .                                        29.6328727 :LATITUDE  
LON         .                                       -93.6311393 :LONGITUDE 
ELEV        .FT                                              51 :ELEVATION VALUE
ELEV_TYPE   .                                                KB :ELEVATION REFERENCE TYPE
~Curve Information Section
#MNEM       .UNIT                                      API CODE :CURVE DESCRIPTION
#------------------------------------------------------------------------------
DEPT        .FT                                                 :DEPTH     
ASN         .OHMM                                               :          
CALI        .IN                                                 :          
DRHO        .G/C3                                               :          
DT          .US/F                                               :          
GR          .GAPI                                               :          
GR_NORM     .GAPI                                               :GammaRay Normalized
ILD         .OHMM                                               :          
RHOB        .G/C3                                               :          
SP          .MV                                                 :          
SP_NORM     .MV                                                 :SP Normalized
VSH_GR      .V/V                                                :Volume of Shale from GR
VSH_SP      .V/V                                                :Volume of Shale from SP
~A        DEPTH            ASN           CALI           DRHO             DT             GR        GR_NORM            ILD           RHOB             SP        SP_NORM         VSH_GR         VSH_SP
# ...
      6171.0000         0.7617        -999.25         0.0008        -999.25        69.7817       72.66918         0.7383         2.2822       -43.4662       -10.4011      0.8440251      0.8553677
      6171.5000         0.7295        -999.25         0.0057        -999.25        72.1371       75.19503         0.7435         2.2867       -40.5291        -7.4704      0.8977666      0.9004554
      6172.0000         0.7283        -999.25         0.0222        -999.25        73.8258       77.00593         0.7558         2.3043       -38.7402         -5.688      0.9362963      0.9278769
      6172.5000         0.7427        -999.25         0.0311        -999.25        77.4254       80.86602         0.7733         2.3183       -39.7551        -6.7093              1      0.9121646
      6173.0000         0.7445        -999.25         0.0342        -999.25        80.7148       84.39344         0.7914         2.3137       -40.2596        -7.2203              1      0.9043031
      6173.5000          0.745        -999.25         0.0336        -999.25        84.3389        88.2798         0.8103         2.3103       -39.7208        -6.6879              1      0.9124938
      6174.0000         0.7462        -999.25         0.0274        -999.25        84.3212       88.26081         0.8193         2.3132       -41.6347        -8.6082              1      0.8829508
      6174.5000         0.7509        -999.25         0.0162        -999.25        83.6057       87.49354         0.8072         2.3083        -42.818         -9.798              1      0.8646461
      6175.0000          0.758        -999.25         0.0051        -999.25        83.2626       87.12561         0.7897         2.2962       -43.0312       -10.0176              1      0.8612677
      6175.5000         0.7615        -999.25         0.0124        -999.25        82.3706       86.16906         0.7763         2.3086       -42.2532        -9.2461              1      0.8731369
      6176.0000         0.7498        -999.25         0.0223        -999.25        80.8483        84.5366         0.7658         2.3252       -41.4652        -8.4645              1      0.8851615
      6176.5000         0.7303        -999.25        -999.25        -999.25        -999.25        -999.25         0.7572        -999.25        -39.831        -6.8368        -999.25      0.9102031
      6177.0000         0.7081        -999.25        -999.25        -999.25        -999.25        -999.25         0.7423        -999.25       -38.0717        -5.0839        -999.25      0.9371707
      6177.5000         0.6922        -999.25        -999.25        -999.25        -999.25        -999.25          0.726        -999.25        -36.274        -3.2926        -999.25      0.9647292
      6178.0000         0.6782        -999.25        -999.25        -999.25        -999.25        -999.25         0.7284        -999.25       -36.6895        -3.7146        -999.25      0.9582369
      6178.5000         0.6687        -999.25        -999.25        -999.25        -999.25        -999.25         0.7289        -999.25        -36.768        -3.7995        -999.25      0.9569308
      6179.0000         0.6671        -999.25        -999.25        -999.25        -999.25        -999.25         0.7232        -999.25       -36.3879        -3.4259        -999.25      0.9626784
      6179.5000         0.6811        -999.25        -999.25        -999.25        -999.25        -999.25          0.702        -999.25       -36.3318        -3.3762        -999.25      0.9634431
      6180.0000         0.6913        -999.25        -999.25        -999.25        -999.25        -999.25          0.712        -999.25       -37.0236        -4.0745        -999.25         0.9527
      6180.5000         0.6866        -999.25        -999.25        -999.25        -999.25        -999.25         0.7304        -999.25       -38.1606        -5.2179        -999.25      0.9351093
      6181.0000         0.6862        -999.25        -999.25        -999.25        -999.25        -999.25         0.7556        -999.25       -39.2754        -6.3391        -999.25        0.91786
      6181.5000         0.6738        -999.25        -999.25        -999.25        -999.25        -999.25         0.7624        -999.25       -38.0291        -5.0993        -999.25      0.9369339
      6182.0000         0.6685        -999.25        -999.25        -999.25        -999.25        -999.25         0.7588        -999.25       -36.9926        -4.0692        -999.25      0.9527816
      6182.5000         0.6746        -999.25        -999.25        -999.25        -999.25        -999.25         0.7466        -999.25       -37.6402        -4.7233        -999.25      0.9427184
      6183.0000         0.6826        -999.25        -999.25        -999.25        -999.25        -999.25         0.7459        -999.25       -38.7208        -5.8103        -999.25      0.9259954
      6183.5000         0.6945        -999.25        -999.25        -999.25        -999.25        -999.25         0.7558        -999.25       -39.5282        -6.6242        -999.25      0.9134738
      6184.0000         0.7073        -999.25        -999.25        -999.25        -999.25        -999.25         0.7699        -999.25       -40.2449        -7.3473        -999.25      0.9023492
      6184.5000         0.7203        -999.25        -999.25        -999.25        -999.25        -999.25         0.7829        -999.25        -40.803        -7.9119        -999.25       0.893663
      6185.0000         0.7334        -999.25        -999.25        -999.25        -999.25        -999.25          0.794        -999.25       -40.9631        -8.0784        -999.25      0.8911015
      6185.5000         0.7486        -999.25        -999.25        -999.25        -999.25        -999.25          0.801        -999.25       -40.2495        -7.3712        -999.25      0.9019815
      6186.0000         0.7653        -999.25        -999.25        -999.25        -999.25        -999.25         0.8011        -999.25       -39.9092        -7.0374        -999.25      0.9071169
      6186.5000          0.752        -999.25        -999.25        -999.25        -999.25        -999.25         0.7983        -999.25       -39.6805        -6.8151        -999.25      0.9105369
      6187.0000          0.741        -999.25        -999.25        -999.25        -999.25        -999.25         0.7952        -999.25       -39.0527        -6.1938        -999.25      0.9200954
      6187.5000           0.73        -999.25        -999.25        -999.25        -999.25        -999.25         0.7758        -999.25       -38.8472        -5.9947        -999.25      0.9231585
      6188.0000         0.7192        -999.25        -999.25        -999.25        -999.25        -999.25         0.7619        -999.25       -38.6046        -5.7586        -999.25      0.9267908
      6188.5000         0.7089        -999.25        -999.25        -999.25        -999.25        -999.25         0.7615        -999.25       -38.8782        -6.0386        -999.25      0.9224831
      6189.0000         0.6986        -999.25        -999.25        -999.25        -999.25        -999.25         0.7682        -999.25        -39.506        -6.6728        -999.25      0.9127262
      6189.5000         0.6938        -999.25        -999.25        -999.25        -999.25        -999.25         0.7632        -999.25       -39.9935        -7.1668        -999.25      0.9051262
      6190.0000         0.6944        -999.25        -999.25        -999.25        -999.25        -999.25         0.7569        -999.25       -39.0356        -6.2153        -999.25      0.9197646
      6190.5000         0.7052        -999.25        -999.25        -999.25        -999.25        -999.25         0.7581        -999.25       -38.7751        -5.9613        -999.25      0.9236723
      6191.0000         0.7185        -999.25        -999.25        -999.25        -999.25        -999.25         0.7642        -999.25       -40.5735        -7.7661        -999.25      0.8959062
