#------------------------------------------------------------------------------
# Created by    : vladimir.rabinovich
# Created on    : 09/19/2023 17:21:14
#------------------------------------------------------------------------------
~Version Information Section
VERS.           2.0     :   CWLS log ASCII Standard - VERSION 2.0
WRAP.           NO      :   One line per depth step
~Well Information Section
#MNEM       .UNIT                                         VALUE :DESCRIPTION
#------------------------------------------------------------------------------
STRT        .FT                                            3520 :START DEPTH
STOP        .FT                                            8510 :STOP DEPTH
STEP        .FT                                             0.5 :STEP      
NULL        .                                           -999.25 :NULL      
COMP        .                      SPINNAKER EXPLORATION CO LLC :COMPANY   
WELL        .                               OCS G21537 ST00BP00 :WELL      
FLD         .                                           WILDCAT :FIELD     
LOC         .                                                   :LOCATION  
CNTY        .                                      WEST CAMERON :LOCATION  
STAT        .                                         LOUISIANA :STATE     
CTRY        .                                     UNITED STATES :COUNTRY   
SRVC        .                                                   :SERVICE COMPANY
DATE        .                             9/13/2023 11:18:49 AM :LOG DATE  
API         .                                    17700410830000 :API NUMBER
UWI         .                                    17700410830000 :UNIQUE WELL ID
XCOORD      .                                   1446389.6294369 :SURFACE X 
YCOORD      .                                  10699667.6074025 :SURFACE Y 
LAT         .                                        29.4810902 :LATITUDE  
LON         .                                       -93.6100108 :LONGITUDE 
ELEV        .FT                                              91 :ELEVATION VALUE
ELEV_TYPE   .                                                KB :ELEVATION REFERENCE TYPE
~Curve Information Section
#MNEM       .UNIT                                      API CODE :CURVE DESCRIPTION
#------------------------------------------------------------------------------
DEPT        .FT                                                 :DEPTH     
CAL         .IN                                                 :          
CNC         .%                                                  :          
GR          .GAPI                                               :          
GR_NORM     .GAPI                                               :GammaRay Normalized
M0C6        .MMHO                                               :          
M2R1        .OHMM                                               :          
M2R2        .OHMM                                               :          
M2R3        .OHMM                                               :          
M2R6        .OHMM                                               :          
M2R9        .OHMM                                               :          
M2RX        .OHMM                                               :          
PORZ        .%                                                  :          
SP          .MV                                                 :          
SP_NORM     .MV                                                 :SP Normalized
TEN         .LB/F                                               :          
VSH_GR      .V/V                                                :Volume of Shale from GR
VSH_SP      .V/V                                                :Volume of Shale from SP
ZCOR        .G/CC                                               :          
~A        DEPTH            CAL            CNC             GR        GR_NORM           M0C6           M2R1           M2R2           M2R3           M2R6           M2R9           M2RX           PORZ             SP        SP_NORM            TEN         VSH_GR         VSH_SP           ZCOR
# ...
      3856.0000         12.152         44.542        102.279       76.94067       1228.672           0.61          0.714          0.779          0.816          0.839          0.863          29.17         -3.193        -1.2882         577.03      0.9349078              1          0.016
      3856.5000          12.16         46.389        102.039       76.66769       1225.166          0.611          0.713          0.777          0.814          0.837          0.859         29.138         -3.276        -1.3712        574.789      0.9290999              1          0.018
      3857.0000         12.144         47.279         100.43        74.8434       1223.217          0.617          0.714          0.776          0.812          0.835          0.856         28.901         -3.655        -1.7502        573.546      0.8902851              1          0.026
      3857.5000         12.158         47.708         99.226       73.47805       1222.732          0.632          0.723          0.781          0.817          0.839          0.859         28.561          -3.99        -2.0852         574.73      0.8612351        0.99645          0.041
      3858.0000         12.258         47.992         99.169       73.41244       1223.582          0.661          0.746          0.802          0.837          0.859          0.879         28.486         -4.156        -2.2512        576.728      0.8598391      0.9895333          0.043
      3858.5000         12.398          47.14         98.934       73.14512       1225.665          0.695          0.777          0.832          0.866          0.888          0.907         28.325         -4.333        -2.4282        572.814      0.8541515      0.9821584          0.033
      3859.0000         12.522         45.641         97.783       71.83983       1228.911          0.706          0.784          0.836          0.868           0.89          0.908         27.606         -4.316        -2.4112        564.587      0.8263794      0.9828666           0.03
      3859.5000         12.638         46.131         97.652       71.69035       1233.301          0.683          0.757          0.805          0.834          0.854          0.872         26.849         -3.881        -1.9762        557.064       0.823199              1          0.035
      3860.0000         12.733         49.607         99.879       74.21291       1238.775          0.659           0.73          0.774          0.801          0.819          0.836         26.755         -3.459        -1.5542        552.944      0.8768705              1          0.038
      3860.5000         12.745         52.563        102.177        76.8159       1245.217          0.659          0.729          0.771          0.796          0.814           0.83         27.166         -3.527        -1.6222        551.743      0.9322532              1          0.042
      3861.0000         12.683         51.445        102.001       76.61546       1252.315          0.678          0.746          0.786           0.81          0.828          0.845         27.633         -4.025        -2.1202        550.215      0.9279886      0.9949917          0.055
      3861.5000         12.648         48.226         99.258       73.50615       1259.575          0.695          0.758          0.796          0.819          0.837          0.855         27.966         -4.689        -2.7842        550.588       0.861833       0.967325           0.06
      3862.0000         12.704         45.301         95.279       68.99625       1266.253          0.699          0.754          0.788          0.811          0.829          0.847         27.938         -5.295        -3.3902        551.085      0.7658776       0.942075          0.043
      3862.5000         12.794         44.342         94.319       67.90739       1271.553          0.692          0.737          0.768          0.789          0.806          0.825         27.507         -5.747        -3.8422        552.124      0.7427105      0.9232417          0.025
      3863.0000         12.796         46.175          97.53       71.54498         1274.7          0.678          0.715          0.743          0.764          0.781          0.799         27.471         -6.214        -4.3092        561.705      0.8201059      0.9037833           0.03
      3863.5000          12.71         47.206          99.49       73.76496       1275.265           0.68          0.711          0.739          0.759          0.776          0.795         28.765         -7.314        -5.4092        572.704      0.8673396        0.85795          0.033
      3864.0000         12.653         44.843         97.634       71.66078       1273.238          0.705          0.736          0.766          0.788          0.806          0.826         30.599         -8.994        -7.0892        571.341      0.8225698        0.78795          0.014
      3864.5000         12.584         42.249          96.33       70.18211       1269.208          0.721           0.76          0.793          0.817          0.836          0.858         31.189         -9.652        -7.7472        575.084      0.7911088      0.7605333          0.005
      3865.0000         12.412         42.158         98.711       72.87917       1264.197          0.704          0.755          0.792          0.817          0.836          0.859         30.139         -8.228        -6.3232        593.368      0.8484929      0.8198667          0.022
      3865.5000         12.225         45.007        102.884       77.60686       1259.553          0.676           0.74          0.781          0.808          0.827           0.85         28.674         -5.903        -3.9982         602.71      0.9490823      0.9167417          0.037
      3866.0000         12.139         48.932        107.312       82.62351       1256.612          0.656          0.731          0.778          0.806          0.825          0.849         27.927         -4.349        -2.4442        598.332              1      0.9814917          0.038
      3866.5000         12.116         51.531        111.504       87.37274       1256.462          0.641          0.725          0.776          0.805          0.825          0.849         27.749         -3.803        -1.8982        584.206              1              1           0.04
      3867.0000         12.101         52.013        112.863       88.91169       1259.696          0.634          0.722          0.775          0.805          0.825           0.85         27.513         -3.668        -1.7632        564.949              1              1          0.041
      3867.5000         12.094         50.479        110.376       86.09248       1266.345          0.633          0.722          0.778          0.809          0.829          0.855         27.141          -3.48        -1.5752        563.158              1              1          0.037
      3868.0000         12.095         48.995        107.732       83.09537       1275.867           0.63           0.72          0.775          0.806          0.828          0.854         27.173         -3.252        -1.3472        574.027              1              1          0.034
      3868.5000         12.107         49.977        107.606       82.95156       1287.307          0.616          0.703          0.757          0.789           0.81          0.836         27.897         -3.179        -1.2742        585.037              1              1          0.033
      3869.0000         12.144         52.506        108.082       83.48994        1299.44          0.592          0.675          0.727          0.757          0.778          0.803         28.645         -3.225        -1.3202        602.536              1              1          0.039
      3869.5000         12.221         55.247        108.318       83.75634       1311.022          0.572          0.651            0.7           0.73           0.75          0.775         28.941         -3.189        -1.2842        608.282              1              1          0.047
