#------------------------------------------------------------------------------
# Created by    : vladimir.rabinovich
# Created on    : 09/19/2023 17:22:32
#------------------------------------------------------------------------------
~Version Information Section
VERS.           2.0     :   CWLS log ASCII Standard - VERSION 2.0
WRAP.           NO      :   One line per depth step
~Well Information Section
#MNEM       .UNIT                                         VALUE :DESCRIPTION
#------------------------------------------------------------------------------
STRT        .FT                                            2450 :START DEPTH
STOP        .FT                                            9560 :STOP DEPTH
STEP        .FT                                             0.5 :STEP      
NULL        .                                           -999.25 :NULL      
COMP        .                               TALOS PETROLEUM LLC :COMPANY   
WELL        .                                OCS 00301 ST00BP00 :WELL      
FLD         .                           WEST CAMERON BLOCK 0045 :FIELD     
LOC         .                                                   :LOCATION  
CNTY        .                                      WEST CAMERON :LOCATION  
STAT        .                                         LOUISIANA :STATE     
CTRY        .                                     UNITED STATES :COUNTRY   
SRVC        .                                                   :SERVICE COMPANY
DATE        .                             9/13/2023 11:18:49 AM :LOG DATE  
API         .                                    17700410870000 :API NUMBER
UWI         .                                    17700410870000 :UNIQUE WELL ID
XCOORD      .                                  1447194.98921956 :SURFACE X 
YCOORD      .                                  10757079.9124673 :SURFACE Y 
LAT         .                                        29.6390336 :LATITUDE  
LON         .                                       -93.6084245 :LONGITUDE 
ELEV        .FT                                              96 :ELEVATION VALUE
ELEV_TYPE   .                                                KB :ELEVATION REFERENCE TYPE
~Curve Information Section
#MNEM       .UNIT                                      API CODE :CURVE DESCRIPTION
#------------------------------------------------------------------------------
DEPT        .FT                                                 :DEPTH     
CNC         .%                                                  :          
DCAL        .IN                                                 :          
GR          .GAPI                                               :          
GR_NORM     .GAPI                                               :GammaRay Normalized
M0C6        .MMHO                                               :          
M2R1        .OHMM                                               :          
M2R2        .OHMM                                               :          
M2R3        .OHMM                                               :          
M2R6        .OHMM                                               :          
M2R9        .OHMM                                               :          
M2RX        .OHMM                                               :          
SP          .MV                                                 :          
SP_NORM     .MV                                                 :SP Normalized
TEN         .LB/F                                               :          
VSH_GR      .V/V                                                :Volume of Shale from GR
VSH_SP      .V/V                                                :Volume of Shale from SP
ZCOR        .G/CC                                               :          
ZDEN        .G/CC                                               :          
~A        DEPTH            CNC           DCAL             GR        GR_NORM           M0C6           M2R1           M2R2           M2R3           M2R6           M2R9           M2RX             SP        SP_NORM            TEN         VSH_GR         VSH_SP           ZCOR           ZDEN
# ...
      8120.0000         29.108          1.215         58.198        60.5132       1055.237          1.654          1.213          1.108          1.115          1.112          1.212        -27.254       -11.4008        -18.563      0.5853872      0.8371314          0.023          2.357
      8120.5000         28.315          1.227         60.564        62.8819       1046.948          1.879          1.271           1.14          1.142          1.141           1.24        -24.971        -9.1053        -11.035      0.6357851      0.8699243          0.059          2.408
      8121.0000          28.91           1.24         63.252        65.5725       1048.125           1.99          1.286          1.139          1.137          1.137          1.228        -22.373        -6.4948        -12.838       0.693032      0.9072171          0.033          2.373
      8121.5000         31.533          1.272         65.198        67.5212       1055.698          1.936          1.254          1.108          1.104          1.105          1.181        -20.447        -4.5563        -25.305      0.7344937        0.93491          0.022          2.365
      8122.0000         34.387          1.337         67.498        69.8239       1066.868          1.771          1.195          1.065           1.06          1.061          1.121        -19.392        -3.4888        -30.089      0.7834872        0.95016          0.048           2.41
      8122.5000         36.233          1.409         69.996        72.3245       1079.265          1.569          1.127          1.022          1.017          1.018          1.064        -19.018        -3.1023        -17.308      0.8366915      0.9556814          0.057          2.397
      8123.0000         37.947          1.449         71.468        73.7992       1090.807          1.352          1.047          0.972          0.969          0.968          1.001        -18.951        -3.0228         -2.563      0.8680681      0.9568172          0.037          2.348
      8123.5000         39.367          1.451         72.616        74.9499       1099.815           1.15          0.958          0.912           0.91          0.909          0.929        -18.832        -2.8913          1.056       0.892551      0.9586957          0.032          2.316
      8124.0000          40.23          1.445         75.696        78.0326       1105.021          0.999          0.886          0.861          0.861           0.86          0.871        -18.482        -2.5287         -2.519      0.9581404      0.9638757          0.033          2.279
      8124.5000         41.203          1.416         80.423        82.7622       1105.632          0.912          0.847          0.836          0.838          0.837          0.841        -17.984        -2.0182         -8.182              1      0.9711686          0.055          2.269
      8125.0000         42.531          1.309         83.733        86.0749       1101.386          0.878          0.842           0.84          0.845          0.843          0.842        -17.654        -1.6757        -11.823              1      0.9760614          0.128           2.34
      8125.5000         43.287          1.085         85.916        88.2606       1092.583          0.879           0.86          0.865          0.872           0.87          0.864        -17.637        -1.6462        -10.333              1      0.9764829            0.1          2.328
      8126.0000         44.098          0.773         88.868        91.2152        1080.06          0.893          0.881           0.89          0.899          0.896          0.886        -17.646        -1.6427         -11.72              1      0.9765329          0.054          2.299
      8126.5000         45.737          0.493         90.969        93.3189       1065.153          0.912          0.898          0.908          0.918          0.915          0.901        -17.403        -1.3872        -24.112              1      0.9801829          0.058          2.297
      8127.0000         47.269          0.355         90.614        92.9666       1049.618          0.951          0.926          0.935          0.947          0.944          0.926        -17.126        -1.0977        -34.572              1      0.9831123          0.059          2.313
      8127.5000         45.913          0.354         88.526        90.8812       1035.487          1.021          0.977          0.984          0.997          0.992           0.97        -17.306        -1.2652        -27.981              1      0.9805354          0.044          2.341
      8128.0000         43.181           0.42         85.864        88.2219       1024.927          1.108           1.04          1.042          1.055          1.049          1.022        -18.049        -1.9957        -10.212              1      0.9692969          0.044          2.367
      8128.5000         41.844          0.509         83.936        86.2966       1019.969          1.184           1.09          1.084          1.096          1.089          1.058         -18.82        -2.7542          4.965              1      0.9576277          0.054          2.376
      8129.0000         40.331          0.584         82.985        85.3482        1022.35           1.23          1.112          1.096          1.104          1.096          1.062        -19.152        -3.0737          9.267              1      0.9527123          0.027          2.355
      8129.5000         37.347          0.617         80.845        83.2109       1033.156          1.255          1.109          1.083          1.086          1.076          1.042        -19.133        -3.0422           0.99              1      0.9531969          0.025          2.368
      8130.0000         34.306          0.593         77.811        80.1796       1052.731          1.263          1.087           1.05          1.046          1.036          1.004        -19.142        -3.0387        -15.275              1      0.9532508          0.006           2.35
      8130.5000         32.285          0.538         76.486        78.8573       1080.437          1.254          1.047              1           0.99          0.979           0.95        -20.167        -4.0512        -19.633      0.9756872      0.9376739          0.002          2.339
      8131.0000          31.51          0.508         76.341        78.7149       1114.719          1.249          1.009          0.952          0.937          0.926            0.9        -23.463        -7.3347         -3.087      0.9726574      0.8871585          0.029          2.332
      8131.5000         31.383          0.515         75.752        78.1286       1153.108          1.271           0.99          0.922          0.901          0.891          0.867        -28.268       -12.1272          13.77       0.960183      0.8134277          0.042          2.334
      8132.0000         30.975          0.537         74.612        76.9913       1192.413          1.295          0.972          0.894          0.869          0.859          0.838        -31.402       -15.2487         12.278      0.9359851      0.7654046          0.021          2.347
      8132.5000         30.658          0.557         73.985        76.3669       1228.954          1.281          0.934           0.85          0.824          0.815          0.797        -31.573       -15.4072          0.233      0.9226999      0.7629662          0.036          2.402
      8133.0000         31.128           0.57         73.007        75.3916       1258.861          1.238          0.882          0.798          0.773          0.765           0.75        -32.119       -15.9407        -11.207       0.901949      0.7547585          0.037          2.394
      8133.5000         31.831          0.575         71.114        73.5013        1278.62          1.197          0.837          0.754          0.731          0.724          0.711        -36.491       -20.3002        -16.043      0.8617297      0.6876892          0.002          2.301
