#------------------------------------------------------------------------------
# Created by    : vladimir.rabinovich
# Created on    : 09/19/2023 17:20:44
#------------------------------------------------------------------------------
~Version Information Section
VERS.           2.0     :   CWLS log ASCII Standard - VERSION 2.0
WRAP.           NO      :   One line per depth step
~Well Information Section
#MNEM       .UNIT                                         VALUE :DESCRIPTION
#------------------------------------------------------------------------------
STRT        .FT                                             194 :START DEPTH
STOP        .FT                                           14521 :STOP DEPTH
STEP        .FT                                             0.5 :STEP      
NULL        .                                           -999.25 :NULL      
COMP        .                             MAGNOLIA PETROLEUM CO :COMPANY   
WELL        .                                OCS 00043 ST00BP00 :WELL      
FLD         .                          EUGENE ISLAND BLOCK 0089 :FIELD     
LOC         .                                                   :LOCATION  
CNTY        .                                     EUGENE ISLAND :LOCATION  
STAT        .                                         LOUISIANA :STATE     
CTRY        .                                     UNITED STATES :COUNTRY   
SRVC        .                                                   :SERVICE COMPANY
DATE        .                             9/13/2023 11:18:42 AM :LOG DATE  
API         .                                    17709003920000 :API NUMBER
UWI         .                                    17709003920000 :UNIQUE WELL ID
XCOORD      .                                  2056408.80151155 :SURFACE X 
YCOORD      .                                  10562022.8372996 :SURFACE Y 
LAT         .                                        29.0974849 :LATITUDE  
LON         .                                       -91.6970667 :LONGITUDE 
ELEV        .FT                                              50 :ELEVATION VALUE
ELEV_TYPE   .                                                KB :ELEVATION REFERENCE TYPE
~Curve Information Section
#MNEM       .UNIT                                      API CODE :CURVE DESCRIPTION
#------------------------------------------------------------------------------
DEPT        .FT                                                 :DEPTH     
ASN         .OHMM                                               :          
LAT         .OHMM                                               :          
LN          .OHMM                                               :          
SP          .MV                                                 :          
SP_NORM     .MV                                                 :SP Normalized
VSH_SP      .V/V                                                :Volume of Shale from SP
~A        DEPTH            ASN            LAT             LN             SP        SP_NORM         VSH_SP
# ...
      3994.0000         0.6143          0.529         0.4697       -83.8691       -0.99617      0.9644225
      3994.5000         0.6569         0.5193         0.4692       -85.2374      -2.364464      0.9155549
      3995.0000         0.7424         0.5095         0.4686       -86.6019      -3.728966      0.8668227
      3995.5000         0.7794         0.4997          0.468       -87.6195      -4.746567      0.8304797
      3996.0000         0.7998         0.4897         0.4674       -88.7101      -5.837166      0.7915298
      3996.5000         0.7887         0.4773         0.4668       -89.7902      -6.917267      0.7529548
      3997.0000         0.7642         0.4648         0.4662       -90.5714      -7.698471      0.7250546
      3997.5000         0.7402         0.4524         0.4659       -90.2692      -7.396271      0.7358475
      3998.0000         0.7189           0.44         0.4668       -89.6184      -6.745468      0.7590904
      3998.5000         0.6946         0.4276         0.4677       -88.7982       -5.92527      0.7883832
      3999.0000         0.6775         0.4281         0.4685       -86.7976      -3.924667      0.8598333
      3999.5000         0.6757         0.4299         0.4694       -84.7679      -1.894966      0.9323226
      4000.0000         0.6798         0.4317         0.4703       -82.0425      0.8304291              1
      4000.5000          0.684         0.4335         0.4711       -81.4008        1.47213              1
      4001.0000         0.6867         0.4568          0.472       -80.8036       2.069336              1
      4001.5000         0.6761         0.4803         0.4761       -80.7373       2.135635              1
      4002.0000         0.6656         0.5037         0.4819       -80.7924       2.080536              1
      4002.5000         0.6552         0.5272         0.4877       -81.1437       1.729233              1
      4003.0000         0.6461          0.548         0.4936        -81.495        1.37793              1
      4003.5000         0.6437         0.5546         0.4994       -81.8462       1.026733              1
      4004.0000         0.6473         0.5613         0.5052       -82.5076      0.3653336              1
      4004.5000         0.6511         0.5679         0.5111       -83.2068     -0.3338699      0.9880761
      4005.0000          0.646         0.5745         0.5149       -84.2684       -1.39547      0.9501618
      4005.5000          0.635         0.5761          0.516       -85.4678      -2.594864      0.9073263
      4006.0000         0.6159         0.5681          0.517       -85.9155      -3.042564       0.891337
      4006.5000         0.6048         0.5601         0.5181       -86.3633      -3.490364      0.8753442
      4007.0000         0.5966         0.5521         0.5192       -86.7438      -3.871887      0.8617183
      4007.5000         0.5883         0.5442         0.5203       -86.9023      -4.032928      0.8559669
      4008.0000         0.5774         0.5362         0.5214       -87.0607      -4.193871      0.8502189
      4008.5000         0.5669         0.5282         0.5225       -87.1996      -4.335312      0.8451675
      4009.0000         0.5597         0.5211         0.5236       -87.0596      -4.197861      0.8500764
      4009.5000          0.555         0.5181         0.5244       -86.9194      -4.060204      0.8549927
      4010.0000          0.553          0.515         0.5243       -86.7794      -3.922745       0.859902
      4010.5000         0.5509         0.5119         0.5243       -86.6393      -3.785179      0.8648151
      4011.0000         0.5519         0.5088         0.5242       -86.4993       -3.64772      0.8697243
      4011.5000         0.5541         0.5057         0.5241       -86.3584      -3.509361      0.8746657
      4012.0000         0.5563         0.5026          0.524       -86.2167      -3.370209      0.8796354
      4012.5000         0.5585         0.5018          0.524        -86.075      -3.231049      0.8846054
      4013.0000         0.5602         0.5095         0.5239       -85.9332      -3.091789      0.8895789
      4013.5000         0.5619         0.5172         0.5238       -85.7916      -2.952736      0.8945451
      4014.0000         0.5635         0.5249         0.5235       -85.6498      -2.813477      0.8995187
      4014.5000         0.5641         0.5272         0.5229       -85.5081      -2.674316      0.9044887
      4015.0000         0.5634         0.5295         0.5223       -85.3665      -2.535263      0.9094549
      4015.5000         0.5626         0.5318         0.5217       -85.3064      -2.477699      0.9115108
      4016.0000         0.5619         0.5341          0.521       -85.2778      -2.451645      0.9124413
      4016.5000         0.5612         0.5374         0.5204       -85.2494      -2.425781      0.9133649
      4017.0000         0.5612         0.5422         0.5198       -85.2208      -2.399727      0.9142955
      4017.5000         0.5621          0.547         0.5202       -85.1924      -2.373863      0.9152192
      4018.0000          0.563         0.5518         0.5206       -85.1638      -2.347816      0.9161494
      4018.5000         0.5638         0.5566          0.521       -85.1353      -2.321854      0.9170766
      4019.0000         0.5647         0.5614         0.5215       -85.1068      -2.295891      0.9180039
      4019.5000         0.5672         0.5662         0.5219       -85.0603      -2.251938      0.9195737
      4020.0000         0.5706         0.5702         0.5223       -84.9303      -2.124474       0.924126
      4020.5000          0.574         0.5739         0.5227       -84.8004      -1.997116      0.9286744
      4021.0000         0.5774         0.5776         0.5231       -84.6704      -1.869667      0.9332262
      4021.5000         0.5808         0.5814         0.5234       -84.5405      -1.742302       0.937775
      4022.0000          0.584         0.5851         0.5238       -84.4105      -1.614845       0.942327
      4022.5000         0.5866         0.5889         0.5241       -84.2805      -1.487389       0.946879
      4023.0000         0.5891         0.5922         0.5244       -84.1506      -1.360023      0.9514278
      4023.5000         0.5917         0.5943         0.5247       -84.0206      -1.232567      0.9559798
      4024.0000         0.5943         0.5963         0.5251       -83.8907      -1.105209      0.9605283
      4024.5000         0.5969         0.5984         0.5254       -83.7711     -0.9881592      0.9647086
      4025.0000         0.5995         0.6005         0.5257       -83.6581     -0.8776932      0.9686538
      4025.5000         0.6017         0.6025         0.5269        -83.545     -0.7671356      0.9726023
      4026.0000         0.6032         0.6046          0.528        -83.432     -0.6566772      0.9765472
      4026.5000         0.6048          0.606         0.5291        -83.319     -0.5462189      0.9804922
      4027.0000         0.6064         0.6065         0.5303       -83.2059     -0.4356613      0.9844407
      4027.5000          0.608         0.6069         0.5314       -83.0929     -0.3252106      0.9883853
      4028.0000         0.6095         0.6074         0.5326       -82.9797     -0.2145462      0.9923376
      4028.5000         0.6111         0.6079         0.5337       -82.8667     -0.1040878      0.9962826
      4029.0000         0.6127         0.6084         0.5348       -82.7537    0.006370544              1
      4029.5000         0.6143         0.6089         0.5357       -82.6663      0.0912323              1
      4030.0000         0.6159         0.6112         0.5352       -82.6494      0.1055908              1
      4030.5000         0.6176         0.6147         0.5348       -82.6326      0.1198425              1
      4031.0000         0.6179         0.6181         0.5343       -82.6156      0.1343002              1
      4031.5000         0.6179         0.6215         0.5338       -82.5988      0.1485596              1
