#------------------------------------------------------------------------------
# Created by    : vladimir.rabinovich
# Created on    : 09/19/2023 17:21:57
#------------------------------------------------------------------------------
~Version Information Section
VERS.           2.0     :   CWLS log ASCII Standard - VERSION 2.0
WRAP.           NO      :   One line per depth step
~Well Information Section
#MNEM       .UNIT                                         VALUE :DESCRIPTION
#------------------------------------------------------------------------------
STRT        .FT                                             570 :START DEPTH
STOP        .FT                                           10083 :STOP DEPTH
STEP        .FT                                             0.5 :STEP      
NULL        .                                           -999.25 :NULL      
COMP        .                                BP EXPLORATION INC :COMPANY   
WELL        .                               OCS G10548 ST00BP00 :WELL      
FLD         .                                           WILDCAT :FIELD     
LOC         .                                                   :LOCATION  
CNTY        .                                      WEST CAMERON :LOCATION  
STAT        .                                         LOUISIANA :STATE     
CTRY        .                                     UNITED STATES :COUNTRY   
SRVC        .                                                   :SERVICE COMPANY
DATE        .                             9/13/2023 11:18:09 AM :LOG DATE  
API         .                                    17700408010000 :API NUMBER
UWI         .                                    17700408010000 :UNIQUE WELL ID
XCOORD      .                                  1469734.01149431 :SURFACE X 
YCOORD      .                                  10675810.5973196 :SURFACE Y 
LAT         .                                        29.4157778 :LATITUDE  
LON         .                                        -93.536275 :LONGITUDE 
ELEV        .FT                                              80 :ELEVATION VALUE
ELEV_TYPE   .                                                KB :ELEVATION REFERENCE TYPE
~Curve Information Section
#MNEM       .UNIT                                      API CODE :CURVE DESCRIPTION
#------------------------------------------------------------------------------
DEPT        .FT                                                 :DEPTH     
CALI        .IN                                                 :          
DPHI        .%                                                  :          
GR          .GAPI                                               :          
GR_1        .GAPI                                               :          
GR_NORM     .GAPI                                               :GammaRay Normalized
ILD         .OHMM                                               :          
ILM         .OHMM                                               :          
NPHI        .%                                                  :          
SFL         .OHMM                                               :          
SP          .MV                                                 :          
SP_NORM     .MV                                                 :SP Normalized
VSH_GR      .V/V                                                :Volume of Shale from GR
VSH_SP      .V/V                                                :Volume of Shale from SP
~A        DEPTH           CALI           DPHI             GR           GR_1        GR_NORM            ILD            ILM           NPHI            SFL             SP        SP_NORM         VSH_GR         VSH_SP
# ...
      3762.0000        17.6832        30.7635        -999.25        68.3323       71.81296         0.8858         0.7758        47.1891         0.7801       -88.9266        -7.4172      0.8258076      0.7644696
      3762.5000        17.5876        31.6191        -999.25        68.3503       71.82691         0.8654         0.7596        47.0922         0.7686       -88.7794        -7.2728      0.8261045      0.7707478
      3763.0000        17.5117        32.2237        -999.25        68.9043       72.44811         0.8494         0.7457        46.3384         0.7593        -88.582        -7.0781      0.8393216       0.779213
      3763.5000        17.4723        32.5668        -999.25        69.5188       73.13799         0.8383         0.7362        45.0685         0.7527       -88.3116        -6.8105      0.8539997      0.7908478
      3764.0000        17.3924        32.5782        -999.25        70.0516       73.73528          0.826         0.7286        44.8221         0.7454       -87.8413         -6.343       0.866708      0.8111739
      3764.5000        17.0313        32.2214        -999.25         70.574       74.32067         0.8123         0.7225        46.8831         0.7355       -87.2308        -5.7353      0.8791632      0.8375956
      3765.0000        16.6632        31.7098        -999.25        71.4364       75.29146         0.7968         0.7173        49.6941         0.7272       -86.5564        -5.0636      0.8998182         0.8668
      3765.5000        16.4091        31.7468        -999.25        72.8544       76.89184         0.7809         0.7084        52.1754         0.7218       -85.9318        -4.4418      0.9338689      0.8938348
      3766.0000        16.2411         32.608        -999.25        74.6089       78.87341         0.7675         0.6965        53.9038         0.7212       -85.3779        -3.8907      0.9760299      0.9177957
      3766.5000         16.138        34.2383        -999.25        74.9634       79.26866         0.7534         0.6833        55.5887         0.7197       -84.8867        -3.4023      0.9844396      0.9390305
      3767.0000        16.1257        35.4774        -999.25        75.4968       79.86662         0.7411          0.672        56.4488         0.7137       -84.4783        -2.9966      0.9971622      0.9566696
      3767.5000        16.1362        36.1594        -999.25        77.3715       81.98441          0.729         0.6654        53.9525          0.706       -84.1023        -2.6234              1      0.9728957
      3768.0000        16.2376        36.1871        -999.25        81.7318       86.91891         0.7186         0.6628        51.2869         0.6974       -83.8362        -2.3601              1      0.9843435
      3768.5000         16.591        35.2496        -999.25        83.1809       88.55451         0.7107         0.6582        49.3802         0.6892       -83.6091        -2.1357              1         0.9941
      3769.0000        16.9377         34.654        -999.25        83.6003       89.02332         0.7046         0.6503        49.3569         0.6826       -83.4052        -1.9346              1              1
      3769.5000        17.1391        34.7507        -999.25        83.2419       88.61061         0.7021         0.6418        50.7078         0.6761       -83.2949        -1.8271              1              1
      3770.0000        17.3917        35.2969        -999.25        82.1438       87.35982         0.7003         0.6347        51.9476         0.6697       -83.1987        -1.7337              1              1
      3770.5000        17.0587        36.7682        -999.25        79.8043       84.70232         0.7004         0.6307        53.0857         0.6634       -83.1217        -1.6594              1              1
      3771.0000        16.6276        36.9581        -999.25        76.8252       81.31992         0.7011         0.6245        54.2904         0.6572       -83.0522        -1.5927              1              1
      3771.5000         16.352        37.0524        -999.25        75.1105       79.37042         0.7035          0.619        55.4412         0.6513       -82.9873        -1.5306      0.9866048              1
      3772.0000        16.5128        36.9276        -999.25        75.0756       79.32441         0.7025         0.6147        56.5222         0.6457       -82.9276        -1.4737      0.9856257              1
      3772.5000         16.323        36.6473        -999.25        75.9672       80.32817         0.6996         0.6102        57.4819          0.644       -82.8718        -1.4206              1              1
      3773.0000         16.178        36.9256        -999.25        74.3463       78.48495         0.6954         0.6071        58.3319         0.6428       -82.8275        -1.3791       0.967765              1
      3773.5000         16.387        37.9235        -999.25        72.5844       76.48196         0.6909         0.6045        57.8109         0.6446       -82.8204        -1.3748      0.9251482              1
      3774.0000        16.7738        38.6716        -999.25        73.5612       77.58227         0.6858         0.6015        56.2031         0.6463       -82.8201        -1.3773      0.9485589              1
      3774.5000        16.9794        39.3021        -999.25        75.5513       79.83093         0.6795         0.5982        55.3211         0.6435       -82.8503        -1.4102      0.9964028              1
      3775.0000        17.1063        39.6042        -999.25        76.0033       80.33667         0.6725         0.5859        56.4368         0.6408       -82.8806        -1.4433              1              1
      3775.5000        17.0732        39.7225        -999.25        75.2523       79.47908         0.6669         0.5761        58.0011         0.6326       -82.8391        -1.4046      0.9889166              1
      3776.0000        16.8689        39.7034        -999.25        74.9961        79.1823         0.6625         0.5705        58.9769         0.6244       -82.7946        -1.3629      0.9826022              1
      3776.5000        16.7657         39.432        -999.25        75.3512       79.57825         0.6595         0.5699        55.1003         0.6162       -82.6615        -1.2325      0.9910265              1
      3777.0000        16.8892        39.0125        -999.25        76.4799       80.85068         0.6587         0.5737        53.7266         0.6108       -82.5089        -1.0827              1              1
      3777.5000        17.1209        38.5574        -999.25         78.347       82.95995         0.6605         0.5795        53.4829         0.6067       -82.3154         -0.892              1              1
      3778.0000        17.3271        38.0681        -999.25        80.4353       85.31989         0.6655         0.5871        53.5192         0.6036       -82.1921        -0.7715              1              1
      3778.5000        17.4119        37.5748        -999.25        80.7855       85.71014         0.6759         0.6022        52.7126         0.6119       -82.1224        -0.7045              1              1
      3779.0000        17.3492        36.9215        -999.25        81.3352       86.32659         0.6884         0.6216        51.6929          0.624       -82.1417        -0.7266              1              1
      3779.5000        17.1353        36.2449        -999.25        81.8354       86.88695         0.7022         0.6447        51.0093          0.641       -82.2146        -0.8023              1              1
      3780.0000        16.9268        35.5505        -999.25        81.0375       85.97633         0.7123         0.6682        50.5375         0.6577       -82.3707        -0.9612              1              1
      3780.5000          16.82        34.8893        -999.25        79.6077       84.34955         0.7225         0.6909        52.3612         0.6741       -82.5721        -1.1653              1              1
