#------------------------------------------------------------------------------
# Created by    : vladimir.rabinovich
# Created on    : 09/19/2023 17:22:25
#------------------------------------------------------------------------------
~Version Information Section
VERS.           2.0     :   CWLS log ASCII Standard - VERSION 2.0
WRAP.           NO      :   One line per depth step
~Well Information Section
#MNEM       .UNIT                                         VALUE :DESCRIPTION
#------------------------------------------------------------------------------
STRT        .FT                                            2996 :START DEPTH
STOP        .FT                                            8909 :STOP DEPTH
STEP        .FT                                             0.5 :STEP      
NULL        .                                           -999.25 :NULL      
COMP        .                             PHILLIPS PETROLEUM CO :COMPANY   
WELL        .                                OCS 00299 ST00BP00 :WELL      
FLD         .                           WEST CAMERON BLOCK 0045 :FIELD     
LOC         .                                                   :LOCATION  
CNTY        .                                      WEST CAMERON :LOCATION  
STAT        .                                         LOUISIANA :STATE     
CTRY        .                                     UNITED STATES :COUNTRY   
SRVC        .                                                   :SERVICE COMPANY
DATE        .                             9/13/2023 11:18:09 AM :LOG DATE  
API         .                                    17700407290000 :API NUMBER
UWI         .                                    17700407290000 :UNIQUE WELL ID
XCOORD      .                                  1446390.31791034 :SURFACE X 
YCOORD      .                                  10761453.0604348 :SURFACE Y 
LAT         .                                        29.6510516 :LATITUDE  
LON         .                                       -93.6110308 :LONGITUDE 
ELEV        .FT                                              99 :ELEVATION VALUE
ELEV_TYPE   .                                                KB :ELEVATION REFERENCE TYPE
~Curve Information Section
#MNEM       .UNIT                                      API CODE :CURVE DESCRIPTION
#------------------------------------------------------------------------------
DEPT        .FT                                                 :DEPTH     
CALX        .IN                                                 :          
CDL         .%                                                  :          
CILD        .MMHO                                               :          
CNS         .%                                                  :          
DRHO        .G/C3                                               :          
GR_NORM     .GAPI                                               :GammaRay Normalized
RILD        .OHMM                                               :          
RILM        .OHMM                                               :          
RLL         .OHMM                                               :          
SP          .MV                                                 :          
SP_NORM     .MV                                                 :SP Normalized
TENS        .LB                                                 :          
VSH_GR      .V/V                                                :Volume of Shale from GR
VSH_SP      .V/V                                                :Volume of Shale from SP
~A        DEPTH           CALX            CDL           CILD            CNS           DRHO        GR_NORM           RILD           RILM            RLL             SP        SP_NORM           TENS         VSH_GR         VSH_SP
# ...
      3806.0000         19.451          36.18       2447.059          45.72          0.047       66.49918         0.4075         0.4954         0.6236        -4.2986        -3.3333           1620      0.7127484        0.94445
      3806.5000         19.451           38.1       2745.098        43.5294          0.011       57.10604         0.3748         0.4642         0.6735        -6.3265         -5.363           1620      0.5128945      0.6061667
      3807.0000         19.451        39.1176       3058.823        41.2941        -0.0098       51.65044         0.3448         0.4309         0.9655        -7.7551        -6.7934           1620      0.3968178      0.3677667
      3807.5000         19.451        39.1176       3372.549        39.5294        -0.0216       42.86311         0.3201            0.4         1.0289        -9.0816        -8.1216           1620      0.2098535         0.1464
      3808.0000         19.451          38.94       3607.843          38.82        -0.0314       39.52771         0.2808         0.3679         0.9655        -9.5918        -8.6336           1620      0.1388875     0.06106663
      3808.5000         19.451          37.86       3719.888        40.0588        -0.0303       41.03827         0.2752         0.3411         0.8989         -9.593        -8.6366       1621.866      0.1710269     0.06056674
      3809.0000         19.451             35       3739.309        40.7059        -0.0243       44.06306         0.2695          0.331          0.839        -9.0889        -8.1342       1645.161      0.2353844         0.1443
      3809.5000         19.451        31.5294       3555.556        40.2353        -0.0043       47.69384         0.2844         0.3427         0.8618        -8.2874        -7.3345       1628.166      0.3126348      0.2775834
      3810.0000        19.4314           27.3       3276.938          38.52         0.0127       50.11296         0.3003          0.393         0.8528        -7.2958        -6.3447       1651.731      0.3641055        0.44255
      3810.5000        19.4286        21.8925           2832        34.5882         0.0256       50.06586         0.3416         0.4431         0.8146           -6.2        -5.2506       1632.653      0.3631034         0.6249
      3811.0000        19.4239          17.46           2432        30.6471         0.0405       48.17257         0.4037         0.4954         0.8146           -5.6        -4.6524       1632.653      0.3228205         0.7246
      3811.5000        19.4183           16.2       2122.449        26.3565         0.0556       42.63046         0.4599         0.5943         1.0285           -5.3        -4.3541       1632.653      0.2049033      0.7743166
      3812.0000        19.4136          15.18       1877.551        23.2057         0.0686       42.25171         0.5296         0.7412         1.6124           -5.4        -4.4559       1612.245      0.1968449        0.75735
      3812.5000        19.3922          20.94       1681.633        22.4694         0.0598       44.03613         0.5886         0.8295         2.1729           -6.1        -5.1577       1632.653      0.2348112      0.6403833
      3813.0000        19.3922          25.08       1616.327          24.12          0.037       46.45541         0.6165         0.8073         1.9085           -6.7        -5.7594       1632.653      0.2862854         0.5401
      3813.5000        19.3922          26.94           1600          26.82          0.036       48.57163         0.6278         0.7555           1.51           -7.2        -6.2612       1612.245      0.3313113      0.4564667
      3814.0000        19.3922        28.8367       1632.653        28.7755          0.036       49.77928            0.6         0.6874         1.1837           -7.4         -6.463       1612.245      0.3570059      0.4228334
      3814.5000        19.3922        28.7755       1763.265        30.2941          0.046       50.98707         0.5664          0.651         1.1085           -7.6        -6.6647       1591.837      0.3827037      0.3892167
      3815.0000        19.4118        28.7143       1893.878        31.9412         0.0549       50.98321         0.5347          0.611         1.0479           -7.6        -6.6665       1591.837      0.3826215      0.3889166
      3815.5000        19.3922        29.3878        2024.49        33.5882         0.0529       49.76773         0.5048         0.5774          0.981           -7.6        -6.6682       1591.837      0.3567602      0.3886333
      3816.0000        19.3922             30       2122.449        34.9412          0.048       50.06679         0.4773         0.5719          0.981           -7.9          -6.97       1612.245      0.3631231      0.3383334
      3816.5000        19.4118        30.5882       2204.082        34.4706          0.045       51.27443         0.4556         0.5719         1.0982           -8.4        -7.4718       1632.653      0.3888177         0.2547
      3817.0000        19.4314        30.7059       2269.388             34          0.045       51.27059         0.4472          0.561         1.1726           -8.7        -7.7735       1632.653       0.388736      0.2044167
      3817.5000        19.4314        30.7647       2334.694        33.5294          0.045       49.75234          0.439          0.561          1.206             -9        -8.0753       1632.653      0.3564328      0.1541166
      3818.0000        19.4902        30.8824       2367.347        33.1176          0.046       46.71986         0.4269          0.561         1.1948             -9        -8.0771       1632.653      0.2919118      0.1538167
      3818.5000        19.5084             31       2418.345        33.7647          0.049       44.57077         0.4152         0.5504         1.1726           -9.1        -8.1788       1633.833      0.2461865      0.1368667
      3819.0000        19.4664        30.8824       2422.222        34.4706          0.053        41.7774         0.4113         0.5451         1.1617             -9        -8.0806       1656.017      0.1867531      0.1532334
      3819.5000         19.424        30.5294       2441.856        34.8824         0.0649       38.95653         0.4075         0.5347         1.1509           -8.8        -7.8824       1637.328      0.1267347      0.1862667
      3820.0000        19.4411        29.9388        2445.58        34.8824          0.075       38.26563         0.4113         0.5347         1.1509           -8.8        -7.8841       1699.367      0.1120346      0.1859833
      3820.5000        19.4017        30.0588       2431.373        34.7059         0.0779       37.65827         0.4113         0.5345         1.1604           -8.4        -7.4859           1660     0.09911217        0.25235
      3821.0000        19.4045        30.0588       2415.686        34.1176         0.0808       38.03379          0.419          0.534         1.1803             -8        -7.0876           1640      0.1071019      0.3187333
      3821.5000        19.4276        30.0588       2366.667        33.4706         0.0826       40.55362         0.4309         0.5237         1.1671           -7.1        -6.1894           1620      0.1607154      0.4684333
      3822.0000        19.4303        30.0588           2350        33.0588         0.0873       46.07029         0.4349         0.5234         1.0901           -6.4        -5.4912           1640      0.2780912         0.5848
      3822.5000        19.4314        30.0588       2283.333        33.6471         0.0931       55.46856         0.4556         0.5281         0.9826           -5.5        -4.5929           1640      0.4780544      0.7345167
      3823.0000        19.4118        30.1176       2233.333        34.2941         0.0902       59.09932         0.4599         0.5428         0.9322        -4.7959        -3.8906           1640      0.5553046      0.8515667
      3823.5000        19.4118        30.4118       2183.333        34.9412         0.0824       63.33575         0.4685         0.5477         0.8485        -3.9796        -3.0761           1640      0.6454414      0.9873167
