#------------------------------------------------------------------------------
# Created by    : vladimir.rabinovich
# Created on    : 09/19/2023 17:20:43
#------------------------------------------------------------------------------
~Version Information Section
VERS.           2.0     :   CWLS log ASCII Standard - VERSION 2.0
WRAP.           NO      :   One line per depth step
~Well Information Section
#MNEM       .UNIT                                         VALUE :DESCRIPTION
#------------------------------------------------------------------------------
STRT        .FT                                            2986 :START DEPTH
STOP        .FT                                           10006 :STOP DEPTH
STEP        .FT                                             0.5 :STEP      
NULL        .                                           -999.25 :NULL      
COMP        .                                        CONOCO INC :COMPANY   
WELL        .                                OCS 00764 ST00BP00 :WELL      
FLD         .                           WEST CAMERON BLOCK 0192 :FIELD     
LOC         .                                                   :LOCATION  
CNTY        .                                      WEST CAMERON :LOCATION  
STAT        .                                         LOUISIANA :STATE     
CTRY        .                                     UNITED STATES :COUNTRY   
SRVC        .                                                   :SERVICE COMPANY
DATE        .                             9/13/2023 11:18:18 AM :LOG DATE  
API         .                                    17700003670000 :API NUMBER
UWI         .                                    17700003670000 :UNIQUE WELL ID
XCOORD      .                                  1596137.97932418 :SURFACE X 
YCOORD      .                                  10614860.5046116 :SURFACE Y 
LAT         .                                         29.249106 :LATITUDE  
LON         .                                        -93.138896 :LONGITUDE 
ELEV        .FT                                              84 :ELEVATION VALUE
ELEV_TYPE   .                                                KB :ELEVATION REFERENCE TYPE
~Curve Information Section
#MNEM       .UNIT                                      API CODE :CURVE DESCRIPTION
#------------------------------------------------------------------------------
DEPT        .FT                                                 :DEPTH     
ASN         .OHMM                                               :          
CALI        .IN                                                 :          
CALI_1      .IN                                                 :          
DRHO        .G/C3                                               :          
DT          .US/F                                               :          
GR          .GAPI                                               :          
ILD         .OHMM                                               :          
RHOB        .G/C3                                               :          
SP          .MV                                                 :          
SP_NORM     .MV                                                 :SP Normalized
VSH_SP      .V/V                                                :Volume of Shale from SP
~A        DEPTH            ASN           CALI         CALI_1           DRHO             DT             GR            ILD           RHOB             SP        SP_NORM         VSH_SP
# ...
      9916.0000         1.0847        10.6233        10.9326         0.0429       108.9127        73.8281         0.7334         2.3895       -40.3393     -0.7788582              1
      9916.5000         1.0897        10.5603        10.9972         0.0419       109.7943        75.4025         0.7186         2.3905       -40.2747     -0.7142601              1
      9917.0000         1.0886        10.5417        10.9538         0.0477        112.193        77.1006         0.7032         2.3915       -40.1931     -0.6326599              1
      9917.5000         1.0831        10.4943        10.9085         0.0478       113.0802        78.7987         0.6945         2.3773       -40.0955     -0.5350609              1
      9918.0000         1.0757        10.4727        10.9563         0.0516       113.3553        80.2472         0.6881         2.3645       -39.9868     -0.4263611              1
      9918.5000         1.0679        10.6129        10.9927         0.0545       113.9489        80.3671           0.67         2.3587         -39.91     -0.3495598              1
      9919.0000         1.0585        10.8208        11.0035         0.0472       114.4955        78.6847         0.6555         2.3521       -39.9019     -0.3414612              1
      9919.5000         1.0492        10.9657        11.0142         0.0399       115.0668        77.2697         0.6486         2.3435       -39.9764     -0.4159584              1
      9920.0000         1.0424        10.7518         11.025         0.0504       115.3437        76.3213         0.6617         2.3325       -40.0598     -0.4993591              1
      9920.5000         1.0393        10.9081         11.012          0.068       114.7991        76.6112         0.6771         2.3475       -40.0262     -0.4657593              1
      9921.0000         1.0398        10.9628        10.9629         0.0862       111.3195        76.5729         0.7064          2.365       -39.9847     -0.4242592              1
      9921.5000         1.0453        10.8301        10.9265         0.0731       108.5653        76.1517         0.7326         2.3731       -39.9422     -0.3817596              1
      9922.0000         1.0589        10.6727        11.0094         0.0564       106.2751        75.7572         0.7437         2.3691       -39.8862     -0.3257599              1
      9922.5000         1.0747        10.5607        11.0495         0.0399       105.0548        75.8231         0.7555         2.3829       -39.8107     -0.2502594              1
      9923.0000         1.0909        10.5485        11.0093         0.0533       104.8124          77.08         0.7712          2.395       -39.7365     -0.1760597              1
      9923.5000         1.1038        10.5044        10.9699         0.0427       105.2023        76.4657         0.7874         2.4039       -39.6658     -0.1053581              1
      9924.0000         1.1141        10.5189         10.931         0.0595       105.6342        74.8187         0.8056         2.4183       -39.5991    -0.03865814              1
      9924.5000         1.1222         10.535        10.8948         0.0689       106.1567        74.9592         0.8238         2.4312       -39.5457     0.01473999              1
      9925.0000         1.1227        10.5362        10.8519          0.068       106.9032        75.0339         0.8262         2.4356       -39.4955     0.06494141              1
      9925.5000         1.1206        10.5327        10.8261         0.0651       107.5029        74.6743         0.8274         2.4364       -39.4792     0.08124161              1
      9926.0000         1.1137        10.5068        10.8002         0.0531       108.1013        76.9473         0.8215         2.4349       -39.4628     0.09764099              1
      9926.5000         1.1039        10.4727        10.7743         0.0443        108.701        78.3781         0.8143         2.4303       -39.4512      0.1092415              1
      9927.0000         1.0906         10.436        10.7459         0.0266       109.5056        79.4753          0.808         2.4169         -39.45      0.1104393              1
      9927.5000         1.0784        10.3968        10.7048         0.0291       110.4285        79.4753         0.8031         2.3833       -39.4681     0.09233856              1
      9928.0000         1.0668        10.4565        10.7489         0.0409       111.1232        78.3604         0.7981         2.3728       -39.5483     0.01213837              1
      9928.5000         1.0613         10.581        10.9101         0.0514        110.629        77.0947         0.7934         2.3831       -39.7718     -0.2113609              1
      9929.0000          1.058        10.6557        10.8745           0.06       110.3137        75.9017         0.7887         2.3865       -40.0267      -0.466259              1
      9929.5000         1.0565        10.6416        10.8661         0.0584       110.0547        74.7107         0.7938         2.3914       -40.1648     -0.6043587              1
      9930.0000         1.0574         10.647        10.9167         0.0579       109.7228        74.0848         0.8022         2.3867       -40.1865     -0.6260605              1
      9930.5000         1.0592        10.6878        10.9191         0.0604       109.6628          74.86         0.8033         2.3734       -40.1982     -0.6377602              1
      9931.0000         1.0615        10.7426        10.9651         0.0563       109.8043        74.1309         0.8044         2.3627        -40.218     -0.6575584              1
      9931.5000         1.0618        10.7177        10.9732         0.0709       110.0719        75.6953         0.8015         2.3716       -40.2558     -0.6953583              1
      9932.0000         1.0596        10.5569        10.8022         0.0864         110.51        77.0259         0.7976         2.3704       -40.3452     -0.7847595              1
      9932.5000         1.0479        10.3874        10.6459         0.0998       111.0676        78.2424         0.7925           2.38       -40.4576     -0.8971596              1
      9933.0000         1.0385        10.2619        10.5521         0.1132       110.9036        79.1318         0.7854         2.3836       -40.5093     -0.9488602              1
      9933.5000         1.0388        10.1662        10.4895         0.1081       110.5074        78.8463         0.7782         2.3727       -40.4782     -0.9177589              1
      9934.0000         1.0463        10.2729        10.4485          0.089       110.1731        78.8083         0.7712         2.3567       -40.2742     -0.7137604              1
      9934.5000         1.0463        10.4832        10.4937         0.0807       110.7494        78.9608         0.7643         2.3521        -40.149     -0.5885582              1
      9935.0000         1.0431         10.381        10.5009         0.0455       111.3774        79.4247         0.7556         2.3446       -40.1437     -0.5832596              1
      9935.5000         1.0388         10.434        10.5553         0.0359         111.85         80.005         0.7447         2.3551       -40.2197     -0.6592598              1
      9936.0000         1.0365        10.4949        10.6632         0.0509       111.4823        80.1057         0.7339         2.3663       -40.3042     -0.7437592              1
      9936.5000         1.0433        10.5318        10.7385         0.0446       110.4285        79.0739         0.7271         2.3653       -40.3688     -0.8083611              1
      9937.0000         1.0431        10.4548        10.8268         0.0357       110.3604        77.7747         0.7278         2.3706        -40.333     -0.7725601              1
      9937.5000         1.0368        10.4549        10.8123          0.035       110.5085        76.4933         0.7285         2.3813       -40.3711     -0.8106613              1
      9938.0000          1.034        10.4723        10.7398         0.0348       110.3866        75.2118         0.7293         2.3818       -40.5555       -0.99506              1
