#------------------------------------------------------------------------------
# Created by    : vladimir.rabinovich
# Created on    : 09/19/2023 17:22:04
#------------------------------------------------------------------------------
~Version Information Section
VERS.           2.0     :   CWLS log ASCII Standard - VERSION 2.0
WRAP.           NO      :   One line per depth step
~Well Information Section
#MNEM       .UNIT                                         VALUE :DESCRIPTION
#------------------------------------------------------------------------------
STRT        .FT                                            4308 :START DEPTH
STOP        .FT                                           11086 :STOP DEPTH
STEP        .FT                                             0.5 :STEP      
NULL        .                                           -999.25 :NULL      
COMP        .                                     GULF OIL CORP :COMPANY   
WELL        .                               OCS G01859 ST00BP00 :WELL      
FLD         .                           WEST CAMERON BLOCK 0045 :FIELD     
LOC         .                                                   :LOCATION  
CNTY        .                                      WEST CAMERON :LOCATION  
STAT        .                                         LOUISIANA :STATE     
CTRY        .                                     UNITED STATES :COUNTRY   
SRVC        .                                                   :SERVICE COMPANY
DATE        .                             9/13/2023 11:18:18 AM :LOG DATE  
API         .                                    17700402800000 :API NUMBER
UWI         .                                    17700402800000 :UNIQUE WELL ID
XCOORD      .                                  1464540.60646957 :SURFACE X 
YCOORD      .                                  10776790.0411311 :SURFACE Y 
LAT         .                                        29.6934919 :LATITUDE  
LON         .                                       -93.5541052 :LONGITUDE 
ELEV        .FT                                              79 :ELEVATION VALUE
ELEV_TYPE   .                                                KB :ELEVATION REFERENCE TYPE
~Curve Information Section
#MNEM       .UNIT                                      API CODE :CURVE DESCRIPTION
#------------------------------------------------------------------------------
DEPT        .FT                                                 :DEPTH     
CALI        .IN                                                 :          
DRHO        .G/C3                                               :          
DT          .US/F                                               :          
GR          .GAPI                                               :          
GR_NORM     .GAPI                                               :GammaRay Normalized
ILD         .OHMM                                               :          
NPHI        .%                                                  :          
RHOB        .G/C3                                               :          
SFLU        .OHMM                                               :          
SP          .MV                                                 :          
SP_NORM     .MV                                                 :SP Normalized
VSH_GR      .V/V                                                :Volume of Shale from GR
VSH_SP      .V/V                                                :Volume of Shale from SP
~A        DEPTH           CALI           DRHO             DT             GR        GR_NORM            ILD           NPHI           RHOB           SFLU             SP        SP_NORM         VSH_GR         VSH_SP
# ...
      9267.0000        10.1881         0.0259        97.7371        73.4606       78.45465         1.0964        35.1672         2.2926         0.8676       -44.8157         -3.701      0.9671202      0.9608551
      9267.5000        10.1113         0.0265       101.1908        73.7926       79.28908         1.0624        37.1716         2.2888         0.8438       -43.9604        -2.8464       0.984874      0.9732406
      9268.0000        10.0971         0.0491       103.4983        74.0028        79.8168         1.0341        37.7308         2.2966         0.8426       -43.6785        -2.5652      0.9961022       0.977316
      9268.5000        10.0834         0.0618       104.9835        74.3131       80.59682         1.0207        37.8344         2.3059          0.872       -43.0644        -1.9518              1      0.9862058
      9269.0000        10.0625         0.0624       105.5582        74.5692       81.24012          1.009        38.0729         2.3151         0.9015       -42.6241        -1.5122              1      0.9925768
      9269.5000        10.0525         0.0656       105.5444        74.3079       80.58073         1.0002        38.4619         2.3222         0.9225       -42.6524        -1.5413              1      0.9921551
      9270.0000        10.0513         0.0724       105.2894        73.9547       79.69015         0.9991        38.9131          2.335         0.9405       -42.9094         -1.799      0.9934074      0.9884203
      9270.5000        10.0677         0.0814       105.0857        73.5999       81.69859         0.9981        39.1987         2.3468         0.9312       -43.3795        -2.2698              1      0.9815971
      9271.0000        10.0756         0.0835       104.9377         73.722       81.96857         0.9971        39.4808         2.3315         0.9169       -43.6847        -2.5757              1      0.9771638
      9271.5000        10.0793         0.0693       105.0687        73.9813        82.5436         0.9966        39.8126         2.3183         0.9042       -43.8472        -2.7389              1      0.9747986
      9272.0000        10.0883         0.0581       105.2607        73.3202       81.07336         0.9997        40.1782          2.309         0.9003       -43.6761        -2.5686              1      0.9772667
      9272.5000        10.0985          0.059       105.5659        72.5313       79.31912         1.0046        40.4532         2.3107         0.8998       -43.5924        -2.4856      0.9855133      0.9784696
      9273.0000        10.1211         0.0677        105.113        71.7194       77.51404         1.0107        39.6659         2.3173         0.9046       -43.7228        -2.6167      0.9471072      0.9765696
      9273.5000        10.1441         0.0796        104.864        71.2661       76.50548           1.02        38.9139         2.3301         0.9196       -44.3726        -3.2672      0.9256485       0.967142
      9274.0000        10.1575         0.0685       104.9392        71.4408       76.89233         1.0308        38.4023         2.3163         0.9333       -45.0951        -3.9904      0.9338793      0.9566609
      9274.5000        10.1661         0.0689       105.0146        72.7307       79.75707           1.04         38.408         2.3351         0.9442       -44.8932        -3.7893      0.9948313      0.9595754
      9275.0000        10.1768         0.0833       105.1903        72.9209       80.17856         1.0426        38.6265         2.3426          0.957       -44.4213        -3.3181              1      0.9664043
      9275.5000        10.1854         0.0851       104.5299        72.4968       79.23491         1.0365        39.1611         2.3268         0.9693       -44.2446        -3.1421      0.9837215      0.9689551
      9276.0000        10.1904          0.075       103.8696        72.1852       78.54123         1.0283        39.4224         2.3198         0.9712       -44.5314        -3.4296      0.9689623      0.9647884
      9276.5000        10.1716          0.067       103.4678        71.6625       77.37869         1.0189        39.0646         2.3012         0.9482       -44.2471         -3.146      0.9442275      0.9688985
      9277.0000        10.0789         0.0552       103.6908        71.0708       76.06266         1.0131        39.2281          2.279         0.9081       -43.1075        -2.0072      0.9162268      0.9854029
      9277.5000        10.0528         0.0509       104.3492        70.7651        75.3821         1.0076        39.4842          2.285         0.8462       -42.3207        -1.2211      0.9017467      0.9967957
      9278.0000        10.0421         0.0566        105.427        70.7864       75.42829         1.0099        39.3591         2.2935         0.7974       -42.6189          -1.52      0.9027296      0.9924638
      9278.5000        10.0308         0.0638        107.119        72.1486       78.45367         1.0158        39.0511         2.3032         0.8435       -43.2207        -2.1225      0.9670993      0.9837319
      9279.0000         10.042          0.068       108.1333        72.3325       78.86095         1.0274        39.0656         2.3103         0.9109       -43.8016        -2.7041      0.9757648      0.9753029
      9279.5000        10.0694         0.0708       108.2778        71.8339       77.75198         1.0416        39.0579         2.3121         0.9654       -44.4859        -3.3892      0.9521698      0.9653739
      9280.0000        10.2428         0.0662       106.0201        71.4982       77.00476         1.0631        38.7515         2.3209         0.9739       -45.2267        -4.1307      0.9362715      0.9546275
      9280.5000        10.4868         0.0526         98.689        71.3666       76.71101         1.0954        37.2073         2.3263         0.9611       -45.9922        -4.8969      0.9300216      0.9435232
      9281.0000        10.3649         0.0439        95.6525        71.5875       77.20072         1.1385        35.8224         2.3194         0.9253       -46.9325        -5.8379      0.9404409      0.9298855
      9281.5000        10.3957         0.0419        95.3148        71.9041       77.90285         1.1845        35.4401         2.3147         0.8909       -48.1435        -7.0496      0.9553797      0.9123246
      9282.0000        10.5306         0.0357        97.1539        72.0743       78.27971         1.2227        35.6989         2.3185         0.8635       -49.7729        -8.6798       0.963398      0.8886986
      9282.5000        10.6545         0.0282       101.0114        71.7874       77.64091         1.2242        36.0354         2.3297         0.8516       -52.7661       -11.6737      0.9498065      0.8453087
      9283.0000        10.5506         0.0254       105.2676        70.5913       74.98212         1.1988        35.3593         2.3446         0.9443       -55.6606       -14.5689      0.8932367      0.8033493
      9283.5000        10.1682         0.0242       108.7014        69.5807       72.73531         1.1351        33.7659         2.3646         1.2473       -60.3127       -19.2217      0.8454322      0.7359174
      9284.0000         10.163          0.023       110.4109        68.2422        69.7599         1.0769        29.5621         2.3776         2.1106       -65.8656       -24.7753      0.7821256      0.6554304
      9284.5000        10.2492         0.0128        100.533         66.942       66.86983         1.0068        26.9323         2.3921         2.6999       -81.9041       -40.8146      0.7206348      0.4229768
      9285.0000         10.183        -0.0092        93.8048        65.6418       63.97955         0.8869        24.7552         2.3844         2.0329       -92.2715       -51.1827      0.6591393      0.2727145
      9285.5000        10.0662        -0.0131        91.2993        64.5928        61.6474          0.693        24.4321         2.3393         1.0879       -94.9889       -53.9008      0.6095192      0.2333218
