#------------------------------------------------------------------------------
# Created by    : vladimir.rabinovich
# Created on    : 09/19/2023 17:21:14
#------------------------------------------------------------------------------
~Version Information Section
VERS.           2.0     :   CWLS log ASCII Standard - VERSION 2.0
WRAP.           NO      :   One line per depth step
~Well Information Section
#MNEM       .UNIT                                         VALUE :DESCRIPTION
#------------------------------------------------------------------------------
STRT        .FT                                            3520 :START DEPTH
STOP        .FT                                            8510 :STOP DEPTH
STEP        .FT                                             0.5 :STEP      
NULL        .                                           -999.25 :NULL      
COMP        .                      SPINNAKER EXPLORATION CO LLC :COMPANY   
WELL        .                               OCS G21537 ST00BP00 :WELL      
FLD         .                                           WILDCAT :FIELD     
LOC         .                                                   :LOCATION  
CNTY        .                                      WEST CAMERON :LOCATION  
STAT        .                                         LOUISIANA :STATE     
CTRY        .                                     UNITED STATES :COUNTRY   
SRVC        .                                                   :SERVICE COMPANY
DATE        .                             9/13/2023 11:18:49 AM :LOG DATE  
API         .                                    17700410830000 :API NUMBER
UWI         .                                    17700410830000 :UNIQUE WELL ID
XCOORD      .                                   1446389.6294369 :SURFACE X 
YCOORD      .                                  10699667.6074025 :SURFACE Y 
LAT         .                                        29.4810902 :LATITUDE  
LON         .                                       -93.6100108 :LONGITUDE 
ELEV        .FT                                              91 :ELEVATION VALUE
ELEV_TYPE   .                                                KB :ELEVATION REFERENCE TYPE
~Curve Information Section
#MNEM       .UNIT                                      API CODE :CURVE DESCRIPTION
#------------------------------------------------------------------------------
DEPT        .FT                                                 :DEPTH     
CAL         .IN                                                 :          
CNC         .%                                                  :          
GR          .GAPI                                               :          
GR_NORM     .GAPI                                               :GammaRay Normalized
M0C6        .MMHO                                               :          
M2R1        .OHMM                                               :          
M2R2        .OHMM                                               :          
M2R3        .OHMM                                               :          
M2R6        .OHMM                                               :          
M2R9        .OHMM                                               :          
M2RX        .OHMM                                               :          
PORZ        .%                                                  :          
SP          .MV                                                 :          
SP_NORM     .MV                                                 :SP Normalized
TEN         .LB/F                                               :          
VSH_GR      .V/V                                                :Volume of Shale from GR
VSH_SP      .V/V                                                :Volume of Shale from SP
ZCOR        .G/CC                                               :          
~A        DEPTH            CAL            CNC             GR        GR_NORM           M0C6           M2R1           M2R2           M2R3           M2R6           M2R9           M2RX           PORZ             SP        SP_NORM            TEN         VSH_GR         VSH_SP           ZCOR
# ...
      5844.0000          11.56         36.659         97.344        69.0954       1119.973          0.791          0.891          0.923          0.926          0.927          0.943         19.431         -4.266        -2.6102        573.454      0.7679872      0.9894793           0.04
      5844.5000         11.562         36.373         99.995        71.7269       1112.461          0.773          0.874          0.906          0.909           0.91          0.925         19.819         -3.359        -1.7123        577.605      0.8239766              1          0.038
      5845.0000         11.565         34.213        100.695        72.4074       1106.611           0.77           0.87          0.903          0.905          0.907          0.921         20.286         -2.974        -1.3363        567.356      0.8384554              1          0.043
      5845.5000         11.565          32.76         99.354         71.047       1102.298          0.792           0.89          0.924          0.926          0.927          0.942         20.579         -3.624        -1.9954        556.844      0.8095106              1          0.046
      5846.0000         11.565          33.22          97.78        69.4535        1099.24           0.82          0.915          0.948           0.95          0.951          0.965         20.839         -4.718        -3.0985        559.803      0.7756063      0.9810603          0.043
      5846.5000         11.569         33.682         97.316          68.97       1097.065           0.83          0.916          0.948          0.949           0.95          0.963          21.22         -5.477        -3.8665        567.715      0.7653192       0.967819          0.046
      5847.0000         11.531         33.775         98.373        70.0076       1095.422          0.827          0.902          0.931          0.932          0.932          0.944         21.613         -5.868        -4.2666        568.944      0.7873957      0.9609207          0.053
      5847.5000         11.418         34.568         99.716        71.3311       1094.116          0.828          0.894          0.921          0.922          0.922          0.933         21.981         -6.229        -4.6367        563.313      0.8155553      0.9545397          0.048
      5848.0000         11.308         35.471        100.381        71.9766       1093.212           0.84          0.902          0.929          0.929          0.929          0.939         22.262          -6.77        -5.1867        556.215      0.8292894      0.9450569           0.03
      5848.5000         11.285         35.103         99.415        70.9912       1093.109          0.859          0.922           0.95           0.95           0.95          0.959         22.142         -7.278        -5.7038        552.926      0.8083235      0.9361414          0.016
      5849.0000         11.326         34.132         96.675        68.2317       1094.446          0.873          0.942          0.972          0.971          0.971           0.98         21.612         -7.394        -5.8289        559.296      0.7496106      0.9339845          0.014
      5849.5000         11.364         33.773         93.837        65.3742       1097.944          0.872          0.951          0.983          0.982          0.983           0.99         21.118         -7.131        -5.5749        568.084      0.6888127      0.9383638           0.02
      5850.0000          11.38         34.722         94.284        65.8018        1104.15          0.855          0.944          0.978          0.977          0.978          0.985         20.975         -6.505         -4.958        568.956      0.6979107          0.949          0.027
      5850.5000         11.379         36.787         98.101        69.5993        1113.21          0.826          0.921          0.956          0.954          0.955          0.962         21.197         -5.441        -3.9031        566.587      0.7787085      0.9671879          0.041
      5851.0000         11.375         38.758        101.935        73.4138       1124.748          0.791          0.885          0.919          0.917          0.919          0.925         21.695           -4.5        -2.9712        567.352      0.8598682      0.9832551          0.059
      5851.5000         11.387         39.768        103.527        74.9864       1137.878          0.761           0.85          0.882          0.879          0.881          0.887         22.378         -4.578        -3.0582        566.152      0.8933276      0.9817552          0.066
      5852.0000         11.438         39.613        103.149        74.5889       1151.393          0.749          0.832           0.86          0.858           0.86          0.867         23.162         -5.808        -4.2973        563.481      0.8848702      0.9603914           0.06
      5852.5000          11.46         38.272        101.635        73.0554       1164.025          0.755          0.834           0.86          0.858          0.861          0.868         23.759         -7.394        -5.8924        565.668      0.8522425      0.9328896          0.051
      5853.0000         11.376         36.366        100.499        71.8999       1174.735          0.759          0.836          0.861          0.859          0.862          0.871         23.895          -8.24        -6.7474         567.34      0.8276575      0.9181483          0.048
      5853.5000         11.244         35.767        101.577        72.9585         1182.9          0.745          0.822          0.846          0.845          0.849          0.858         23.719         -7.968        -6.4845        562.749      0.8501809       0.922681          0.051
      5854.0000         11.167         36.595        104.632         75.994       1188.403          0.727          0.804          0.828          0.829          0.833          0.843         23.457         -7.193        -5.7186        560.288       0.914766      0.9358862          0.053
      5854.5000         11.148         37.457        106.757        78.0995       1191.558          0.723          0.799          0.824          0.826          0.831          0.842         23.132         -6.711        -5.2456         565.89      0.9595639      0.9440414          0.054
      5855.0000         11.163         38.037        106.093        77.4161       1193.001          0.736          0.811          0.837           0.84          0.845          0.858         22.994         -6.883        -5.4267        573.419      0.9450234       0.940919          0.055
      5855.5000         11.206         38.438        104.162        75.4656        1193.56          0.755          0.828          0.856          0.861          0.867          0.881         23.224         -7.588        -6.1408        581.114      0.9035234      0.9286069          0.055
      5856.0000         11.259         38.782        102.898        74.1821       1194.182          0.763          0.836          0.867          0.873           0.88          0.895         23.569         -8.033        -6.5948        587.099      0.8762149      0.9207793          0.056
      5856.5000         11.337          39.81        102.624        73.8887       1195.937          0.752          0.832          0.865          0.873           0.88          0.897         23.922         -7.516        -6.0869        579.042      0.8699724      0.9295362          0.052
      5857.0000         11.471         41.014         102.65        73.8952       1200.014          0.729          0.819          0.857          0.867          0.874          0.891         24.462         -6.694         -5.274        560.247      0.8701107      0.9435517          0.044
      5857.5000         11.668         40.555        103.926        75.1517       1207.715          0.698          0.798          0.842          0.853          0.861          0.878         25.037         -6.548        -5.1371        554.174      0.8968447      0.9459121          0.049
