#------------------------------------------------------------------------------
# Created by    : vladimir.rabinovich
# Created on    : 09/19/2023 17:20:44
#------------------------------------------------------------------------------
~Version Information Section
VERS.           2.0     :   CWLS log ASCII Standard - VERSION 2.0
WRAP.           NO      :   One line per depth step
~Well Information Section
#MNEM       .UNIT                                         VALUE :DESCRIPTION
#------------------------------------------------------------------------------
STRT        .FT                                             194 :START DEPTH
STOP        .FT                                           14521 :STOP DEPTH
STEP        .FT                                             0.5 :STEP      
NULL        .                                           -999.25 :NULL      
COMP        .                             MAGNOLIA PETROLEUM CO :COMPANY   
WELL        .                                OCS 00043 ST00BP00 :WELL      
FLD         .                          EUGENE ISLAND BLOCK 0089 :FIELD     
LOC         .                                                   :LOCATION  
CNTY        .                                     EUGENE ISLAND :LOCATION  
STAT        .                                         LOUISIANA :STATE     
CTRY        .                                     UNITED STATES :COUNTRY   
SRVC        .                                                   :SERVICE COMPANY
DATE        .                             9/13/2023 11:18:42 AM :LOG DATE  
API         .                                    17709003920000 :API NUMBER
UWI         .                                    17709003920000 :UNIQUE WELL ID
XCOORD      .                                  2056408.80151155 :SURFACE X 
YCOORD      .                                  10562022.8372996 :SURFACE Y 
LAT         .                                        29.0974849 :LATITUDE  
LON         .                                       -91.6970667 :LONGITUDE 
ELEV        .FT                                              50 :ELEVATION VALUE
ELEV_TYPE   .                                                KB :ELEVATION REFERENCE TYPE
~Curve Information Section
#MNEM       .UNIT                                      API CODE :CURVE DESCRIPTION
#------------------------------------------------------------------------------
DEPT        .FT                                                 :DEPTH     
ASN         .OHMM                                               :          
LAT         .OHMM                                               :          
LN          .OHMM                                               :          
SP          .MV                                                 :          
SP_NORM     .MV                                                 :SP Normalized
VSH_SP      .V/V                                                :Volume of Shale from SP
~A        DEPTH            ASN            LAT             LN             SP        SP_NORM         VSH_SP
       194.0000         1.6085              0         0.0901      -155.3032      -10.55182      0.7624495
       194.5000           1.61              0         0.1147       -155.271      -10.64217      0.7599398
       195.0000         1.6114              0         0.1393      -155.2366      -10.73033      0.7574908
       195.5000         1.6134              0         0.1638      -155.2019      -10.81821      0.7550498
       196.0000         1.6159              0         0.1888      -155.1299      -10.86876      0.7536456
       196.5000         1.6184              0         0.2138      -155.0552      -10.91663      0.7523159
       197.0000         1.6209              0         0.2381      -154.9702      -10.95418      0.7512729
       197.5000         1.6232              0         0.2531      -154.7783      -10.88484      0.7531989
       198.0000         1.6256              0         0.2682      -154.5781      -10.80721      0.7553554
       198.5000         1.6279              0         0.2823      -154.1951      -10.54677      0.7625898
       199.0000         1.6304              0         0.2934      -153.5891      -10.06332      0.7760188
       199.5000          1.633              0         0.3045      -152.8809      -9.477692      0.7922863
       200.0000         1.6357              0         0.3156      -150.7998       -7.51915      0.8466903
       200.5000         1.6383              0          0.325      -146.4348      -3.276718      0.9645356
       201.0000         1.6413              0         0.3319      -145.4785      -2.442978       0.987695
       201.5000         1.6448              0         0.3387      -145.0652      -2.152237      0.9957712
       202.0000         1.6484              0         0.3456      -144.7185      -1.928101              1
       202.5000         1.6519              0         0.3525      -144.4199       -1.75206              1
       203.0000         1.6555              0         0.3577      -144.1521      -1.606827              1
       203.5000         1.6594              0         0.3625      -143.8845      -1.461792              1
       204.0000         1.6633              0         0.3672      -143.5425       -1.24234              1
       204.5000         1.6672              0          0.372      -143.2278      -1.050201              1
       205.0000         1.6711              0         0.3764      -142.9902     -0.9351654              1
       205.5000          1.675              0         0.3802      -142.7507     -0.8182373              1
       206.0000         1.6789              0          0.384        -142.47     -0.6600952              1
       206.5000         1.6829              0         0.3878       -142.189     -0.5016479              1
       207.0000         1.6871              0         0.3915      -141.8718     -0.3070068              1
       207.5000         1.6912              0         0.3935      -141.4944     -0.0521698              1
       208.0000         1.6954              0         0.3947      -141.1216      0.1980591              1
       208.5000         1.7009              0         0.3959      -140.7903      0.4067993              1
       209.0000         1.7068              0         0.3972      -140.4592      0.6153412              1
       209.5000         1.7137              0         0.3984      -140.1936      0.7583771              1
       210.0000         1.7224              0         0.4001      -139.9402      0.8892212              1
       210.5000         1.7311              0          0.403      -139.8745      0.8323517              1
       211.0000         1.7399              0         0.4059      -139.9407      0.6435852              1
       211.5000         1.7487              0         0.4088      -140.0068      0.4549255              1
       212.0000         1.7559              0         0.4117       -140.073      0.2661743              1
       212.5000         1.7632              0         0.4145      -140.0479      0.1687164              1
       213.0000         1.7743              0          0.417      -139.9944     0.09963989              1
       213.5000         1.7912              0         0.4184      -139.9089     0.06257629              1
       214.0000         1.8101              0         0.4198      -139.6079      0.2410278              1
       214.5000         1.8311              0         0.4212      -139.3066      0.4197693              1
       215.0000         1.8482              0         0.4226      -139.0027      0.6011047              1
       215.5000         1.8642              0         0.4233      -138.6389      0.8423309              1
       216.0000         1.8799              0         0.4232      -138.2754       1.083267              1
       216.5000          1.895              0         0.4231      -138.6121      0.6240082              1
       217.0000         1.9095              0          0.423        -138.96      0.1535492              1
       217.5000         1.9235         0.0051         0.4229      -139.4412     -0.4501953              1
       218.0000         1.9366         0.0488         0.4203      -140.1155       -1.24707              1
       218.5000         1.9486         0.1241         0.4172      -140.5166      -1.770737              1
       219.0000         1.9544         0.3022         0.4142      -140.5896      -1.966293              1
       219.5000         1.9481         0.5041         0.4118      -140.1414      -1.640656              1
       220.0000         1.9399         0.6431         0.4117      -139.6931      -1.314911              1
       220.5000         1.9264         0.7404         0.4117      -139.2344     -0.9787903              1
       221.0000         1.9133         0.8851         0.4116      -138.7192     -0.5861359              1
       221.5000         1.9009         1.0218         0.4202      -138.2039     -0.1934052              1
       222.0000         1.8904         1.1296         0.4306      -137.6885      0.1994324              1
       222.5000         1.8805          1.219          0.441      -137.3123      0.4530792              1
       223.0000         1.8791         1.2607         0.4514      -137.1248      0.5180054              1
       223.5000         1.8828          1.298         0.4603      -137.6731     -0.1528473              1
       224.0000         1.8866         1.3353          0.467      -138.6211      -1.223404              1
       224.5000         1.8916         1.3583         0.4737      -139.5559      -2.280762      0.9922011
       225.0000         1.8975         1.3783         0.4804      -140.3665      -3.213928      0.9662797
       225.5000         1.8979         1.3983         0.4867      -140.9846      -3.954605      0.9457054
       226.0000         1.8844         1.4125         0.4914      -140.9871      -4.079666      0.9422315
       226.5000         1.8651         1.4162          0.496      -140.5071      -3.722214      0.9521607
       227.0000         1.8519         1.4198         0.5007      -140.0269      -3.364578       0.962095
       227.5000          1.868         1.4234         0.5054      -139.5466      -3.006836      0.9720323
       228.0000         1.9335         1.4236           0.51      -139.0146      -2.597412      0.9834052
       228.5000         1.9949         1.4223         0.5141      -138.4492      -2.154572      0.9957063
       229.0000         2.0638         1.4211          0.514      -138.6902      -2.518127      0.9856076
       229.5000         2.1301         1.4256         0.5139      -139.5295       -3.47998      0.9588894
       230.0000         2.2482          1.446         0.5138      -141.1462      -5.219238      0.9105767
       230.5000         2.4735         1.4664         0.5137      -143.3572      -7.552811      0.8457553
       231.0000         2.6452         1.4869         0.5136      -145.5583       -9.87648      0.7812089
       231.5000         2.5006         1.5079         0.5135      -145.5364      -9.977142      0.7784127
