#------------------------------------------------------------------------------
# Created by    : vladimir.rabinovich
# Created on    : 09/19/2023 17:22:24
#------------------------------------------------------------------------------
~Version Information Section
VERS.           2.0     :   CWLS log ASCII Standard - VERSION 2.0
WRAP.           NO      :   One line per depth step
~Well Information Section
#MNEM       .UNIT                                         VALUE :DESCRIPTION
#------------------------------------------------------------------------------
STRT        .FT                                             955 :START DEPTH
STOP        .FT                                            8851 :STOP DEPTH
STEP        .FT                                             0.5 :STEP      
NULL        .                                           -999.25 :NULL      
COMP        .                                SHELL OFFSHORE INC :COMPANY   
WELL        .                               OCS G08627 ST00BP00 :WELL      
FLD         .                                           WILDCAT :FIELD     
LOC         .                                                   :LOCATION  
CNTY        .                                 WEST CAMERON WEST :LOCATION  
STAT        .                                         LOUISIANA :STATE     
CTRY        .                                     UNITED STATES :COUNTRY   
SRVC        .                                                   :SERVICE COMPANY
DATE        .                             9/13/2023 11:18:15 AM :LOG DATE  
API         .                                    17701402000000 :API NUMBER
UWI         .                                    17701402000000 :UNIQUE WELL ID
XCOORD      .                                  1405165.89752093 :SURFACE X 
YCOORD      .                                  10654404.2103889 :SURFACE Y 
LAT         .                                        29.3559214 :LATITUDE  
LON         .                                       -93.7387067 :LONGITUDE 
ELEV        .FT                                             100 :ELEVATION VALUE
ELEV_TYPE   .                                                KB :ELEVATION REFERENCE TYPE
~Curve Information Section
#MNEM       .UNIT                                      API CODE :CURVE DESCRIPTION
#------------------------------------------------------------------------------
DEPT        .FT                                                 :DEPTH     
CALX        .IN                                                 :          
DRHO        .G/C3                                               :          
DT          .US/F                                               :          
GR          .GAPI                                               :          
GR_NORM     .GAPI                                               :GammaRay Normalized
ILD         .OHMM                                               :          
ILM         .OHMM                                               :          
LL          .OHMM                                               :          
NPHI        .%                                                  :          
RHOB        .G/C3                                               :          
SP          .MV                                                 :          
SP_NORM     .MV                                                 :SP Normalized
VSH_GR      .V/V                                                :Volume of Shale from GR
VSH_SP      .V/V                                                :Volume of Shale from SP
~A        DEPTH           CALX           DRHO             DT             GR        GR_NORM            ILD            ILM             LL           NPHI           RHOB             SP        SP_NORM         VSH_GR         VSH_SP
# ...
      8839.0000         10.047         0.1055         97.229        103.924       83.10315         0.8441         0.9208         1.1401        35.0607         2.3281       -47.2583       1.922028              1              1
      8839.5000        10.0828         0.1001        97.1337       103.6555       82.79951         0.8491         0.9203         1.1407        34.5626         2.3371       -46.9879       2.192429              1              1
      8840.0000        10.0578         0.0958        97.0867       102.7784       81.80766         0.8541         0.9184         1.1452        33.8275         2.3468       -46.6108       2.569527              1              1
      8840.5000         9.9016         0.0943        -999.25       102.8273       81.86296        -999.25        -999.25        -999.25        33.9164          2.358        -999.25        -999.25              1        -999.25
      8841.0000         9.6691          0.096        -999.25       105.8445       85.27489        -999.25        -999.25        -999.25        34.4011         2.3704        -999.25        -999.25              1        -999.25
      8841.5000         9.3263         0.0944        -999.25       109.0271       88.87386        -999.25        -999.25        -999.25        36.8871         2.3777        -999.25        -999.25              1        -999.25
      8842.0000         9.0688         0.0932        -999.25       112.4326       92.72491        -999.25        -999.25        -999.25        38.2385         2.3782        -999.25        -999.25              1        -999.25
      8842.5000         9.4601         0.0955        -999.25       114.3641        94.9091        -999.25        -999.25        -999.25        38.3542         2.3774        -999.25        -999.25              1        -999.25
      8843.0000         9.6376         0.0981        -999.25       113.5052       93.93784        -999.25        -999.25        -999.25        37.8915         2.3764        -999.25        -999.25              1        -999.25
      8843.5000         9.6904         0.1006        -999.25       110.5156       90.55712        -999.25        -999.25        -999.25        37.1959         2.3748        -999.25        -999.25              1        -999.25
      8844.0000         9.7049         0.1011        -999.25         108.16       87.89333        -999.25        -999.25        -999.25        35.9582         2.3618        -999.25        -999.25              1        -999.25
      8844.5000           9.54         0.1004        -999.25       106.4547       85.96493        -999.25        -999.25        -999.25        34.6254         2.3509        -999.25        -999.25              1        -999.25
      8845.0000         9.5214         0.0991        -999.25       105.7631       85.18285        -999.25        -999.25        -999.25        33.3974          2.346        -999.25        -999.25              1        -999.25
      8845.5000          9.528         0.0967        -999.25       106.0023       85.45334        -999.25        -999.25        -999.25        32.4722          2.345        -999.25        -999.25              1        -999.25
      8846.0000         9.4017         0.0904        -999.25       107.5084       87.15648        -999.25        -999.25        -999.25        33.7758         2.3506        -999.25        -999.25              1        -999.25
      8846.5000          9.838         0.0818        -999.25       109.9342       89.89964        -999.25        -999.25        -999.25        35.4092          2.357        -999.25        -999.25              1        -999.25
      8847.0000        10.1673           0.08        -999.25       110.9495       91.04778        -999.25        -999.25        -999.25         37.285         2.3505        -999.25        -999.25              1        -999.25
      8847.5000        10.3351         0.0878        -999.25       110.5864       90.63718        -999.25        -999.25        -999.25        38.4816         2.3319        -999.25        -999.25              1        -999.25
      8848.0000         10.442         0.1043        -999.25       110.9291       91.02471        -999.25        -999.25        -999.25        38.4068         2.3171        -999.25        -999.25              1        -999.25
      8848.5000        10.4997         0.1226        -999.25       112.1796       92.43882        -999.25        -999.25        -999.25        34.9126         2.3165        -999.25        -999.25              1        -999.25
      8849.0000        10.5553         0.1316        -999.25       109.6586         89.588        -999.25        -999.25        -999.25        32.3878          2.316        -999.25        -999.25              1        -999.25
      8849.5000        10.6028         0.1322        -999.25        102.296       81.26215        -999.25        -999.25        -999.25        29.1748         2.3061        -999.25        -999.25              1        -999.25
      8850.0000        10.4827         0.1245        -999.25         85.907         62.729        -999.25        -999.25        -999.25        27.5279         2.2838        -999.25        -999.25       0.632532        -999.25
      8850.5000        10.4531          0.116        -999.25        82.1499       58.48037        -999.25        -999.25        -999.25        27.3294         2.2577        -999.25        -999.25      0.5421355        -999.25
      8851.0000        10.4418         0.1089        -999.25        88.3628        65.5061        -999.25        -999.25        -999.25        27.5765         2.2449        -999.25        -999.25       0.691619        -999.25
