#------------------------------------------------------------------------------
# Created by    : vladimir.rabinovich
# Created on    : 09/19/2023 17:22:32
#------------------------------------------------------------------------------
~Version Information Section
VERS.           2.0     :   CWLS log ASCII Standard - VERSION 2.0
WRAP.           NO      :   One line per depth step
~Well Information Section
#MNEM       .UNIT                                         VALUE :DESCRIPTION
#------------------------------------------------------------------------------
STRT        .FT                                            2450 :START DEPTH
STOP        .FT                                            9560 :STOP DEPTH
STEP        .FT                                             0.5 :STEP      
NULL        .                                           -999.25 :NULL      
COMP        .                               TALOS PETROLEUM LLC :COMPANY   
WELL        .                                OCS 00301 ST00BP00 :WELL      
FLD         .                           WEST CAMERON BLOCK 0045 :FIELD     
LOC         .                                                   :LOCATION  
CNTY        .                                      WEST CAMERON :LOCATION  
STAT        .                                         LOUISIANA :STATE     
CTRY        .                                     UNITED STATES :COUNTRY   
SRVC        .                                                   :SERVICE COMPANY
DATE        .                             9/13/2023 11:18:49 AM :LOG DATE  
API         .                                    17700410870000 :API NUMBER
UWI         .                                    17700410870000 :UNIQUE WELL ID
XCOORD      .                                  1447194.98921956 :SURFACE X 
YCOORD      .                                  10757079.9124673 :SURFACE Y 
LAT         .                                        29.6390336 :LATITUDE  
LON         .                                       -93.6084245 :LONGITUDE 
ELEV        .FT                                              96 :ELEVATION VALUE
ELEV_TYPE   .                                                KB :ELEVATION REFERENCE TYPE
~Curve Information Section
#MNEM       .UNIT                                      API CODE :CURVE DESCRIPTION
#------------------------------------------------------------------------------
DEPT        .FT                                                 :DEPTH     
CNC         .%                                                  :          
DCAL        .IN                                                 :          
GR          .GAPI                                               :          
GR_NORM     .GAPI                                               :GammaRay Normalized
M0C6        .MMHO                                               :          
M2R1        .OHMM                                               :          
M2R2        .OHMM                                               :          
M2R3        .OHMM                                               :          
M2R6        .OHMM                                               :          
M2R9        .OHMM                                               :          
M2RX        .OHMM                                               :          
SP          .MV                                                 :          
SP_NORM     .MV                                                 :SP Normalized
TEN         .LB/F                                               :          
VSH_GR      .V/V                                                :Volume of Shale from GR
VSH_SP      .V/V                                                :Volume of Shale from SP
ZCOR        .G/CC                                               :          
ZDEN        .G/CC                                               :          
~A        DEPTH            CNC           DCAL             GR        GR_NORM           M0C6           M2R1           M2R2           M2R3           M2R6           M2R9           M2RX             SP        SP_NORM            TEN         VSH_GR         VSH_SP           ZCOR           ZDEN
# ...
      9534.0000        -999.25        -999.25        -999.25        -999.25       1268.677           0.88          0.829          0.818          0.812          0.816          0.813        -22.793       -13.2692       1034.113        -999.25      0.7958584        -999.25          1.961
      9534.5000        -999.25        -999.25        -999.25        -999.25       1309.146          0.788          0.734          0.723          0.719          0.722          0.719        -22.884       -13.3602       1050.893        -999.25      0.7944584        -999.25          1.998
      9535.0000        -999.25        -999.25        -999.25        -999.25       1345.943          0.755          0.696          0.684          0.681          0.683          0.681        -23.647       -14.1232        1054.66        -999.25        0.78272        -999.25        -999.25
      9535.5000        -999.25        -999.25        -999.25        -999.25       1375.926          0.757          0.689          0.674          0.672          0.674          0.672        -24.841       -15.3172       1052.978        -999.25      0.7643508        -999.25        -999.25
      9536.0000        -999.25        -999.25        -999.25        -999.25       1396.997          0.763          0.689          0.672          0.672          0.674          0.671        -26.017       -16.4932         1049.6        -999.25      0.7462584        -999.25        -999.25
      9536.5000        -999.25        -999.25        -999.25        -999.25       1408.538          0.765          0.689           0.67          0.673          0.675          0.672        -27.253       -17.7292       1043.876        -999.25      0.7272431        -999.25        -999.25
      9537.0000        -999.25        -999.25        -999.25        -999.25       1411.505          0.763           0.69          0.672          0.678          0.679          0.675        -28.871       -19.3472       1046.704        -999.25      0.7023507        -999.25        -999.25
      9537.5000        -999.25        -999.25        -999.25        -999.25       1408.118          0.765          0.696           0.68          0.687          0.689          0.684        -30.631       -21.1072       1067.023        -999.25      0.6752738        -999.25        -999.25
      9538.0000        -999.25        -999.25        -999.25        -999.25       1401.324          0.776           0.71          0.696          0.704          0.705          0.698         -32.15       -22.6262       1088.106        -999.25      0.6519046        -999.25        -999.25
      9538.5000        -999.25        -999.25        -999.25        -999.25       1394.169          0.793          0.728          0.715          0.724          0.723          0.715        -33.664       -24.1402        1097.77        -999.25      0.6286123        -999.25        -999.25
      9539.0000        -999.25        -999.25        -999.25        -999.25       1389.243           0.81          0.745          0.731          0.739          0.737          0.727        -35.499       -25.9752        1099.85        -999.25      0.6003816        -999.25        -999.25
      9539.5000        -999.25        -999.25        -999.25        -999.25       1388.393          0.823          0.755           0.74          0.746          0.743          0.731        -37.617       -28.0932        1103.73        -999.25      0.5677969        -999.25        -999.25
      9540.0000        -999.25        -999.25        -999.25        -999.25        1392.55          0.833          0.762          0.744          0.747          0.742          0.728        -39.967       -30.4432       1119.061        -999.25      0.5316431        -999.25        -999.25
      9540.5000        -999.25        -999.25        -999.25        -999.25       1401.899          0.841          0.763          0.743          0.743          0.737          0.722        -42.538       -33.0142       1151.275        -999.25      0.4920893        -999.25        -999.25
      9541.0000        -999.25        -999.25        -999.25        -999.25       1415.951           0.84          0.757          0.734          0.732          0.725          0.708        -45.186       -35.6622       1191.294        -999.25      0.4513507        -999.25        -999.25
      9541.5000        -999.25        -999.25        -999.25        -999.25       1433.888           0.83          0.745           0.72          0.715          0.708          0.691         -47.67       -38.1462       1224.593        -999.25      0.4131354        -999.25        -999.25
      9542.0000        -999.25        -999.25        -999.25        -999.25       1454.648           0.82          0.733          0.706            0.7          0.692          0.676        -49.437       -39.9132        1235.05        -999.25      0.3859508        -999.25        -999.25
      9542.5000        -999.25        -999.25        -999.25        -999.25       1477.184          0.811          0.722          0.694          0.687          0.679          0.663        -49.927       -40.4032       1217.352        -999.25      0.3784123        -999.25        -999.25
      9543.0000        -999.25        -999.25        -999.25        -999.25       1500.478          0.797          0.709           0.68          0.672          0.665           0.65        -49.317       -39.7932       1202.084        -999.25      0.3877969        -999.25        -999.25
      9543.5000        -999.25        -999.25        -999.25        -999.25       1523.643          0.777          0.691          0.662          0.655          0.647          0.635        -48.021       -38.4972       1223.777        -999.25      0.4077354        -999.25        -999.25
      9544.0000        -999.25        -999.25        -999.25        -999.25       1545.891          0.753           0.67          0.642          0.635          0.628          0.618        -45.872       -36.3482       1265.101        -999.25      0.4407969        -999.25        -999.25
      9544.5000        -999.25        -999.25        -999.25        -999.25       1566.535          0.731          0.651          0.623          0.617           0.61          0.602        -44.058       -34.5342       1297.222        -999.25      0.4687046        -999.25        -999.25
      9545.0000        -999.25        -999.25        -999.25        -999.25       1584.985          0.726          0.644          0.615          0.609          0.603          0.597        -44.127       -34.6032       1316.808        -999.25      0.4676431        -999.25        -999.25
      9545.5000        -999.25        -999.25        -999.25        -999.25       1600.712          0.745          0.655          0.625          0.619          0.614           0.61        -44.783       -35.2592       1327.235        -999.25      0.4575508        -999.25        -999.25
      9546.0000        -999.25        -999.25        -999.25        -999.25       1613.307          0.768          0.669          0.638          0.633          0.628          0.626        -44.056       -34.5322       1331.464        -999.25      0.4687354        -999.25        -999.25
      9546.5000        -999.25        -999.25        -999.25        -999.25       1622.462          0.759           0.66           0.63          0.627          0.622          0.624        -42.611       -33.0872       1339.276        -999.25      0.4909661        -999.25        -999.25
      9547.0000        -999.25        -999.25        -999.25        -999.25       1628.096          0.727          0.634          0.608          0.609          0.604          0.609        -40.697       -31.1732         1354.5        -999.25      0.5204123        -999.25        -999.25
      9547.5000        -999.25        -999.25        -999.25        -999.25       1630.344          0.701          0.615          0.593          0.596          0.593            0.6         -35.14       -25.6162       1371.113        -999.25      0.6059046        -999.25        -999.25
