#------------------------------------------------------------------------------
# Created by    : vladimir.rabinovich
# Created on    : 09/19/2023 17:21:07
#------------------------------------------------------------------------------
~Version Information Section
VERS.           2.0     :   CWLS log ASCII Standard - VERSION 2.0
WRAP.           NO      :   One line per depth step
~Well Information Section
#MNEM       .UNIT                                         VALUE :DESCRIPTION
#------------------------------------------------------------------------------
STRT        .FT                                            3895 :START DEPTH
STOP        .FT                                         10595.5 :STOP DEPTH
STEP        .FT                                             0.5 :STEP      
NULL        .                                           -999.25 :NULL      
COMP        .                               TALOS PETROLEUM LLC :COMPANY   
WELL        .                                OCS 00300 ST00BP00 :WELL      
FLD         .                           WEST CAMERON BLOCK 0045 :FIELD     
LOC         .                                                   :LOCATION  
CNTY        .                                      WEST CAMERON :LOCATION  
STAT        .                                         LOUISIANA :STATE     
CTRY        .                                     UNITED STATES :COUNTRY   
SRVC        .                                                   :SERVICE COMPANY
DATE        .                             9/13/2023 11:18:36 AM :LOG DATE  
API         .                                    17700410070000 :API NUMBER
UWI         .                                    17700410070000 :UNIQUE WELL ID
XCOORD      .                                  1453771.49108141 :SURFACE X 
YCOORD      .                                  10773222.7644816 :SURFACE Y 
LAT         .                                        29.6835328 :LATITUDE  
LON         .                                       -93.5879752 :LONGITUDE 
ELEV        .FT                                             100 :ELEVATION VALUE
ELEV_TYPE   .                                                KB :ELEVATION REFERENCE TYPE
~Curve Information Section
#MNEM       .UNIT                                      API CODE :CURVE DESCRIPTION
#------------------------------------------------------------------------------
DEPT        .FT                                                 :DEPTH     
ATR         .OHMM                                               :          
CATR        .MMHO                                               :          
DCAL        .IN                                                 :          
DRHB        .G/C3                                               :          
GR          .GAPI                                               :          
GR_NORM     .GAPI                                               :GammaRay Normalized
PSR         .OHMM                                               :          
RHOB        .G/C3                                               :          
ROP5        .F/HR                                               :          
TNPH        .%                                                  :          
VSH_GR      .V/V                                                :Volume of Shale from GR
~A        DEPTH            ATR           CATR           DCAL           DRHB             GR        GR_NORM            PSR           RHOB           ROP5           TNPH         VSH_GR
# ...
      7922.5000           0.36       2777.777           1.53            0.1          61.48       47.86555           0.44           2.18          33.34             36      0.3162884
      7923.0000           0.38       2631.578            1.6           0.11          56.96       43.84895           0.46            2.2          33.34             36      0.2308288
      7923.5000           0.47       2127.656           1.71           0.12          52.08       39.51242            0.5           2.15          35.23             35      0.1385621
      7924.0000           0.57       1754.385           1.82           0.14        53.3799       40.66748           0.61           2.02           33.9             35      0.1631378
      7924.5000           0.78       1282.051           1.86           0.17          59.31       45.93724           1.13           1.87          26.36             42      0.2752604
      7925.0000           1.04       961.5381           2.01           0.19          65.75       51.66005           1.39           1.79          26.36             48      0.3970223
      7925.5000           1.03        970.873           1.98           0.18        70.3799       55.77435           1.09           1.76          22.25             54      0.4845606
      7926.0000           1.01       990.0986           2.18           0.17          70.58       55.95217           0.86           1.78          18.95             54       0.488344
      7926.5000           0.97       1030.928            2.1           0.17        71.9099       57.13393           0.85            1.8          16.41             54      0.5134879
      7927.0000           0.94       1063.828           1.99           0.19        73.1299       58.21813           0.97           1.86          14.81             51       0.536556
      7927.5000            0.9       1111.109           1.68           0.19          74.98       59.86209           0.77           1.95          13.51             44      0.5715338
      7928.0000           0.85       1176.469           1.31           0.28          74.49       59.42674           0.97           2.13          11.92             39      0.5622711
      7928.5000           0.84       1190.475           1.02           0.34        70.3099       55.71208           1.02           2.27          11.92             37      0.4832358
      7929.0000           0.71       1408.449           1.07           0.28          65.21       51.18016           0.95            2.3          11.67             35      0.3868119
      7929.5000           0.54       1851.852            1.1           0.17          63.31       49.49179           0.69           2.26          12.09             34      0.3508892
      7930.0000           0.44       2272.727            1.2           0.09        66.5699       52.38863           0.43           2.24          12.09             33       0.412524
      7930.5000           0.44       2272.727           1.19           0.09          69.22       54.74356           0.43           2.24          13.02             32       0.462629
      7931.0000           0.46        2173.91           1.29           0.09        68.6799       54.26366           0.48           2.23          14.06             31      0.4524184
      7931.5000           0.46        2173.91           1.38            0.1        64.8899       50.89579           0.49            2.2          14.37             31      0.3807615
      7932.0000           0.46        2173.91           1.52           0.11          65.11       51.09131           0.47           2.12          16.32             32      0.3849216
      7932.5000           0.51       1960.783           1.79           0.11        69.1599       54.69015           0.63              2          18.65             34      0.4614925
      7933.0000           0.61       1639.344           1.97           0.18          74.49       59.42674           0.66           1.92          22.25             36      0.5622711
      7933.5000           0.67       1492.537           2.04            0.2        76.4299       61.15053           0.57           1.86          24.59             40      0.5989474
      7934.0000           0.67       1492.537           1.98           0.21          74.99       59.87107           0.63           1.86          26.91             45       0.571725
      7934.5000           0.69       1449.275           2.13           0.16        71.5099       56.77843           0.69           1.86          28.39             51       0.505924
      7935.0000           0.72       1388.889           2.27           0.15        67.9399       53.60609           0.71           1.87          26.95             50      0.4384274
      7935.5000           0.77       1298.701           2.48           0.15        68.4199       54.03258           0.72           1.87          25.21             50      0.4475017
      7936.0000           0.84       1190.475           2.48           0.15          70.45       55.83662           0.84           1.87          16.97             47      0.4858856
      7936.5000           0.86       1162.789           2.52           0.14          71.11       56.42308           0.83           1.86          16.97             44      0.4983633
      7937.0000           0.87       1149.424           2.47           0.14           71.6       56.85855           0.81           1.84          12.35             47      0.5076287
      7937.5000           0.88       1136.363            2.7            0.1        69.4099       54.91239            0.8           1.78          12.35             52      0.4662211
      7938.0000            0.9       1111.109           2.82           0.08        70.5499       55.92546           0.82           1.74          10.06             54      0.4877758
      7938.5000            0.9       1111.109              3           0.06        70.9399       56.27197           0.85            1.7           9.45             52      0.4951482
      7939.0000           0.89       1123.594           2.87           0.05        75.5499       60.36856           0.84           1.72           9.18             50      0.5823097
      7939.5000           0.85       1176.469           2.75           0.03          81.71        65.8427           0.85           1.73           8.98             51      0.6987808
      7940.0000           0.83       1204.818            1.9           0.05        84.3199       68.16194           0.81           1.86           9.44             50      0.7481264
      7940.5000           0.82       1219.512           2.19           0.04        86.0099       69.66377           0.74           1.68           9.79             50      0.7800803
      7941.0000            0.8           1250           1.72           0.02        84.5299       68.34848           0.74           1.52           9.75             51      0.7520953
      7941.5000            0.8           1250           1.76          -0.04          86.71       70.28592           0.77           1.44          12.94             54      0.7933174
      7942.0000           0.81       1234.566           2.11          -0.09        87.0199        70.5613           0.79           1.63             16             53      0.7991766
      7942.5000           0.82       1219.512           0.72          -0.04          87.75       71.21002            0.8           2.06          16.39             54      0.8129792
      7943.0000           0.82       1219.512           0.33           0.15          85.48       69.19287           0.79           2.44          21.25             53      0.7700611
      7943.5000            0.8           1250           0.34           0.29        84.2999       68.14408           0.78           2.48          22.84             53      0.7477464
      7944.0000           0.74        1351.35           0.23           0.31          83.35       67.29998           0.71            2.4          23.68             54      0.7297868
      7944.5000           0.67       1492.537           0.23           0.19          81.23       65.41608           0.71           2.21          24.52             59      0.6897038
