#------------------------------------------------------------------------------
# Created by    : vladimir.rabinovich
# Created on    : 09/19/2023 17:20:47
#------------------------------------------------------------------------------
~Version Information Section
VERS.           2.0     :   CWLS log ASCII Standard - VERSION 2.0
WRAP.           NO      :   One line per depth step
~Well Information Section
#MNEM       .UNIT                                         VALUE :DESCRIPTION
#------------------------------------------------------------------------------
STRT        .FT                                            2030 :START DEPTH
STOP        .FT                                            9342 :STOP DEPTH
STEP        .FT                                             0.5 :STEP      
NULL        .                                           -999.25 :NULL      
COMP        .                                      SHELL OIL CO :COMPANY   
WELL        .                               OCS G00950 ST00BP00 :WELL      
FLD         .                           EAST CAMERON BLOCK 0193 :FIELD     
LOC         .                                                   :LOCATION  
CNTY        .                                      EAST CAMERON :LOCATION  
STAT        .                                         LOUISIANA :STATE     
CTRY        .                                     UNITED STATES :COUNTRY   
SRVC        .                                                   :SERVICE COMPANY
DATE        .                             9/13/2023 11:18:15 AM :LOG DATE  
API         .                                    17703004920000 :API NUMBER
UWI         .                                    17703004920000 :UNIQUE WELL ID
XCOORD      .                                  1684363.85071557 :SURFACE X 
YCOORD      .                                  10458597.1936422 :SURFACE Y 
LAT         .                                        28.8191951 :LATITUDE  
LON         .                                       -92.8627139 :LONGITUDE 
ELEV        .FT                                              75 :ELEVATION VALUE
ELEV_TYPE   .                                                KB :ELEVATION REFERENCE TYPE
~Curve Information Section
#MNEM       .UNIT                                      API CODE :CURVE DESCRIPTION
#------------------------------------------------------------------------------
DEPT        .FT                                                 :DEPTH     
ASN         .OHMM                                               :          
CILM        .MMHO                                               :          
ILM         .OHMM                                               :          
LN          .OHMM                                               :          
SP          .MV                                                 :          
SP_NORM     .MV                                                 :SP Normalized
VSH_SP      .V/V                                                :Volume of Shale from SP
~A        DEPTH            ASN           CILM            ILM             LN             SP        SP_NORM         VSH_SP
      2030.0000         0.9487       321.6582         0.6239        -999.25       -54.6356        -7.9066       0.802335
      2030.5000         0.9565       610.9902         0.6355        -999.25       -59.3881       -12.6591      0.6835225
      2031.0000         0.9796       900.3223         0.6471        -999.25       -62.5613       -15.8323      0.6041925
      2031.5000         1.0058       1189.654         0.6585        -999.25       -64.0508       -17.3218       0.566955
      2032.0000         1.0312       1478.986         0.6699        -999.25       -65.1575       -18.4285      0.5392875
      2032.5000         1.0528       1768.318         0.6813        -999.25       -66.0267       -17.6437      0.5589075
      2033.0000         1.0697       1759.768         0.6927        -999.25        -66.896       -15.9392        0.60152
      2033.5000         1.0726       1618.455         0.7041        -999.25       -66.4857       -12.9551      0.6761225
      2034.0000         1.0439       1538.811         0.7151        -999.25       -65.3256        -9.2212        0.76947
      2034.5000         1.0172       1472.326         0.7256        -999.25       -65.2159        -6.5378       0.836555
      2035.0000         0.9813       1478.648         0.7361        -999.25       -66.7341        -5.4822       0.862945
      2035.5000         0.9677       1512.768         0.7467        -999.25       -72.1077         -8.282        0.79295
      2036.0000         0.9576       1546.887         0.7572        -999.25       -75.7313        -9.3318       0.766705
      2036.5000         0.9547       1581.928         0.7677        -999.25       -78.7029        -9.7296        0.75676
      2037.0000         0.9589       1617.025         0.7782        -999.25       -82.3114       -10.7643      0.7308925
      2037.5000         0.9668       1645.813         0.7886        -999.25       -88.4451       -14.3242       0.641895
      2038.0000         0.9746       1642.854         0.7854        -999.25       -71.9524         4.6594              1
      2038.5000         0.9803       1628.393         0.7823        -999.25       -69.9022         5.6801              1
      2039.0000          0.986       1613.932         0.7791        -999.25       -68.6696         5.8832              1
      2039.5000         0.9917       1622.172         0.7759        -999.25        -71.917         1.6063              1
      2040.0000         0.9973       1634.451         0.7727        -999.25       -76.9961        -4.5023      0.8874425
      2040.5000         0.9993        1646.73         0.7695        -999.25       -77.9927        -6.5284        0.83679
      2041.0000          1.001       1659.002         0.7599        -999.25        -78.434        -7.9993      0.8000175
      2041.5000         0.9949       1681.563         0.7493        -999.25       -78.8982         -9.493       0.762675
      2042.0000         0.9884       1723.332         0.7387        -999.25       -79.4761       -11.1004        0.72249
      2042.5000         0.9781         1765.1         0.7281        -999.25       -80.0541       -12.7079      0.6823025
      2043.0000          0.967       1808.197         0.7175        -999.25       -80.8092       -14.4925      0.6376875
      2043.5000         0.9558       1852.385         0.7069        -999.25       -82.1017       -16.8145      0.5796375
      2044.0000         0.9279       1898.428         0.6963        -999.25       -83.1636        -18.906        0.52735
      2044.5000         0.8925         1956.9         0.6897        -999.25       -84.1439       -20.9158       0.477105
      2045.0000         0.8574       2018.344         0.7019        -999.25       -85.0393       -22.8407      0.4289825
      2045.5000         0.8226       2075.637          0.714        -999.25       -82.2219       -20.5632        0.48592
      2046.0000         0.7811       2106.898         0.7261        -999.25       -78.6194       -17.0079      0.5748025
      2046.5000          0.771       2074.836         0.7427        -999.25       -71.3601        -9.7958       0.755105
      2047.0000         0.7925       2039.494         0.7666        -999.25        -70.238         -8.721       0.781975
      2047.5000         0.8151        2002.18         0.7905        -999.25       -72.5675       -11.0977      0.7225575
      2048.0000         0.8379       1964.865         0.8145        -999.25       -74.9045       -13.4819      0.6629525
      2048.5000         0.8611       1930.893         0.8384        -999.25       -76.6257       -15.2504        0.61874
      2049.0000         0.8851       1910.555         0.8563        -999.25       -78.9425       -17.6144        0.55964
      2049.5000         0.9109       1969.006         0.8361        -999.25       -81.2062       -19.9253      0.5018675
      2050.0000         0.8925       2123.996         0.8159        -999.25        -82.632       -21.3983      0.4650425
      2050.5000         0.8125       2206.094         0.7957        -999.25       -84.0579       -22.8715      0.4282125
      2051.0000         0.7723        2297.98         0.7756        -999.25       -85.5925       -24.4533      0.3886675
      2051.5000         0.7493       2349.738         0.7568        -999.25       -87.4276       -26.3356        0.34161
      2052.0000         0.7287       2394.137         0.7428        -999.25       -89.6954       -28.6506       0.283735
      2052.5000         0.7212       2430.496         0.7288        -999.25       -87.1694       -26.1719      0.3457025
      2053.0000         0.7153       2440.473         0.7147        -999.25       -83.7621       -22.8118       0.429705
      2053.5000         0.7351       2408.402         0.7007        -999.25       -82.0726       -21.1695      0.4707625
      2054.0000         0.7561       2374.891         0.6867        -999.25       -83.8047       -22.9488        0.42628
      2054.5000         0.7771       2340.398         0.6726        -999.25       -86.1266        -25.318        0.36705
      2055.0000         0.7653       2329.004         0.6612        -999.25       -88.1595       -27.3981      0.3150475
      2055.5000         0.7373       2378.996          0.664        -999.25       -87.4082        -26.694        0.33265
      2056.0000           0.72       2428.988         0.6667        -999.25       -86.6569       -25.9899      0.3502525
      2056.5000         0.7173       2455.906         0.6695        -999.25       -85.9055       -25.2858       0.367855
      2057.0000         0.7281       2425.816         0.6723        -999.25       -85.1542       -24.5817      0.3854575
      2057.5000          0.739       2323.672         0.6771        -999.25       -84.4908       -23.9655      0.4008625
      2058.0000         0.7498       2168.703         0.6853        -999.25       -83.8406       -23.3625      0.4159375
      2058.5000         0.7619       2093.152         0.6934        -999.25       -83.1906       -22.7598       0.431005
      2059.0000         0.7758       2041.428         0.7015        -999.25       -82.5403       -22.1567      0.4460825
      2059.5000         0.7888       1992.246         0.7096        -999.25       -82.1244        -21.788         0.4553
      2060.0000         0.7992       1957.498         0.7132        -999.25       -82.5249       -22.2357      0.4441075
      2060.5000         0.7914       1957.969         0.6974        -999.25       -84.2865       -24.0446       0.398885
      2061.0000         0.7795       2023.385         0.6817        -999.25       -86.1224       -25.9277      0.3518075
      2061.5000         0.7676       2111.441          0.666        -999.25       -87.7682       -27.6207      0.3094825
      2062.0000         0.7508       2464.379         0.6503        -999.25       -88.4523        -28.352         0.2912
      2062.5000          0.728       2547.645         0.6346        -999.25       -89.1362       -29.0832        0.27292
      2063.0000         0.7043        2598.48         0.6191        -999.25       -89.7859       -29.7801      0.2554975
