#------------------------------------------------------------------------------
# Created by    : vladimir.rabinovich
# Created on    : 09/19/2023 17:21:57
#------------------------------------------------------------------------------
~Version Information Section
VERS.           2.0     :   CWLS log ASCII Standard - VERSION 2.0
WRAP.           NO      :   One line per depth step
~Well Information Section
#MNEM       .UNIT                                         VALUE :DESCRIPTION
#------------------------------------------------------------------------------
STRT        .FT                                             570 :START DEPTH
STOP        .FT                                           10083 :STOP DEPTH
STEP        .FT                                             0.5 :STEP      
NULL        .                                           -999.25 :NULL      
COMP        .                                BP EXPLORATION INC :COMPANY   
WELL        .                               OCS G10548 ST00BP00 :WELL      
FLD         .                                           WILDCAT :FIELD     
LOC         .                                                   :LOCATION  
CNTY        .                                      WEST CAMERON :LOCATION  
STAT        .                                         LOUISIANA :STATE     
CTRY        .                                     UNITED STATES :COUNTRY   
SRVC        .                                                   :SERVICE COMPANY
DATE        .                             9/13/2023 11:18:09 AM :LOG DATE  
API         .                                    17700408010000 :API NUMBER
UWI         .                                    17700408010000 :UNIQUE WELL ID
XCOORD      .                                  1469734.01149431 :SURFACE X 
YCOORD      .                                  10675810.5973196 :SURFACE Y 
LAT         .                                        29.4157778 :LATITUDE  
LON         .                                        -93.536275 :LONGITUDE 
ELEV        .FT                                              80 :ELEVATION VALUE
ELEV_TYPE   .                                                KB :ELEVATION REFERENCE TYPE
~Curve Information Section
#MNEM       .UNIT                                      API CODE :CURVE DESCRIPTION
#------------------------------------------------------------------------------
DEPT        .FT                                                 :DEPTH     
CALI        .IN                                                 :          
DPHI        .%                                                  :          
GR          .GAPI                                               :          
GR_1        .GAPI                                               :          
GR_NORM     .GAPI                                               :GammaRay Normalized
ILD         .OHMM                                               :          
ILM         .OHMM                                               :          
NPHI        .%                                                  :          
SFL         .OHMM                                               :          
SP          .MV                                                 :          
SP_NORM     .MV                                                 :SP Normalized
VSH_GR      .V/V                                                :Volume of Shale from GR
VSH_SP      .V/V                                                :Volume of Shale from SP
~A        DEPTH           CALI           DPHI             GR           GR_1        GR_NORM            ILD            ILM           NPHI            SFL             SP        SP_NORM         VSH_GR         VSH_SP
# ...
      1862.0000        -999.25        -999.25        31.9704        -999.25       40.41277         0.4331         0.5017        -999.25         0.5521      -117.3571       -20.2142      0.1577185     0.08929005
      1862.5000        -999.25        -999.25        31.2842        -999.25       39.59525         0.4161         0.4955        -999.25         0.5488      -117.4536       -20.3107      0.1403244     0.08446503
      1863.0000        -999.25        -999.25        31.3373        -999.25       39.65113         0.4061           0.49        -999.25         0.5508      -117.6599        -20.517      0.1415133     0.07414999
      1863.5000        -999.25        -999.25        31.7217        -999.25       40.09852         0.3992         0.4861        -999.25         0.5544      -117.9388       -20.7959      0.1510323     0.06020498
      1864.0000        -999.25        -999.25        32.1233        -999.25       40.56612         0.3938         0.4832        -999.25         0.5595      -118.3372       -21.1943      0.1609812     0.04028501
      1864.5000        -999.25        -999.25        31.6799        -999.25       40.03555           0.39         0.4803        -999.25          0.567      -118.6749        -21.532      0.1496926     0.02340002
      1865.0000        -999.25        -999.25        29.9236        -999.25       37.95383         0.3877         0.4771        -999.25         0.5772       -118.931       -21.7881      0.1054006     0.01059504
      1865.5000        -999.25        -999.25        28.3962        -999.25       36.14264         0.3877         0.4746        -999.25         0.5847       -119.085       -21.9421     0.06686466    0.002894974
      1866.0000        -999.25        -999.25        27.1909        -999.25       34.71186         0.3886         0.4733        -999.25         0.5916      -119.1102       -21.9673     0.03642257    0.001634979
      1866.5000        -999.25        -999.25        26.3943        -999.25       33.76391         0.3903          0.473        -999.25          0.591      -118.9551       -21.8122     0.01625345    0.009389972
      1867.0000        -999.25        -999.25        26.4047        -999.25       33.76946         0.3931         0.4747        -999.25         0.5899      -118.4634       -21.3205     0.01637146     0.03397503
      1867.5000        -999.25        -999.25        28.6195        -999.25       36.37915         0.3999         0.4795        -999.25         0.5793      -117.4816       -20.3387      0.0718969     0.08306503
      1868.0000        -999.25        -999.25        33.9438        -999.25       42.66249         0.4131         0.4902        -999.25         0.5709      -116.3055       -19.1626      0.2055849        0.14187
      1868.5000        -999.25        -999.25        40.1839        -999.25       50.02762         0.4274         0.5064        -999.25         0.5648      -115.0884       -17.9455      0.3622898       0.202725
      1869.0000        -999.25        -999.25        44.4495        -999.25        55.0601         0.4435         0.5333        -999.25         0.5742        -113.73       -16.5871      0.4693639      0.2706451
      1869.5000        -999.25        -999.25        46.9881        -999.25       58.05244         0.4607         0.5608        -999.25         0.5837      -112.5846       -15.4417      0.5330306       0.327915
      1870.0000        -999.25        -999.25        44.3427        -999.25       54.92034         0.4812         0.5704        -999.25         0.6049      -112.0231       -14.8802      0.4663903        0.35599
      1870.5000        -999.25        -999.25        42.0693        -999.25       52.22784         0.5056         0.5766        -999.25         0.6308      -111.6967       -14.5538      0.4091029        0.37231
      1871.0000        -999.25        -999.25        41.6432        -999.25        51.7176         0.5378         0.5859        -999.25         0.6587      -111.7273       -14.5844      0.3982468        0.37078
      1871.5000        -999.25        -999.25        42.5339        -999.25       52.76313         0.5774         0.6004        -999.25         0.6629      -111.6571       -14.5142      0.4204921        0.37429
      1872.0000        -999.25        -999.25        48.0045        -999.25       59.21918         0.6046         0.6179        -999.25         0.6197      -110.7809        -13.638      0.5578549         0.4181
      1872.5000        -999.25        -999.25        56.5408        -999.25       69.29702          0.624         0.6351        -999.25         0.5964      -108.6274       -11.4845       0.772277       0.525775
      1873.0000        -999.25        -999.25        68.1511        -999.25       83.00657         0.6413         0.6499        -999.25         0.6097      -106.3114        -9.1685              1       0.641575
      1873.5000        -999.25        -999.25        73.3959        -999.25       89.19586         0.6603         0.6653        -999.25         0.6389      -104.6799         -7.537              1        0.72315
      1874.0000        -999.25        -999.25        75.3523        -999.25        91.5004         0.6794         0.6787        -999.25          0.643      -103.3833        -6.2404              1        0.78798
      1874.5000        -999.25        -999.25        75.1094        -999.25       91.20659         0.6931         0.6902        -999.25         0.6154      -102.5946        -5.4517              1       0.827415
      1875.0000        -999.25        -999.25        73.6139        -999.25       89.43296         0.7025          0.699        -999.25         0.5981      -102.4313        -5.2884              1        0.83558
      1875.5000        -999.25        -999.25        72.4453        -999.25       88.04567         0.7049         0.7071        -999.25         0.6038      -102.7179         -5.575              1        0.82125
      1876.0000        -999.25        -999.25        67.8156        -999.25       82.56933         0.6964         0.7096        -999.25         0.6472      -104.0519         -6.909              1        0.75455
      1876.5000        -999.25        -999.25        61.0114        -999.25       74.52419         0.6788         0.7042        -999.25         0.6984       -105.907        -8.7641      0.8834933       0.661795
      1877.0000        -999.25        -999.25        56.7806        -999.25       69.51913         0.6583         0.6946        -999.25         0.7439      -107.3309        -10.188      0.7770029         0.5906
      1877.5000        -999.25        -999.25        54.2728        -999.25       66.54958         0.6346         0.6753        -999.25         0.7789      -108.4871       -11.3442      0.7138209        0.53279
      1878.0000        -999.25        -999.25         53.322        -999.25       65.41959         0.6038          0.658        -999.25         0.7778      -109.3468       -12.2039      0.6897784       0.489805
      1878.5000        -999.25        -999.25        54.3781        -999.25        66.6604         0.5692         0.6426        -999.25           0.74      -109.6567       -12.5138      0.7161787        0.47431
      1879.0000        -999.25        -999.25         55.879        -999.25        68.4268         0.5416         0.6279        -999.25         0.7063      -109.4592       -12.3163      0.7537618       0.484185
      1879.5000        -999.25        -999.25        56.1382        -999.25       68.72617         0.5289         0.6172        -999.25         0.6933      -109.0978       -11.9549      0.7601314       0.502255
      1880.0000        -999.25        -999.25         52.131        -999.25       63.98537         0.5239         0.6109        -999.25         0.7041      -108.5576       -11.4147      0.6592632       0.529265
      1880.5000        -999.25        -999.25        50.4989        -999.25       62.05037         0.5245         0.6109        -999.25         0.7164      -107.8538       -10.7109       0.618093       0.564455
