#------------------------------------------------------------------------------
# Created by    : vladimir.rabinovich
# Created on    : 09/19/2023 17:20:43
#------------------------------------------------------------------------------
~Version Information Section
VERS.           2.0     :   CWLS log ASCII Standard - VERSION 2.0
WRAP.           NO      :   One line per depth step
~Well Information Section
#MNEM       .UNIT                                         VALUE :DESCRIPTION
#------------------------------------------------------------------------------
STRT        .FT                                            2986 :START DEPTH
STOP        .FT                                           10006 :STOP DEPTH
STEP        .FT                                             0.5 :STEP      
NULL        .                                           -999.25 :NULL      
COMP        .                                        CONOCO INC :COMPANY   
WELL        .                                OCS 00764 ST00BP00 :WELL      
FLD         .                           WEST CAMERON BLOCK 0192 :FIELD     
LOC         .                                                   :LOCATION  
CNTY        .                                      WEST CAMERON :LOCATION  
STAT        .                                         LOUISIANA :STATE     
CTRY        .                                     UNITED STATES :COUNTRY   
SRVC        .                                                   :SERVICE COMPANY
DATE        .                             9/13/2023 11:18:18 AM :LOG DATE  
API         .                                    17700003670000 :API NUMBER
UWI         .                                    17700003670000 :UNIQUE WELL ID
XCOORD      .                                  1596137.97932418 :SURFACE X 
YCOORD      .                                  10614860.5046116 :SURFACE Y 
LAT         .                                         29.249106 :LATITUDE  
LON         .                                        -93.138896 :LONGITUDE 
ELEV        .FT                                              84 :ELEVATION VALUE
ELEV_TYPE   .                                                KB :ELEVATION REFERENCE TYPE
~Curve Information Section
#MNEM       .UNIT                                      API CODE :CURVE DESCRIPTION
#------------------------------------------------------------------------------
DEPT        .FT                                                 :DEPTH     
ASN         .OHMM                                               :          
CALI        .IN                                                 :          
CALI_1      .IN                                                 :          
DRHO        .G/C3                                               :          
DT          .US/F                                               :          
GR          .GAPI                                               :          
ILD         .OHMM                                               :          
RHOB        .G/C3                                               :          
SP          .MV                                                 :          
SP_NORM     .MV                                                 :SP Normalized
VSH_SP      .V/V                                                :Volume of Shale from SP
~A        DEPTH            ASN           CALI         CALI_1           DRHO             DT             GR            ILD           RHOB             SP        SP_NORM         VSH_SP
# ...
      9556.0000         0.5774        10.4243        10.4456         0.0033         97.702        31.6289         0.4153         2.1862       -51.9611      -10.20286      0.2542853
      9556.5000          0.577        10.4827        10.4647         0.0071         98.483        32.6627         0.4027          2.189       -51.9615      -10.20326      0.2542492
      9557.0000         0.5796        10.5352        10.4893         0.0122        98.1388        33.9206         0.3923         2.2075       -51.9592      -10.20096       0.254458
      9557.5000         0.5861        10.5824        10.5265         0.0207        96.7421        38.0912         0.4059         2.2291       -51.9568      -10.19856      0.2546765
      9558.0000         0.5936        10.7073        10.5638         0.0293        95.1552        41.7704         0.4231         2.2481       -51.9335      -10.17526      0.2567947
      9558.5000         0.6041        11.0655        10.6118         0.0348        94.7267        47.2264         0.4502         2.2654       -51.8936      -10.13536      0.2604218
      9559.0000         0.6213        11.2881        10.6921         0.0347        94.7142        59.0699         0.4812         2.2915       -51.7145      -9.956261      0.2767036
      9559.5000         0.6454        11.3166        10.7742         0.0379        94.7556        61.5582          0.526         2.3225       -51.3712      -9.612961      0.3079126
      9560.0000         0.6766        11.0748        10.8883         0.0297        94.6249        62.0692          0.583         2.3577       -50.9313      -9.173061      0.3479035
      9560.5000         0.7316        11.2173         10.996         0.0328        93.3538        59.9937         0.6501         2.3505       -50.0764      -8.318161      0.4256217
      9561.0000         0.8307        11.3873        11.0935         0.0199        93.1711        58.2288         0.7125         2.3213       -48.7253       -6.96706      0.5484491
      9561.5000         0.8996        11.5728        11.1783         0.0029        95.5648        59.3235         0.7914         2.3011       -47.7737      -6.015461      0.6349581
      9562.0000         0.9648        12.0202        11.2495         0.0167       102.2822        57.7256         0.8788         2.3001       -47.0085      -5.250259      0.7045219
      9562.5000         0.9882        12.4045        11.3117         0.0329       110.3569        57.1556         0.9352         2.2933       -46.4755      -4.717258      0.7529765
      9563.0000         0.9943        12.1922        11.4459          0.055       112.0795        60.1548         0.9782         2.2906       -46.0904      -4.332161      0.7879854
      9563.5000         0.9908        12.0799        11.6333         0.0774       109.3699        60.9469         0.9983         2.3081       -45.7354      -3.977161      0.8202581
      9564.0000         0.9803        12.2151        11.7887         0.0949       106.3937        60.2737         1.0024         2.3362       -45.3735      -3.615261      0.8531581
      9564.5000         0.9734        12.3499        11.6908         0.0839       101.8479        62.8376         0.9962         2.3644       -44.9317      -3.173462      0.8933216
      9565.0000         0.9892        12.2478         12.067         0.0782        99.0642        63.9952         0.9859         2.3782       -44.4939      -2.735661      0.9331217
      9565.5000         0.9946        12.3735        12.7839         0.0744        98.7026        65.1528         0.9747         2.3915       -44.0245      -2.266262      0.9757944
      9566.0000         0.9994        12.5099        13.3661         0.0646        99.3666        65.0958         0.9761         2.4018       -43.5827      -1.824459              1
      9566.5000         1.0032        12.7543         13.585          0.074        99.0297        63.6867         0.9813         2.4203       -43.2203      -1.462059              1
      9567.0000          1.005        12.7452        13.6349         0.0852        99.9773        62.3384         0.9868         2.4401       -42.9215      -1.163261              1
      9567.5000         1.0052        12.5959        13.6841         0.0971       101.3223        60.8231         0.9924         2.4279       -42.7427     -0.9844589              1
      9568.0000         1.0124        12.5372        13.7667         0.1119        102.951        59.6792         0.9951         2.4035       -42.6629     -0.9046593              1
      9568.5000         1.0335        12.5174        13.8989          0.097       104.4465        63.2602         0.9973         2.3954       -42.6721     -0.9138603              1
      9569.0000         1.0479        12.3809        13.9326         0.0822       105.1449         63.752          1.001         2.4021       -42.7916       -1.03336              1
      9569.5000         1.0557        12.2062        13.5766         0.0681       105.2115        64.3077         1.0052         2.3964       -42.8359       -1.07766              1
      9570.0000         1.0552          11.95        13.3357         0.0724        99.5355        65.8821         1.0094         2.3852        -42.722     -0.9637604              1
      9570.5000         1.0498        11.6399        13.7354         0.0629        97.2528        67.1654         1.0176         2.3766       -42.6434     -0.8851585              1
      9571.0000         1.0489        11.9222        13.8508         0.0669        94.6715        68.0793         1.0279         2.3768       -42.6347      -0.876461              1
      9571.5000         1.0502        12.0523        13.5472         0.0556        96.1917        68.4979         1.0375         2.3853       -42.6636     -0.9053612              1
      9572.0000         1.0549        12.2487        12.7669         0.0455       101.1224         67.136         1.0454         2.3943       -42.7336     -0.9753609              1
      9572.5000         1.0604        12.8054        12.5222         0.0495       103.2817         68.897         1.0534         2.3819       -42.8294      -1.071159              1
      9573.0000          1.066        12.9632        13.1386         0.0708       105.4435        70.2634         1.0541         2.3547       -42.8917      -1.133461              1
      9573.5000         1.0713        13.0124        13.2809         0.0828        107.472         69.636         1.0515         2.3272       -43.0413      -1.283062              1
      9574.0000         1.0747        12.9887        13.8597         0.0671       106.1864        69.5488         1.0488         2.3356       -43.2397      -1.481461              1
      9574.5000         1.0741        12.7529        14.3102         0.0557       105.8372        69.3992         1.0412         2.3441       -43.3399      -1.581661              1
      9575.0000         1.0636        12.2472        14.5097         0.0656       105.6465        69.3883         1.0336         2.3699       -43.2869       -1.52866              1
      9575.5000         1.0535        12.0119        14.8119         0.0756       103.8567        69.5713         1.0321         2.3666       -43.2043       -1.44606              1
      9576.0000         1.0438        12.0217        14.4965         0.0691       101.7604        70.4221         1.0358         2.3729       -43.0958      -1.337559              1
      9576.5000         1.0386        12.2074        14.7991         0.0543        102.524        71.4972         1.0397         2.3808       -43.0818      -1.323559              1
      9577.0000         1.0334         12.433        14.3097         0.0458       103.9185        71.4874         1.0447          2.388       -43.1368      -1.378559              1
      9577.5000         1.0303        12.3752          12.82         0.0401       105.4485        68.6847         1.0497         2.3957       -43.2504      -1.492161              1
      9578.0000         1.0281        12.1671        12.3232         0.0359       105.4164        67.8986         1.0504         2.4032       -43.3793      -1.621059              1
