#------------------------------------------------------------------------------
# Created by    : vladimir.rabinovich
# Created on    : 09/19/2023 17:20:47
#------------------------------------------------------------------------------
~Version Information Section
VERS.           2.0     :   CWLS log ASCII Standard - VERSION 2.0
WRAP.           NO      :   One line per depth step
~Well Information Section
#MNEM       .UNIT                                         VALUE :DESCRIPTION
#------------------------------------------------------------------------------
STRT        .FT                                            2030 :START DEPTH
STOP        .FT                                            9342 :STOP DEPTH
STEP        .FT                                             0.5 :STEP      
NULL        .                                           -999.25 :NULL      
COMP        .                                      SHELL OIL CO :COMPANY   
WELL        .                               OCS G00950 ST00BP00 :WELL      
FLD         .                           EAST CAMERON BLOCK 0193 :FIELD     
LOC         .                                                   :LOCATION  
CNTY        .                                      EAST CAMERON :LOCATION  
STAT        .                                         LOUISIANA :STATE     
CTRY        .                                     UNITED STATES :COUNTRY   
SRVC        .                                                   :SERVICE COMPANY
DATE        .                             9/13/2023 11:18:15 AM :LOG DATE  
API         .                                    17703004920000 :API NUMBER
UWI         .                                    17703004920000 :UNIQUE WELL ID
XCOORD      .                                  1684363.85071557 :SURFACE X 
YCOORD      .                                  10458597.1936422 :SURFACE Y 
LAT         .                                        28.8191951 :LATITUDE  
LON         .                                       -92.8627139 :LONGITUDE 
ELEV        .FT                                              75 :ELEVATION VALUE
ELEV_TYPE   .                                                KB :ELEVATION REFERENCE TYPE
~Curve Information Section
#MNEM       .UNIT                                      API CODE :CURVE DESCRIPTION
#------------------------------------------------------------------------------
DEPT        .FT                                                 :DEPTH     
ASN         .OHMM                                               :          
CILM        .MMHO                                               :          
ILM         .OHMM                                               :          
LN          .OHMM                                               :          
SP          .MV                                                 :          
SP_NORM     .MV                                                 :SP Normalized
VSH_SP      .V/V                                                :Volume of Shale from SP
~A        DEPTH            ASN           CILM            ILM             LN             SP        SP_NORM         VSH_SP
# ...
      2499.0000          0.872       1685.568         0.7988        -999.25       -88.2578       -11.6223      0.7094425
      2499.5000         0.8847       1745.301         0.7996        -999.25       -96.9766       -20.3411      0.4914725
      2500.0000         0.8973       1789.715         0.8004        -999.25      -100.2299       -23.5944        0.41014
      2500.5000         0.8886       1819.271         0.8012        -999.25      -102.4674       -25.8319      0.3542025
      2501.0000         0.8318       1827.197          0.802        -999.25      -102.9103       -26.2748        0.34313
      2501.5000         0.8031       1785.281         0.8029        -999.25       -99.1162       -22.4807      0.4379825
      2502.0000         0.8147       1743.367         0.8037        -999.25       -89.3057       -12.6702       0.683245
      2502.5000         0.8264        1696.93         0.8045        -999.25        -84.252        -7.6165      0.8095875
      2503.0000          0.838       1621.334         0.8053        -999.25       -80.6873        -4.0518       0.898705
      2503.5000         0.8517       1544.996         0.8061        -999.25       -78.1097        -1.4742       0.963145
      2504.0000         0.8503       1464.813          0.823        -999.25         -76.03         0.6055              1
      2504.5000         0.8361       1402.287         0.8445        -999.25       -74.3569         2.2786              1
      2505.0000          0.821       1366.438         0.8659        -999.25       -73.0181         3.6174              1
      2505.5000         0.8133       1330.596         0.8864        -999.25       -72.3713         4.2642              1
      2506.0000         0.8241       1294.744         0.9044        -999.25       -72.5354         4.1001              1
      2506.5000         0.8348        1263.01         0.9224        -999.25        -73.447         3.1885              1
      2507.0000         0.8455       1236.688         0.9405        -999.25       -74.3591         2.2764              1
      2507.5000         0.8562       1210.352         0.9585        -999.25       -75.4639         1.1716              1
      2508.0000         0.8553       1184.018         0.9765        -999.25       -77.0248        -0.3893      0.9902675
      2508.5000         0.8465       1163.273         0.9818        -999.25        -78.516        -1.8805      0.9529875
      2509.0000         0.8377       1144.072         0.9867        -999.25         -79.45        -2.8145      0.9296375
      2509.5000          0.829       1124.869         0.9916        -999.25       -80.3835         -3.748         0.9063
      2510.0000         0.8188       1117.018         0.9965        -999.25       -81.1517        -4.5162       0.887095
      2510.5000         0.8154       1154.004         0.9991        -999.25       -80.2393        -3.6038       0.909905
      2511.0000          0.833       1198.563         0.9868        -999.25       -79.3273        -2.6918       0.932705
      2511.5000         0.8506       1256.205         0.9745        -999.25       -78.4148        -1.7793      0.9555175
      2512.0000         0.8615       1313.846         0.9622        -999.25       -77.5365         -0.901       0.977475
      2512.5000         0.8676       1352.037         0.9498        -999.25       -76.7413        -0.1058       0.997355
      2513.0000         0.8738       1388.385         0.9375        -999.25       -81.8693        -5.2338       0.869155
      2513.5000         0.8799       1424.742         0.9261        -999.25       -85.7992        -9.1637      0.7709075
      2514.0000         0.8861       1452.426          0.916        -999.25       -90.2303       -13.5948        0.66013
      2514.5000         0.8933       1479.875         0.9059        -999.25       -92.7733       -16.1378       0.596555
      2515.0000         0.9008       1507.322         0.8958        -999.25        -94.583       -17.9475      0.5513125
      2515.5000         0.9082       1517.734         0.8857        -999.25       -96.0367       -19.4012        0.51497
      2516.0000         0.9153       1495.736         0.8756        -999.25       -94.1324       -17.4969      0.5625775
      2516.5000          0.912       1465.621         0.8799        -999.25       -92.3868       -15.7513      0.6062175
      2517.0000         0.8967       1435.508         0.8871        -999.25        -90.594       -13.9585      0.6510375
      2517.5000         0.8815       1405.404         0.8942        -999.25       -88.3312       -11.6957      0.7076075
      2518.0000         0.8662       1373.547         0.9013        -999.25       -86.0692        -9.4337      0.7641575
      2518.5000         0.8504       1339.629         0.9084        -999.25       -84.3801        -7.7446       0.806385
      2519.0000         0.8347       1305.713         0.9156        -999.25       -82.6936        -6.0581      0.8485475
      2519.5000         0.8155       1271.807         0.9227        -999.25       -81.3268        -4.6913      0.8827175
      2520.0000         0.7964       1243.189         0.9272        -999.25       -80.0604        -3.4249      0.9143775
      2520.5000         0.7836       1216.494         0.9296        -999.25       -78.7527        -2.1172        0.94707
      2521.0000         0.7757       1200.158          0.932        -999.25       -78.8953        -2.2598       0.943505
      2521.5000         0.7874       1202.844         0.9345        -999.25       -80.4916        -3.8561      0.9035975
      2522.0000         0.7995       1205.531         0.9369        -999.25       -82.0878        -5.4523      0.8636925
      2522.5000         0.8158       1210.393         0.9393        -999.25       -83.5212        -6.8857      0.8278575
      2523.0000         0.8307       1218.783         0.9418        -999.25       -84.9489        -8.3134       0.792165
      2523.5000          0.819       1227.178         0.9442        -999.25       -84.8596        -8.2241      0.7943975
      2524.0000         0.8049       1235.574         0.9372        -999.25       -84.2744        -7.6389      0.8090275
      2524.5000         0.7909       1243.965         0.9266        -999.25       -83.6892        -7.0537      0.8236575
      2525.0000         0.7789       1271.471          0.916        -999.25       -83.0138        -6.3783      0.8405425
      2525.5000         0.7712        1301.99         0.9054        -999.25       -82.2882        -5.6527      0.8586825
      2526.0000         0.7634       1332.971         0.8948        -999.25       -81.9072        -5.2717      0.8682075
      2526.5000         0.7556       1370.002         0.8842        -999.25       -83.8849        -7.2494       0.818765
      2527.0000         0.7482       1407.047         0.8703        -999.25       -85.8625         -9.227       0.769325
      2527.5000          0.744        1444.08         0.8509        -999.25       -88.0857       -11.4502       0.713745
      2528.0000          0.755       1516.154         0.8316        -999.25       -90.4514       -13.8159      0.6546025
      2528.5000         0.7796       1608.578         0.8122        -999.25       -93.0214       -16.3859      0.5903525
      2529.0000         0.8124       1663.801         0.7929        -999.25       -95.9354       -19.2999      0.5175025
      2529.5000         0.8333       1686.152         0.7735        -999.25       -98.3113       -21.6758       0.458105
      2530.0000         0.8322       1708.494         0.7577        -999.25       -99.8723       -23.2368        0.41908
      2530.5000         0.8199       1726.133         0.7506        -999.25       -99.4984       -22.8629      0.4284275
      2531.0000         0.8076       1742.619         0.7434        -999.25       -98.0312       -21.3957      0.4651075
      2531.5000         0.7953       1759.105         0.7363        -999.25       -98.7737       -22.1382       0.446545
      2532.0000         0.7791        1775.59         0.7291        -999.25       -99.6321       -22.9966       0.425085
