#------------------------------------------------------------------------------
# Created by    : vladimir.rabinovich
# Created on    : 09/19/2023 17:20:14
#------------------------------------------------------------------------------
~Version Information Section
VERS.           2.0     :   CWLS log ASCII Standard - VERSION 2.0
WRAP.           NO      :   One line per depth step
~Well Information Section
#MNEM       .UNIT                                         VALUE :DESCRIPTION
#------------------------------------------------------------------------------
STRT        .FT                                             920 :START DEPTH
STOP        .FT                                            7860 :STOP DEPTH
STEP        .FT                                             0.5 :STEP      
NULL        .                                           -999.25 :NULL      
COMP        .                               ARCO OIL & GAS CORP :COMPANY   
WELL        .                               OCS G10568 ST00BP00 :WELL      
FLD         .                                           WILDCAT :FIELD     
LOC         .                                                   :LOCATION  
CNTY        .                                 WEST CAMERON WEST :LOCATION  
STAT        .                                         LOUISIANA :STATE     
CTRY        .                                     UNITED STATES :COUNTRY   
SRVC        .                                                   :SERVICE COMPANY
DATE        .                             9/13/2023 11:18:15 AM :LOG DATE  
API         .                                    17701402460000 :API NUMBER
UWI         .                                    17701402460000 :UNIQUE WELL ID
XCOORD      .                                  1443937.81344993 :SURFACE X 
YCOORD      .                                  10680295.6485051 :SURFACE Y 
LAT         .                                        29.4277648 :LATITUDE  
LON         .                                       -93.6173961 :LONGITUDE 
ELEV        .FT                                             100 :ELEVATION VALUE
ELEV_TYPE   .                                                KB :ELEVATION REFERENCE TYPE
~Curve Information Section
#MNEM       .UNIT                                      API CODE :CURVE DESCRIPTION
#------------------------------------------------------------------------------
DEPT        .FT                                                 :DEPTH     
ASFL        .OHMM                                               :          
CALI        .IN                                                 :          
DPHI        .%                                                  :          
DRHO        .G/CC                                               :          
DT          .US/F                                               :          
GR          .GAPI                                               :          
GR_1        .GAPI                                               :          
GR_NORM     .GAPI                                               :GammaRay Normalized
ILD         .OHMM                                               :          
ILM         .OHMM                                               :          
NPHI        .%                                                  :          
RFOC        .OHMM                                               :          
SP          .MV                                                 :          
SP_NORM     .MV                                                 :SP Normalized
VSH_GR      .V/V                                                :Volume of Shale from GR
VSH_SP      .V/V                                                :Volume of Shale from SP
~A        DEPTH           ASFL           CALI           DPHI           DRHO             DT             GR           GR_1        GR_NORM            ILD            ILM           NPHI           RFOC             SP        SP_NORM         VSH_GR         VSH_SP
# ...
      1896.0000         1.0342        -999.25        -999.25        -999.25       163.3132        -999.25        -999.25       37.27985         0.4943        -999.25        -999.25        -999.25       -62.3386      -28.41594     0.09106056     0.05462278
      1896.5000         1.0386        -999.25        -999.25        -999.25       161.2073        -999.25        -999.25       37.94061         0.4973        -999.25        -999.25        -999.25       -62.3083      -28.39328      0.1051194       0.055404
      1897.0000         1.0429        -999.25        -999.25        -999.25       159.5417        -999.25        -999.25       38.60139         0.5004        -999.25        -999.25        -999.25       -62.2838      -28.37643      0.1191785     0.05598529
      1897.5000         1.0472        -999.25        -999.25        -999.25       158.2207        -999.25        -999.25       38.60139         0.5034        -999.25        -999.25        -999.25       -62.2615      -28.36178      0.1191785     0.05649041
      1898.0000         1.0509        -999.25        -999.25        -999.25         156.98        -999.25        -999.25       38.60139         0.5064        -999.25        -999.25        -999.25       -62.2393      -28.34722      0.1191785     0.05699237
      1898.5000         1.0545        -999.25        -999.25        -999.25       156.0493        -999.25        -999.25       38.60139         0.5094        -999.25        -999.25        -999.25       -62.2169      -28.33247      0.1191785     0.05750117
      1899.0000         1.0581        -999.25        -999.25        -999.25       155.2034        -999.25        -999.25       38.60139         0.5134        -999.25        -999.25        -999.25       -62.1946      -28.31781      0.1191785     0.05800642
      1899.5000         1.0604        -999.25        -999.25        -999.25       154.2168        -999.25        -999.25       38.60139         0.5179        -999.25        -999.25        -999.25       -62.1724      -28.30326      0.1191785     0.05850825
      1900.0000         1.0564        -999.25        -999.25        -999.25       153.1414        -999.25        -999.25       38.60139         0.5223        -999.25        -999.25        -999.25        -62.184       -28.3225      0.1191785     0.05784475
      1900.5000         1.0524        -999.25        -999.25        -999.25       152.5068        -999.25        -999.25       38.05074         0.5268        -999.25        -999.25        -999.25       -62.2346      -28.38075      0.1074625     0.05583612
      1901.0000         1.0484        -999.25        -999.25        -999.25       154.2261        -999.25        -999.25        37.5001         0.5312        -999.25        -999.25        -999.25       -62.2851       -28.4389     0.09574671     0.05383117
      1901.5000         1.0443        -999.25        -999.25        -999.25       161.3057        -999.25        -999.25       36.94946         0.5357        -999.25        -999.25        -999.25       -62.3356      -28.49704     0.08403096     0.05182608
      1902.0000         1.0404        -999.25        -999.25        -999.25       167.0894        -999.25        -999.25       36.39881         0.5401        -999.25        -999.25        -999.25       -62.3862      -28.55529     0.07231505     0.04981758
      1902.5000         1.0377        -999.25        -999.25        -999.25       165.1074        -999.25        -999.25       36.94946         0.5416        -999.25        -999.25        -999.25       -62.4597      -28.63644     0.08403096     0.04701943
      1903.0000         1.0351        -999.25        -999.25        -999.25       163.5959        -999.25        -999.25        37.5001         0.5419        -999.25        -999.25        -999.25       -62.5942      -28.77858     0.09574671     0.04211794
      1903.5000         1.0324        -999.25        -999.25        -999.25       161.9456        -999.25        -999.25       38.05074         0.5423        -999.25        -999.25        -999.25       -62.7288      -28.92083      0.1074625     0.03721277
      1904.0000         1.0297        -999.25        -999.25        -999.25       160.5449        -999.25        -999.25       38.60139         0.5427        -999.25        -999.25        -999.25       -62.8634      -29.06307      0.1191785     0.03230786
      1904.5000         1.0271        -999.25        -999.25        -999.25       159.7915        -999.25        -999.25       39.15203         0.5431        -999.25        -999.25        -999.25        -62.998      -29.20532      0.1308942     0.02740281
      1905.0000         1.0277        -999.25        -999.25        -999.25       159.6538        -999.25        -999.25       39.70267         0.5434        -999.25        -999.25        -999.25       -63.0195      -29.23446      0.1426101     0.02639784
      1905.5000         1.0284        -999.25        -999.25        -999.25       159.8811        -999.25        -999.25       40.25332         0.5433        -999.25        -999.25        -999.25       -63.0207      -29.24331      0.1543259     0.02609279
      1906.0000         1.0291        -999.25        -999.25        -999.25       160.1631        -999.25        -999.25       40.80397          0.543        -999.25        -999.25        -999.25        -63.022      -29.25225      0.1660419     0.02578433
      1906.5000         1.0331        -999.25        -999.25        -999.25       160.4453        -999.25        -999.25       40.80397         0.5427        -999.25        -999.25        -999.25       -63.0233       -29.2612      0.1660419     0.02547586
      1907.0000         1.0392        -999.25        -999.25        -999.25       159.7732        -999.25        -999.25       40.80397         0.5424        -999.25        -999.25        -999.25       -63.0269      -29.27245      0.1660419     0.02508795
      1907.5000         1.0518        -999.25        -999.25        -999.25       158.7104        -999.25        -999.25       40.80397         0.5421        -999.25        -999.25        -999.25       -63.0446      -29.29779      0.1660419     0.02421399
      1908.0000         1.0637        -999.25        -999.25        -999.25       157.5923        -999.25        -999.25       40.80397         0.5418        -999.25        -999.25        -999.25       -63.0622      -29.32304      0.1660419     0.02334358
      1908.5000         1.0754        -999.25        -999.25        -999.25          156.7        -999.25        -999.25       40.80397         0.5489        -999.25        -999.25        -999.25       -63.0798      -29.34829      0.1660419     0.02247291
      1909.0000         1.0864        -999.25        -999.25        -999.25       155.9888        -999.25        -999.25       40.58371         0.5578        -999.25        -999.25        -999.25       -63.0975      -29.37363      0.1613555     0.02159895
      1909.5000          1.097        -999.25        -999.25        -999.25       155.4575        -999.25        -999.25       40.36345         0.5666        -999.25        -999.25        -999.25       -63.1152      -29.39898      0.1566692     0.02072499
      1910.0000         1.1065        -999.25        -999.25        -999.25       155.1577        -999.25        -999.25       40.14319         0.5755        -999.25        -999.25        -999.25        -63.177      -29.46842      0.1519828     0.01833028
      1910.5000         1.1157        -999.25        -999.25        -999.25       154.8579        -999.25        -999.25       39.92294         0.5855        -999.25        -999.25        -999.25       -63.2388      -29.53787      0.1472965     0.01593557
      1911.0000         1.1249        -999.25        -999.25        -999.25        154.553        -999.25        -999.25       39.70267         0.5959        -999.25        -999.25        -999.25       -63.3006      -29.60731      0.1426101     0.01354099
      1911.5000         1.1331        -999.25        -999.25        -999.25       153.9084        -999.25        -999.25       39.33558         0.6063        -999.25        -999.25        -999.25       -63.3624      -29.67676      0.1347996     0.01114615
