#------------------------------------------------------------------------------
# Created by    : vladimir.rabinovich
# Created on    : 09/19/2023 17:22:13
#------------------------------------------------------------------------------
~Version Information Section
VERS.           2.0     :   CWLS log ASCII Standard - VERSION 2.0
WRAP.           NO      :   One line per depth step
~Well Information Section
#MNEM       .UNIT                                         VALUE :DESCRIPTION
#------------------------------------------------------------------------------
STRT        .FT                                            4265 :START DEPTH
STOP        .FT                                           12768 :STOP DEPTH
STEP        .FT                                             0.5 :STEP      
NULL        .                                           -999.25 :NULL      
COMP        .                                SHELL OFFSHORE INC :COMPANY   
WELL        .                               OCS G04749 ST00BP02 :WELL      
FLD         .                                           WILDCAT :FIELD     
LOC         .                                                   :LOCATION  
CNTY        .                                      WEST CAMERON :LOCATION  
STAT        .                                         LOUISIANA :STATE     
CTRY        .                                     UNITED STATES :COUNTRY   
SRVC        .                                                   :SERVICE COMPANY
DATE        .                             9/13/2023 11:19:06 AM :LOG DATE  
API         .                                    17700406070000 :API NUMBER
UWI         .                                    17700406070000 :UNIQUE WELL ID
XCOORD      .                                   1486969.7252092 :SURFACE X 
YCOORD      .                                  10728694.6404599 :SURFACE Y 
LAT         .                                        29.5614647 :LATITUDE  
LON         .                                       -93.4828123 :LONGITUDE 
ELEV        .FT                                              98 :ELEVATION VALUE
ELEV_TYPE   .                                                KB :ELEVATION REFERENCE TYPE
~Curve Information Section
#MNEM       .UNIT                                      API CODE :CURVE DESCRIPTION
#------------------------------------------------------------------------------
DEPT        .FT                                                 :DEPTH     
CALI        .IN                                                 :          
DRHO        .G/C3                                               :          
DT          .US/F                                               :          
GR          .GAPI                                               :          
GR_1        .GAPI                                               :          
GR_NORM     .GAPI                                               :GammaRay Normalized
ILD         .OHMM                                               :          
ILM         .OHMM                                               :          
NPHI        .%                                                  :          
RHOB        .G/C3                                               :          
SFL         .OHMM                                               :          
SP          .MV                                                 :          
SP_NORM     .MV                                                 :SP Normalized
VSH_GR      .V/V                                                :Volume of Shale from GR
VSH_SP      .V/V                                                :Volume of Shale from SP
~A        DEPTH           CALI           DRHO             DT             GR           GR_1        GR_NORM            ILD            ILM           NPHI           RHOB            SFL             SP        SP_NORM         VSH_GR         VSH_SP
# ...
      7750.0000        12.6622         0.0418       111.1698        -999.25        70.1801       73.67242          0.701         0.6989        47.1442         2.2037         0.7928        -28.555         -0.693      0.8653708              1
      7750.5000        12.6797         0.0407       111.4642        -999.25        72.2458       76.55315         0.7001         0.7019        44.4519         2.1977         0.7903       -28.4784        -0.6115      0.9266629              1
      7751.0000        12.6877         0.0409       112.4915        -999.25        73.2028       77.89043         0.6996          0.702        41.5276         2.1917           0.78       -28.2824        -0.4106      0.9551156              1
      7751.5000        12.6861         0.0442       113.5288        -999.25        73.9836       78.98223         0.7042         0.7041         41.743         2.1887         0.7689       -28.0867        -0.2101      0.9783453              1
      7752.0000        12.6845         0.0496       114.0905        -999.25        74.6399       79.90071         0.7282         0.7072        43.8492         2.1932         0.7638       -27.9656        -0.0841      0.9978875              1
      7752.5000        12.7183         0.0543       111.5983        -999.25        74.9318         80.312         0.7559         0.7196        44.8745         2.2017         0.7717       -27.9407        -0.0543              1              1
      7753.0000          12.76         0.0518       106.2712        -999.25        73.0094       77.64023         0.7786         0.7423        43.6594         2.2092         0.7981       -28.2012        -0.3099      0.9497921              1
      7753.5000        12.8539          0.046       101.6459        -999.25         70.437       74.06364         0.7918         0.7684        41.7867         2.2189         0.8675        -28.605        -0.7089      0.8736945              1
      7754.0000        12.9838          0.044        96.9315        -999.25        68.8976       71.92514         0.7981         0.7809        40.3087         2.2354         0.9876       -29.2429        -1.3419      0.8281945              1
      7754.5000        13.1026         0.0435        97.1068        -999.25        70.2922       73.87151         0.7978         0.7843        38.7178         2.2494          1.069       -29.6996        -1.7937      0.8696067              1
      7755.0000        13.1115          0.042       100.6135        -999.25        72.8672       77.46146         0.7904         0.7711        37.6225         2.2354         1.0579       -29.9025        -1.9917      0.9459886              1
      7755.5000        12.9877         0.0384       106.2462        -999.25        74.2943       79.45309         0.7751         0.7492          38.43         2.2119         0.8933       -29.9722        -2.0566      0.9883637      0.9993568
      7756.0000        12.9344         0.0348       111.2775        -999.25        74.6436       79.94414         0.7552         0.7263        41.6074         2.1999         0.7712       -29.7834        -1.8629      0.9988114              1
      7756.5000         12.904          0.031       113.9824        -999.25        73.8364       78.82517         0.7335         0.7039        46.1332         2.1937         0.7236       -29.5883        -1.6629      0.9750037              1
      7757.0000        12.9191         0.0279       114.6338        -999.25        72.9819       77.64023         0.7112         0.6887        47.4889         2.1914         0.7246       -29.3879        -1.4577      0.9497921              1
      7757.5000        12.8451         0.0253       115.0134        -999.25        73.9163       78.94589         0.6932         0.6787        47.3325         2.1895         0.7373        -29.343        -1.4079      0.9775722              1
      7758.0000         12.759         0.0234       115.2706        -999.25         75.069       80.55564         0.6787         0.6728         46.653         2.1875         0.7486       -29.3406        -1.4006              1              1
      7758.5000        12.6843         0.0267       112.1044        -999.25        76.0782       81.96544         0.6808         0.6745        45.5848         2.1869         0.7653        -29.381        -1.4361              1              1
      7759.0000          12.67         0.0367       106.6371        -999.25        74.2095       79.36858         0.6987         0.6868        44.0828         2.1921         0.7879       -29.6125        -1.6628      0.9865656              1
      7759.5000         12.686         0.0537       101.5907        -999.25        72.0962       76.43105         0.7191         0.7062        43.2413         2.2021         0.8345       -30.3232        -2.3686      0.9240649      0.9958113
      7760.0000          12.76         0.0604       100.1041        -999.25        69.8781        73.3476         0.7358         0.7246        43.7114         2.2177         0.9356       -32.9318        -4.9723      0.8584597      0.9662238
      7760.5000        12.8568         0.0608       100.2467        -999.25        68.2963       71.15021         0.7441         0.7358        43.4093         2.2314         0.9959       -34.9604         -6.996      0.8117065      0.9432273
      7761.0000        12.9316          0.056       107.0981        -999.25        67.5449       70.10878         0.7488         0.7398        42.3773         2.2211         0.9995        -36.551        -8.5818      0.7895485      0.9252068
      7761.5000        12.9141         0.0464       114.7554        -999.25        68.2102       71.03979          0.751         0.7329        41.3415         2.1901         0.9529       -37.9772       -10.0031      0.8093572      0.9090557
      7762.0000         12.867         0.0329       118.1981        -999.25        69.4253        72.7364          0.747          0.718         42.186         2.1687         0.8621       -38.9505       -10.9715      0.8454554      0.8980511
      7762.5000          12.87           0.03       117.6418        -999.25         70.568       74.33208         0.7401         0.7093        43.1607          2.158         0.7934       -39.5809        -11.597      0.8794059      0.8909432
      7763.0000        13.1552         0.0378       113.9987        -999.25        71.5947       75.76624         0.7271         0.7057        43.2188         2.1566         0.7731       -39.9244       -11.9357        0.90992      0.8870943
      7763.5000        13.5689         0.0495       109.1777        -999.25        71.7896       76.04248         0.7086         0.7014         41.957         2.1663         0.7772       -40.0273       -12.0337      0.9157975      0.8859807
      7764.0000        13.6004         0.0647       105.7852        -999.25        70.8113       74.68515         0.6913         0.6858        40.5377         2.1893         0.7901       -39.9387       -11.9402      0.8869181      0.8870432
      7764.5000        13.4724         0.0763       104.4985        -999.25        69.5587       72.94595          0.675          0.672        39.7837         2.1991         0.7883       -39.2194       -11.2161      0.8499137      0.8952716
      7765.0000        13.3411         0.0849       105.6499        -999.25        68.7079       71.76627         0.6615         0.6592        41.3408         2.2073         0.7741       -38.0756       -10.0674      0.8248143       0.908325
      7765.5000         13.233         0.0871       108.7118        -999.25        68.0947        70.9173         0.6498         0.6463        43.2858         2.2042         0.7421       -37.3768        -9.3637       0.806751      0.9163216
      7766.0000        13.1574         0.0715       113.2219        -999.25         68.406       71.35555         0.6389          0.635         44.476         2.1887         0.7101       -37.1646        -9.1466      0.8160756      0.9187886
      7766.5000        13.1304          0.055        116.141        -999.25        69.4514       72.81576         0.6293         0.6298        45.7611         2.1709         0.6921       -37.3845        -9.3617      0.8471438      0.9163443
