#------------------------------------------------------------------------------
# Created by    : vladimir.rabinovich
# Created on    : 09/19/2023 17:19:36
#------------------------------------------------------------------------------
~Version Information Section
VERS.           2.0     :   CWLS log ASCII Standard - VERSION 2.0
WRAP.           NO      :   One line per depth step
~Well Information Section
#MNEM       .UNIT                                         VALUE :DESCRIPTION
#------------------------------------------------------------------------------
STRT        .FT                                          2840.5 :START DEPTH
STOP        .FT                                            9365 :STOP DEPTH
STEP        .FT                                             0.5 :STEP      
NULL        .                                           -999.25 :NULL      
COMP        .                              MCMORAN OIL & GAS CO :COMPANY   
WELL        .                                OCS 00757 ST00BP00 :WELL      
FLD         .                           WEST CAMERON BLOCK 0118 :FIELD     
LOC         .                                                   :LOCATION  
CNTY        .                                      WEST CAMERON :LOCATION  
STAT        .                                         LOUISIANA :STATE     
CTRY        .                                     UNITED STATES :COUNTRY   
SRVC        .                                                   :SERVICE COMPANY
DATE        .                             9/13/2023 11:18:49 AM :LOG DATE  
API         .                                    17700410710000 :API NUMBER
UWI         .                                    17700410710000 :UNIQUE WELL ID
XCOORD      .                                  1441592.04714169 :SURFACE X 
YCOORD      .                                  10704369.2355959 :SURFACE Y 
LAT         .                                        29.4939537 :LATITUDE  
LON         .                                       -93.6251728 :LONGITUDE 
ELEV        .FT                                              90 :ELEVATION VALUE
ELEV_TYPE   .                                                KB :ELEVATION REFERENCE TYPE
~Curve Information Section
#MNEM       .UNIT                                      API CODE :CURVE DESCRIPTION
#------------------------------------------------------------------------------
DEPT        .FT                                                 :DEPTH     
AHT10       .OHMM                                               :          
AHT20       .OHMM                                               :          
AHT30       .OHMM                                               :          
AHT60       .OHMM                                               :          
AHT90       .OHMM                                               :          
AHTCO90     .MMHO                                               :          
DPHZ        .DEC                                                :          
GR          .GAPI                                               :          
GR_NORM     .GAPI                                               :GammaRay Normalized
HCAL        .IN                                                 :          
HDRA        .G/CC                                               :          
HMIN        .OHMM                                               :          
HMNO        .OHMM                                               :          
NPOR        .DEC                                                :          
RHOZ        .G/CC                                               :          
RWA         .OHMM                                               :          
TENS        .LB                                                 :          
VSH_GR      .V/V                                                :Volume of Shale from GR
~A        DEPTH          AHT10          AHT20          AHT30          AHT60          AHT90        AHTCO90           DPHZ             GR        GR_NORM           HCAL           HDRA           HMIN           HMNO           NPOR           RHOZ            RWA           TENS         VSH_GR
# ...
      3414.5000         0.6871         0.6932         0.7123         0.7278         0.7203       1388.373         0.2974        97.0691        98.3848        10.9569         0.0364          0.832          0.738         0.4944          2.159         0.0857           2078              1
      3415.0000         0.7289         0.7269         0.7531         0.7587          0.751       1331.502         0.2833          90.35       90.26487        10.9806         0.0606           0.78          0.691         0.4981          2.183         0.0805           2057              1
      3415.5000         0.8548         0.8575         0.8776         0.8847          0.875       1142.889         0.2881        82.7131       81.03738        10.9806         0.0551          0.801           0.71         0.5068          2.175         0.0972           2047              1
      3416.0000         1.0098         1.0356         1.0455         1.0595         1.0462        955.833         0.2802        71.6981       67.73328        10.9333         0.0586          0.954          0.851         0.3977          2.188         0.1095           2050      0.7390059
      3416.5000         0.9804         1.0089         1.0327          1.031         1.0191        981.236         0.2755        68.7723       64.19118        11.0279         0.0561          1.283           1.15         0.3314          2.195         0.1028           2057       0.663642
      3417.0000         0.8427         0.8556         0.8976         0.8931         0.8843       1130.852         0.2861        67.7668       62.96668        11.2645         0.0509          0.926          0.902         0.3868          2.178         0.0967           2068      0.6375889
      3417.5000         0.7578         0.7677         0.8126          0.827         0.8193       1220.555         0.2919        68.9641       64.40053        11.3118         0.0553          0.858          0.788         0.4919          2.168         0.0936           2124      0.6680964
      3418.0000         0.7341         0.7493         0.7956         0.8214         0.8142       1228.202         0.3077        73.5137        69.8798        11.4064         0.0572          0.776          0.708         0.4609          2.142         0.1042           2101      0.7846766
      3418.5000         0.7275          0.749         0.7937         0.8323         0.8244        1213.03         0.3254        74.6572       71.24881         11.501         0.0533          0.836          0.742         0.4333          2.113          0.119           2065      0.8138044
      3419.0000         0.7029         0.7271         0.7689         0.8123         0.8047       1242.679         0.3554        69.1497       64.59106         11.572          0.032          0.672          0.613         0.4435          2.064         0.1404           2069      0.6721501
      3419.5000         0.6835         0.7085          0.745         0.7979         0.7905       1265.088         0.3642        69.6286       65.15796        11.3591         0.0113          0.691          0.626         0.4523          2.049         0.1453           2068      0.6842119
      3420.0000         0.6735         0.7027         0.7314          0.785         0.7776       1286.013         0.3243          74.53       71.06184        11.2172         0.0443          0.774          0.697         0.4628          2.115         0.1114           2069      0.8098263
      3420.5000         0.6526         0.6842         0.7116         0.7712         0.7638       1309.281          0.307        80.9954       78.85338        11.1462          0.054          0.931          0.824          0.481          2.144         0.0972           2057      0.9756038
      3421.0000         0.6231         0.6529         0.6858         0.7553          0.748       1336.825         0.3143        79.3424       76.84732        11.1462         0.0559          0.837          0.742         0.4414          2.131         0.1002           2046      0.9329217
      3421.5000         0.6072         0.6397         0.6761         0.7492         0.7414       1348.846         0.3248        79.7222       77.29448        11.2172         0.0576          0.737          0.654         0.4995          2.114         0.1066           2069      0.9424357
      3422.0000         0.6104         0.6479         0.6815          0.753         0.7443       1343.564         0.3367        79.2661       76.73307        11.3118         0.0512          0.716          0.635         0.6036          2.094         0.1156           2064      0.9304909
      3422.5000         0.6196         0.6647         0.6951         0.7604         0.7506       1332.198         0.3444        78.8162        76.1789        11.4537         0.0472          0.641          0.569         0.5227          2.082         0.1224           2048         0.9187
      3423.0000         0.6262         0.6719          0.705          0.764         0.7533       1327.541         0.3689        78.8569       76.21689        11.3591         0.0087          0.674          0.598         0.4702          2.041         0.1423           2065      0.9195083
      3423.5000         0.6374         0.6862         0.7154           0.77         0.7584        1318.48         0.3534        75.4817       72.13252        11.3591         0.0155          0.653           0.58          0.526          2.067         0.1307           2079      0.8326069
      3424.0000          0.643         0.6982         0.7299         0.7804         0.7673       1303.316         0.3279        77.5845       74.65911        11.3118         0.0336          0.743          0.659         0.4957          2.109         0.1126           2075       0.886364
      3424.5000         0.6414         0.6957         0.7298         0.7859         0.7721        1295.19         0.3181        78.0634       75.22599           11.3         0.0448          0.716          0.636         0.4642          2.125         0.1061           2056      0.8984253
      3425.0000         0.6455         0.6972         0.7335         0.7895         0.7748        1290.58         0.3144        86.0322       84.83178        11.2053         0.0522          0.703          0.624         0.4914          2.131         0.1039           2023              1
      3425.5000         0.6556           0.71         0.7332         0.7836         0.7689       1300.617         0.3255        85.0076       83.58409        11.1935          0.039          0.725          0.643         0.5372          2.113         0.1111           2070              1
      3426.0000         0.6515         0.7046         0.7253          0.782         0.7672       1303.466         0.3316        89.0784       88.48569        11.1462          0.031          0.738          0.654         0.4679          2.103         0.1153           2139              1
      3426.5000         0.6263          0.672          0.693         0.7555         0.7418       1348.081         0.3293        92.3642       92.43987        11.0989          0.034          0.735          0.652         0.4818          2.107         0.1098           2117              1
      3427.0000         0.6064         0.6446         0.6659         0.7306         0.7177       1393.355         0.3292        94.8854       95.47139        11.2172         0.0381          0.712          0.632         0.4577          2.107         0.1062           2065              1
      3427.5000         0.6028         0.6409         0.6518         0.7103          0.698       1432.633         0.3346        89.6753       89.17279        11.2645         0.0379          0.694          0.615         0.4721          2.098         0.1069           2060              1
      3428.0000         0.5931         0.6316         0.6388         0.6959         0.6841       1461.803         0.3467        82.9705       81.07004        11.2408         0.0305          0.666          0.591         0.4735          2.078         0.1132           2071              1
