#------------------------------------------------------------------------------
# Created by    : vladimir.rabinovich
# Created on    : 09/19/2023 17:22:25
#------------------------------------------------------------------------------
~Version Information Section
VERS.           2.0     :   CWLS log ASCII Standard - VERSION 2.0
WRAP.           NO      :   One line per depth step
~Well Information Section
#MNEM       .UNIT                                         VALUE :DESCRIPTION
#------------------------------------------------------------------------------
STRT        .FT                                            2996 :START DEPTH
STOP        .FT                                            8909 :STOP DEPTH
STEP        .FT                                             0.5 :STEP      
NULL        .                                           -999.25 :NULL      
COMP        .                             PHILLIPS PETROLEUM CO :COMPANY   
WELL        .                                OCS 00299 ST00BP00 :WELL      
FLD         .                           WEST CAMERON BLOCK 0045 :FIELD     
LOC         .                                                   :LOCATION  
CNTY        .                                      WEST CAMERON :LOCATION  
STAT        .                                         LOUISIANA :STATE     
CTRY        .                                     UNITED STATES :COUNTRY   
SRVC        .                                                   :SERVICE COMPANY
DATE        .                             9/13/2023 11:18:09 AM :LOG DATE  
API         .                                    17700407290000 :API NUMBER
UWI         .                                    17700407290000 :UNIQUE WELL ID
XCOORD      .                                  1446390.31791034 :SURFACE X 
YCOORD      .                                  10761453.0604348 :SURFACE Y 
LAT         .                                        29.6510516 :LATITUDE  
LON         .                                       -93.6110308 :LONGITUDE 
ELEV        .FT                                              99 :ELEVATION VALUE
ELEV_TYPE   .                                                KB :ELEVATION REFERENCE TYPE
~Curve Information Section
#MNEM       .UNIT                                      API CODE :CURVE DESCRIPTION
#------------------------------------------------------------------------------
DEPT        .FT                                                 :DEPTH     
CALX        .IN                                                 :          
CDL         .%                                                  :          
CILD        .MMHO                                               :          
CNS         .%                                                  :          
DRHO        .G/C3                                               :          
GR_NORM     .GAPI                                               :GammaRay Normalized
RILD        .OHMM                                               :          
RILM        .OHMM                                               :          
RLL         .OHMM                                               :          
SP          .MV                                                 :          
SP_NORM     .MV                                                 :SP Normalized
TENS        .LB                                                 :          
VSH_GR      .V/V                                                :Volume of Shale from GR
VSH_SP      .V/V                                                :Volume of Shale from SP
~A        DEPTH           CALX            CDL           CILD            CNS           DRHO        GR_NORM           RILD           RILM            RLL             SP        SP_NORM           TENS         VSH_GR         VSH_SP
# ...
      8486.0000          11.36        22.9592       1763.265        39.5294          0.039        79.6452         0.5886         0.5719          0.669            1.8        -0.1048           3020      0.9924511              1
      8486.5000          11.26             24       1746.939        39.7059          0.039       78.19682         0.5943         0.5719         0.6222            1.7        -0.2048           3040      0.9616345              1
      8487.0000          11.22          25.32       1763.265        39.8824          0.039        78.4369         0.5886         0.5719         0.5557            1.5        -0.4048           3040      0.9667425              1
      8487.5000          11.26           26.4       1779.592        39.2941          0.026       79.15929         0.5774         0.5664         0.5399              1        -0.9048           3040      0.9821126              1
      8488.0000          11.36          27.78       1795.918          37.62          0.011       78.19339          0.561         0.5557         0.5886            0.1        -1.8048           3040      0.9615615              1
      8488.5000          11.38        27.1286       1844.898        35.2941          0.005       75.52943         0.5451         0.5504         0.6393        -1.0204        -2.9252           3040      0.9048814              1
      8489.0000          11.28        26.2977       1877.551        33.8235          0.005        73.3141         0.5296         0.5451         0.7135        -2.2449        -4.1497           3040      0.8577468      0.9178786
      8489.5000          11.06        25.4585       1910.204        33.5294           0.01       73.55897         0.5196         0.5347          0.822        -2.6531        -4.5579           3040      0.8629568      0.8887214
      8490.0000          11.02        26.2003        1975.51        33.2353          0.002       77.22401            0.5         0.5196         0.6451        -2.7551        -4.6599           3040      0.9409364      0.8814357
      8490.5000        10.9804           27.6       2023.518        32.9412         -0.011       79.36817         0.4773         0.5048          0.669        -3.3673        -5.2721        3039.88      0.9865568      0.8377072
      8491.0000        10.9608           27.6       2103.816        32.2941        -0.0131       73.72638         0.4599         0.4908         0.7412           -5.5        -7.4048       3039.683      0.8665187      0.6853715
      8491.5000         10.902          27.36       2218.037        31.5294        -0.0132       66.38486         0.4431         0.4773         0.6937           -7.1        -9.0048       3039.487      0.7103161      0.5710858
      8492.0000         10.902        26.9399       2366.737        30.7647        -0.0112       62.72834         0.4229         0.4514            0.7           -7.5        -9.4048       3039.293      0.6325179      0.5425143
      8492.5000        10.9608          28.08       2572.549        30.4706        -0.0041       60.75903          0.389         0.4113         0.7203           -7.5        -9.4048       3039.216      0.5906175      0.5425143
      8493.0000        10.9412          29.16       2823.529        30.5294         -0.001        58.5437         0.3545         0.3783          0.669           -8.3       -10.2048       3039.216      0.5434829      0.4853714
      8493.5000        10.8627          29.94       3058.823        30.7059         0.0059       58.05051         0.3261         0.3578         0.6874           -9.8       -11.7048       3039.216      0.5329895      0.3782286
      8494.0000        10.8235          29.76           3248        31.4706         0.0118       58.54139         0.3028         0.3416         0.7555       -10.6122        -12.517       3058.823      0.5434338      0.3202143
      8494.5000        10.8235          28.86           3376        33.4118         0.0167       60.26239            0.3         0.3261         0.6629       -11.4286       -13.3334       3058.823      0.5800508         0.2619
      8495.0000        10.8431          28.08           3424             35         0.0167       61.98338         0.2972         0.3231         0.5246       -10.7143       -12.6191       3058.823      0.6166677      0.3129215
      8495.5000        10.8627          27.36           3440          36.66         0.0147       63.70437         0.2972         0.3201         0.5886           -8.8       -10.7048       3058.823      0.6532845      0.4496572
      8496.0000        10.8824          27.36           3408           36.9         0.0108       66.83875         0.2972         0.3322         0.6335           -6.8        -8.7048       3098.039      0.7199733      0.5925143
      8496.5000        10.8627           27.9           3392          36.42         0.0069       67.07881            0.3         0.3513         0.6751           -5.9        -7.8048       3117.647      0.7250811         0.6568
      8497.0000        10.8627          27.96           3312          36.54         0.0039       64.42448         0.3028         0.3646         0.7701           -6.2        -8.1048       3137.255      0.6686059      0.6353714
      8497.5000        10.8627          28.14           3232          37.62         -0.001       62.96171         0.3056         0.3748         0.6937           -6.7        -8.6048       3117.647      0.6374832      0.5996571
      8498.0000        10.8824          28.38           3216          38.16        -0.0041       61.48445         0.3142         0.3714         0.6569           -7.5        -9.4048       3078.431      0.6060521      0.5425143
      8498.5000        10.9241          29.16           3312           37.2        -0.0083       59.28178            0.3         0.3612         0.7272        -9.1976       -11.1024       3058.823      0.5591869      0.4212572
      8499.0000        10.9482        30.3529           3520        35.8235        -0.0126       57.10397         0.2808         0.3448         0.7412       -10.8096       -12.7144       3039.216      0.5128505      0.3061143
      8499.5000        11.0132        31.8824           3776        34.4118        -0.0168       54.71224         0.2604         0.3231         0.7412       -12.4165       -14.3213       3019.608      0.4619626      0.1913358
      8500.0000        11.0767        32.8824       4065.306             33        -0.0199       52.81994         0.2438            0.3         0.8073       -14.2081       -16.1129       3019.608      0.4217008      0.0633643
      8500.5000        11.0784        32.5294       4195.918        31.5882        -0.0199       52.83909         0.2348         0.2756         0.6874        -15.301       -17.2058       3019.608      0.4221084              0
      8501.0000        11.0588        31.0588       4114.286        31.1176        -0.0139       54.76748          0.237         0.2756         0.5296          -14.6       -16.5048       3019.608      0.4631378     0.03537137
      8501.5000        11.0588          28.32           3952        31.1176        -0.0059       59.59028         0.2508         0.2889          0.439          -12.5       -14.4048       3019.608      0.5657507      0.1853714
      8502.0000        11.0588         25.778           3728        31.5882         -0.001       65.16554         0.2756         0.3085         0.4309        -9.3878       -11.2926       3058.823      0.6843733      0.4076715
      8502.5000        11.1961         24.551           3456        31.7647          0.002       71.31491         0.3028         0.3385         0.6812        -7.2449        -9.1497       3058.823      0.8152109      0.5607357
      8503.0000        11.3725        24.1837        3074.51        31.7647          0.009       71.55978         0.3353         0.3819         0.6751        -6.2245        -8.1293       3058.823      0.8204208      0.6336214
      8503.5000        11.4902          23.82       2666.667        31.7647          0.016       71.55864         0.3854         0.4309            0.7        -5.5102         -7.415       3117.647      0.8203966      0.6846429
