#------------------------------------------------------------------------------
# Created by    : vladimir.rabinovich
# Created on    : 09/19/2023 17:22:07
#------------------------------------------------------------------------------
~Version Information Section
VERS.           2.0     :   CWLS log ASCII Standard - VERSION 2.0
WRAP.           NO      :   One line per depth step
~Well Information Section
#MNEM       .UNIT                                         VALUE :DESCRIPTION
#------------------------------------------------------------------------------
STRT        .FT                                            4421 :START DEPTH
STOP        .FT                                           11895 :STOP DEPTH
STEP        .FT                                             0.5 :STEP      
NULL        .                                           -999.25 :NULL      
COMP        .                MURPHY EXPLORATION & PRODUCTION CO :COMPANY   
WELL        .                               OCS G02828 ST00BP00 :WELL      
FLD         .                           WEST CAMERON BLOCK 0116 :FIELD     
LOC         .                                                   :LOCATION  
CNTY        .                                      WEST CAMERON :LOCATION  
STAT        .                                         LOUISIANA :STATE     
CTRY        .                                     UNITED STATES :COUNTRY   
SRVC        .                                                   :SERVICE COMPANY
DATE        .                             9/13/2023 11:18:31 AM :LOG DATE  
API         .                                    17700404120000 :API NUMBER
UWI         .                                    17700404120000 :UNIQUE WELL ID
XCOORD      .                                  1472413.58592246 :SURFACE X 
YCOORD      .                                  10706677.6123634 :SURFACE Y 
LAT         .                                         29.500724 :LATITUDE  
LON         .                                        -93.528296 :LONGITUDE 
ELEV        .FT                                              75 :ELEVATION VALUE
ELEV_TYPE   .                                                KB :ELEVATION REFERENCE TYPE
~Curve Information Section
#MNEM       .UNIT                                      API CODE :CURVE DESCRIPTION
#------------------------------------------------------------------------------
DEPT        .FT                                                 :DEPTH     
CALI        .IN                                                 :          
DRHO        .G/C3                                               :          
DT          .US/F                                               :          
GR          .GAPI                                               :          
GR_1        .GAPI                                               :          
GR_NORM     .GAPI                                               :GammaRay Normalized
ILD         .OHMM                                               :          
NPHI        .%                                                  :          
RHOB        .G/C3                                               :          
SFL         .OHMM                                               :          
SP          .MV                                                 :          
SP_NORM     .MV                                                 :SP Normalized
VSH_GR      .V/V                                                :Volume of Shale from GR
VSH_SP      .V/V                                                :Volume of Shale from SP
~A        DEPTH           CALI           DRHO             DT             GR           GR_1        GR_NORM            ILD           NPHI           RHOB            SFL             SP        SP_NORM         VSH_GR         VSH_SP
# ...
     10397.0000        11.3963         0.0082        89.4305        72.6022        -999.25       72.77463         1.3342        34.9244          2.267         1.8678       -53.4401       -15.7212      0.8462687      0.8247476
     10397.5000        11.6604         0.0048        86.0645        72.2339        -999.25       72.31849         1.4103        35.2455         2.2782         1.9834       -53.4691       -15.7331      0.8365636      0.8246059
     10398.0000        11.6247         0.0107        82.1309        71.6626        -999.25        71.6113          1.477        34.3361         2.2915         1.7913       -53.9442       -16.1912       0.821517      0.8191524
     10398.5000          11.62         0.0249        81.5341        71.1017        -999.25       70.91709         1.5373        34.1509         2.3053         1.6832       -54.3273       -16.5572      0.8067466      0.8147953
     10399.0000        11.7239         0.0436        82.8452         70.855        -999.25       70.61127         1.5736        34.5702         2.3045         1.6319       -55.2752        -17.488      0.8002397      0.8037143
     10399.5000        11.7848         0.0531         82.576        72.4775        -999.25       72.61591         1.5617        35.1481          2.285         1.6794       -56.7047       -18.9004      0.8428916         0.7869
     10400.0000        11.7834         0.0389        81.0105        74.5297        -999.25       75.15183         1.5295        34.3405         2.2681         1.8065       -58.7651       -20.9438      0.8968475      0.7625738
     10400.5000        11.8129         0.0318        84.6359        74.2499        -999.25        74.8051         1.5031        33.1269         2.2587         1.8677       -61.1972       -23.3588      0.8894702      0.7338238
     10401.0000        11.8056         0.0392        87.2925        72.7745        -999.25       72.98032         1.4768        32.6872         2.2711         1.8154        -63.736       -25.8805       0.850645      0.7038035
     10401.5000        11.9719         0.0485        89.6556        71.7559        -999.25       71.72034         1.4018        32.4886         2.2663         1.6102       -66.2784       -28.4058       0.823837      0.6737405
     10402.0000         12.262         0.0386        91.4266        71.0551        -999.25       70.85319         1.3135         32.689         2.2551          1.427       -68.8909       -31.0013       0.805387      0.6428416
     10402.5000        12.2924         0.0269        93.3885        71.6871        -999.25       71.63342          1.202        35.2237          2.251         1.2642       -72.3641       -34.4574      0.8219877      0.6016976
     10403.0000        12.2074          0.019        95.7859         72.526        -999.25       72.66956           1.07        36.9396           2.25         1.1379        -77.015       -39.0912      0.8440331      0.5465333
     10403.5000        11.8031         0.0153        98.7458         72.334        -999.25       72.43123         0.9882        38.3415         2.2541         1.0677         -82.49       -44.5491      0.8389623      0.4815584
     10404.0000        11.2048         0.0134        92.3269        71.0096        -999.25       70.79323         0.9222        39.1046         2.2631          1.005       -87.7368       -49.7789      0.8041112      0.4192988
     10404.5000        10.9467         0.0118        76.9644        70.4457        -999.25       70.09531         0.8065         39.524         2.2663         0.9381       -92.9836       -55.0086      0.7892618      0.3570405
     10405.0000        10.8373         0.0098        63.9307        70.0707        -999.25       69.63077         0.6563        39.7578         2.2676          0.838       -99.8494       -61.8573      0.7793781      0.2755083
     10405.5000        10.7361         0.0086        70.7019        69.2397        -999.25       68.60268         0.5382        39.9685         2.2683         0.7763      -105.1257       -67.1165      0.7575039      0.2128988
     10406.0000        10.7144         0.0069        89.0587        67.3423        -999.25       66.25636         0.4413        40.2201         2.2434         0.6382      -112.5875       -74.5612      0.7075822      0.1242714
     10406.5000        10.9086         0.0035       108.0416        59.7621        -999.25       56.88525         0.3855        40.3749         2.2123         0.5172      -119.2841       -81.2408      0.5081967     0.04475239
     10407.0000        11.2788         0.0008       126.8583        53.3798        -999.25         48.995         0.3604        39.9478         2.1939         0.4357      -125.1344        -87.074      0.3403192              0
     10407.5000        11.2984        -0.0018       117.3179        49.0104        -999.25       43.59285         0.3389        38.1933         2.2063         0.4023      -127.2739       -89.1964      0.2253799              0
     10408.0000        10.8355        -0.0026        97.2195        46.2403        -999.25       40.16778         0.3338        33.9019         2.2341         0.4042      -127.9463       -89.8517      0.1525059              0
     10408.5000        10.2155         0.0037         103.11        45.5848        -999.25       39.35662         0.3408         30.879         2.2548         0.4615      -127.4376        -89.326      0.1352473              0
     10409.0000         9.9897         0.0074       115.8159        45.1786        -999.25       38.85352         0.3568        29.4994          2.268         0.5443      -126.7975       -88.6688      0.1245429              0
     10409.5000         9.9145          0.008       102.6012        44.5355        -999.25       38.05769         0.3904        28.7318         2.2738         0.6582      -128.5083       -90.3625      0.1076105              0
     10410.0000          9.874         0.0073        77.2384         42.962        -999.25       36.11177         0.4401        27.1033         2.2873         1.0009       -130.613       -92.4501     0.06620789              0
     10410.5000         9.8837         0.0067        68.6276         40.468        -999.25       33.02787         0.4835        24.3411         2.3177         1.6895      -133.4277       -95.2478   0.0005929014              0
     10411.0000         9.9037         0.0058        74.6747        38.5582        -999.25       30.66623         0.4499        21.9731         2.3544         2.3207      -134.7761       -96.5791              0              0
     10411.5000         9.9105         0.0008        80.7218        37.2449        -999.25       29.04196         0.4186        19.7534         2.3738         2.1225      -135.9333       -97.7192              0              0
     10412.0000          9.898        -0.0044        83.2635        36.3171        -999.25       27.89408         0.3894        17.4536         2.3715         0.9768      -136.7346       -98.5034              0              0
     10412.5000         9.8714         0.0043        84.4937        35.8052        -999.25       27.26044         0.3623        16.7867         2.2937         0.5661      -136.9019       -98.6537              0              0
     10413.0000         9.8323         0.0046        84.5778        35.8049        -999.25        27.2592         0.3341        19.4007         2.2398         0.3583      -136.4412       -98.1759              0              0
     10413.5000           9.79         0.0031        84.4438        36.3085        -999.25       27.88073         0.3085        23.0667         2.2338         0.2966      -134.8958       -96.6134              0              0
     10414.0000         9.7604         0.0016        85.0872        37.1124        -999.25       28.87359         0.2966        25.5948         2.2433          0.326      -133.3779       -95.0784              0              0
     10414.5000         9.7438              0        85.8395        37.8218        -999.25       29.74952         0.2933        27.0884         2.2494         0.4429      -132.8132       -94.4967              0              0
