#------------------------------------------------------------------------------
# Created by    : vladimir.rabinovich
# Created on    : 09/19/2023 17:22:11
#------------------------------------------------------------------------------
~Version Information Section
VERS.           2.0     :   CWLS log ASCII Standard - VERSION 2.0
WRAP.           NO      :   One line per depth step
~Well Information Section
#MNEM       .UNIT                                         VALUE :DESCRIPTION
#------------------------------------------------------------------------------
STRT        .FT                                             714 :START DEPTH
STOP        .FT                                            7955 :STOP DEPTH
STEP        .FT                                             0.5 :STEP      
NULL        .                                           -999.25 :NULL      
COMP        .                                ODECO OIL & GAS CO :COMPANY   
WELL        .                               OCS G04756 ST00BP00 :WELL      
FLD         .                           WEST CAMERON BLOCK 0165 :FIELD     
LOC         .                                                   :LOCATION  
CNTY        .                                      WEST CAMERON :LOCATION  
STAT        .                                         LOUISIANA :STATE     
CTRY        .                                     UNITED STATES :COUNTRY   
SRVC        .                                                   :SERVICE COMPANY
DATE        .                             9/13/2023 11:19:06 AM :LOG DATE  
API         .                                    17700406200000 :API NUMBER
UWI         .                                    17700406200000 :UNIQUE WELL ID
XCOORD      .                                  1451757.14487559 :SURFACE X 
YCOORD      .                                  10673474.8616073 :SURFACE Y 
LAT         .                                        29.4091131 :LATITUDE  
LON         .                                       -93.5927176 :LONGITUDE 
ELEV        .FT                                             113 :ELEVATION VALUE
ELEV_TYPE   .                                                KB :ELEVATION REFERENCE TYPE
~Curve Information Section
#MNEM       .UNIT                                      API CODE :CURVE DESCRIPTION
#------------------------------------------------------------------------------
DEPT        .FT                                                 :DEPTH     
CALI        .IN                                                 :          
CILD        .MMHO                                               :          
DRHO        .G/C3                                               :          
DT          .US/F                                               :          
GR          .GAPI                                               :          
GR_NORM     .GAPI                                               :GammaRay Normalized
ILD         .OHMM                                               :          
NPSS        .%                                                  :Neutron Porosity Sandstone
RFOC        .OHMM                                               :          
RHOB        .G/C3                                               :          
RILD        .OHMM                                               :          
RILM        .OHMM                                               :          
SN          .OHMM                                               :          
SP          .MV                                                 :          
SP_NORM     .MV                                                 :SP Normalized
VSH_GR      .V/V                                                :Volume of Shale from GR
VSH_SP      .V/V                                                :Volume of Shale from SP
~A        DEPTH           CALI           CILD           DRHO             DT             GR        GR_NORM            ILD           NPSS           RFOC           RHOB           RILD           RILM             SN             SP        SP_NORM         VSH_GR         VSH_SP
# ...
      7944.0000        -999.25           1112        -999.25        -999.25        77.3585       79.54311        -999.25          39.36         0.9159        -999.25         0.9159         0.8653        -999.25          -16.5          1.047       0.990279              1
      7944.5000        -999.25           1128        -999.25        -999.25        76.9811       79.11546        -999.25          40.62          0.924        -999.25            0.9         0.8569        -999.25          -15.6         1.9281      0.9811799              1
      7945.0000        -999.25           1136        -999.25        -999.25        76.7924       78.90162        -999.25           41.4         0.9322        -999.25         0.8912         0.8485        -999.25          -15.9         1.6092      0.9766302              1
      7945.5000        -999.25           1152        -999.25        -999.25         75.283       77.19121        -999.25           40.8          0.924        -999.25         0.8825         0.8485        -999.25          -15.6         1.8903      0.9402385              1
      7946.0000        -999.25           1152        -999.25        -999.25        72.2642        73.7704        -999.25          40.62         0.9079        -999.25         0.8653         0.8402        -999.25          -15.6         1.8714      0.8674554              1
      7946.5000        -999.25           1168        -999.25        -999.25        70.7547       72.05989        -999.25          41.82         0.8825        -999.25         0.8569          0.832        -999.25          -15.6         1.8525      0.8310615              1
      7947.0000        -999.25           1184        -999.25        -999.25        70.3774       71.63235        -999.25          43.14         0.9079        -999.25         0.8569         0.8239        -999.25          -15.6         1.8336      0.8219649              1
      7947.5000        -999.25           1200        -999.25        -999.25        70.3774       71.63235        -999.25           43.8         0.9404        -999.25         0.8569         0.8239        -999.25          -15.6         1.8147      0.8219649              1
      7948.0000        -999.25           1176        -999.25        -999.25        70.3774       71.63235        -999.25          42.84         0.9322        -999.25         0.8485         0.8159        -999.25            -15         2.3958      0.8219649              1
      7948.5000        -999.25       1151.852        -999.25        -999.25        70.3487       71.59982        -999.25          42.12            0.9        -999.25         0.8825         0.8159        -999.25          -15.3         2.0769      0.8212729              1
      7949.0000        -999.25       1119.352        -999.25        -999.25        70.3015       71.54633        -999.25          40.68         0.8653        -999.25         0.9079          0.832        -999.25          -15.6          1.758      0.8201348              1
      7949.5000        -999.25        1078.43        -999.25        -999.25        70.2543       71.49286        -999.25        38.7551         0.8485        -999.25         0.9322         0.8569        -999.25          -15.6         1.7391       0.818997              1
      7950.0000        -999.25       1053.403        -999.25        -999.25        70.2072       71.43948        -999.25        37.9592         0.8739        -999.25         0.9487         0.8825        -999.25          -15.3         2.0202      0.8178612              1
      7950.5000        -999.25        -999.25        -999.25        -999.25        -999.25        -999.25        -999.25         37.898          0.957        -999.25         0.9487            0.9        -999.25       -14.6875         2.6138        -999.25              1
      7951.0000        -999.25        -999.25        -999.25        -999.25        -999.25        -999.25        -999.25         37.898         1.0473        -999.25         0.9487         0.8739        -999.25        -14.375         2.9074        -999.25              1
      7951.5000        -999.25        -999.25        -999.25        -999.25        -999.25        -999.25        -999.25        38.1429         1.0187        -999.25         0.9487          0.832        -999.25        -14.375         2.8885        -999.25              1
      7952.0000        -999.25        -999.25        -999.25        -999.25        -999.25        -999.25        -999.25          40.26         0.9404        -999.25          0.957         0.8079        -999.25          -15.9         1.3446        -999.25              1
      7952.5000        -999.25        -999.25        -999.25        -999.25        -999.25        -999.25        -999.25          42.96         0.8653        -999.25          0.957         0.7859        -999.25          -18.9        -1.6742        -999.25              1
      7953.0000        -999.25        -999.25        -999.25        -999.25        -999.25        -999.25        -999.25          44.16         0.8485        -999.25          0.957          0.772        -999.25          -21.6        -4.3931        -999.25      0.9648073
      7953.5000        -999.25        -999.25        -999.25        -999.25        -999.25        -999.25        -999.25           44.1         0.8485        -999.25          0.957          0.772        -999.25          -20.1         -2.912        -999.25      0.9865882
      7954.0000        -999.25        -999.25        -999.25        -999.25        -999.25        -999.25        -999.25          44.04         0.8653        -999.25          0.957          0.772        -999.25          -18.9        -1.7309        -999.25              1
      7954.5000        -999.25        -999.25        -999.25        -999.25        -999.25        -999.25        -999.25        -999.25         0.8825        -999.25          0.957          0.772        -999.25          -22.8        -5.6498        -999.25      0.9463265
      7955.0000        -999.25        -999.25        -999.25        -999.25        -999.25        -999.25        -999.25        -999.25            0.9        -999.25          0.957          0.772        -999.25          -26.1        -8.9571        -999.25      0.8976897
