#------------------------------------------------------------------------------
# Created by    : vladimir.rabinovich
# Created on    : 09/19/2023 17:22:32
#------------------------------------------------------------------------------
~Version Information Section
VERS.           2.0     :   CWLS log ASCII Standard - VERSION 2.0
WRAP.           NO      :   One line per depth step
~Well Information Section
#MNEM       .UNIT                                         VALUE :DESCRIPTION
#------------------------------------------------------------------------------
STRT        .FT                                            2450 :START DEPTH
STOP        .FT                                            9560 :STOP DEPTH
STEP        .FT                                             0.5 :STEP      
NULL        .                                           -999.25 :NULL      
COMP        .                               TALOS PETROLEUM LLC :COMPANY   
WELL        .                                OCS 00301 ST00BP00 :WELL      
FLD         .                           WEST CAMERON BLOCK 0045 :FIELD     
LOC         .                                                   :LOCATION  
CNTY        .                                      WEST CAMERON :LOCATION  
STAT        .                                         LOUISIANA :STATE     
CTRY        .                                     UNITED STATES :COUNTRY   
SRVC        .                                                   :SERVICE COMPANY
DATE        .                             9/13/2023 11:18:49 AM :LOG DATE  
API         .                                    17700410870000 :API NUMBER
UWI         .                                    17700410870000 :UNIQUE WELL ID
XCOORD      .                                  1447194.98921956 :SURFACE X 
YCOORD      .                                  10757079.9124673 :SURFACE Y 
LAT         .                                        29.6390336 :LATITUDE  
LON         .                                       -93.6084245 :LONGITUDE 
ELEV        .FT                                              96 :ELEVATION VALUE
ELEV_TYPE   .                                                KB :ELEVATION REFERENCE TYPE
~Curve Information Section
#MNEM       .UNIT                                      API CODE :CURVE DESCRIPTION
#------------------------------------------------------------------------------
DEPT        .FT                                                 :DEPTH     
CNC         .%                                                  :          
DCAL        .IN                                                 :          
GR          .GAPI                                               :          
GR_NORM     .GAPI                                               :GammaRay Normalized
M0C6        .MMHO                                               :          
M2R1        .OHMM                                               :          
M2R2        .OHMM                                               :          
M2R3        .OHMM                                               :          
M2R6        .OHMM                                               :          
M2R9        .OHMM                                               :          
M2RX        .OHMM                                               :          
SP          .MV                                                 :          
SP_NORM     .MV                                                 :SP Normalized
TEN         .LB/F                                               :          
VSH_GR      .V/V                                                :Volume of Shale from GR
VSH_SP      .V/V                                                :Volume of Shale from SP
ZCOR        .G/CC                                               :          
ZDEN        .G/CC                                               :          
~A        DEPTH            CNC           DCAL             GR        GR_NORM           M0C6           M2R1           M2R2           M2R3           M2R6           M2R9           M2RX             SP        SP_NORM            TEN         VSH_GR         VSH_SP           ZCOR           ZDEN
# ...
      9058.0000         29.565          0.206         52.035       42.36656        1440.02          1.021          0.742          0.663          0.634          0.618          0.605        -58.234       -48.7102         -4.654      0.1992885        0.11436         -0.024          2.082
      9058.5000         30.881          0.264         56.858       49.37096       1414.983          1.051          0.773          0.692          0.663          0.646          0.632        -55.804       -46.2802           5.33      0.3483182      0.1585418          0.014          2.166
      9059.0000         31.701          0.343          62.91        58.1594       1389.766          1.139          0.842          0.754          0.723          0.704          0.689        -48.639       -39.1152         20.713      0.5353063      0.2888145          0.018          2.272
      9059.5000         32.479          0.406         68.882       66.83172       1365.585          1.216           0.91          0.817          0.785          0.764          0.747        -38.358       -28.8342          30.29      0.7198238      0.4757418          0.017          2.329
      9060.0000         34.594          0.441         72.883       72.64296       1343.573          1.178          0.912          0.827          0.798          0.779          0.762        -27.975       -18.4512         23.171      0.8434672      0.6645236          0.025          2.318
      9060.5000         37.021          0.442          73.64       73.74567       1324.216          1.034          0.833          0.766          0.743          0.729          0.715        -20.236       -10.7122         -0.276      0.8669291      0.8052327          0.042          2.314
      9061.0000         38.212          0.407         72.262       71.74944       1307.169          0.923          0.753          0.699          0.682          0.671           0.66        -16.283        -6.7592        -16.318      0.8244561      0.8771055          0.042          2.324
      9061.5000         38.456          0.354         69.932        68.3712       1291.259          0.936          0.744          0.688          0.673          0.663          0.653        -16.204        -6.6802         -6.288      0.7525787      0.8785418          0.039          2.298
      9062.0000         36.663          0.309         66.593       63.52852        1274.88          1.096          0.809          0.737          0.719          0.709          0.699        -19.868       -10.3442          3.008      0.6495429      0.8119236         -0.002          2.187
      9062.5000         32.814           0.28         63.353       58.82956       1256.457          1.368          0.907          0.806          0.785          0.774          0.764        -25.801       -16.2772        -15.118      0.5495651      0.7040509         -0.016          2.142
      9063.0000         30.103          0.271         62.357       57.38764       1234.938          1.638          0.981          0.851          0.828          0.816          0.806        -31.119       -21.5952        -43.022      0.5188859        0.60736         -0.003          2.157
      9063.5000         30.168          0.288         63.537       59.10434       1210.056          1.867          1.034           0.88          0.856          0.843          0.834        -33.722       -24.1982        -54.597      0.5554114      0.5600327          0.002          2.181
      9064.0000         31.881          0.332         65.239       61.57871       1182.398          2.076          1.085           0.91          0.886          0.872          0.863        -33.534       -24.0102        -51.738      0.6080577      0.5634509         -0.014          2.202
      9064.5000         32.011          0.387         67.009       64.15179       1153.258          2.221          1.128          0.939          0.914            0.9          0.892        -31.622       -22.0982        -46.048      0.6628039      0.5982146         -0.005          2.247
      9065.0000         29.907          0.439          69.24       67.39388       1124.368          2.283          1.164          0.967          0.943          0.929          0.922         -28.81       -19.2862        -43.595      0.7317848      0.6493418          0.022          2.313
      9065.5000         28.121          0.494         71.041       70.01197       1097.618          2.275          1.194          0.995          0.973          0.958          0.952        -25.319       -15.7952        -43.425      0.7874888      0.7128145          0.034          2.358
      9066.0000         28.098          0.552         71.319       70.41941       1074.751          2.194           1.21          1.015          0.995           0.98          0.975        -21.717       -12.1932        -42.187      0.7961577      0.7783055          0.034          2.362
      9066.5000         29.262          0.597         71.424        70.5756       1057.196          2.068          1.203          1.019          1.001          0.988          0.983        -19.108        -9.5842         -46.62      0.7994809      0.8257418           0.03          2.362
      9067.0000          30.33          0.605         72.544       72.20518       1045.841          1.967          1.188          1.015          0.999          0.987          0.983        -18.303        -8.7792        -53.487      0.8341529      0.8403782          0.033          2.363
      9067.5000         30.392          0.578         73.921       74.20783       1041.007           1.97          1.196          1.026           1.01          0.999          0.997        -19.075        -9.5512        -48.079      0.8767624      0.8263418          0.019          2.319
      9068.0000         30.103          0.551         73.857       74.11884       1042.323          2.081          1.236          1.057          1.042          1.032           1.03        -19.945       -10.4212        -31.339       0.874869      0.8105236         -0.004          2.285
      9068.5000         30.536          0.554         73.158       73.10804       1048.833          2.123          1.253          1.072          1.057          1.048          1.046        -19.426        -9.9022        -14.905      0.8533626        0.81996         -0.004          2.302
      9069.0000         31.353          0.587         72.877       72.70409       1059.079          1.954          1.205          1.041          1.027           1.02          1.019        -17.585        -8.0612         -0.499      0.8447678      0.8534327          0.044          2.372
      9069.5000         31.124          0.628         72.498       72.15788       1071.325          1.704          1.127           0.99          0.977          0.972          0.971        -15.493        -5.9692         12.745      0.8331463      0.8914691          0.054          2.395
      9070.0000         30.452           0.66         72.596       72.30389       1083.773          1.501          1.061           0.95          0.938          0.933          0.932        -13.835        -4.3112         13.122      0.8362529      0.9216145          0.039          2.383
      9070.5000          31.04          0.676          74.95       75.72466        1094.81          1.333          1.001          0.913          0.902          0.899          0.898        -12.886        -3.3622         -4.095      0.9090352      0.9388691          0.049          2.383
      9071.0000         32.954          0.679         77.949       80.08165       1103.242          1.179          0.937           0.87          0.859          0.857          0.855        -12.471        -2.9472        -21.175              1      0.9464145          0.059          2.383
      9071.5000         34.284          0.692         78.624       81.06519        1108.49          1.064          0.883          0.832          0.823          0.821          0.819        -12.198        -2.6742        -24.254              1      0.9513782          0.057          2.374
