#------------------------------------------------------------------------------
# Created by    : vladimir.rabinovich
# Created on    : 09/19/2023 17:20:14
#------------------------------------------------------------------------------
~Version Information Section
VERS.           2.0     :   CWLS log ASCII Standard - VERSION 2.0
WRAP.           NO      :   One line per depth step
~Well Information Section
#MNEM       .UNIT                                         VALUE :DESCRIPTION
#------------------------------------------------------------------------------
STRT        .FT                                             920 :START DEPTH
STOP        .FT                                            7860 :STOP DEPTH
STEP        .FT                                             0.5 :STEP      
NULL        .                                           -999.25 :NULL      
COMP        .                               ARCO OIL & GAS CORP :COMPANY   
WELL        .                               OCS G10568 ST00BP00 :WELL      
FLD         .                                           WILDCAT :FIELD     
LOC         .                                                   :LOCATION  
CNTY        .                                 WEST CAMERON WEST :LOCATION  
STAT        .                                         LOUISIANA :STATE     
CTRY        .                                     UNITED STATES :COUNTRY   
SRVC        .                                                   :SERVICE COMPANY
DATE        .                             9/13/2023 11:18:15 AM :LOG DATE  
API         .                                    17701402460000 :API NUMBER
UWI         .                                    17701402460000 :UNIQUE WELL ID
XCOORD      .                                  1443937.81344993 :SURFACE X 
YCOORD      .                                  10680295.6485051 :SURFACE Y 
LAT         .                                        29.4277648 :LATITUDE  
LON         .                                       -93.6173961 :LONGITUDE 
ELEV        .FT                                             100 :ELEVATION VALUE
ELEV_TYPE   .                                                KB :ELEVATION REFERENCE TYPE
~Curve Information Section
#MNEM       .UNIT                                      API CODE :CURVE DESCRIPTION
#------------------------------------------------------------------------------
DEPT        .FT                                                 :DEPTH     
ASFL        .OHMM                                               :          
CALI        .IN                                                 :          
DPHI        .%                                                  :          
DRHO        .G/CC                                               :          
DT          .US/F                                               :          
GR          .GAPI                                               :          
GR_1        .GAPI                                               :          
GR_NORM     .GAPI                                               :GammaRay Normalized
ILD         .OHMM                                               :          
ILM         .OHMM                                               :          
NPHI        .%                                                  :          
RFOC        .OHMM                                               :          
SP          .MV                                                 :          
SP_NORM     .MV                                                 :SP Normalized
VSH_GR      .V/V                                                :Volume of Shale from GR
VSH_SP      .V/V                                                :Volume of Shale from SP
~A        DEPTH           ASFL           CALI           DPHI           DRHO             DT             GR           GR_1        GR_NORM            ILD            ILM           NPHI           RFOC             SP        SP_NORM         VSH_GR         VSH_SP
# ...
      5096.0000        -999.25        14.1067        27.5378         0.0665       129.2791       120.6716       104.7472       88.35037         0.8862          0.936        39.4059         1.1863       -46.8918      0.5195999              1              1
      5096.5000        -999.25        14.1181        27.3223         0.0548        128.687       117.8242       104.0195       87.62064         0.8909         0.9405        38.9149         1.1924       -46.9877      0.4222374              1              1
      5097.0000        -999.25        14.1129        27.5093         0.0549       128.0276       115.7388       103.0099       86.60902          0.895         0.9449        38.5632         1.2032        -47.403     0.00548172              1              1
      5097.5000        -999.25        14.0889        28.0511         0.0699       127.1135        114.301       101.0116       84.60868         0.8979         0.9457        38.4991           1.21       -47.8646     -0.4575806              1              1
      5098.0000        -999.25        14.1454        28.9912         0.0907       126.3778       112.3855        98.1389       81.73396         0.9007         0.9465        39.2181         1.2047       -48.2216     -0.8160362              1              1
      5098.5000        -999.25        14.2492        29.5476         0.1119       126.4574       110.6488        96.2485       79.84152         0.9022          0.942         40.173         1.1874       -48.3539     -0.9497986      0.9966281              1
      5099.0000        -999.25        14.2496        29.4675         0.1203       127.2568       111.1804        95.7043        79.2953         0.9037          0.937        40.2281         1.1766       -48.3787     -0.9760551      0.9850063              1
      5099.5000        -999.25        14.1774        28.6303         0.0958       128.0916       111.6831        96.8562       80.44517          0.902          0.931        39.7493         1.1727       -48.3917     -0.9905167              1              1
      5100.0000        -999.25        14.1814         27.429         0.0734       128.7822       111.2529        99.8915       83.47844         0.8997         0.9258        38.9234           1.18       -48.5044      -1.104671              1              1
      5100.5000        -999.25        14.2231        26.7551         0.0633       129.3062       109.4241       103.5453        87.1302         0.8965         0.9214        38.2997         1.1911       -48.5267      -1.128433              1              1
      5101.0000        -999.25         14.163        26.1755         0.0555       129.4817       109.2622       102.5361       86.11897         0.8928          0.918        37.7763         1.1896       -48.5315      -1.134693              1              1
      5101.5000        -999.25        14.1124        25.9047         0.0503       129.5459       109.3613       102.5253       86.10614         0.8877         0.9147        38.0406         1.1796       -48.5585      -1.163151              1              1
      5102.0000        -999.25         14.123        25.9886         0.0507       129.5198       111.2469       104.3065       87.88531         0.8795         0.9096        38.6467         1.1685       -48.5336      -1.139709              1              1
      5102.5000        -999.25        14.1364        26.1317          0.055       129.4355        114.317       105.0554       88.63218         0.8623         0.9046        39.2052         1.1713       -48.3809      -0.988472              1              1
      5103.0000        -999.25        14.1448        26.2331         0.0593       129.2598       117.0969       104.8651       88.43985         0.8526         0.9004        39.7833          1.172       -47.8898     -0.4988289              1              1
      5103.5000        -999.25        14.1039         26.274         0.0635       128.9883       119.2013        105.045       88.61772          0.848         0.8991        40.2408         1.1706       -47.3542     0.03531265              1              1
      5104.0000        -999.25        14.0774         26.166         0.0684       128.8469       116.9717       106.1473       89.71799         0.8454         0.9028        40.6552         1.1655       -47.0135      0.3745537              1              1
      5104.5000        -999.25        14.0714        26.0969         0.0719       128.9216       113.9752       107.7229       91.29156         0.8479         0.9072        40.9681         1.1582       -46.8875      0.4990921              1              1
      5105.0000        -999.25        14.0769        26.1783          0.074       129.2246       112.8212       108.1997       91.76633          0.857         0.9182        40.9456         1.1504       -46.8349      0.5502357              1              1
      5105.5000        -999.25          14.09        26.2244         0.0748       129.4275       113.8281       106.6459       90.21049         0.8738         0.9335        40.7744         1.1457       -46.8353      0.5483742              1              1
      5106.0000        -999.25        14.0869        26.1079          0.076       129.2288       114.6689       103.5035       87.06607         0.8927          0.954        40.7035         1.1487       -46.7269      0.6553192              1              1
      5106.5000        -999.25        14.0722          25.76         0.0784       127.7572       113.6821       100.5873       84.14784         0.9193         0.9807        40.6185         1.1966       -46.5806      0.8001595              1              1
      5107.0000        -999.25         14.019        25.2822         0.0824       125.0441       112.1788        98.2657       81.82421         0.9645         1.0074        39.4667         1.2521        -46.395      0.9842987              1              1
      5107.5000        -999.25        13.9662          24.83         0.0862       122.4897       111.6588        96.6495       80.20598          1.003         1.0331        37.9326         1.2944         -46.29       1.087841              1              1
      5108.0000        -999.25        13.9192        24.7408         0.0898       120.5911       111.7524         96.984       80.53845         1.0225         1.0594        36.3914         1.3162       -46.2033        1.17308              1              1
      5108.5000        -999.25        13.9494        25.1489          0.091       119.4456        111.623        97.4854       81.03782          1.043         1.0843        35.9876         1.3099       -46.2426       1.132324              1              1
      5109.0000        -999.25        14.0887        25.4702         0.0888        119.946       110.1838        96.6897       80.24009         1.0677         1.1068        36.1866         1.2858       -46.7366      0.6368637              1              1
      5109.5000        -999.25        14.2112         25.688         0.0843       120.8093       109.8322        94.7339       78.28226         1.0916         1.1301        36.3677         1.2663       -47.3387     0.03330612      0.9634525              1
      5110.0000        -999.25        14.2755        25.7158         0.0812       121.6193       112.0597        93.5989       77.14523         1.1142         1.1542        36.2484         1.2626       -47.9123     -0.5417557      0.9392601              1
      5110.5000        -999.25        14.2088        25.2783         0.0796       122.0745       114.2614        92.7117         76.256         1.1198         1.1584        36.0408         1.3037       -48.5316      -1.162514      0.9203404              1
      5111.0000        -999.25        14.0981        24.7224         0.0801       121.8408       110.4025         91.764       75.30627         1.1135         1.1434        35.3975         1.3707         -48.98      -1.612373      0.9001333              1
      5111.5000        -999.25         13.975        24.2906         0.0815       121.4861       103.7338        91.0707       74.61094         1.0937         1.1125        34.2259         1.4376       -49.0871      -1.720932      0.8853391              1
