#------------------------------------------------------------------------------
# Created by    : vladimir.rabinovich
# Created on    : 09/19/2023 17:22:13
#------------------------------------------------------------------------------
~Version Information Section
VERS.           2.0     :   CWLS log ASCII Standard - VERSION 2.0
WRAP.           NO      :   One line per depth step
~Well Information Section
#MNEM       .UNIT                                         VALUE :DESCRIPTION
#------------------------------------------------------------------------------
STRT        .FT                                            4265 :START DEPTH
STOP        .FT                                           12768 :STOP DEPTH
STEP        .FT                                             0.5 :STEP      
NULL        .                                           -999.25 :NULL      
COMP        .                                SHELL OFFSHORE INC :COMPANY   
WELL        .                               OCS G04749 ST00BP02 :WELL      
FLD         .                                           WILDCAT :FIELD     
LOC         .                                                   :LOCATION  
CNTY        .                                      WEST CAMERON :LOCATION  
STAT        .                                         LOUISIANA :STATE     
CTRY        .                                     UNITED STATES :COUNTRY   
SRVC        .                                                   :SERVICE COMPANY
DATE        .                             9/13/2023 11:19:06 AM :LOG DATE  
API         .                                    17700406070000 :API NUMBER
UWI         .                                    17700406070000 :UNIQUE WELL ID
XCOORD      .                                   1486969.7252092 :SURFACE X 
YCOORD      .                                  10728694.6404599 :SURFACE Y 
LAT         .                                        29.5614647 :LATITUDE  
LON         .                                       -93.4828123 :LONGITUDE 
ELEV        .FT                                              98 :ELEVATION VALUE
ELEV_TYPE   .                                                KB :ELEVATION REFERENCE TYPE
~Curve Information Section
#MNEM       .UNIT                                      API CODE :CURVE DESCRIPTION
#------------------------------------------------------------------------------
DEPT        .FT                                                 :DEPTH     
CALI        .IN                                                 :          
DRHO        .G/C3                                               :          
DT          .US/F                                               :          
GR          .GAPI                                               :          
GR_1        .GAPI                                               :          
GR_NORM     .GAPI                                               :GammaRay Normalized
ILD         .OHMM                                               :          
ILM         .OHMM                                               :          
NPHI        .%                                                  :          
RHOB        .G/C3                                               :          
SFL         .OHMM                                               :          
SP          .MV                                                 :          
SP_NORM     .MV                                                 :SP Normalized
VSH_GR      .V/V                                                :Volume of Shale from GR
VSH_SP      .V/V                                                :Volume of Shale from SP
~A        DEPTH           CALI           DRHO             DT             GR           GR_1        GR_NORM            ILD            ILM           NPHI           RHOB            SFL             SP        SP_NORM         VSH_GR         VSH_SP
# ...
      5030.0000        13.1268         0.0598       122.7633        -999.25        63.8294        72.8585         0.5329         0.6907        38.6157         2.0995         0.8968       -64.1742       -26.6432      0.8480532      0.6283594
      5030.5000        12.9343         0.0401       121.6505        -999.25        64.7533        73.7834         0.5247         0.6888         40.741         2.0865         0.9436       -64.0363       -26.5379      0.8677319      0.6298855
      5031.0000        12.6713         0.0281       120.6428        -999.25        66.5099        75.5411         0.5184          0.692        41.2986         2.1081         0.9938       -62.8822       -25.4165      0.9051298      0.6461377
      5031.5000        12.5728         0.0252       120.1681        -999.25        67.9978          77.03         0.5169         0.7036        41.6193         2.1489         1.0473       -61.1055       -23.6724      0.9368085      0.6714145
      5032.0000        12.5691         0.0476        120.231        -999.25        69.3004        78.3336         0.5168         0.7211        42.2027         2.1786         1.0588       -58.9392       -21.5387      0.9645447      0.7023377
      5032.5000        12.5813         0.0776         120.88        -999.25        70.0978        79.1321         0.5245          0.738        42.0023         2.2066         1.0421       -56.6309        -19.263      0.9815341      0.7353188
      5033.0000        12.5954         0.0999       121.1338        -999.25        70.8932        79.9285         0.5343         0.7533        40.4462         2.2322         1.0226       -54.3875       -17.0523      0.9984787       0.767358
      5033.5000        12.6061          0.106       120.4044        -999.25        72.7037          81.74         0.5473         0.7667         39.451         2.2368         1.0271         -52.81       -15.5074              1      0.7897478
      5034.0000        12.6122         0.0805       119.1157        -999.25        72.0583        81.0957         0.5607         0.7754        39.3776         2.2127         1.0445        -51.832        -14.562              1      0.8034493
      5034.5000        12.5931         0.0625       118.2325        -999.25        69.7556         78.794         0.5745         0.7829        40.6754         2.1909         1.0365       -51.0632       -13.8258      0.9743404      0.8141189
      5035.0000        12.5741         0.0525       117.7955        -999.25        65.9362        74.9757          0.587         0.7853        44.1555          2.175         1.0214       -50.3785       -13.1737         0.8931      0.8235695
      5035.5000        12.5847         0.0469       117.6071        -999.25        64.5883        73.6288         0.5996         0.7873        47.9976         2.1647         1.0148       -49.7236       -12.5515      0.8644425      0.8325869
      5036.0000        12.6035         0.0512       118.0054        -999.25        67.1265         76.168         0.6172         0.7899        48.3647         2.1618          1.036       -49.0021       -11.8626      0.9184681       0.842571
      5036.5000        12.6423          0.059       118.8253        -999.25        69.5836        78.6262         0.6335         0.7962        45.9047         2.1663         1.0432       -48.0876       -10.9807      0.9707702      0.8553522
      5037.0000        12.6949         0.0548       118.9139        -999.25        71.2811        80.3247         0.6511         0.8049        43.4031         2.1634         1.0207       -46.8115        -9.7372              1      0.8733739
      5037.5000        12.7635         0.0483       118.7214        -999.25        71.1782        80.2229         0.6696         0.8183        43.2184         2.1463         0.9938        -45.056        -8.0144              1       0.898342
      5038.0000        12.8411         0.0434       118.4595        -999.25        69.9238        78.9695         0.6873         0.8326        43.8201         2.1423         0.9711       -43.9318        -6.9228      0.9780744      0.9141623
      5038.5000        12.8592          0.042       118.3508        -999.25        68.5753         77.622         0.7038         0.8479         43.964         2.1375         0.9594       -42.9569        -5.9805      0.9494043      0.9278188
      5039.0000        12.7984         0.0429       119.0105        -999.25        67.0009        76.0487         0.7164          0.852          44.09         2.1295         0.9905       -42.2242        -5.2804      0.9159297      0.9379652
      5039.5000        12.7213         0.0498       124.0376        -999.25        67.5156        76.5644         0.7278          0.854         44.482         2.1236         1.0281       -41.3975        -4.4863      0.9269021      0.9494739
      5040.0000        12.6649         0.0591       127.5901        -999.25        70.5253        79.5752         0.7299         0.8469        44.6128         2.1153         1.0206       -40.4943        -3.6158      0.9909618      0.9620898
      5040.5000        12.6086         0.0667       130.8372        -999.25        71.8694        80.9203         0.7291           0.83        45.1122         2.1015         0.9684       -39.0974        -2.2515              1      0.9818623
      5041.0000        12.5392         0.0634       133.8501        -999.25        72.0436        81.0955          0.715         0.7997        46.6948         2.0837         0.8974       -36.9883         -0.175              1              1
      5041.5000        12.4746         0.0454       134.7744        -999.25        73.7534        82.8064         0.7011         0.7507        49.9125         2.0235          0.843        -35.916         0.8647              1              1
      5042.0000        12.4221         0.0302       134.6462        -999.25        75.4058        84.4598         0.6907         0.7104        51.0894         2.0069         0.7944       -35.8541         0.8939              1              1
      5042.5000        12.3777         0.0253        133.656        -999.25        76.8573        85.9124          0.686         0.6912        51.2392         2.0028         0.7637       -36.2637         0.4517              1              1
      5043.0000        12.3452          0.036       132.0676        -999.25        78.2905        87.3466         0.6799         0.6761        50.9982         2.0267         0.7522       -36.1834         0.4994              1              1
      5043.5000        12.3589         0.0458       130.6963        -999.25        79.1537        88.2108         0.6701         0.6666         50.187         2.0446         0.7611       -35.7463         0.9039              1              1
      5044.0000        12.3781         0.0542       130.4417        -999.25        79.5172        88.5754         0.6603         0.6607         48.287         2.0606         0.7905       -35.2026          1.415              1              1
      5044.5000        12.3853         0.0559       130.9629        -999.25        80.5813        89.6405         0.6543         0.6577        47.1999         2.0648         0.8203       -35.2568         1.3281              1              1
      5045.0000        12.3642         0.0525       131.0073        -999.25        81.0748         90.135         0.6492         0.6545         48.863         2.0556         0.8432       -35.7009         0.8514              1              1
      5045.5000        12.3287          0.049       130.4028        -999.25        81.3451        90.4064          0.649         0.6512         51.363          2.045         0.8546       -36.4112         0.1085              1              1
      5046.0000        12.2993          0.052       129.9954        -999.25        81.6029        90.6652         0.6487         0.6474        52.1884          2.037         0.8397       -37.1115        -0.6244              1              1
      5046.5000         12.305         0.0561       130.0181        -999.25        81.5876         90.651          0.648         0.6422        51.3118         2.0384         0.8199       -37.4984         -1.044              1      0.9993623
