#------------------------------------------------------------------------------
# Created by    : vladimir.rabinovich
# Created on    : 09/19/2023 17:22:24
#------------------------------------------------------------------------------
~Version Information Section
VERS.           2.0     :   CWLS log ASCII Standard - VERSION 2.0
WRAP.           NO      :   One line per depth step
~Well Information Section
#MNEM       .UNIT                                         VALUE :DESCRIPTION
#------------------------------------------------------------------------------
STRT        .FT                                             955 :START DEPTH
STOP        .FT                                            8851 :STOP DEPTH
STEP        .FT                                             0.5 :STEP      
NULL        .                                           -999.25 :NULL      
COMP        .                                SHELL OFFSHORE INC :COMPANY   
WELL        .                               OCS G08627 ST00BP00 :WELL      
FLD         .                                           WILDCAT :FIELD     
LOC         .                                                   :LOCATION  
CNTY        .                                 WEST CAMERON WEST :LOCATION  
STAT        .                                         LOUISIANA :STATE     
CTRY        .                                     UNITED STATES :COUNTRY   
SRVC        .                                                   :SERVICE COMPANY
DATE        .                             9/13/2023 11:18:15 AM :LOG DATE  
API         .                                    17701402000000 :API NUMBER
UWI         .                                    17701402000000 :UNIQUE WELL ID
XCOORD      .                                  1405165.89752093 :SURFACE X 
YCOORD      .                                  10654404.2103889 :SURFACE Y 
LAT         .                                        29.3559214 :LATITUDE  
LON         .                                       -93.7387067 :LONGITUDE 
ELEV        .FT                                             100 :ELEVATION VALUE
ELEV_TYPE   .                                                KB :ELEVATION REFERENCE TYPE
~Curve Information Section
#MNEM       .UNIT                                      API CODE :CURVE DESCRIPTION
#------------------------------------------------------------------------------
DEPT        .FT                                                 :DEPTH     
CALX        .IN                                                 :          
DRHO        .G/C3                                               :          
DT          .US/F                                               :          
GR          .GAPI                                               :          
GR_NORM     .GAPI                                               :GammaRay Normalized
ILD         .OHMM                                               :          
ILM         .OHMM                                               :          
LL          .OHMM                                               :          
NPHI        .%                                                  :          
RHOB        .G/C3                                               :          
SP          .MV                                                 :          
SP_NORM     .MV                                                 :SP Normalized
VSH_GR      .V/V                                                :Volume of Shale from GR
VSH_SP      .V/V                                                :Volume of Shale from SP
~A        DEPTH           CALX           DRHO             DT             GR        GR_NORM            ILD            ILM             LL           NPHI           RHOB             SP        SP_NORM         VSH_GR         VSH_SP
# ...
      5185.0000         11.456         0.0372       121.8497        80.0314       70.93689         1.0796         1.0005         0.8213        45.6891         2.1249       -79.4507      -1.190201      0.8071679      0.9913545
      5185.5000        11.5804         0.0331        123.006        79.9395       70.83571         1.0723         0.9979         0.8061        47.1727         2.1183        -79.866      -1.600388      0.8050151      0.9727097
      5186.0000        11.9561         0.0295       124.5785         78.954       69.76327         1.0702         0.9954          0.789        47.6379         2.1178       -80.3037       -2.03299      0.7821972      0.9530459
      5186.5000        13.9192         0.0257       121.7738        77.7463        68.4493         1.0641         0.9945         0.7749        46.1498         2.1232       -80.3761      -2.100281      0.7542405      0.9499872
      5187.0000        14.3618         0.0218       116.6667        77.3605       68.02867         1.0554         0.9945          0.771        41.5231         2.1356       -80.2098      -1.928871      0.7452909      0.9577786
      5187.5000        14.1045         0.0195        111.605        78.5718       69.34396         1.0456         0.9985         0.8013        39.8368         2.1545       -80.1932      -1.907166      0.7732758      0.9587652
      5188.0000        13.4361         0.0179       107.5831        81.1589       72.15463         1.0367         0.9999         0.8408        39.0522          2.184       -80.2897      -1.998566      0.8330773      0.9546106
      5188.5000        11.8447         0.0166       104.9492        83.7958       75.01943         1.0271         0.9993         0.8667        39.3395         2.2088        -79.908      -1.611748      0.8940305      0.9721933
      5189.0000        11.7718         0.0166       106.4576        83.9614       75.19814         1.0172         0.9934          0.878        39.8651         2.2222       -80.1012      -1.799843      0.8978328      0.9636435
      5189.5000        11.7782         0.0176       111.9441        82.9996       74.15144         1.0014         0.9837         0.8836        40.2111         2.2226       -80.3734       -2.06694      0.8755626      0.9515027
      5190.0000        11.8819         0.0202       119.4049        81.8549       72.90595         0.9904         0.9666         0.8386        40.3968         2.2117       -80.7169      -2.405334      0.8490628      0.9361212
      5190.5000         12.353          0.025       132.6736        80.5177       71.45123         0.9806         0.9519         0.8006        40.6696         2.1888       -82.1643      -3.847626      0.8181114      0.8705625
      5191.0000        12.4652         0.0312       134.6982        78.8632       69.65163         0.9747         0.9415         0.7768        43.1156         2.1643       -81.6329      -3.311119       0.779822      0.8949491
      5191.5000        12.4473          0.039        135.374         76.774       67.37955         0.9711         0.9316         0.7847        45.0494         2.1398       -80.9823      -2.655411      0.7314799      0.9247541
      5192.0000         12.514         0.0508       133.2563        75.7544       66.27004         0.9672         0.9289         0.7832        46.4271         2.1097       -81.6665      -3.334503      0.7078732      0.8938862
      5192.5000        12.4509           0.06       126.0367        76.2567        66.8147         0.9641         0.9294         0.7627        47.1041         2.0474       -81.2633      -2.926201      0.7194618      0.9124454
      5193.0000        12.1015         0.0625       120.7513        77.0468       67.67219         0.9623         0.9321         0.7518        47.5674         1.9946       -80.0624      -1.720192      0.7377061       0.967264
      5193.5000        11.3301         0.0564        117.988        77.9767       68.68163         0.9612         0.9353         0.7883        47.7756         1.9871       -79.0698     -0.7224884      0.7591835              1
      5194.0000        10.9926         0.0448       115.6041        79.2864       70.10387         0.9592         0.9348         0.7988        47.3866         2.0369       -78.5216     -0.1691818       0.789444              1
      5194.5000        10.8407         0.0352       113.5216        81.7167       72.74411         0.9549          0.929         0.7936        46.7194         2.0979       -78.8207     -0.4631729      0.8456194              1
      5195.0000        10.7385         0.0266       112.6257        83.8779       75.09186         0.9542         0.9211         0.7931        45.2403         2.1586       -78.5746     -0.2119675      0.8955715              1
      5195.5000        10.7473         0.0192       112.6663         84.775       76.06564         0.9536         0.9124         0.8142        43.4593          2.191       -78.1893      0.1784363      0.9162903              1
      5196.0000         10.995         0.0134       116.1593        83.8281       75.03515         0.9497         0.9001         0.8473        42.4521          2.193       -78.0146      0.3582458      0.8943649              1
      5196.5000        11.2579          0.016       120.8921        82.9476       74.07683         0.9415         0.8882         0.7845        43.3795         2.1831       -79.1825     -0.8045502       0.873975              1
      5197.0000        11.1667         0.0243       123.6353        83.9103        75.1219         0.9308         0.8769         0.7209        45.1315         2.1631       -78.3828   0.0002593994      0.8962107              1
      5197.5000        11.0344         0.0341       125.7164        86.5671       78.00833         0.9175         0.8613         0.7193        46.5196         2.1456       -78.2391      0.1490707      0.9576241              1
      5198.0000        11.0766         0.0376       126.8092        88.6488       80.26968         0.9001         0.8397         0.7254        46.9766         2.1341       -78.5674     -0.1741257              1              1
      5198.5000        11.6797         0.0279       127.5735        89.7626       81.47899         0.8824         0.8225         0.7117        46.3082         2.1295       -77.9666       0.431778              1              1
      5199.0000        11.6283         0.0178       128.1072         89.636       81.34009         0.8639         0.8076         0.6955        45.9575         2.1305       -77.7805      0.6229858              1              1
      5199.5000        11.3976         0.0084       128.9004         89.307       80.98119         0.8449         0.7972         0.6841        45.8948         2.1317       -77.9757      0.4328918              1              1
      5200.0000        11.0916         0.0026       130.9265        90.6345       82.42278         0.8292         0.7875         0.6944        45.7267         2.1311       -77.8423      0.5714035              1              1
      5200.5000        11.0731         0.0004       132.5078        94.2986       86.40407         0.8115         0.7779         0.7031        46.0133         2.1305       -77.5646      0.8542099              1              1
      5201.0000        11.1419         0.0015       133.4561        94.5264       86.65038          0.803         0.7682         0.6976        46.2286         2.1318       -78.8103     -0.3863907              1              1
      5201.5000        11.2771          0.005       132.1172        91.8259       83.71387         0.7999         0.7619         0.6847         46.514         2.1403       -78.2889      0.1401215              1              1
      5202.0000        11.5418         0.0144       130.4932        89.7058       81.40821         0.7995         0.7561          0.693        47.3484         2.1538       -77.1322       1.301926              1              1
      5202.5000        11.7209         0.0256       129.2571        88.1707       79.73838         0.8012         0.7527         0.7132        49.1913         2.1635       -77.0283       1.410934      0.9944336              1
