#------------------------------------------------------------------------------
# Created by    : vladimir.rabinovich
# Created on    : 09/19/2023 17:20:47
#------------------------------------------------------------------------------
~Version Information Section
VERS.           2.0     :   CWLS log ASCII Standard - VERSION 2.0
WRAP.           NO      :   One line per depth step
~Well Information Section
#MNEM       .UNIT                                         VALUE :DESCRIPTION
#------------------------------------------------------------------------------
STRT        .FT                                             612 :START DEPTH
STOP        .FT                                            9868 :STOP DEPTH
STEP        .FT                                             0.5 :STEP      
NULL        .                                           -999.25 :NULL      
COMP        .                                      SHELL OIL CO :COMPANY   
WELL        .                               OCS G00950 ST00BP00 :WELL      
FLD         .                                           WILDCAT :FIELD     
LOC         .                                                   :LOCATION  
CNTY        .                                      EAST CAMERON :LOCATION  
STAT        .                                         LOUISIANA :STATE     
CTRY        .                                     UNITED STATES :COUNTRY   
SRVC        .                                                   :SERVICE COMPANY
DATE        .                             9/13/2023 11:18:15 AM :LOG DATE  
API         .                                    17703002450000 :API NUMBER
UWI         .                                    17703002450000 :UNIQUE WELL ID
XCOORD      .                                  1691932.89207312 :SURFACE X 
YCOORD      .                                   10460306.475122 :SURFACE Y 
LAT         .                                        28.8238717 :LATITUDE  
LON         .                                       -92.8390619 :LONGITUDE 
ELEV        .FT                                              75 :ELEVATION VALUE
ELEV_TYPE   .                                                KB :ELEVATION REFERENCE TYPE
~Curve Information Section
#MNEM       .UNIT                                      API CODE :CURVE DESCRIPTION
#------------------------------------------------------------------------------
DEPT        .FT                                                 :DEPTH     
ASN         .OHMM                                               :          
GR          .GAPI                                               :          
GR_NORM     .GAPI                                               :GammaRay Normalized
ILD         .OHMM                                               :          
SP          .MV                                                 :          
SP_NORM     .MV                                                 :SP Normalized
VSH_GR      .V/V                                                :Volume of Shale from GR
VSH_SP      .V/V                                                :Volume of Shale from SP
~A        DEPTH            ASN             GR        GR_NORM            ILD             SP        SP_NORM         VSH_GR         VSH_SP
# ...
      4299.5000         0.7759        -999.25        -999.25         0.5493       -53.5016       -12.3044        -999.25      0.7430818
      4300.0000         0.7618        -999.25        -999.25         0.5574       -52.3756       -11.1622        -999.25      0.7690409
      4300.5000         0.7344        -999.25        -999.25         0.5625       -50.8094        -9.5798        -999.25      0.8050045
      4301.0000         0.7137        -999.25        -999.25         0.5617       -49.4858          -8.24        -999.25      0.8354545
      4301.5000         0.7067        -999.25        -999.25          0.559        -48.188         -6.926        -999.25      0.8653182
      4302.0000         0.7027        -999.25        -999.25         0.5562        -46.937        -5.6588        -999.25      0.8941182
      4302.5000         0.6985        -999.25        -999.25         0.5476       -45.7513        -4.4569        -999.25      0.9214341
      4303.0000         0.6929        -999.25        -999.25         0.5373       -46.2216         -4.911        -999.25      0.9111136
      4303.5000          0.685        -999.25        -999.25         0.5281       -47.2805        -5.9537        -999.25      0.8874159
      4304.0000         0.6905        -999.25        -999.25         0.5209       -47.9922        -6.6492        -999.25      0.8716091
      4304.5000         0.6953        -999.25        -999.25         0.5174       -47.3365        -5.9773        -999.25      0.8868796
      4305.0000         0.6994        -999.25        -999.25         0.5143       -46.6187        -5.2433        -999.25      0.9035614
      4305.5000         0.6878        -999.25        -999.25         0.5103       -46.1172        -4.7256        -999.25      0.9153273
      4306.0000         0.6661        -999.25        -999.25         0.5041        -45.692        -4.2842        -999.25      0.9253591
      4306.5000         0.6508        -999.25        -999.25         0.4925       -45.6564        -4.2324        -999.25      0.9265364
      4307.0000         0.6622        -999.25        -999.25         0.4836       -45.9766        -4.5364        -999.25      0.9196272
      4307.5000          0.677        -999.25        -999.25         0.4747        -46.386        -4.9296        -999.25      0.9106909
      4308.0000         0.6705        -999.25        -999.25          0.464       -46.8816         -5.409        -999.25      0.8997955
      4308.5000         0.6584        -999.25        -999.25          0.445       -46.8683        -5.3795        -999.25      0.9004659
      4309.0000         0.6479        -999.25        -999.25         0.4381       -46.1003        -4.5953        -999.25      0.9182886
      4309.5000         0.6409        -999.25        -999.25         0.4371       -45.0544        -3.5592        -999.25      0.9418364
      4310.0000         0.6308        -999.25        -999.25         0.4415       -44.3826         -2.907        -999.25      0.9566591
      4310.5000         0.6147        -999.25        -999.25         0.4595       -44.2385        -2.7824        -999.25      0.9594909
      4311.0000          0.612        -999.25        -999.25         0.4769       -44.5714        -3.1349        -999.25      0.9514796
      4311.5000         0.6283        -999.25        -999.25         0.4934       -45.1492        -3.7323        -999.25      0.9379023
      4312.0000         0.6472        -999.25        -999.25         0.5079       -45.8978        -4.5005        -999.25      0.9204432
      4312.5000         0.6631        -999.25        -999.25         0.5183       -47.0724        -5.6947        -999.25      0.8933023
      4313.0000         0.6773        -999.25        -999.25         0.5186       -48.5906        -7.2325        -999.25      0.8583522
      4313.5000         0.6934        -999.25        -999.25         0.5092       -50.9769        -9.6384        -999.25      0.8036727
      4314.0000         0.7138        -999.25        -999.25         0.4983       -53.7756       -12.4567        -999.25      0.7396204
      4314.5000         0.7369        -999.25        -999.25         0.4856       -58.6872       -17.3878        -999.25        0.62755
      4315.0000         0.7551        -999.25        -999.25         0.4727       -63.1297       -21.8499        -999.25      0.5261387
      4315.5000         0.7705        -999.25        -999.25         0.4598       -66.4985       -25.2383        -999.25      0.4491296
      4316.0000         0.7711        -999.25        -999.25         0.4462       -68.7776        -27.537        -999.25      0.3968863
      4316.5000         0.7695        -999.25        -999.25         0.4324       -70.0605       -28.8395        -999.25      0.3672841
      4317.0000         0.7474        -999.25        -999.25         0.4173       -71.5209       -30.3195        -999.25      0.3336477
      4317.5000         0.7284        -999.25        -999.25         0.4028       -72.3761       -31.1943        -999.25      0.3137659
      4318.0000          0.713        -999.25        -999.25         0.3888        -73.299       -32.1368        -999.25      0.2923455
      4318.5000         0.7149        -999.25        -999.25         0.3731       -74.4575       -33.3148        -999.25      0.2655727
      4319.0000          0.714        -999.25        -999.25         0.3559       -77.3942       -36.2711        -999.25      0.1983841
      4319.5000          0.679        -999.25        -999.25          0.342       -79.3408       -38.2373        -999.25      0.1536977
      4320.0000         0.6485        -999.25        -999.25         0.3321       -81.0708       -39.9869        -999.25      0.1139341
      4320.5000         0.6341        -999.25        -999.25         0.3216       -82.6099       -41.5456        -999.25     0.07850907
      4321.0000         0.6237        -999.25        -999.25         0.3114       -84.2094       -43.1647        -999.25     0.04171138
      4321.5000         0.6127        -999.25        -999.25         0.3019       -84.9469       -43.9218        -999.25     0.02450457
      4322.0000         0.5996        -999.25        -999.25         0.2923        -84.234       -43.2285        -999.25     0.04026135
      4322.5000         0.5811        -999.25        -999.25         0.2967       -82.3944       -41.4084        -999.25     0.08162724
      4323.0000           0.57        -999.25        -999.25         0.3111        -80.614       -39.6476        -999.25      0.1216455
      4323.5000         0.5824        -999.25        -999.25         0.3305       -78.6488        -37.702        -999.25      0.1658636
      4324.0000         0.6135        -999.25        -999.25         0.3526       -76.8488       -35.9216        -999.25      0.2063273
      4324.5000         0.6481        -999.25        -999.25         0.3764       -74.9709       -34.0633        -999.25      0.2485613
      4325.0000         0.6558        -999.25        -999.25         0.3963       -73.9471       -33.0591        -999.25      0.2713841
      4325.5000         0.6426        -999.25        -999.25         0.3973        -73.507       -32.6386        -999.25      0.2809409
      4326.0000         0.6299        -999.25        -999.25         0.3729       -73.8757       -33.0269        -999.25      0.2721159
      4326.5000         0.6177        -999.25        -999.25         0.3406       -74.7998       -33.9705        -999.25      0.2506704
      4327.0000          0.597        -999.25        -999.25         0.3154       -76.2134       -35.4037        -999.25      0.2180977
      4327.5000         0.5845        -999.25        -999.25          0.297       -77.9052       -37.1151        -999.25      0.1792023
      4328.0000         0.5523        -999.25        -999.25         0.2787       -79.9762       -39.2057        -999.25      0.1316886
      4328.5000         0.5194        -999.25        -999.25         0.2607       -81.5209         -40.77        -999.25     0.09613635
