#------------------------------------------------------------------------------
# Created by    : vladimir.rabinovich
# Created on    : 09/19/2023 17:22:32
#------------------------------------------------------------------------------
~Version Information Section
VERS.           2.0     :   CWLS log ASCII Standard - VERSION 2.0
WRAP.           NO      :   One line per depth step
~Well Information Section
#MNEM       .UNIT                                         VALUE :DESCRIPTION
#------------------------------------------------------------------------------
STRT        .FT                                            2450 :START DEPTH
STOP        .FT                                            9560 :STOP DEPTH
STEP        .FT                                             0.5 :STEP      
NULL        .                                           -999.25 :NULL      
COMP        .                               TALOS PETROLEUM LLC :COMPANY   
WELL        .                                OCS 00301 ST00BP00 :WELL      
FLD         .                           WEST CAMERON BLOCK 0045 :FIELD     
LOC         .                                                   :LOCATION  
CNTY        .                                      WEST CAMERON :LOCATION  
STAT        .                                         LOUISIANA :STATE     
CTRY        .                                     UNITED STATES :COUNTRY   
SRVC        .                                                   :SERVICE COMPANY
DATE        .                             9/13/2023 11:18:49 AM :LOG DATE  
API         .                                    17700410870000 :API NUMBER
UWI         .                                    17700410870000 :UNIQUE WELL ID
XCOORD      .                                  1447194.98921956 :SURFACE X 
YCOORD      .                                  10757079.9124673 :SURFACE Y 
LAT         .                                        29.6390336 :LATITUDE  
LON         .                                       -93.6084245 :LONGITUDE 
ELEV        .FT                                              96 :ELEVATION VALUE
ELEV_TYPE   .                                                KB :ELEVATION REFERENCE TYPE
~Curve Information Section
#MNEM       .UNIT                                      API CODE :CURVE DESCRIPTION
#------------------------------------------------------------------------------
DEPT        .FT                                                 :DEPTH     
CNC         .%                                                  :          
DCAL        .IN                                                 :          
GR          .GAPI                                               :          
GR_NORM     .GAPI                                               :GammaRay Normalized
M0C6        .MMHO                                               :          
M2R1        .OHMM                                               :          
M2R2        .OHMM                                               :          
M2R3        .OHMM                                               :          
M2R6        .OHMM                                               :          
M2R9        .OHMM                                               :          
M2RX        .OHMM                                               :          
SP          .MV                                                 :          
SP_NORM     .MV                                                 :SP Normalized
TEN         .LB/F                                               :          
VSH_GR      .V/V                                                :Volume of Shale from GR
VSH_SP      .V/V                                                :Volume of Shale from SP
ZCOR        .G/CC                                               :          
ZDEN        .G/CC                                               :          
~A        DEPTH            CNC           DCAL             GR        GR_NORM           M0C6           M2R1           M2R2           M2R3           M2R6           M2R9           M2RX             SP        SP_NORM            TEN         VSH_GR         VSH_SP           ZCOR           ZDEN
# ...
      2926.0000        -999.25          3.545         78.473       84.06673       1898.891          0.461          0.469          0.485          0.501           0.51          0.529         -4.995        -2.4226        -38.218              1      0.9906089        -999.25        -999.25
      2926.5000        -999.25          3.552         78.384       83.95492       1884.628           0.46          0.467          0.481          0.495          0.503           0.52           -5.2        -2.6317         -43.45              1      0.9859622        -999.25        -999.25
      2927.0000        -999.25          3.548         78.437       84.02149       1867.061          0.463          0.466          0.476          0.487          0.494          0.509         -5.347        -2.7828        -42.151              1      0.9826044        -999.25        -999.25
      2927.5000        -999.25          3.558         77.249       82.52905       1846.685           0.48          0.475           0.48          0.487          0.491          0.505         -5.599        -3.0389        -39.113              1      0.9769133        -999.25        -999.25
      2928.0000        -999.25          3.621          73.17        77.4047       1824.648          0.525          0.506          0.503          0.505          0.507          0.519         -6.588         -4.032        -45.249      0.9447809      0.9548444        -999.25        -999.25
      2928.5000        -999.25          3.715          67.09       69.76657       1802.692          0.608          0.564           0.55          0.545          0.543          0.554         -9.008        -6.4561        -51.237      0.7822675      0.9009756        -999.25        -999.25
      2929.0000        -999.25          3.789         61.384       62.59827       1782.874          0.728          0.642          0.609          0.594          0.587          0.597        -13.045       -10.4972         -36.64      0.6297504      0.8111733        -999.25        -999.25
      2929.5000        -999.25          3.868         57.261       57.41866       1767.206           0.86          0.717          0.659          0.631          0.617          0.624        -18.181       -15.6373         -17.62      0.5195459      0.6969489        -999.25        -999.25
      2930.0000        -999.25          3.994          55.55       55.26918        1757.22          0.968           0.77          0.687          0.644          0.624          0.628        -23.208       -20.6684        -19.737      0.4738123      0.5851467        -999.25        -999.25
      2930.5000        -999.25          4.159         54.508       53.96014       1753.671          1.025          0.796          0.693          0.638          0.612          0.612        -26.999       -24.4635         -40.55      0.4459604      0.5008112        -999.25        -999.25
      2931.0000        -999.25          4.353         51.538       50.22901       1756.368          1.041          0.806          0.688          0.624          0.594           0.59        -29.388       -26.8566        -56.215      0.3665746      0.4476311        -999.25        -999.25
      2931.5000        -999.25          4.556         48.367       46.24536       1764.285          1.044          0.814          0.685          0.612          0.579          0.572        -30.974       -28.4467        -55.409      0.2818162      0.4122956        -999.25        -999.25
      2932.0000        -999.25          4.743         46.892       44.39236       1775.801          1.036          0.819          0.681          0.602          0.566          0.556        -32.295       -29.7718        -46.121      0.2423906      0.3828489        -999.25        -999.25
      2932.5000        -999.25          4.928         47.212       44.79437       1789.115           1.01          0.813          0.672          0.588          0.551          0.538        -33.406       -30.8869         -43.88      0.2509441      0.3580689        -999.25        -999.25
      2933.0000        -999.25          5.151         48.278       46.13356       1802.609          0.976            0.8          0.661          0.575          0.537          0.522        -34.127        -31.612        -47.609      0.2794374      0.3419556        -999.25        -999.25
      2933.5000        -999.25          5.468         48.288       46.14612       1815.152          0.949          0.793          0.655          0.567          0.528          0.512          -34.5       -31.9891        -46.222      0.2797047      0.3335756        -999.25        -999.25
      2934.0000        -999.25           5.92         45.818       43.04312       1826.214          0.932          0.794          0.656          0.565          0.524          0.506        -34.735       -32.2282        -43.619      0.2136834      0.3282622        -999.25        -999.25
      2934.5000        -999.25          6.442         43.086       39.61098       1835.812          0.918          0.797           0.66          0.566          0.523          0.503        -34.884       -32.3813        -48.163      0.1406593      0.3248599        -999.25        -999.25
      2935.0000        -999.25          6.904         42.941       39.42883       1844.294          0.904          0.797          0.661          0.565          0.521            0.5        -34.907       -32.4084         -52.88      0.1367835      0.3242577        -999.25        -999.25
      2935.5000        -999.25          7.202         45.185       42.24791       1852.105          0.887          0.791          0.657          0.561          0.517          0.495        -34.798       -32.3035        -48.238      0.1967639      0.3265889        -999.25        -999.25
      2936.0000        -999.25          7.327         47.138        44.7014       1859.597           0.87           0.78           0.65          0.555          0.511          0.489        -34.549       -32.0586        -39.388       0.248966      0.3320311        -999.25        -999.25
      2936.5000        -999.25          7.353         46.197       43.51925       1866.972           0.86          0.772          0.644           0.55          0.506          0.483        -34.246       -31.7597        -39.042      0.2238138      0.3386733        -999.25        -999.25
      2937.0000        -999.25           7.35         43.607        40.2655       1874.322          0.859          0.769          0.642          0.548          0.503          0.481        -34.088       -31.6058        -37.993      0.1545852      0.3420933        -999.25        -999.25
      2937.5000        -999.25          7.323         43.325       39.91123        1881.74          0.866          0.771          0.641          0.547          0.503           0.48        -34.101       -31.6229        -25.751      0.1470475      0.3417133        -999.25        -999.25
      2938.0000        -999.25          7.258         45.712       42.90996       1889.397          0.878          0.774          0.642          0.547          0.502          0.479          -34.1        -31.626        -18.706      0.2108502      0.3416445        -999.25        -999.25
      2938.5000        -999.25          7.139         47.288       44.88985        1897.52          0.894          0.777          0.642          0.547          0.502          0.479        -33.989       -31.5191        -33.224      0.2529755        0.34402        -999.25        -999.25
      2939.0000        -999.25           6.95         46.609       44.03683       1906.295          0.913           0.78          0.642          0.546          0.502           0.48        -33.943       -31.4772        -48.476      0.2348262      0.3449511        -999.25        -999.25
      2939.5000        -999.25          6.729         45.838       43.06825        1915.68          0.941          0.787          0.644          0.548          0.504          0.482        -34.104       -31.6423        -49.012      0.2142181      0.3412822        -999.25        -999.25
