#------------------------------------------------------------------------------
# Created by    : vladimir.rabinovich
# Created on    : 09/19/2023 17:20:44
#------------------------------------------------------------------------------
~Version Information Section
VERS.           2.0     :   CWLS log ASCII Standard - VERSION 2.0
WRAP.           NO      :   One line per depth step
~Well Information Section
#MNEM       .UNIT                                         VALUE :DESCRIPTION
#------------------------------------------------------------------------------
STRT        .FT                                             194 :START DEPTH
STOP        .FT                                           14521 :STOP DEPTH
STEP        .FT                                             0.5 :STEP      
NULL        .                                           -999.25 :NULL      
COMP        .                             MAGNOLIA PETROLEUM CO :COMPANY   
WELL        .                                OCS 00043 ST00BP00 :WELL      
FLD         .                          EUGENE ISLAND BLOCK 0089 :FIELD     
LOC         .                                                   :LOCATION  
CNTY        .                                     EUGENE ISLAND :LOCATION  
STAT        .                                         LOUISIANA :STATE     
CTRY        .                                     UNITED STATES :COUNTRY   
SRVC        .                                                   :SERVICE COMPANY
DATE        .                             9/13/2023 11:18:42 AM :LOG DATE  
API         .                                    17709003920000 :API NUMBER
UWI         .                                    17709003920000 :UNIQUE WELL ID
XCOORD      .                                  2056408.80151155 :SURFACE X 
YCOORD      .                                  10562022.8372996 :SURFACE Y 
LAT         .                                        29.0974849 :LATITUDE  
LON         .                                       -91.6970667 :LONGITUDE 
ELEV        .FT                                              50 :ELEVATION VALUE
ELEV_TYPE   .                                                KB :ELEVATION REFERENCE TYPE
~Curve Information Section
#MNEM       .UNIT                                      API CODE :CURVE DESCRIPTION
#------------------------------------------------------------------------------
DEPT        .FT                                                 :DEPTH     
ASN         .OHMM                                               :          
LAT         .OHMM                                               :          
LN          .OHMM                                               :          
SP          .MV                                                 :          
SP_NORM     .MV                                                 :SP Normalized
VSH_SP      .V/V                                                :Volume of Shale from SP
~A        DEPTH            ASN            LAT             LN             SP        SP_NORM         VSH_SP
# ...
      5894.0000         0.5964         0.1781         0.2961       -66.2264       7.052696              1
      5894.5000         0.5982         0.1818         0.2911       -66.4297       6.846855              1
      5895.0000         0.6001         0.1867         0.2861       -66.7783        6.49572              1
      5895.5000         0.6017         0.1947         0.2811        -67.127       6.144478              1
      5896.0000          0.603         0.2027         0.2778       -67.9436       5.325333              1
      5896.5000         0.6044         0.2108         0.2749       -68.7986       4.467796              1
      5897.0000         0.6057         0.2188         0.2721       -69.4515       3.812347              1
      5897.5000          0.607         0.2269         0.2692        -70.105       3.156303              1
      5898.0000         0.6084         0.2349         0.2664       -70.8807       2.378067              1
      5898.5000         0.6084         0.2437         0.2582       -71.7584       1.497826              1
      5899.0000         0.6077          0.255         0.2488       -72.5663      0.6873856              1
      5899.5000         0.6071         0.2663         0.2393       -73.2053     0.04584503              1
      5900.0000         0.6065         0.2777          0.229        -73.844     -0.5954056      0.9851149
      5900.5000         0.6059          0.289         0.2173       -74.2866      -1.040543      0.9739864
      5901.0000         0.6051         0.3004         0.2056       -74.6967      -1.453186      0.9636704
      5901.5000         0.6019         0.3117         0.1939       -75.1288      -1.887825      0.9528044
      5902.0000         0.5986         0.3213         0.1832       -75.6218      -2.383369      0.9404157
      5902.5000         0.5953         0.3307         0.1769       -76.1166      -2.880707      0.9279823
      5903.0000         0.5921         0.3402         0.1705       -76.6134      -3.380058      0.9154986
      5903.5000         0.5879         0.3496         0.1641        -77.175      -3.944199       0.901395
      5904.0000         0.5812          0.359         0.1578       -77.8048      -4.576538      0.8855866
      5904.5000         0.5746         0.3635          0.152       -78.6199       -5.39418      0.8651455
      5905.0000         0.5672         0.3681         0.1481       -79.5206      -6.297417      0.8425646
      5905.5000          0.559         0.3727         0.1443       -81.3921      -8.171455      0.7957136
      5906.0000         0.5509         0.3501         0.1404       -84.5063      -11.28821      0.7177948
      5906.5000         0.5339         0.3239         0.1366       -88.1716      -14.95605      0.6260988
      5907.0000         0.5137         0.2977         0.1328       -92.2178      -19.00478      0.5248804
      5907.5000         0.4631         0.2715         0.1289       -95.4182      -22.20773      0.4448069
      5908.0000         0.4143         0.2453         0.1276       -98.6277      -25.41977      0.3645058
      5908.5000          0.376         0.2191         0.1266      -104.1743      -30.96891      0.2257772
      5909.0000         0.3287         0.1855         0.1257      -105.8555      -32.65265      0.1836838
      5909.5000         0.3098         0.1513         0.1248      -107.3849       -34.1846       0.145385
      5910.0000         0.2967         0.1254         0.1238      -108.2458      -35.04803      0.1237991
      5910.5000         0.2888         0.1062         0.1229      -108.8131      -35.61788       0.109553
      5911.0000          0.281         0.0871          0.122       -109.188      -35.99532      0.1001169
      5911.5000         0.2751         0.0828         0.1214      -109.4803      -36.29016     0.09274597
      5912.0000         0.2728         0.0829          0.121      -109.7728       -36.5852     0.08537006
      5912.5000         0.2705         0.0829         0.1206      -109.8695      -36.68445      0.0828888
      5913.0000         0.2682          0.083         0.1202      -109.9485      -36.76599     0.08085022
      5913.5000         0.2658         0.0831         0.1198      -110.0275      -36.84753     0.07881184
      5914.0000         0.2638         0.0831         0.1194      -110.1064      -36.92897     0.07677574
      5914.5000         0.2628         0.0859          0.119      -110.1854      -37.01051     0.07473717
      5915.0000         0.2618         0.0901         0.1186      -110.2561      -37.08376     0.07290611
      5915.5000         0.2609         0.0942         0.1181      -110.3207       -37.1509     0.07122745
      5916.0000         0.2599         0.0984         0.1177      -110.3853      -37.21804     0.06954899
      5916.5000          0.259         0.1026         0.1172      -110.4498      -37.28508       0.067873
      5917.0000          0.258         0.1067         0.1167      -110.5143      -37.35212     0.06619702
      5917.5000          0.257         0.1109         0.1163      -110.5789      -37.41927     0.06451835
      5918.0000         0.2561          0.115         0.1158      -110.6415      -37.48441     0.06288986
      5918.5000         0.2552         0.1192         0.1154      -110.6628      -37.50826     0.06229363
      5919.0000         0.2544          0.125         0.1129      -110.6841      -37.53209     0.06169777
      5919.5000         0.2536         0.1307         0.1103      -110.7054      -37.55593     0.06110172
      5920.0000         0.2528         0.1365         0.1077      -110.7267      -37.57977     0.06050568
      5920.5000          0.252         0.1422         0.1052       -110.748      -37.60361     0.05990963
      5921.0000         0.2512          0.148         0.1026      -110.7693      -37.62746     0.05931358
      5921.5000         0.2504         0.1537            0.1      -110.7906      -37.65131     0.05871735
      5922.0000         0.2496         0.1595         0.0977       -110.812      -37.67524     0.05811901
      5922.5000         0.2488         0.1636          0.096      -110.8375      -37.70329     0.05741787
      5923.0000          0.248         0.1663         0.0943      -110.8633      -37.73162     0.05670948
      5923.5000         0.2472         0.1691         0.0926      -110.8892      -37.76006     0.05599842
      5924.0000         0.2465         0.1719          0.091      -110.9149      -37.78831     0.05529232
      5924.5000         0.2457         0.1746         0.0893      -110.9408      -37.81675     0.05458126
      5925.0000         0.2454         0.1774         0.0876      -110.9666      -37.84509     0.05387268
      5925.5000         0.2452         0.1801         0.0849      -110.9879      -37.86893     0.05327664
      5926.0000         0.2449         0.1829         0.0823      -110.9929      -37.87647     0.05308819
      5926.5000         0.2446          0.182         0.0797       -110.998      -37.88412     0.05289707
      5927.0000         0.2443         0.1795          0.077      -111.0031      -37.89175     0.05270614
      5927.5000         0.2441          0.177         0.0744      -111.0082       -37.8994     0.05251503
      5928.0000         0.2438         0.1745         0.0717      -111.0132      -37.90694     0.05232639
      5928.5000         0.2435          0.172         0.0696      -111.0183      -37.91459     0.05213528
      5929.0000         0.2433         0.1694          0.068      -110.7841      -37.68293     0.05792675
      5929.5000          0.243         0.1669         0.0665       -110.521      -37.42237     0.06444073
      5930.0000         0.2427         0.1644         0.0649      -110.2581      -37.16201     0.07094975
      5930.5000         0.2424         0.1617         0.0633       -109.995      -36.90145     0.07746372
      5931.0000         0.2423         0.1587         0.0618       -109.678        -36.587     0.08532505
      5931.5000         0.2423         0.1558         0.0602      -109.1002      -36.01173     0.09970665
