#------------------------------------------------------------------------------
# Created by    : vladimir.rabinovich
# Created on    : 09/19/2023 17:20:42
#------------------------------------------------------------------------------
~Version Information Section
VERS.           2.0     :   CWLS log ASCII Standard - VERSION 2.0
WRAP.           NO      :   One line per depth step
~Well Information Section
#MNEM       .UNIT                                         VALUE :DESCRIPTION
#------------------------------------------------------------------------------
STRT        .FT                                            1866 :START DEPTH
STOP        .FT                                            8637 :STOP DEPTH
STEP        .FT                                             0.5 :STEP      
NULL        .                                           -999.25 :NULL      
COMP        .                           GENERAL AMERICAN OIL CO :COMPANY   
WELL        .                               OCS G01862 ST00BP00 :WELL      
FLD         .                           WEST CAMERON BLOCK 0045 :FIELD     
LOC         .                                                   :LOCATION  
CNTY        .                                      WEST CAMERON :LOCATION  
STAT        .                                         LOUISIANA :STATE     
CTRY        .                                     UNITED STATES :COUNTRY   
SRVC        .                                                   :SERVICE COMPANY
DATE        .                             9/13/2023 11:18:18 AM :LOG DATE  
API         .                                    17700004060000 :API NUMBER
UWI         .                                    17700004060000 :UNIQUE WELL ID
XCOORD      .                                  1439968.94212662 :SURFACE X 
YCOORD      .                                  10754878.8884152 :SURFACE Y 
LAT         .                                        29.6328727 :LATITUDE  
LON         .                                       -93.6311393 :LONGITUDE 
ELEV        .FT                                              51 :ELEVATION VALUE
ELEV_TYPE   .                                                KB :ELEVATION REFERENCE TYPE
~Curve Information Section
#MNEM       .UNIT                                      API CODE :CURVE DESCRIPTION
#------------------------------------------------------------------------------
DEPT        .FT                                                 :DEPTH     
ASN         .OHMM                                               :          
CALI        .IN                                                 :          
DRHO        .G/C3                                               :          
DT          .US/F                                               :          
GR          .GAPI                                               :          
GR_NORM     .GAPI                                               :GammaRay Normalized
ILD         .OHMM                                               :          
RHOB        .G/C3                                               :          
SP          .MV                                                 :          
SP_NORM     .MV                                                 :SP Normalized
VSH_GR      .V/V                                                :Volume of Shale from GR
VSH_SP      .V/V                                                :Volume of Shale from SP
~A        DEPTH            ASN           CALI           DRHO             DT             GR        GR_NORM            ILD           RHOB             SP        SP_NORM         VSH_GR         VSH_SP
# ...
      7032.0000         0.5555        11.6004        -999.25       109.1731        -999.25        -999.25         0.4917        -999.25       -64.5254       -30.5711        -999.25       0.586877
      7032.5000         0.6518         11.952        -999.25       111.4031        -999.25        -999.25          0.584        -999.25       -51.5892       -17.6369        -999.25      0.7616635
      7033.0000         0.7193          12.08        -999.25       113.7133        -999.25        -999.25         0.7368        -999.25       -45.1953       -11.2449        -999.25      0.8480419
      7033.5000         0.7587          11.96        -999.25       112.6802        -999.25        -999.25          0.899        -999.25       -41.5974         -7.649        -999.25      0.8966351
      7034.0000         0.7698        12.8138        -999.25        110.449        -999.25        -999.25         1.0005        -999.25       -40.9448        -6.9983        -999.25      0.9054283
      7034.5000         0.8006        12.3419        -999.25       108.6948        -999.25        -999.25          1.047        -999.25        -41.809        -7.8645        -999.25       0.893723
      7035.0000          0.836        12.9655        -999.25       108.0647        -999.25        -999.25         1.0876        -999.25        -43.491        -9.5484        -999.25      0.8709676
      7035.5000         0.8647        13.7269        -999.25       107.9153        -999.25        -999.25         1.1088        -999.25       -40.9995        -7.0589        -999.25      0.9046094
      7036.0000         0.8885        14.2196        -999.25       107.1593        -999.25        -999.25         1.1249        -999.25       -37.7098        -3.7711        -999.25      0.9490392
      7036.5000         0.9097        13.5366        -999.25       105.7443        -999.25        -999.25         1.1363        -999.25       -34.5945        -0.6578        -999.25      0.9911108
      7037.0000         0.9277         12.684        -999.25       104.5355        -999.25        -999.25         1.1467        -999.25       -32.4359         1.4989        -999.25              1
      7037.5000         0.9447        12.0881        -999.25       103.4894        -999.25        -999.25         1.1482        -999.25       -31.9657         1.9671        -999.25              1
      7038.0000         0.9614        11.8478        -999.25        103.564        -999.25        -999.25         1.1496        -999.25       -31.6444         2.2865        -999.25              1
      7038.5000         0.9782        11.8456        -999.25       104.6597        -999.25        -999.25         1.1401        -999.25       -31.8413         2.0877        -999.25              1
      7039.0000         0.9953        11.8753        -999.25       104.3057        -999.25        -999.25         1.1183        -999.25       -32.3073         1.6197        -999.25              1
      7039.5000         0.9954        11.9434        -999.25       105.2014        -999.25        -999.25         1.0812        -999.25       -33.2244         0.7007        -999.25              1
      7040.0000         0.9799        12.1783        -999.25        106.235        -999.25        -999.25         1.0368        -999.25       -34.9398        -1.0167        -999.25      0.9862608
      7040.5000         0.9595        12.0679        -999.25       105.4846        -999.25        -999.25         1.0024        -999.25       -38.1405        -4.2193        -999.25      0.9429824
      7041.0000         0.9242        11.9586        -999.25       107.5065        -999.25        -999.25         0.9679        -999.25       -44.1334       -10.2142        -999.25      0.8619702
      7041.5000         0.9046        11.9169        -999.25       107.7675        -999.25        -999.25           0.95        -999.25       -50.7352       -16.8179        -999.25      0.7727311
      7042.0000         0.9137        11.9333        -999.25       108.0022        -999.25        -999.25         0.9371        -999.25       -55.8889       -21.9736        -999.25      0.7030594
      7042.5000         0.9168        12.0128        -999.25       108.2606        -999.25        -999.25           0.93        -999.25       -56.7874        -22.874        -999.25      0.6908919
      7043.0000          0.895        12.2165        -999.25       108.4901        -999.25        -999.25         0.9362        -999.25       -49.7846       -15.8732        -999.25      0.7854973
      7043.5000         0.9091        12.5164        -999.25       108.5022        -999.25        -999.25         0.9585        -999.25       -45.5518       -11.6423        -999.25      0.8426716
      7044.0000         0.9777        12.3117        -999.25       106.2151        -999.25        -999.25         1.0046        -999.25        -42.741        -8.8335        -999.25      0.8806284
      7044.5000         1.0369        12.1682        -999.25       102.0309        -999.25        -999.25         1.0477        -999.25       -40.7303        -6.8247        -999.25      0.9077743
      7045.0000         1.0267        12.1458        -999.25        98.8158        -999.25        -999.25         1.0746        -999.25       -39.2209        -5.3173        -999.25      0.9281446
      7045.5000         0.9885        12.1026        -999.25        98.2828        -999.25        -999.25         1.0613        -999.25       -38.1999        -4.2982        -999.25      0.9419162
      7046.0000         0.9527        11.9536        -999.25       100.6644        -999.25        -999.25         1.0313        -999.25       -37.7598        -3.8601        -999.25      0.9478365
      7046.5000         0.9235        11.9881        -999.25       104.6747        -999.25        -999.25          0.995        -999.25       -37.8962        -3.9984        -999.25      0.9459676
      7047.0000         0.9477         12.057        -999.25       108.7942        -999.25        -999.25         0.9587        -999.25       -38.2858          -4.39        -999.25      0.9406757
      7047.5000         0.9901        11.9387        -999.25       108.4873        -999.25        -999.25         0.9273        -999.25       -38.7067        -4.8128        -999.25      0.9349622
      7048.0000          0.953        11.6475        -999.25       107.0499        -999.25        -999.25         0.8971        -999.25       -39.1031        -5.2112        -999.25      0.9295784
      7048.5000         0.9179        11.6058        -999.25       105.0522        -999.25        -999.25         0.8684        -999.25       -43.2199        -9.3299        -999.25      0.8739203
      7049.0000         0.8922        11.8866        -999.25       103.5577        -999.25        -999.25         0.8467        -999.25        -48.938         -15.05        -999.25      0.7966216
      7049.5000         0.8835        11.8561        -999.25       103.1949        -999.25        -999.25         0.8251        -999.25       -51.3552       -17.4691        -999.25      0.7639311
      7050.0000         0.8372         11.795        -999.25       103.0664        -999.25        -999.25         0.8032        -999.25        -51.437       -17.5529        -999.25      0.7627987
      7050.5000         0.7771        -999.25        -999.25        -999.25        -999.25        -999.25          0.781        -999.25       -46.9701       -13.0879        -999.25      0.8231365
      7051.0000         0.7296        -999.25        -999.25        -999.25        -999.25        -999.25         0.7789        -999.25        -41.679        -7.7988        -999.25      0.8946108
      7051.5000         0.7224        -999.25        -999.25        -999.25        -999.25        -999.25         0.7904        -999.25       -38.0811        -4.2028        -999.25      0.9432054
      7052.0000         0.7294        -999.25        -999.25        -999.25        -999.25        -999.25         0.8113        -999.25       -36.0686        -2.1923        -999.25      0.9703743
