#------------------------------------------------------------------------------
# Created by    : vladimir.rabinovich
# Created on    : 09/19/2023 17:21:57
#------------------------------------------------------------------------------
~Version Information Section
VERS.           2.0     :   CWLS log ASCII Standard - VERSION 2.0
WRAP.           NO      :   One line per depth step
~Well Information Section
#MNEM       .UNIT                                         VALUE :DESCRIPTION
#------------------------------------------------------------------------------
STRT        .FT                                             570 :START DEPTH
STOP        .FT                                           10083 :STOP DEPTH
STEP        .FT                                             0.5 :STEP      
NULL        .                                           -999.25 :NULL      
COMP        .                                BP EXPLORATION INC :COMPANY   
WELL        .                               OCS G10548 ST00BP00 :WELL      
FLD         .                                           WILDCAT :FIELD     
LOC         .                                                   :LOCATION  
CNTY        .                                      WEST CAMERON :LOCATION  
STAT        .                                         LOUISIANA :STATE     
CTRY        .                                     UNITED STATES :COUNTRY   
SRVC        .                                                   :SERVICE COMPANY
DATE        .                             9/13/2023 11:18:09 AM :LOG DATE  
API         .                                    17700408010000 :API NUMBER
UWI         .                                    17700408010000 :UNIQUE WELL ID
XCOORD      .                                  1469734.01149431 :SURFACE X 
YCOORD      .                                  10675810.5973196 :SURFACE Y 
LAT         .                                        29.4157778 :LATITUDE  
LON         .                                        -93.536275 :LONGITUDE 
ELEV        .FT                                              80 :ELEVATION VALUE
ELEV_TYPE   .                                                KB :ELEVATION REFERENCE TYPE
~Curve Information Section
#MNEM       .UNIT                                      API CODE :CURVE DESCRIPTION
#------------------------------------------------------------------------------
DEPT        .FT                                                 :DEPTH     
CALI        .IN                                                 :          
DPHI        .%                                                  :          
GR          .GAPI                                               :          
GR_1        .GAPI                                               :          
GR_NORM     .GAPI                                               :GammaRay Normalized
ILD         .OHMM                                               :          
ILM         .OHMM                                               :          
NPHI        .%                                                  :          
SFL         .OHMM                                               :          
SP          .MV                                                 :          
SP_NORM     .MV                                                 :SP Normalized
VSH_GR      .V/V                                                :Volume of Shale from GR
VSH_SP      .V/V                                                :Volume of Shale from SP
~A        DEPTH           CALI           DPHI             GR           GR_1        GR_NORM            ILD            ILM           NPHI            SFL             SP        SP_NORM         VSH_GR         VSH_SP
# ...
       608.0000        -999.25        -999.25        36.8582        -999.25       61.36234         1.3755         1.5068        -999.25         1.4927      -104.4611        -1.2065       0.603454              1
       608.5000        -999.25        -999.25        31.7782        -999.25       55.35533         1.3339         1.5009        -999.25         1.3488      -105.4965        -0.7365      0.4756454              1
       609.0000        -999.25        -999.25        27.5985        -999.25       50.41181         1.3218         1.4451        -999.25         1.1984      -106.3197         -1.566       0.370464              1
       609.5000        -999.25        -999.25        24.9696        -999.25       47.30039         1.3379         1.3023        -999.25         1.1544      -107.0006        -2.2532      0.3042636         0.9789
       610.0000        -999.25        -999.25        23.7063        -999.25       45.80239         1.3763         1.2125        -999.25         1.1318      -107.5667        -2.8256      0.2723912         0.9312
       610.5000        -999.25        -999.25        23.1348        -999.25       45.12155         1.4279         1.1918        -999.25         1.1243      -108.1188        -3.3839      0.2579053       0.884675
       611.0000        -999.25        -999.25        23.5757        -999.25       45.63687         1.4342         1.1925        -999.25         1.1198      -108.6604        -3.9318      0.2688696      0.8390167
       611.5000        -999.25        -999.25        24.6746        -999.25       46.92943         1.4118         1.2068        -999.25         1.1183      -108.9913         -4.269      0.2963709      0.8109167
       612.0000        -999.25        -999.25        26.0762        -999.25       48.57959         1.3871         1.2226        -999.25         1.1192      -109.1781        -4.4621      0.3314806       0.794825
       612.5000        -999.25        -999.25        26.9416        -999.25       49.59642         1.3673         1.2257        -999.25         1.1123      -109.2758         -4.566      0.3531152      0.7861667
       613.0000        -999.25        -999.25        27.1727        -999.25       49.86376         1.3614          1.215        -999.25         1.1029      -109.3583        -4.6548      0.3588035      0.7787667
       613.5000        -999.25        -999.25        25.6851        -999.25       48.10078         1.3556         1.2102        -999.25         1.0966       -109.481        -4.7838      0.3212931      0.7680166
       614.0000        -999.25        -999.25        23.2645        -999.25       45.23544         1.3593         1.2149        -999.25         1.0921       -109.578        -4.8871      0.2603284      0.7594083
       614.5000        -999.25        -999.25        21.8201        -999.25       43.52337         1.3639         1.2217        -999.25         1.0896      -109.6547          -4.97      0.2239015         0.7525
       615.0000        -999.25        -999.25        21.2613        -999.25       42.85765         1.3727         1.2346        -999.25         1.0872       -109.713        -5.0346      0.2097373      0.7471167
       615.5000        -999.25        -999.25        22.3296        -999.25       44.11406         1.3838         1.2389        -999.25         1.0845      -109.7878        -5.1157      0.2364693      0.7403584
       616.0000        -999.25        -999.25        23.7935        -999.25       45.83794         1.3939         1.2488        -999.25         1.0868      -109.8207        -5.1549      0.2731477      0.7370917
       616.5000        -999.25        -999.25        25.1939        -999.25       47.48669          1.401         1.2505        -999.25         1.0929      -109.7902        -5.1306      0.3082274      0.7391167
       617.0000        -999.25        -999.25        26.3041        -999.25       48.79259         1.4043         1.2567        -999.25         1.0964      -109.7874        -5.1341      0.3360127       0.738825
       617.5000        -999.25        -999.25        27.1606        -999.25        49.7989         1.4026         1.2521        -999.25         1.0954      -109.7057        -5.0587      0.3574235      0.7451083
       618.0000        -999.25        -999.25        27.6804        -999.25       50.40732         1.4007         1.2472        -999.25          1.091       -109.701        -5.0602      0.3703685      0.7449833
       618.5000        -999.25        -999.25        27.8087        -999.25       50.55334         1.3986         1.2397        -999.25         1.0803      -109.7811        -5.1466      0.3734753      0.7377834
       619.0000        -999.25        -999.25        27.5469        -999.25       50.23838         1.3954         1.2368        -999.25         1.0606      -109.8999        -5.2717      0.3667741      0.7273583
       619.5000        -999.25        -999.25        26.8069        -999.25        49.3586         1.3916         1.2329        -999.25          1.045      -110.0836        -5.4617      0.3480552       0.711525
       620.0000        -999.25        -999.25        25.9533        -999.25        48.3445         1.3897         1.2347        -999.25          1.039      -110.2825        -5.6668      0.3264787      0.6944333
       620.5000        -999.25        -999.25        25.2731        -999.25       47.53524         1.3905         1.2375        -999.25         1.0457      -110.4948        -5.8854      0.3092605      0.6762167
       621.0000        -999.25        -999.25        24.9988        -999.25       47.20564         1.3983         1.2395        -999.25         1.0633      -110.7865        -6.1834      0.3022476      0.6513833
       621.5000        -999.25        -999.25        25.1662        -999.25       47.39773         1.4116         1.2449        -999.25         1.0856      -111.0488         -6.452      0.3063347          0.629
       622.0000        -999.25        -999.25        25.4725        -999.25       47.75404         1.4264         1.2511        -999.25         1.1073      -111.2274        -6.6368      0.3139157         0.6136
       622.5000        -999.25        -999.25        25.8577        -999.25       48.20344         1.4436         1.2613        -999.25         1.1213      -111.3553         -6.771      0.3234774      0.6024167
       623.0000        -999.25        -999.25         25.403        -999.25       47.66059         1.4559         1.2702        -999.25         1.1345      -111.4753        -6.8973      0.3119275      0.5918917
       623.5000        -999.25        -999.25        21.9046        -999.25       43.52207         1.4522         1.2808        -999.25         1.1433      -111.6357         -7.064      0.2238738          0.578
       624.0000        -999.25        -999.25        20.4545        -999.25       41.80326           1.44         1.2844        -999.25         1.1464      -111.7593        -7.1938      0.1873035      0.5671833
       624.5000        -999.25        -999.25        21.0182        -999.25       42.46366         1.4244         1.2766        -999.25         1.1429      -111.9309        -7.3717      0.2013544      0.5523583
       625.0000        -999.25        -999.25        24.2348        -999.25       46.25805         1.4033         1.2557        -999.25         1.1231      -112.0919         -7.539      0.2820862      0.5384167
       625.5000        -999.25        -999.25        26.8325        -999.25       49.32127         1.3875         1.2411        -999.25         1.0929      -112.1544        -7.6078      0.3472611      0.5326833
       626.0000        -999.25        -999.25        28.0316        -999.25       50.73232         1.3865         1.2328        -999.25         1.0657       -112.158        -7.6176      0.3772835      0.5318667
       626.5000        -999.25        -999.25        28.2583        -999.25       50.99447          1.393         1.2261        -999.25          1.053       -112.075        -7.5409       0.382861      0.5382583
