#------------------------------------------------------------------------------
# Created by    : vladimir.rabinovich
# Created on    : 09/19/2023 17:19:36
#------------------------------------------------------------------------------
~Version Information Section
VERS.           2.0     :   CWLS log ASCII Standard - VERSION 2.0
WRAP.           NO      :   One line per depth step
~Well Information Section
#MNEM       .UNIT                                         VALUE :DESCRIPTION
#------------------------------------------------------------------------------
STRT        .FT                                          2840.5 :START DEPTH
STOP        .FT                                            9365 :STOP DEPTH
STEP        .FT                                             0.5 :STEP      
NULL        .                                           -999.25 :NULL      
COMP        .                              MCMORAN OIL & GAS CO :COMPANY   
WELL        .                                OCS 00757 ST00BP00 :WELL      
FLD         .                           WEST CAMERON BLOCK 0118 :FIELD     
LOC         .                                                   :LOCATION  
CNTY        .                                      WEST CAMERON :LOCATION  
STAT        .                                         LOUISIANA :STATE     
CTRY        .                                     UNITED STATES :COUNTRY   
SRVC        .                                                   :SERVICE COMPANY
DATE        .                             9/13/2023 11:18:49 AM :LOG DATE  
API         .                                    17700410710000 :API NUMBER
UWI         .                                    17700410710000 :UNIQUE WELL ID
XCOORD      .                                  1441592.04714169 :SURFACE X 
YCOORD      .                                  10704369.2355959 :SURFACE Y 
LAT         .                                        29.4939537 :LATITUDE  
LON         .                                       -93.6251728 :LONGITUDE 
ELEV        .FT                                              90 :ELEVATION VALUE
ELEV_TYPE   .                                                KB :ELEVATION REFERENCE TYPE
~Curve Information Section
#MNEM       .UNIT                                      API CODE :CURVE DESCRIPTION
#------------------------------------------------------------------------------
DEPT        .FT                                                 :DEPTH     
AHT10       .OHMM                                               :          
AHT20       .OHMM                                               :          
AHT30       .OHMM                                               :          
AHT60       .OHMM                                               :          
AHT90       .OHMM                                               :          
AHTCO90     .MMHO                                               :          
DPHZ        .DEC                                                :          
GR          .GAPI                                               :          
GR_NORM     .GAPI                                               :GammaRay Normalized
HCAL        .IN                                                 :          
HDRA        .G/CC                                               :          
HMIN        .OHMM                                               :          
HMNO        .OHMM                                               :          
NPOR        .DEC                                                :          
RHOZ        .G/CC                                               :          
RWA         .OHMM                                               :          
TENS        .LB                                                 :          
VSH_GR      .V/V                                                :Volume of Shale from GR
~A        DEPTH          AHT10          AHT20          AHT30          AHT60          AHT90        AHTCO90           DPHZ             GR        GR_NORM           HCAL           HDRA           HMIN           HMNO           NPOR           RHOZ            RWA           TENS         VSH_GR
# ...
      7236.5000         0.8284         0.6487          0.624         0.5466         0.5223       1914.639         0.2128        83.9901        78.0502         10.815         0.0057          0.874          0.773         0.3468          2.299         0.0302           3437      0.9585149
      7237.0000         0.8443         0.6544         0.6299         0.5469         0.5228       1912.731         0.2013        77.5247       71.83821        11.2172         0.0096          0.692          0.615         0.3758          2.318         0.0269           3440      0.8263449
      7237.5000         0.9122         0.7022         0.6542         0.5515         0.5272       1896.815         0.2047        69.1258       63.76879        11.3827         0.0087          1.161          1.102         0.3318          2.312         0.0281           3480       0.654655
      7238.0000         1.0044         0.7469         0.6778         0.5503         0.5263       1900.169         0.2117        72.2678       66.78576        11.0752         0.0079          1.623          1.434         0.2748          2.301         0.0301           3419       0.718846
      7238.5000         0.9883          0.732         0.6911         0.5732         0.5474       1826.824         0.2224        74.9018       69.31475        11.0989         0.0039          1.786          1.577          0.289          2.283         0.0349           3415      0.7726543
      7239.0000           0.84         0.6642         0.6541         0.5545         0.5305       1885.125          0.227        80.9011       75.07639        10.4484         0.0021          3.205          2.888         0.3618          2.275         0.0353           3422      0.8952423
      7239.5000         0.7491         0.6241         0.6309         0.5471         0.5239       1908.909         0.2251        84.0431       78.09337        10.3656          0.004          1.344           1.21         0.3958          2.279         0.0342           3415      0.9594334
      7240.0000          0.794         0.6631         0.6813         0.6086         0.5799       1724.333         0.2114        90.7479       84.53283        10.7677         0.0153          0.968          0.856         0.3415          2.301         0.0331           3371              1
      7240.5000         0.8777          0.761         0.7611         0.6867         0.6513       1535.309         0.2142        94.4192       88.05829        11.0989         0.0195          1.455          1.285         0.3268          2.297         0.0383           3337              1
      7241.0000          0.804         0.7551         0.7614         0.7209         0.6834       1463.289         0.2219        87.3538       81.26981        10.6021         0.0238          0.787          0.697         0.3584          2.284         0.0433           3325              1
      7241.5000         0.6739         0.6567         0.6958         0.7022         0.6677       1497.642         0.2313        84.0014       78.04816        11.0516         0.0258          0.567          0.502         0.4035          2.268         0.0463           3459      0.9584714
      7242.0000         0.6206         0.6351         0.6627         0.6869         0.6542       1528.583         0.2246        78.6503       72.90656        11.6666         0.0275          0.514          0.456         0.4555          2.279         0.0426           3542      0.8490756
      7242.5000         0.5998         0.6396         0.6636         0.7097          0.675       1481.458         0.2262        81.3169       75.46678        11.8559         0.0224          0.502          0.446         0.5148          2.277         0.0446           3539      0.9035485
      7243.0000         0.5743          0.624         0.6641         0.7272         0.6917       1445.772         0.2353        78.6829       72.93525        11.9505         0.0173          0.515          0.457         0.4752          2.262         0.0497           3432      0.8496861
      7243.5000         0.5639         0.6195         0.6638         0.7301         0.6947       1439.435         0.2455        84.2022       78.23593        12.2817         0.0182          0.494          0.439         0.5264          2.245         0.0547           3383      0.9624666
      7244.0000         0.5776         0.6434         0.6696         0.7334         0.6983       1432.035         0.2406        83.5738       77.63099         12.187         0.0245          0.504          0.448         0.4904          2.253         0.0527           3429      0.9495955
      7244.5000         0.6065         0.6866         0.6973         0.7387          0.703        1422.49         0.2232        86.2078       80.15998        12.8021         0.0296            0.5          0.444         0.4248          2.282         0.0451           3391              1
      7245.0000         0.6274         0.7087         0.7137         0.7504         0.7136       1401.296         0.2049        79.0087       73.24303        12.4709         0.0324          0.557          0.494         0.3908          2.312         0.0381           3346      0.8562346
      7245.5000         0.6345         0.7206         0.7337         0.7601         0.7225        1384.16         0.1985        83.6251       77.67633        12.7193         0.0327          0.596          0.529          0.367          2.323          0.036           3384      0.9505602
      7246.0000         0.6415         0.7328         0.7526         0.7803         0.7406       1350.204         0.2003        86.8195       80.74363        12.3526         0.0306          0.568          0.504         0.3866          2.319         0.0377           3388              1
      7246.5000         0.6561         0.7435         0.7629         0.7866         0.7464       1339.779         0.2007         90.179       83.96953        12.2107         0.0311          0.555          0.492         0.3676          2.319         0.0381           3386              1
      7247.0000         0.6669         0.7525         0.7707           0.79         0.7495       1334.287         0.2007         90.951       84.70984         12.329         0.0336          0.546          0.485         0.4295          2.319         0.0383           3373              1
      7247.5000         0.6572         0.7516         0.7572         0.7636         0.7259       1377.624         0.1998        88.2965       82.15858        12.5182         0.0404          0.563          0.499         0.3993           2.32         0.0367           3321              1
      7248.0000         0.6365         0.7181          0.736         0.7533         0.7165       1395.726         0.1998        91.1762       84.92361        12.3763         0.0455          0.538          0.477          0.397           2.32         0.0362           3344              1
      7248.5000         0.6188         0.6924         0.7096         0.7256         0.6915       1446.215         0.1987        89.9217        83.7172        12.7311         0.0446          0.532          0.472         0.4383          2.322         0.0346           3349              1
      7249.0000         0.6129         0.6852         0.7062         0.7322         0.6975        1433.72            0.2        91.1216       84.86853        12.6365         0.0404          0.513          0.455         0.4363           2.32         0.0353           3415              1
      7249.5000         0.6253         0.6958         0.7136         0.7409          0.705       1418.492          0.212         93.209       86.87251        12.3763         0.0287          0.522          0.463          0.417            2.3         0.0405           3425              1
      7250.0000         0.6423         0.7158         0.7241         0.7417         0.7056       1417.243         0.2165        93.5161       87.16619        12.8494         0.0233          0.538          0.478         0.4275          2.293         0.0424           3431              1
