#------------------------------------------------------------------------------
# Created by    : vladimir.rabinovich
# Created on    : 09/19/2023 17:20:47
#------------------------------------------------------------------------------
~Version Information Section
VERS.           2.0     :   CWLS log ASCII Standard - VERSION 2.0
WRAP.           NO      :   One line per depth step
~Well Information Section
#MNEM       .UNIT                                         VALUE :DESCRIPTION
#------------------------------------------------------------------------------
STRT        .FT                                            2030 :START DEPTH
STOP        .FT                                            9342 :STOP DEPTH
STEP        .FT                                             0.5 :STEP      
NULL        .                                           -999.25 :NULL      
COMP        .                                      SHELL OIL CO :COMPANY   
WELL        .                               OCS G00950 ST00BP00 :WELL      
FLD         .                           EAST CAMERON BLOCK 0193 :FIELD     
LOC         .                                                   :LOCATION  
CNTY        .                                      EAST CAMERON :LOCATION  
STAT        .                                         LOUISIANA :STATE     
CTRY        .                                     UNITED STATES :COUNTRY   
SRVC        .                                                   :SERVICE COMPANY
DATE        .                             9/13/2023 11:18:15 AM :LOG DATE  
API         .                                    17703004920000 :API NUMBER
UWI         .                                    17703004920000 :UNIQUE WELL ID
XCOORD      .                                  1684363.85071557 :SURFACE X 
YCOORD      .                                  10458597.1936422 :SURFACE Y 
LAT         .                                        28.8191951 :LATITUDE  
LON         .                                       -92.8627139 :LONGITUDE 
ELEV        .FT                                              75 :ELEVATION VALUE
ELEV_TYPE   .                                                KB :ELEVATION REFERENCE TYPE
~Curve Information Section
#MNEM       .UNIT                                      API CODE :CURVE DESCRIPTION
#------------------------------------------------------------------------------
DEPT        .FT                                                 :DEPTH     
ASN         .OHMM                                               :          
CILM        .MMHO                                               :          
ILM         .OHMM                                               :          
LN          .OHMM                                               :          
SP          .MV                                                 :          
SP_NORM     .MV                                                 :SP Normalized
VSH_SP      .V/V                                                :Volume of Shale from SP
~A        DEPTH            ASN           CILM            ILM             LN             SP        SP_NORM         VSH_SP
# ...
      8830.5000         1.0655       874.2119         1.0133        -999.25        -47.226        -4.2353      0.9671279
      8831.0000         1.0766       873.9873         1.0102        -999.25       -48.5596        -5.5689      0.9475162
      8831.5000         1.0862       905.4531         1.0037        -999.25       -51.7069        -8.7162      0.9012324
      8832.0000         1.0649       944.0312         0.9872        -999.25       -53.6736       -10.6829      0.8723103
      8832.5000         1.0348       975.9922         0.9707        -999.25       -55.0963       -12.1056      0.8513882
      8833.0000         1.0075       1007.863         0.9542        -999.25       -55.9985       -13.0078      0.8381206
      8833.5000         0.9802       1044.371         0.9369        -999.25       -54.5207         -11.53       0.859853
      8834.0000         0.9496       1077.682         0.9185        -999.25       -53.1375       -10.1468      0.8801941
      8834.5000          0.911       1107.752         0.9001        -999.25       -51.1144        -8.1237      0.9099456
      8835.0000          0.886       1134.986         0.8817        -999.25       -49.6861        -6.6954        0.93095
      8835.5000         0.8776        1159.16          0.866        -999.25       -48.6182        -5.6275      0.9466544
      8836.0000         0.8731       1169.963         0.8513        -999.25       -47.6439        -4.6532      0.9609823
      8836.5000         0.8717       1179.074         0.8365        -999.25        -46.665        -3.6743      0.9753779
      8837.0000         0.8703       1181.814         0.8218        -999.25       -46.6956        -3.7049       0.974928
      8837.5000         0.8703       1184.555          0.807        -999.25       -46.8048        -3.8141       0.973322
      8838.0000         0.8715       1186.557         0.7947        -999.25       -47.0463        -4.0556      0.9697706
      8838.5000         0.8727       1185.854         0.7848        -999.25       -47.3375        -4.3468      0.9654883
      8839.0000         0.8746       1185.148         0.7749        -999.25       -47.6292        -4.6385      0.9611985
      8839.5000         0.8766       1189.389          0.765        -999.25        -47.921        -4.9303      0.9569073
      8840.0000         0.8786       1196.365         0.7564        -999.25       -45.9171        -2.9264      0.9863765
      8840.5000         0.8805       1203.342         0.7512        -999.25       -44.4302        -1.4395              1
      8841.0000         0.8793        1211.85         0.7459        -999.25       -44.7056        -1.7149              1
      8841.5000         0.8774       1226.322         0.7407        -999.25       -45.1567         -2.166      0.9975588
      8842.0000          0.874       1240.795         0.7355        -999.25       -45.8844        -2.8937      0.9868574
      8842.5000         0.8697       1255.223         0.7305        -999.25       -46.8239        -3.8332      0.9730412
      8843.0000         0.8655       1269.629         0.7282        -999.25        -48.224        -5.2333      0.9524515
      8843.5000         0.8612        1282.57          0.726        -999.25       -51.5086        -8.5179      0.9041485
      8844.0000         0.8572       1295.264         0.7238        -999.25       -52.8344        -9.8437      0.8846515
      8844.5000         0.8548       1308.387         0.7217        -999.25       -53.4827        -10.492      0.8751177
      8845.0000          0.853       1322.207         0.7197        -999.25        -53.851       -10.8603      0.8697014
      8845.5000         0.8556       1332.797         0.7177        -999.25       -54.0842       -11.0935       0.866272
      8846.0000         0.8581        1342.25         0.7157        -999.25       -53.5992       -10.6085      0.8734044
      8846.5000         0.8607       1351.703         0.7137        -999.25       -53.1149       -10.1242      0.8805265
      8847.0000         0.8645       1335.688         0.7122        -999.25       -52.5889        -9.5982      0.8882618
      8847.5000         0.8682       1316.377         0.7151        -999.25       -52.0538        -9.0631      0.8961309
      8848.0000          0.872       1297.809          0.718        -999.25       -51.5188        -8.5281      0.9039986
      8848.5000         0.8757       1279.666         0.7209        -999.25        -50.942        -7.9513      0.9124809
      8849.0000         0.8795       1261.525         0.7238        -999.25       -50.3552        -7.3645      0.9211103
      8849.5000         0.8832       1242.213         0.7344        -999.25       -49.5734        -6.5827      0.9326074
      8850.0000         0.8789        1221.35         0.7453        -999.25       -48.4786        -5.4879      0.9487073
      8850.5000         0.8742       1200.461         0.7562        -999.25       -47.3634        -4.3727      0.9651073
      8851.0000         0.8691       1185.111         0.7678        -999.25       -46.2234        -3.2327      0.9818721
      8851.5000          0.861       1169.783         0.7823        -999.25       -45.0092        -2.0185       0.999728
      8852.0000         0.8528       1155.086         0.7967        -999.25       -43.8377         -0.847              1
      8852.5000         0.8447        1143.99         0.8111        -999.25       -44.0126        -1.0219              1
      8853.0000         0.8396       1132.871         0.8255        -999.25         -44.27        -1.2793              1
      8853.5000         0.8354       1120.064          0.837        -999.25        -44.527        -1.5363              1
      8854.0000         0.8388       1115.225         0.8283        -999.25       -44.7845        -1.7938              1
      8854.5000         0.8422       1114.271         0.8197        -999.25       -45.0419        -2.0512      0.9992471
      8855.0000         0.8345       1117.662          0.811        -999.25       -45.2993        -2.3086      0.9954618
      8855.5000         0.8267       1121.438         0.8024        -999.25       -45.5042        -2.5135      0.9924485
      8856.0000          0.819       1130.553         0.7937        -999.25       -45.6774        -2.6867      0.9899015
      8856.5000         0.8083       1141.852         0.7905        -999.25       -45.7678        -2.7771      0.9885721
      8857.0000         0.7973       1153.127         0.7878        -999.25       -45.5197         -2.529      0.9922206
      8857.5000         0.7885       1164.145         0.7851        -999.25       -45.2615        -2.2708      0.9960176
      8858.0000         0.7814       1174.803         0.7824        -999.25       -44.9748        -1.9841              1
      8858.5000          0.774       1185.461         0.7797        -999.25       -44.6882        -1.6975              1
      8859.0000         0.7666       1195.746          0.777        -999.25       -44.4015        -1.4108              1
      8859.5000         0.7605       1205.379         0.7788        -999.25       -44.1143        -1.1236              1
      8860.0000         0.7635       1215.023         0.7809        -999.25       -43.8329        -0.8422              1
      8860.5000         0.7684       1214.359          0.783        -999.25       -43.5654        -0.5747              1
      8861.0000         0.7734       1208.959         0.7851        -999.25       -43.2979        -0.3072              1
      8861.5000         0.7784       1199.865         0.7899        -999.25       -43.0309        -0.0402              1
      8862.0000         0.7842       1190.762         0.7947        -999.25       -42.7634         0.2273              1
      8862.5000         0.7901       1182.051         0.7996        -999.25       -42.4958         0.4949              1
      8863.0000         0.7952       1174.488         0.8044        -999.25       -42.2151         0.7756              1
      8863.5000         0.8004       1166.914         0.8038        -999.25       -41.9211         1.0696              1
