#------------------------------------------------------------------------------
# Created by    : vladimir.rabinovich
# Created on    : 09/19/2023 17:21:07
#------------------------------------------------------------------------------
~Version Information Section
VERS.           2.0     :   CWLS log ASCII Standard - VERSION 2.0
WRAP.           NO      :   One line per depth step
~Well Information Section
#MNEM       .UNIT                                         VALUE :DESCRIPTION
#------------------------------------------------------------------------------
STRT        .FT                                            3895 :START DEPTH
STOP        .FT                                         10595.5 :STOP DEPTH
STEP        .FT                                             0.5 :STEP      
NULL        .                                           -999.25 :NULL      
COMP        .                               TALOS PETROLEUM LLC :COMPANY   
WELL        .                                OCS 00300 ST00BP00 :WELL      
FLD         .                           WEST CAMERON BLOCK 0045 :FIELD     
LOC         .                                                   :LOCATION  
CNTY        .                                      WEST CAMERON :LOCATION  
STAT        .                                         LOUISIANA :STATE     
CTRY        .                                     UNITED STATES :COUNTRY   
SRVC        .                                                   :SERVICE COMPANY
DATE        .                             9/13/2023 11:18:36 AM :LOG DATE  
API         .                                    17700410070000 :API NUMBER
UWI         .                                    17700410070000 :UNIQUE WELL ID
XCOORD      .                                  1453771.49108141 :SURFACE X 
YCOORD      .                                  10773222.7644816 :SURFACE Y 
LAT         .                                        29.6835328 :LATITUDE  
LON         .                                       -93.5879752 :LONGITUDE 
ELEV        .FT                                             100 :ELEVATION VALUE
ELEV_TYPE   .                                                KB :ELEVATION REFERENCE TYPE
~Curve Information Section
#MNEM       .UNIT                                      API CODE :CURVE DESCRIPTION
#------------------------------------------------------------------------------
DEPT        .FT                                                 :DEPTH     
ATR         .OHMM                                               :          
CATR        .MMHO                                               :          
DCAL        .IN                                                 :          
DRHB        .G/C3                                               :          
GR          .GAPI                                               :          
GR_NORM     .GAPI                                               :GammaRay Normalized
PSR         .OHMM                                               :          
RHOB        .G/C3                                               :          
ROP5        .F/HR                                               :          
TNPH        .%                                                  :          
VSH_GR      .V/V                                                :Volume of Shale from GR
~A        DEPTH            ATR           CATR           DCAL           DRHB             GR        GR_NORM            PSR           RHOB           ROP5           TNPH         VSH_GR
# ...
     10127.5000           4.51       221.7295           0.13           0.02        45.5699       29.71761           5.03           2.16       197.7898             26              0
     10128.0000           4.51       221.7295           0.13           0.02          47.34       31.19995           5.03           2.14       200.0098             25              0
     10128.5000           4.71        212.314           0.09           0.01          45.86       29.96043           5.11           2.12       195.6599             25              0
     10129.0000           4.25       235.2939           0.13           0.02          44.92        29.1733           5.21           2.12       193.5498             25              0
     10129.5000           3.82       261.7798           0.17           0.03          44.78       29.05606           4.95           2.15       197.7898             26              0
     10130.0000           3.38       295.8579           0.14           0.04           46.4       30.41268           3.88           2.17       197.7898             27              0
     10130.5000           3.06       326.7974           0.07           0.06          49.65        33.1344           2.94            2.2       200.0098             28    0.002859643
     10131.0000           2.77       361.0107           0.07           0.04           54.7       37.36349           2.42           2.17         202.24             28     0.09284031
     10131.5000           2.44       409.8359            0.1           0.03          59.66       41.51708           2.21           2.17       209.3098             28      0.1812144
     10132.0000           2.44       409.8359           0.18           0.01          63.33        44.5905           2.21           2.16       211.7698             28      0.2466065
     10132.5000            2.1       476.1904           0.11              0          63.53       44.75808           2.28           2.19       211.7698             28      0.2501719
     10133.0000           1.91       523.5596              0              0          61.91       43.40133           1.56            2.2       209.2898             29       0.221305
     10133.5000           1.93       518.1338              0          -0.01          57.75       39.91764           1.37           2.16       214.2898             28      0.1471838
     10134.0000           2.02       495.0493              0          -0.01          53.47       36.33341           1.92           2.12       211.7598             29     0.07092366
     10134.5000           2.05       487.8047              0          -0.01          51.68       34.83439           2.46           2.13       214.2898             29     0.03902955
     10135.0000           1.94       515.4639           0.18          -0.01          52.02       35.11906           2.46           2.15       197.7898             30     0.04508648
     10135.5000           1.77       564.9717           0.16              0          54.58       37.26295           2.09           2.18       193.5498             29     0.09070116
     10136.0000           1.54       649.3506           0.27           0.02        60.5099       42.22884           1.66           2.19       193.5498             31      0.1963583
     10136.5000           1.35       740.7402           0.26           0.05        69.6599       49.89141           1.37           2.18         189.48             32      0.3593916
     10137.0000           1.23       813.0078            0.3           0.07          78.36       57.17724           1.15           2.16         189.47             33      0.5144093
     10137.5000           1.14       877.1924           0.27           0.08          84.83        62.5955           1.01           2.16          187.5             33      0.6296914
     10138.0000           1.09       917.4307           0.28           0.08          88.25        65.4595           1.01           2.18       185.5698             31      0.6906278
     10138.5000           1.07       934.5791           0.35           0.08          89.08       66.15456              1           2.21       183.6699             30      0.7054161
     10139.0000           1.07       934.5791           0.36           0.08        88.2799       65.48454              1           2.22       185.5698             29      0.6911603
     10139.5000           1.06       943.3955           0.38           0.08        87.4299       64.77277           1.04           2.21       193.5398             30      0.6760164
     10140.0000           1.06       943.3955           0.32           0.07        87.4299       64.77277           1.27           2.16       193.5398             32      0.6760164
     10140.5000           1.04       961.5381           0.28           0.07          87.23       64.60533           1.11           2.13         189.48             33      0.6724539
     10141.0000              1           1000            0.3           0.07             86       63.57527              1           2.11         189.47             33      0.6505376
     10141.5000           0.99       1010.101           0.33           0.08        85.5699       63.21506           0.91           2.14       185.5598             32      0.6428736
     10142.0000           0.99       1010.101           0.38           0.08        87.1399       64.52982           1.04           2.16       181.8198             33      0.6708473
     10142.5000           0.97       1030.928           0.38           0.08        90.1899       67.08411           1.04           2.15       181.8198             35      0.7251937
     10143.0000           0.97       1030.928           0.44           0.07        91.5599        68.2313           1.04           2.12       187.5098             37      0.7496021
     10143.5000           0.92       1086.955           0.42           0.03        91.1599       67.89642           0.91           2.04       187.5098             36      0.7424769
     10144.0000           0.91         1098.9           0.37           0.02          89.96        66.8915           0.89           1.99         189.47             37      0.7210958
     10144.5000           0.91         1098.9            0.3           0.01        90.1599       67.05894           0.85           1.97       183.6799             39      0.7246584
     10145.0000            0.9       1111.109           0.23           0.03        90.1599       67.05894           0.82              2         189.47             43      0.7246584
     10145.5000            0.9       1111.109           0.18           0.04          89.85       66.79942           0.86              2         189.47             45      0.7191367
     10146.0000           0.91         1098.9           0.05           0.03        87.7999       65.08262           0.89           1.97       193.5498             47      0.6826089
     10146.5000           0.91         1098.9           0.26           0.01        84.8899       62.64559           0.91           1.94       193.5498             46      0.6307573
     10147.0000           0.91         1098.9           0.29           0.01        82.4399       60.59389           0.91           1.95         191.49             44       0.587104
     10147.5000           0.91         1098.9           0.29           0.02          82.72        60.8285           0.91           1.96         191.49             42      0.5920957
     10148.0000           0.92       1086.955           0.21           0.01          83.86        61.7832           0.94           1.97         191.49             42      0.6124085
     10148.5000           0.93       1075.268           0.11           0.01        85.8899       63.48305           0.94           1.96          187.5             44      0.6485755
     10149.0000           0.93       1075.268              0              0        86.5399       64.02738           0.93           1.95       185.5598             44      0.6601571
     10149.5000           0.94       1063.828              0              0        85.6599       63.29044           0.92           1.95       185.5698             44      0.6444775
