#------------------------------------------------------------------------------
# Created by    : vladimir.rabinovich
# Created on    : 09/19/2023 17:21:07
#------------------------------------------------------------------------------
~Version Information Section
VERS.           2.0     :   CWLS log ASCII Standard - VERSION 2.0
WRAP.           NO      :   One line per depth step
~Well Information Section
#MNEM       .UNIT                                         VALUE :DESCRIPTION
#------------------------------------------------------------------------------
STRT        .FT                                            3895 :START DEPTH
STOP        .FT                                         10595.5 :STOP DEPTH
STEP        .FT                                             0.5 :STEP      
NULL        .                                           -999.25 :NULL      
COMP        .                               TALOS PETROLEUM LLC :COMPANY   
WELL        .                                OCS 00300 ST00BP00 :WELL      
FLD         .                           WEST CAMERON BLOCK 0045 :FIELD     
LOC         .                                                   :LOCATION  
CNTY        .                                      WEST CAMERON :LOCATION  
STAT        .                                         LOUISIANA :STATE     
CTRY        .                                     UNITED STATES :COUNTRY   
SRVC        .                                                   :SERVICE COMPANY
DATE        .                             9/13/2023 11:18:36 AM :LOG DATE  
API         .                                    17700410070000 :API NUMBER
UWI         .                                    17700410070000 :UNIQUE WELL ID
XCOORD      .                                  1453771.49108141 :SURFACE X 
YCOORD      .                                  10773222.7644816 :SURFACE Y 
LAT         .                                        29.6835328 :LATITUDE  
LON         .                                       -93.5879752 :LONGITUDE 
ELEV        .FT                                             100 :ELEVATION VALUE
ELEV_TYPE   .                                                KB :ELEVATION REFERENCE TYPE
~Curve Information Section
#MNEM       .UNIT                                      API CODE :CURVE DESCRIPTION
#------------------------------------------------------------------------------
DEPT        .FT                                                 :DEPTH     
ATR         .OHMM                                               :          
CATR        .MMHO                                               :          
DCAL        .IN                                                 :          
DRHB        .G/C3                                               :          
GR          .GAPI                                               :          
GR_NORM     .GAPI                                               :GammaRay Normalized
PSR         .OHMM                                               :          
RHOB        .G/C3                                               :          
ROP5        .F/HR                                               :          
TNPH        .%                                                  :          
VSH_GR      .V/V                                                :Volume of Shale from GR
~A        DEPTH            ATR           CATR           DCAL           DRHB             GR        GR_NORM            PSR           RHOB           ROP5           TNPH         VSH_GR
# ...
      3985.0000        -999.25        -999.25        -999.25        -999.25          28.26       41.79567        -999.25        -999.25        -999.25             58       0.187142
      3985.5000        -999.25        -999.25        -999.25        -999.25          28.26       41.73074        -999.25        -999.25        -999.25             58      0.1857604
      3986.0000        -999.25        -999.25        -999.25        -999.25          28.26       41.66595        -999.25        -999.25        -999.25             59       0.184382
      3986.5000        -999.25        -999.25        -999.25        -999.25          27.23       40.54226        -999.25        -999.25        -999.25             60      0.1604735
      3987.0000        -999.25        -999.25        -999.25        -999.25          26.21       39.42898        -999.25        -999.25        -999.25             62      0.1367868
      3987.5000        -999.25        -999.25        -999.25        -999.25          25.19       38.31569        -999.25        -999.25        -999.25             64      0.1130999
      3988.0000        -999.25        -999.25        -999.25        -999.25          25.19       38.25075        -999.25        -999.25        -999.25             66      0.1117181
      3988.5000        -999.25        -999.25        -999.25        -999.25          25.15       38.14482        -999.25        -999.25        -999.25             67      0.1094643
      3989.0000        -999.25        -999.25        -999.25        -999.25          26.37       39.33408        -999.25        -999.25        -999.25             69      0.1347677
      3989.5000        -999.25        -999.25        -999.25        -999.25          27.92       40.86271        -999.25        -999.25        -999.25             69      0.1672916
      3990.0000        -999.25        -999.25        -999.25        -999.25          29.92       42.85379        -999.25        -999.25        -999.25             67      0.2096551
      3990.5000        -999.25        -999.25        -999.25        -999.25          30.67       43.55994        -999.25        -999.25        -999.25             65      0.2246796
      3991.0000        -999.25        -999.25        -999.25        -999.25          30.79       43.61842        -999.25        -999.25        -999.25             63      0.2259239
      3991.5000        -999.25        -999.25        -999.25        -999.25           30.5       43.25557        -999.25        -999.25        -999.25             62      0.2182035
      3992.0000        -999.25        -999.25        -999.25        -999.25          29.22       41.87496        -999.25        -999.25        -999.25             60      0.1888289
      3992.5000        -999.25        -999.25        -999.25        -999.25          27.85       40.40181        -999.25        -999.25        -999.25             59      0.1574854
      3993.0000        -999.25        -999.25        -999.25        -999.25          25.81       38.23988        -999.25        -999.25        -999.25             60      0.1114867
      3993.5000        -999.25        -999.25        -999.25        -999.25           26.1       38.47315        -999.25        -999.25        -999.25             61        0.11645
      3994.0000        -999.25        -999.25        -999.25        -999.25          26.92       39.25133        -999.25        -999.25        -999.25             63       0.133007
      3994.5000        -999.25        -999.25        -999.25        -999.25           28.6       40.91346        -999.25        -999.25        -999.25             62      0.1683716
      3995.0000        -999.25        -999.25        -999.25        -999.25          28.62       40.86918        -999.25        -999.25        -999.25             63      0.1674293
      3995.5000        -999.25        -999.25        -999.25        -999.25          28.51       40.69122        -999.25        -999.25        -999.25             60      0.1636429
      3996.0000        -999.25        -999.25        -999.25        -999.25          28.67       40.79099        -999.25        -999.25        -999.25             58      0.1657658
      3996.5000        -999.25        -999.25        -999.25        -999.25          29.13       41.19891        -999.25        -999.25        -999.25             56       0.174445
      3997.0000        -999.25        -999.25        -999.25        -999.25          29.72       41.74067        -999.25        -999.25        -999.25             53      0.1859716
      3997.5000        -999.25        -999.25        -999.25        -999.25          29.84       41.79914        -999.25        -999.25        -999.25             52      0.1872157
      3998.0000        -999.25        -999.25        -999.25        -999.25          31.06       42.98855        -999.25        -999.25        -999.25             45      0.2125224
      3998.5000        -999.25        -999.25        -999.25        -999.25          32.15       44.04416        -999.25        -999.25        -999.25             42      0.2349822
      3999.0000        -999.25        -999.25        -999.25        -999.25           34.6       46.49787        -999.25        -999.25        -999.25             39      0.2871887
      3999.5000        -999.25        -999.25        -999.25        -999.25          39.33       51.29542        -999.25        -999.25        -999.25             40      0.3892643
      4000.0000        -999.25        -999.25        -999.25        -999.25          44.05       56.08257        -999.25        -999.25        -999.25             46      0.4911185
      4000.5000           0.33       3030.301           2.44           0.08          55.85       68.14777           0.38           2.09        -999.25             50      0.7478248
      4001.0000           0.37       2702.699            2.2           0.13          69.73       82.35127           0.36           2.07        -999.25             57              1
      4001.5000           0.44       2272.727           1.63            0.3        83.1899       96.12273           0.41           2.17         269.98             59              1
      4002.0000           0.44       2272.727           1.58           0.26          86.45       99.40933           0.41           2.02       257.1196             62              1
      4002.5000           0.46        2173.91            1.1           0.31          85.71       98.58369           0.44           2.04         243.25             60              1
      4003.0000           0.46        2173.91           0.93           0.26          83.49       96.23689           0.44           1.93         239.99             58              1
      4003.5000           0.48       2083.332           0.54           0.26        82.3099       94.95888           0.45           1.91       233.3198             57              1
      4004.0000           0.48       2083.332            0.5           0.25          80.58       93.11578           0.46           1.85       228.5698             56              1
      4004.5000           0.46        2173.91           0.39           0.26          79.72       92.16691           0.46           1.86       221.9099             55              1
      4005.0000           0.43       2325.578           0.33           0.27           74.2       86.42773           0.45           1.86       211.7598             57              1
      4005.5000           0.39       2564.102           0.36           0.27        63.2599       75.11673           0.44           1.87       211.7598             61      0.8961006
      4006.0000           0.34       2941.176           0.44           0.25        53.3199        64.8339           0.47           1.87       211.7598             64       0.677317
      4006.5000           0.31       3225.805           0.56           0.22           47.3       58.58072           0.49           1.86         202.24             64      0.5442707
      4007.0000           0.31       3225.805           0.61            0.2          49.11       60.37651           0.49           1.84       204.5398             61      0.5824791
