#------------------------------------------------------------------------------
# Created by    : vladimir.rabinovich
# Created on    : 09/19/2023 17:22:32
#------------------------------------------------------------------------------
~Version Information Section
VERS.           2.0     :   CWLS log ASCII Standard - VERSION 2.0
WRAP.           NO      :   One line per depth step
~Well Information Section
#MNEM       .UNIT                                         VALUE :DESCRIPTION
#------------------------------------------------------------------------------
STRT        .FT                                            2450 :START DEPTH
STOP        .FT                                            9560 :STOP DEPTH
STEP        .FT                                             0.5 :STEP      
NULL        .                                           -999.25 :NULL      
COMP        .                               TALOS PETROLEUM LLC :COMPANY   
WELL        .                                OCS 00301 ST00BP00 :WELL      
FLD         .                           WEST CAMERON BLOCK 0045 :FIELD     
LOC         .                                                   :LOCATION  
CNTY        .                                      WEST CAMERON :LOCATION  
STAT        .                                         LOUISIANA :STATE     
CTRY        .                                     UNITED STATES :COUNTRY   
SRVC        .                                                   :SERVICE COMPANY
DATE        .                             9/13/2023 11:18:49 AM :LOG DATE  
API         .                                    17700410870000 :API NUMBER
UWI         .                                    17700410870000 :UNIQUE WELL ID
XCOORD      .                                  1447194.98921956 :SURFACE X 
YCOORD      .                                  10757079.9124673 :SURFACE Y 
LAT         .                                        29.6390336 :LATITUDE  
LON         .                                       -93.6084245 :LONGITUDE 
ELEV        .FT                                              96 :ELEVATION VALUE
ELEV_TYPE   .                                                KB :ELEVATION REFERENCE TYPE
~Curve Information Section
#MNEM       .UNIT                                      API CODE :CURVE DESCRIPTION
#------------------------------------------------------------------------------
DEPT        .FT                                                 :DEPTH     
CNC         .%                                                  :          
DCAL        .IN                                                 :          
GR          .GAPI                                               :          
GR_NORM     .GAPI                                               :GammaRay Normalized
M0C6        .MMHO                                               :          
M2R1        .OHMM                                               :          
M2R2        .OHMM                                               :          
M2R3        .OHMM                                               :          
M2R6        .OHMM                                               :          
M2R9        .OHMM                                               :          
M2RX        .OHMM                                               :          
SP          .MV                                                 :          
SP_NORM     .MV                                                 :SP Normalized
TEN         .LB/F                                               :          
VSH_GR      .V/V                                                :Volume of Shale from GR
VSH_SP      .V/V                                                :Volume of Shale from SP
ZCOR        .G/CC                                               :          
ZDEN        .G/CC                                               :          
~A        DEPTH            CNC           DCAL             GR        GR_NORM           M0C6           M2R1           M2R2           M2R3           M2R6           M2R9           M2RX             SP        SP_NORM            TEN         VSH_GR         VSH_SP           ZCOR           ZDEN
# ...
      3864.0000        -999.25          5.619         33.629       33.81459       3246.615          0.519          0.368          0.315          0.286          0.277          0.269        -43.649       -45.5538         -4.741     0.01733163     0.03213781        -999.25        -999.25
      3864.5000        -999.25          5.863           33.1       33.22738       3371.691          0.491          0.346          0.297          0.271          0.264          0.258         -43.19       -45.0948         10.949    0.004837848      0.0423378        -999.25        -999.25
      3865.0000        -999.25          5.996         34.184       34.43066       3479.711          0.472          0.331          0.285          0.262          0.255          0.251        -43.001       -44.9058         29.394     0.03043966     0.04653778        -999.25        -999.25
      3865.5000        -999.25          6.088         36.841       37.38005       3569.163           0.46          0.322          0.278          0.256           0.25          0.246        -43.204       -45.1088         22.295     0.09319257     0.04202669        -999.25        -999.25
      3866.0000        -999.25          6.204         38.207       38.89636       3640.592          0.452          0.317          0.274          0.254          0.247          0.244        -43.752       -45.6568         -6.542      0.1254545      0.0298489        -999.25        -999.25
      3866.5000        -999.25          6.385         36.968       37.52103       3695.982          0.447          0.314          0.272          0.252          0.246          0.243        -44.436       -46.3408        -19.289     0.09619205     0.01464886        -999.25        -999.25
      3867.0000        -999.25          6.626         35.265       35.63062       3736.996          0.439           0.31          0.268           0.25          0.243           0.24        -44.957       -46.8618        -11.918     0.05597062    0.003071086        -999.25        -999.25
      3867.5000        -999.25          6.877         34.604       34.89688       3764.296          0.427          0.304          0.264          0.246           0.24          0.237        -45.376       -47.2808         -9.365     0.04035917              0        -999.25        -999.25
      3868.0000        -999.25          7.037         35.341       35.71498       3777.042          0.415          0.298          0.259          0.242          0.236          0.233        -45.898       -47.8028        -12.886     0.05776564              0        -999.25        -999.25
      3868.5000        -999.25          7.042         36.549       37.05592        3773.33          0.406          0.293          0.256           0.24          0.233          0.231        -46.492       -48.3968         -13.32     0.08629608              0        -999.25        -999.25
      3869.0000        -999.25          6.943         37.263       37.84848       3751.341          0.404          0.292          0.255           0.24          0.233          0.232        -46.866       -48.7708         -15.54      0.1031592              0        -999.25        -999.25
      3869.5000        -999.25           6.83         37.347       37.94173       3710.031          0.408          0.295          0.257          0.242          0.236          0.234        -46.825       -48.7298         -19.89      0.1051432              0        -999.25        -999.25
      3870.0000        -999.25          6.664         37.719       38.35466       3650.916          0.416            0.3          0.262          0.247           0.24          0.239        -46.411       -48.3158        -23.105       0.113929              0        -999.25        -999.25
      3870.5000        -999.25          6.326         38.793       39.54685       3578.459          0.427          0.308          0.269          0.254          0.247          0.246         -45.67       -47.5748         -24.67      0.1392947              0        -999.25        -999.25
      3871.0000        -999.25          5.832         40.135       41.03653       3500.546          0.443          0.321           0.28          0.264          0.257          0.257        -44.184       -46.0888        -27.114        0.17099     0.02024892        -999.25        -999.25
      3871.5000        -999.25          5.135          40.92       41.90791       3426.801          0.472          0.341          0.297           0.28          0.272          0.272        -41.379       -43.2838        -28.467        0.18953     0.08258227        -999.25        -999.25
      3872.0000        -999.25          4.068         41.382       42.42076       3367.954          0.518          0.372          0.322          0.302          0.293          0.294        -37.528       -39.4328        -23.628      0.2004416        0.16816        -999.25        -999.25
      3872.5000        -999.25          2.912         41.546        42.6028       3332.137          0.558          0.397          0.342           0.32           0.31          0.312         -34.15       -36.0548         -8.358      0.2043149      0.2432267        -999.25        -999.25
      3873.0000        -999.25          2.256         39.743        40.6014       3324.161          0.555          0.395          0.342           0.32          0.311          0.312        -32.641       -34.5458          6.922      0.1617319        0.27676        -999.25        -999.25
      3873.5000        -999.25          2.203         35.677       36.08796       3342.612          0.519          0.373          0.325          0.305          0.297          0.298        -32.712       -34.6168         10.144     0.06570126      0.2751822        -999.25        -999.25
      3874.0000        -999.25          2.362         31.648       31.61559       3380.928          0.486           0.35          0.307          0.288          0.281          0.282         -33.34       -35.2448          0.757              0      0.2612267        -999.25        -999.25
      3874.5000        -999.25          2.477          29.82       29.58644        3416.59          0.464          0.332          0.292          0.276          0.269           0.27        -34.315       -36.2198        -15.266              0        0.23956        -999.25        -999.25
      3875.0000        -999.25          2.506         30.272       30.08817       3436.918          0.441          0.314          0.278          0.264          0.258           0.26        -35.665       -37.5698        -24.887              0        0.20956        -999.25        -999.25
      3875.5000        -999.25          2.519         31.646       31.61338       3433.701          0.417          0.299          0.265          0.253          0.248           0.25        -36.781       -38.6858        -19.493              0        0.18476        -999.25        -999.25
      3876.0000        -999.25          2.577         32.328       32.37042       3395.917          0.406          0.291          0.259          0.248          0.243          0.245        -37.147       -39.0518         -9.058              0      0.1766267        -999.25        -999.25
      3876.5000        -999.25          2.651         32.976       33.08973        3318.21          0.418          0.299          0.264          0.254          0.249          0.251        -36.819       -38.7238          -5.95    0.001909134      0.1839155        -999.25        -999.25
      3877.0000        -999.25          2.703         34.957       35.28873       3201.987          0.462          0.325          0.285          0.273          0.268           0.27        -35.964       -37.8688         -0.249     0.04869632      0.2029155        -999.25        -999.25
      3877.5000        -999.25          2.818         37.477       38.08603       3054.744           0.54          0.373          0.323          0.308            0.3          0.304        -34.495       -36.3998          15.37      0.1082135        0.23556        -999.25        -999.25
