#------------------------------------------------------------------------------
# Created by    : vladimir.rabinovich
# Created on    : 09/19/2023 17:21:14
#------------------------------------------------------------------------------
~Version Information Section
VERS.           2.0     :   CWLS log ASCII Standard - VERSION 2.0
WRAP.           NO      :   One line per depth step
~Well Information Section
#MNEM       .UNIT                                         VALUE :DESCRIPTION
#------------------------------------------------------------------------------
STRT        .FT                                            3520 :START DEPTH
STOP        .FT                                            8510 :STOP DEPTH
STEP        .FT                                             0.5 :STEP      
NULL        .                                           -999.25 :NULL      
COMP        .                      SPINNAKER EXPLORATION CO LLC :COMPANY   
WELL        .                               OCS G21537 ST00BP00 :WELL      
FLD         .                                           WILDCAT :FIELD     
LOC         .                                                   :LOCATION  
CNTY        .                                      WEST CAMERON :LOCATION  
STAT        .                                         LOUISIANA :STATE     
CTRY        .                                     UNITED STATES :COUNTRY   
SRVC        .                                                   :SERVICE COMPANY
DATE        .                             9/13/2023 11:18:49 AM :LOG DATE  
API         .                                    17700410830000 :API NUMBER
UWI         .                                    17700410830000 :UNIQUE WELL ID
XCOORD      .                                   1446389.6294369 :SURFACE X 
YCOORD      .                                  10699667.6074025 :SURFACE Y 
LAT         .                                        29.4810902 :LATITUDE  
LON         .                                       -93.6100108 :LONGITUDE 
ELEV        .FT                                              91 :ELEVATION VALUE
ELEV_TYPE   .                                                KB :ELEVATION REFERENCE TYPE
~Curve Information Section
#MNEM       .UNIT                                      API CODE :CURVE DESCRIPTION
#------------------------------------------------------------------------------
DEPT        .FT                                                 :DEPTH     
CAL         .IN                                                 :          
CNC         .%                                                  :          
GR          .GAPI                                               :          
GR_NORM     .GAPI                                               :GammaRay Normalized
M0C6        .MMHO                                               :          
M2R1        .OHMM                                               :          
M2R2        .OHMM                                               :          
M2R3        .OHMM                                               :          
M2R6        .OHMM                                               :          
M2R9        .OHMM                                               :          
M2RX        .OHMM                                               :          
PORZ        .%                                                  :          
SP          .MV                                                 :          
SP_NORM     .MV                                                 :SP Normalized
TEN         .LB/F                                               :          
VSH_GR      .V/V                                                :Volume of Shale from GR
VSH_SP      .V/V                                                :Volume of Shale from SP
ZCOR        .G/CC                                               :          
~A        DEPTH            CAL            CNC             GR        GR_NORM           M0C6           M2R1           M2R2           M2R3           M2R6           M2R9           M2RX           PORZ             SP        SP_NORM            TEN         VSH_GR         VSH_SP           ZCOR
      3520.0000          10.16         83.141          70.04       84.49621        -22.993          1.091       1734.011       1775.798       1818.531       1862.293       1907.108         51.239        -97.468      0.8867028        595.734              1              1          -0.56
      3520.5000         10.158         80.747         68.424        80.5439        -16.233          1.015       1749.332       1788.865       1829.229       1870.504        1912.71         52.653        -96.691        2.70422        595.565              1              1         -0.574
      3521.0000         10.156         80.209         66.868       84.42999         -9.988          0.925       1767.659       1806.748       1843.843       1880.937       1920.335         54.384        -96.396      -0.195724        596.671              1              1         -0.591
      3521.5000         10.157         83.314         64.212       82.73894         -3.725          0.839       1782.727       1824.975       1858.709       1889.855       1928.061         56.103        -96.635       1.060178         603.64              1              1         -0.596
      3522.0000         10.159         83.285         59.947       81.31087          0.645           0.77        127.186       1841.011       1871.769        498.648       1642.441         57.388        -96.963      0.9836987        611.314              1              1         -0.596
      3522.5000         10.158         76.632         56.435       83.62498          5.375           0.72         28.914       1857.652        562.027        120.438        225.464         57.544        -97.062         1.5036        611.033              1              1           -0.6
      3523.0000         10.158         72.329         55.185       84.67188         11.171          0.677         16.739       1874.391        175.876         72.953         87.099         55.887         -97.13       3.623019        603.588              1              1         -0.597
      3523.5000         10.158         77.192         55.621       78.86272         17.921          0.634         10.111       1889.073         87.632         47.309         44.192         52.866        -97.337       1.388595         597.94      0.9758025              1         -0.586
      3524.0000         10.158         80.977         56.506       80.94807         26.192          0.588          6.592       1902.486         50.976         31.521         24.906         50.401        -97.517      -0.373525        599.818              1              1         -0.601
      3524.5000         10.158         77.497         56.698       80.97139         35.307          0.544          4.527       1913.685         33.065         22.071         15.767         49.757        -97.579      0.2452395        606.806              1              1         -0.628
      3525.0000         10.158         79.726         56.861       82.04031         45.716          0.505          3.441       1923.387         23.862         16.472         11.272         50.323        -97.548       1.320403        610.733              1              1         -0.625
      3525.5000         10.157         88.452         57.182       84.45073          56.39          0.474          2.807       1931.311         18.878         13.181          8.878          51.18        -97.286       3.233392        610.212              1              1         -0.611
      3526.0000         10.157         87.612         57.031        83.1708          67.86          0.452          2.431       1937.923          15.88         11.038          7.603         51.922        -96.649     -0.8739312         609.19              1              1         -0.608
      3526.5000         10.157         76.934         56.789       81.84321         79.019          0.433          2.129       1943.148         13.757           9.46          6.777         52.218        -95.655       1.669676        610.236              1              1         -0.591
      3527.0000         10.161         67.649         57.121       85.13283          90.26          0.416          1.862       1947.254         12.018          8.187          6.301         52.189        -94.248     -0.8971154         612.43              1              1         -0.569
      3527.5000         10.181         62.377         57.518       78.72353        100.089          0.399          1.612       1950.225         10.641          7.227          6.099          52.41        -92.417     -0.6993455         610.74      0.9728411              1          -0.57
      3528.0000         10.218         61.945           58.2       83.02434        107.613          0.385           1.41       1952.044          9.759          6.719          6.541         53.042        -90.548      -1.016502         605.47              1              1         -0.576
      3528.5000         10.261         64.055         60.498       83.59378            110          0.375          1.249       1951.561          9.492          6.778          9.594         53.484        -89.237       2.352514        602.581              1              1          -0.57
      3529.0000         10.317         67.276         64.158       78.98904        103.876          0.368          1.127        1940.87         10.141          7.935       1975.013         52.912        -88.668       3.279928        602.516      0.9784901              1         -0.566
      3529.5000         10.404         69.953         66.995       79.14748          85.05          0.364          1.028       1643.234         12.724         12.804       1978.044         51.582        -88.466        1.62481         603.68      0.9818614              1          -0.58
      3530.0000         10.494         71.442         67.044       79.06821         48.584          0.364          0.958         70.548         19.118         71.926       1977.679         50.369        -87.928     -0.2903442        606.973      0.9801748              1         -0.607
      3530.5000         10.546           71.6         65.295       84.00217         -8.325          0.369          0.914         88.673       1880.547       1966.028       1977.321         49.835        -86.594      0.5936962        608.945              1              1         -0.625
      3531.0000         10.556         75.156         63.548       79.77298        -87.365          0.378           0.89       1939.312       1953.407       1964.953       1976.566         49.965        -84.487      0.4348805        607.913      0.9951698              1         -0.632
      3531.5000         10.553         83.007         62.154       84.10309       -183.404          0.386          0.875       1933.161       1950.295       1962.604       1974.991         50.414        -81.658      -1.079539        609.249              1              1         -0.637
      3532.0000         10.553         87.615          61.67       84.69542       -287.574          0.397           0.91       1930.727       1944.748       1958.416        1972.18         50.385        -77.816       2.908023        611.791              1              1         -0.662
      3532.5000         10.555         81.327         62.221       81.96896       -379.417          0.435          1.159       1921.438        1936.97       1952.539       1968.233         51.347        -72.542      0.1824496        611.152              1              1         -0.756
      3533.0000         10.557          75.88           61.5       79.60024        -436.41          0.549          2.738       1912.448       1929.685       1947.029       1964.528         54.206          -65.6      -1.179937        610.092      0.9914945              1         -0.948
      3533.5000         10.569          78.51          57.73       83.32835       -432.962          0.957        177.152       1904.565       1923.452        1942.31       1961.353         55.077         -56.91     -0.9409589        609.599              1              1          -1.02
