#------------------------------------------------------------------------------
# Created by    : vladimir.rabinovich
# Created on    : 09/19/2023 17:19:36
#------------------------------------------------------------------------------
~Version Information Section
VERS.           2.0     :   CWLS log ASCII Standard - VERSION 2.0
WRAP.           NO      :   One line per depth step
~Well Information Section
#MNEM       .UNIT                                         VALUE :DESCRIPTION
#------------------------------------------------------------------------------
STRT        .FT                                          2840.5 :START DEPTH
STOP        .FT                                            9365 :STOP DEPTH
STEP        .FT                                             0.5 :STEP      
NULL        .                                           -999.25 :NULL      
COMP        .                              MCMORAN OIL & GAS CO :COMPANY   
WELL        .                                OCS 00757 ST00BP00 :WELL      
FLD         .                           WEST CAMERON BLOCK 0118 :FIELD     
LOC         .                                                   :LOCATION  
CNTY        .                                      WEST CAMERON :LOCATION  
STAT        .                                         LOUISIANA :STATE     
CTRY        .                                     UNITED STATES :COUNTRY   
SRVC        .                                                   :SERVICE COMPANY
DATE        .                             9/13/2023 11:18:49 AM :LOG DATE  
API         .                                    17700410710000 :API NUMBER
UWI         .                                    17700410710000 :UNIQUE WELL ID
XCOORD      .                                  1441592.04714169 :SURFACE X 
YCOORD      .                                  10704369.2355959 :SURFACE Y 
LAT         .                                        29.4939537 :LATITUDE  
LON         .                                       -93.6251728 :LONGITUDE 
ELEV        .FT                                              90 :ELEVATION VALUE
ELEV_TYPE   .                                                KB :ELEVATION REFERENCE TYPE
~Curve Information Section
#MNEM       .UNIT                                      API CODE :CURVE DESCRIPTION
#------------------------------------------------------------------------------
DEPT        .FT                                                 :DEPTH     
AHT10       .OHMM                                               :          
AHT20       .OHMM                                               :          
AHT30       .OHMM                                               :          
AHT60       .OHMM                                               :          
AHT90       .OHMM                                               :          
AHTCO90     .MMHO                                               :          
DPHZ        .DEC                                                :          
GR          .GAPI                                               :          
GR_NORM     .GAPI                                               :GammaRay Normalized
HCAL        .IN                                                 :          
HDRA        .G/CC                                               :          
HMIN        .OHMM                                               :          
HMNO        .OHMM                                               :          
NPOR        .DEC                                                :          
RHOZ        .G/CC                                               :          
RWA         .OHMM                                               :          
TENS        .LB                                                 :          
VSH_GR      .V/V                                                :Volume of Shale from GR
~A        DEPTH          AHT10          AHT20          AHT30          AHT60          AHT90        AHTCO90           DPHZ             GR        GR_NORM           HCAL           HDRA           HMIN           HMNO           NPOR           RHOZ            RWA           TENS         VSH_GR
# ...
      5962.5000         0.7917         0.7376         0.7324         0.7224         0.6909       1447.448         0.2111         88.282       83.02517        11.3827         0.0301          0.918          0.812         0.3596          2.302         0.0393           2922              1
      5963.0000         0.7966         0.7536          0.732         0.7248         0.6934       1442.138         0.2295        89.7187       84.40564        11.5483         0.0176          0.915           0.81          0.403          2.271         0.0472           2939              1
      5963.5000         0.7812         0.7464         0.7245         0.7209         0.6905       1448.307         0.2304        93.8675       88.39143        11.6311         0.0234          0.902          0.802         0.4186           2.27         0.0475           2934              1
      5964.0000         0.7554         0.7239         0.7137         0.7097         0.6807       1469.013         0.2239        96.5876       91.00482        11.6666         0.0305          0.801           0.71         0.4394           2.28          0.044           2962              1
      5964.5000         0.7599         0.7244         0.7176         0.7092         0.6806       1469.381         0.2062        97.5454       91.92535        11.6666         0.0456          0.755          0.669         0.4828           2.31         0.0368           2961              1
      5965.0000         0.8116         0.7753         0.7548         0.7396         0.7088       1410.912         0.1946       100.4189       94.68604         11.643         0.0496          0.765          0.678         0.4089          2.329         0.0339           2935              1
      5965.5000         0.8821         0.8622         0.8102         0.7745         0.7411       1349.302         0.1829        92.9686       87.52956        11.5483         0.0565          0.764          0.677          0.348          2.348          0.031           2940              1
      5966.0000          0.878         0.8445         0.8184         0.7677         0.7352       1360.204         0.1725        88.8979        83.6196        10.9333         0.0578          1.106          0.978         0.3661          2.365         0.0271           2938              1
      5966.5000         0.8373         0.7963           0.79         0.7436         0.7138       1400.922         0.1774        81.1985       76.22375        11.0397         0.0458          0.977          0.864         0.3565          2.357          0.028           2909      0.9196542
      5967.0000          0.834         0.7961         0.7832         0.7482         0.7185       1391.712         0.1822        83.8382       78.75992        11.0043         0.0395          1.013          0.896         0.3172          2.349         0.0298           2919      0.9736153
      5967.5000         0.8462         0.8096         0.7925         0.7582         0.7283       1373.057         0.1984        87.6695       82.44073        11.2645          0.024          1.002          0.886         0.3259          2.323         0.0363           2941              1
      5968.0000          0.848         0.8161         0.8032         0.7745         0.7441       1343.968         0.2041          92.56       87.13905        11.3118         0.0262          0.968          0.857         0.3669          2.313         0.0394           2974              1
      5968.5000         0.8277         0.7949         0.7881         0.7694         0.7396       1352.093         0.2165        92.2559       86.84727        11.3709         0.0227              1          0.885         0.3402          2.293         0.0444           2984              1
      5969.0000         0.8057         0.7769         0.7815         0.7696         0.7402       1351.055         0.2236        85.3116       80.17688        11.4301         0.0234          0.937          0.829         0.3931          2.281         0.0477           2941              1
      5969.5000         0.7952         0.7797         0.7763         0.7722         0.7419       1347.979         0.2204        82.1476       77.13788        11.4301         0.0286          0.895          0.792         0.4177          2.286         0.0463           2924      0.9391038
      5970.0000          0.784         0.7691         0.7656         0.7741         0.7449       1342.383         0.2207        84.3027       79.20847        11.4064         0.0275          0.869          0.769         0.4732          2.286         0.0466           2951      0.9831588
      5970.5000         0.7834         0.7693         0.7623         0.7617         0.7329       1364.513         0.2178        90.5285        85.1895        11.4064         0.0311          0.776          0.687          0.454          2.291         0.0446           2947              1
      5971.0000         0.8031         0.8008         0.7811         0.7734         0.7419       1347.805         0.2149        91.2335       85.86719        11.3946         0.0306          0.785          0.695          0.408          2.295         0.0439           2961              1
      5971.5000         0.8153         0.8058         0.8014         0.7899         0.7563       1322.177         0.2098         85.169       80.04189        11.3591         0.0302          0.942          0.834          0.416          2.304         0.0425           2972              1
      5972.0000         0.8451         0.8254         0.8283         0.8062         0.7702       1298.423         0.2082        80.3799       75.44182        11.3827         0.0269           0.91          0.805         0.4307          2.306         0.0426           2938      0.9030174
      5972.5000         0.9138         0.9035         0.8798         0.8506         0.8088       1236.455         0.2172        75.5907       70.84162        11.3354         0.0191          1.017            0.9         0.3611          2.292          0.049           2928      0.8051409
      5973.0000         0.9252         0.9324         0.9062         0.8792         0.8327        1200.96         0.2218        75.4293       70.68702        11.2881         0.0134          1.227          1.091         0.3133          2.284         0.0527           2931      0.8018515
      5973.5000         0.8283         0.8289         0.8251         0.8297         0.7865       1271.509         0.2043        78.0633       73.21767        11.2881         0.0259          1.279          1.131         0.3517          2.313         0.0417           2939       0.855695
      5974.0000         0.7286         0.7204         0.7517         0.7609          0.723       1383.098         0.1924        85.0856       79.96375        11.3827         0.0352          0.905          0.801         0.4105          2.332         0.0337           2977      0.9992288
      5974.5000         0.6956          0.698         0.7065         0.7346          0.698       1432.601         0.1863        84.6067       79.50407        11.3827         0.0491          0.791          0.701         0.3861          2.343         0.0304           2977      0.9894484
      5975.0000         0.7062         0.7154         0.7025         0.7424          0.704       1420.519         0.2053        83.6488       78.58431        11.4064         0.0451           0.76          0.673         0.4371          2.311         0.0377           2956       0.969879
      5975.5000         0.7032         0.7146          0.698         0.7382         0.6991       1430.312         0.2143        85.5547       80.41563        11.3827         0.0468          0.743          0.659         0.4529          2.296         0.0411           2930              1
      5976.0000         0.6719         0.6834         0.6723         0.7148         0.6773       1476.531         0.2188        87.8221       82.59404        11.3354          0.049           0.75          0.664         0.4305          2.289         0.0416           2862              1
