#------------------------------------------------------------------------------
# Created by    : vladimir.rabinovich
# Created on    : 09/19/2023 17:20:14
#------------------------------------------------------------------------------
~Version Information Section
VERS.           2.0     :   CWLS log ASCII Standard - VERSION 2.0
WRAP.           NO      :   One line per depth step
~Well Information Section
#MNEM       .UNIT                                         VALUE :DESCRIPTION
#------------------------------------------------------------------------------
STRT        .FT                                             920 :START DEPTH
STOP        .FT                                            7860 :STOP DEPTH
STEP        .FT                                             0.5 :STEP      
NULL        .                                           -999.25 :NULL      
COMP        .                               ARCO OIL & GAS CORP :COMPANY   
WELL        .                               OCS G10568 ST00BP00 :WELL      
FLD         .                                           WILDCAT :FIELD     
LOC         .                                                   :LOCATION  
CNTY        .                                 WEST CAMERON WEST :LOCATION  
STAT        .                                         LOUISIANA :STATE     
CTRY        .                                     UNITED STATES :COUNTRY   
SRVC        .                                                   :SERVICE COMPANY
DATE        .                             9/13/2023 11:18:15 AM :LOG DATE  
API         .                                    17701402460000 :API NUMBER
UWI         .                                    17701402460000 :UNIQUE WELL ID
XCOORD      .                                  1443937.81344993 :SURFACE X 
YCOORD      .                                  10680295.6485051 :SURFACE Y 
LAT         .                                        29.4277648 :LATITUDE  
LON         .                                       -93.6173961 :LONGITUDE 
ELEV        .FT                                             100 :ELEVATION VALUE
ELEV_TYPE   .                                                KB :ELEVATION REFERENCE TYPE
~Curve Information Section
#MNEM       .UNIT                                      API CODE :CURVE DESCRIPTION
#------------------------------------------------------------------------------
DEPT        .FT                                                 :DEPTH     
ASFL        .OHMM                                               :          
CALI        .IN                                                 :          
DPHI        .%                                                  :          
DRHO        .G/CC                                               :          
DT          .US/F                                               :          
GR          .GAPI                                               :          
GR_1        .GAPI                                               :          
GR_NORM     .GAPI                                               :GammaRay Normalized
ILD         .OHMM                                               :          
ILM         .OHMM                                               :          
NPHI        .%                                                  :          
RFOC        .OHMM                                               :          
SP          .MV                                                 :          
SP_NORM     .MV                                                 :SP Normalized
VSH_GR      .V/V                                                :Volume of Shale from GR
VSH_SP      .V/V                                                :Volume of Shale from SP
~A        DEPTH           ASFL           CALI           DPHI           DRHO             DT             GR           GR_1        GR_NORM            ILD            ILM           NPHI           RFOC             SP        SP_NORM         VSH_GR         VSH_SP
# ...
      5560.0000        -999.25        14.0253        25.1581         0.0634       124.3527       121.8353       105.8751       87.59423         0.8956         0.9431         40.545         1.2248       -45.9622     0.09521103              1              1
      5560.5000        -999.25        14.0059        24.9118         0.0727        124.869       119.4738       104.7614        86.4785         0.8951         0.9414        41.1061         1.2045       -45.9634     0.09254837              1              1
      5561.0000        -999.25        13.9996        24.5925         0.0783       124.9792       117.2606       103.9137       85.62877         0.8952         0.9446        41.3404         1.2111       -46.0605   -0.006008148              1              1
      5561.5000        -999.25        14.0482         24.325         0.0798       124.9049       115.3322       103.7357       85.44875         0.8977         0.9478         41.154         1.2089       -46.1424    -0.08936691              1              1
      5562.0000        -999.25        14.1917        24.1869         0.0796       124.7765       115.3549       103.9447       85.65572         0.9007         0.9514        40.5435         1.2091       -46.1995     -0.1479263              1              1
      5562.5000        -999.25        14.4461        24.1787         0.0788        124.861       116.6998       104.2988       86.00778         0.9096         0.9566        39.9765         1.2135        -46.166     -0.1158867              1              1
      5563.0000        -999.25        14.6608        24.2217         0.0769       125.0555       117.5691       104.6677       86.37466         0.9219         0.9659         39.791         1.2238       -46.2371     -0.1884422              1              1
      5563.5000        -999.25        14.6216        24.3566         0.0752       125.3051        114.106       104.5011       86.20602         0.9388         0.9766        39.8978         1.2367       -46.4392     -0.3920021              1              1
      5564.0000        -999.25          14.45        24.5523           0.08        125.335       111.6147       104.0657       85.76859         0.9528         0.9947          39.96         1.2438       -46.7471     -0.7013626              1              1
      5564.5000        -999.25        14.3091        24.6866         0.0928       125.0858       111.1708       101.7701       83.47096         0.9667         1.0188        39.6724         1.2484       -46.9147     -0.8704185              1              1
      5565.0000        -999.25        14.2425        24.6696          0.102       123.6626       110.4221        98.0509       79.74973         0.9789         1.0382        38.7234         1.2587       -46.9659     -0.9230804      0.9946752              1
      5565.5000        -999.25         14.215        24.1624         0.0986       122.0038       107.1794        94.1427        75.8395         0.9902         1.0538        37.5342         1.2775       -46.9087     -0.8673363      0.9114788              1
      5566.0000        -999.25        14.1949        23.2703          0.077       120.3314        103.657        92.0194       73.71417         0.9938         1.0628        36.7993         1.2957       -46.9284     -0.8884964       0.866259              1
      5566.5000        -999.25        14.1948        22.4149         0.0578       120.5109       101.8452        92.7474       74.44014         0.9942         1.0595        36.3493         1.3087       -47.0502      -1.011757      0.8817051              1
      5567.0000        -999.25        14.2022        21.8655         0.0449        120.354       101.2487        93.1056       74.79631          0.991         1.0531         36.116         1.3104       -47.3204      -1.283417      0.8892832              1
      5567.5000        -999.25        14.2185        21.6284         0.0442       118.0519       101.4729        91.2598       72.94849         0.9862         1.0448        36.1091         1.3007       -47.6559      -1.620373      0.8499678              1
      5568.0000        -999.25        14.2438         21.531         0.0445       115.4738       101.7333        89.6786       71.36525          0.981         1.0366         36.416         1.2838       -48.1765      -2.142433      0.8162819      0.9962518
      5568.5000        -999.25        14.2657        21.4136          0.045       113.2902       102.0331         89.364       71.04862          0.968         1.0274        37.0305         1.2721       -48.6594      -2.626793      0.8095452      0.9835054
      5569.0000        -999.25        14.2269        21.2604         0.0458       114.3566       101.6044        87.5996       69.28219         0.9546         1.0181        36.9439         1.2657       -48.9264      -2.895252      0.7719615      0.9764407
      5569.5000        -999.25        14.1904        21.1169         0.0471       116.2915       101.0511        85.3483       67.02885         0.9411         1.0034        36.1345         1.2665       -49.3677      -3.338009      0.7240182      0.9647892
      5570.0000        -999.25        14.1777        21.0454         0.0502       117.3114       101.0323        84.0121       65.69063         0.9306         0.9886         35.474         1.2781        -49.498      -3.469772      0.6955453      0.9613218
      5570.5000        -999.25        14.3751        21.2904         0.0542       117.5679       101.6202        84.8287        66.5052         0.9215          0.974        35.1268         1.2931       -49.4955      -3.468727      0.7128765      0.9613493
      5571.0000        -999.25        14.5434        21.6273         0.0576       117.7052       101.7518        87.6331       69.30757         0.9137         0.9596         35.336         1.2985       -49.4376      -3.412289      0.7725015      0.9628345
      5571.5000        -999.25        14.6366        22.0102         0.0602       117.9204       101.7023        91.4192       73.09164         0.9064         0.9529        35.6364         1.2911       -49.1107      -3.086845      0.8530136      0.9713988
      5572.0000        -999.25        14.5076        22.3552         0.0611       118.2303        102.845        95.0046       76.67501         0.8989         0.9474        36.1025         1.2586       -48.4072      -2.384808      0.9292555      0.9898735
      5572.5000        -999.25        14.3756        22.6781         0.0608       118.8878       104.2592        97.2736       78.94198         0.8899         0.9461        36.9244         1.2193       -47.6312      -1.610264      0.9774889              1
      5573.0000        -999.25        14.2874        22.9654          0.059       119.8931       105.0221        97.2283       78.89465         0.8874         0.9453        37.8064         1.1957       -46.8526     -0.8331261       0.976482              1
      5573.5000        -999.25        14.3175         23.184         0.0568       121.3241        104.364        95.9994       77.66371         0.8872         0.9429        38.1682         1.1828       -46.2937     -0.2756844      0.9502918              1
      5574.0000        -999.25        14.3679        23.3543         0.0538       122.6222       103.8612        94.6169       76.27918          0.886         0.9403        37.4079         1.1913       -46.1045    -0.08794403      0.9208336              1
      5574.5000        -999.25        14.3917        23.4753         0.0494        123.326       104.1504        94.6317       76.29195         0.8813         0.9319        36.4301         1.2074       -46.1364     -0.1212997      0.9211054              1
      5575.0000        -999.25         14.367        23.5554         0.0449        123.078       104.6013        96.2168       77.87502         0.8752         0.9229         35.699         1.2266       -46.1854     -0.1717567      0.9547877              1
      5575.5000        -999.25        14.3318        23.6054         0.0419       122.8439       103.5413        97.6229        79.2791         0.8662           0.91        35.6939          1.243       -46.1873     -0.1751213      0.9846617              1
