#------------------------------------------------------------------------------
# Created by    : vladimir.rabinovich
# Created on    : 09/19/2023 17:21:07
#------------------------------------------------------------------------------
~Version Information Section
VERS.           2.0     :   CWLS log ASCII Standard - VERSION 2.0
WRAP.           NO      :   One line per depth step
~Well Information Section
#MNEM       .UNIT                                         VALUE :DESCRIPTION
#------------------------------------------------------------------------------
STRT        .FT                                            3895 :START DEPTH
STOP        .FT                                         10595.5 :STOP DEPTH
STEP        .FT                                             0.5 :STEP      
NULL        .                                           -999.25 :NULL      
COMP        .                               TALOS PETROLEUM LLC :COMPANY   
WELL        .                                OCS 00300 ST00BP00 :WELL      
FLD         .                           WEST CAMERON BLOCK 0045 :FIELD     
LOC         .                                                   :LOCATION  
CNTY        .                                      WEST CAMERON :LOCATION  
STAT        .                                         LOUISIANA :STATE     
CTRY        .                                     UNITED STATES :COUNTRY   
SRVC        .                                                   :SERVICE COMPANY
DATE        .                             9/13/2023 11:18:36 AM :LOG DATE  
API         .                                    17700410070000 :API NUMBER
UWI         .                                    17700410070000 :UNIQUE WELL ID
XCOORD      .                                  1453771.49108141 :SURFACE X 
YCOORD      .                                  10773222.7644816 :SURFACE Y 
LAT         .                                        29.6835328 :LATITUDE  
LON         .                                       -93.5879752 :LONGITUDE 
ELEV        .FT                                             100 :ELEVATION VALUE
ELEV_TYPE   .                                                KB :ELEVATION REFERENCE TYPE
~Curve Information Section
#MNEM       .UNIT                                      API CODE :CURVE DESCRIPTION
#------------------------------------------------------------------------------
DEPT        .FT                                                 :DEPTH     
ATR         .OHMM                                               :          
CATR        .MMHO                                               :          
DCAL        .IN                                                 :          
DRHB        .G/C3                                               :          
GR          .GAPI                                               :          
GR_NORM     .GAPI                                               :GammaRay Normalized
PSR         .OHMM                                               :          
RHOB        .G/C3                                               :          
ROP5        .F/HR                                               :          
TNPH        .%                                                  :          
VSH_GR      .V/V                                                :Volume of Shale from GR
~A        DEPTH            ATR           CATR           DCAL           DRHB             GR        GR_NORM            PSR           RHOB           ROP5           TNPH         VSH_GR
# ...
      6167.5000           0.62       1612.902           0.48           0.11          98.96       89.84013           0.63           2.34       107.1399             47              1
      6168.0000           0.59       1694.914           0.54           0.08        94.5099       85.36363           0.66           2.33       122.4299             49              1
      6168.5000           0.57       1754.385           0.55           0.06          89.47       80.29391           0.56           2.32       122.4299             47              1
      6169.0000           0.56       1785.713           0.55           0.04          89.09       79.91073           0.54           2.31       124.1399             45      0.9981006
      6169.5000           0.56       1785.713            0.6           0.04        92.3099       83.14783           0.54           2.31          129.5             44              1
      6170.0000           0.58       1724.137           0.64           0.04        91.8199        82.6539           0.57           2.31       133.3398             44              1
      6170.5000           0.58       1724.137           0.69           0.04        90.7699       81.59695           0.59            2.3       137.4199             47              1
      6171.0000           0.58       1724.137            0.7           0.05          93.62       84.46215           0.53            2.3       146.3298             48              1
      6171.5000           0.64         1562.5           0.73           0.05        95.7999       86.65342           0.64            2.3       153.8499             48              1
      6172.0000           0.69       1449.275           0.77           0.05        97.9099        88.7744            0.7           2.31       155.1699             45              1
      6172.5000           0.72       1388.889           0.79           0.06        93.9099        84.7505           0.74           2.32       153.8398             44              1
      6173.0000           0.74        1351.35           0.81           0.07        94.1799       85.02098           0.76           2.32       151.2698             44              1
      6173.5000           0.75       1333.332           0.81           0.08          93.11       83.94387           0.76           2.32       157.9099             44              1
      6174.0000           0.76       1315.789            0.8           0.09        96.0299       86.87934           0.76           2.32       162.1499             44              1
      6174.5000           0.76       1315.789           0.79            0.1        95.5399       86.38541           0.75           2.32       151.2598             44              1
      6175.0000           0.75       1333.332           0.82           0.11        97.0499       87.90296           0.74           2.31         143.99             45              1
      6175.5000           0.75       1333.332           0.85           0.11          95.23       86.07161           0.75           2.31       132.3398             45              1
      6176.0000           0.75       1333.332           0.89           0.11        94.5699       85.40667           0.77           2.31         126.75             45              1
      6176.5000           0.74        1351.35            0.9           0.11          93.47       84.29946           0.74            2.3       117.6399             48              1
      6177.0000           0.72       1388.889           0.92            0.1        94.0399       84.87157            0.7           2.29         112.49             46              1
      6177.5000           0.72       1388.889           0.93            0.1          94.85       85.68517            0.7           2.29       107.1399             45              1
      6178.0000           0.71       1408.449           0.94            0.1        93.8099       84.63808           0.69           2.29         105.87             45              1
      6178.5000           0.71       1408.449           0.96            0.1        92.3999       83.21893           0.68           2.29       104.0299             48              1
      6179.0000           0.72       1388.889           0.97            0.1        90.8899       81.69921           0.68           2.28         102.85             50              1
      6179.5000           0.74        1351.35              1           0.11           90.7       81.50706           0.71           2.27       103.4399             49              1
      6180.0000           0.76       1315.789           1.02           0.12          90.09       80.89254            0.8           2.25       104.6299             48              1
      6180.5000           0.77       1298.701           1.02           0.13        92.4399       83.25486           0.86           2.25       104.6299             46              1
      6181.0000           0.76       1315.789              1           0.16          92.45       83.26381            0.8           2.24       103.4399             44              1
      6181.5000           0.73       1369.861           0.97           0.18          93.73       84.55005            0.7           2.25         102.84             42              1
      6182.0000            0.7        1428.57           0.93           0.17        93.7599       84.57903           0.67           2.24        76.2599             41              1
      6182.5000           0.68       1470.588            0.9           0.15        94.0699       84.88976           0.66           2.25        73.7599             40              1
      6183.0000           0.68       1470.588           0.83           0.14          94.87       85.69333           0.66           2.28          70.86             41              1
      6183.5000           0.67       1492.537           0.79           0.13        93.9399       84.75684           0.64           2.31        67.9199             43              1
      6184.0000           0.66        1515.15           0.75           0.11           94.6       85.41961           0.64           2.33        66.9099             48              1
      6184.5000           0.66        1515.15           0.76            0.1        92.8199       83.62833           0.65           2.33          65.45             52              1
      6185.0000           0.66        1515.15           0.77           0.09        93.2699       84.07987           0.65           2.33          65.45             53              1
      6185.5000           0.66        1515.15           0.78           0.09          94.73       85.54713           0.65           2.33        65.9299             51              1
      6186.0000           0.67       1492.537           0.76           0.09        97.3099        88.1406           0.67           2.35        65.9299             48              1
      6186.5000           0.66        1515.15           0.74           0.09          98.61       89.44705           0.66           2.37        66.1699             44              1
      6187.0000           0.65       1538.461           0.73           0.09        99.5099       90.35103           0.64           2.35          86.12             43              1
      6187.5000           0.64         1562.5           0.76           0.11        99.4399       90.27961           0.63           2.34        88.6699             43              1
      6188.0000           0.63       1587.301            0.8           0.11        99.3799       90.21809           0.62           2.31        87.3799             45              1
      6188.5000           0.61       1639.344           0.82           0.14        99.2599       90.09643           0.61           2.32          81.45             47              1
      6189.0000            0.6       1666.666           0.81           0.14          97.35       88.17454            0.6           2.28        74.3799             52              1
      6189.5000           0.59       1694.914           0.76           0.15        96.1599       86.97649           0.59           2.28        66.9099             53              1
