#------------------------------------------------------------------------------
# Created by    : vladimir.rabinovich
# Created on    : 09/19/2023 17:22:24
#------------------------------------------------------------------------------
~Version Information Section
VERS.           2.0     :   CWLS log ASCII Standard - VERSION 2.0
WRAP.           NO      :   One line per depth step
~Well Information Section
#MNEM       .UNIT                                         VALUE :DESCRIPTION
#------------------------------------------------------------------------------
STRT        .FT                                             955 :START DEPTH
STOP        .FT                                            8851 :STOP DEPTH
STEP        .FT                                             0.5 :STEP      
NULL        .                                           -999.25 :NULL      
COMP        .                                SHELL OFFSHORE INC :COMPANY   
WELL        .                               OCS G08627 ST00BP00 :WELL      
FLD         .                                           WILDCAT :FIELD     
LOC         .                                                   :LOCATION  
CNTY        .                                 WEST CAMERON WEST :LOCATION  
STAT        .                                         LOUISIANA :STATE     
CTRY        .                                     UNITED STATES :COUNTRY   
SRVC        .                                                   :SERVICE COMPANY
DATE        .                             9/13/2023 11:18:15 AM :LOG DATE  
API         .                                    17701402000000 :API NUMBER
UWI         .                                    17701402000000 :UNIQUE WELL ID
XCOORD      .                                  1405165.89752093 :SURFACE X 
YCOORD      .                                  10654404.2103889 :SURFACE Y 
LAT         .                                        29.3559214 :LATITUDE  
LON         .                                       -93.7387067 :LONGITUDE 
ELEV        .FT                                             100 :ELEVATION VALUE
ELEV_TYPE   .                                                KB :ELEVATION REFERENCE TYPE
~Curve Information Section
#MNEM       .UNIT                                      API CODE :CURVE DESCRIPTION
#------------------------------------------------------------------------------
DEPT        .FT                                                 :DEPTH     
CALX        .IN                                                 :          
DRHO        .G/C3                                               :          
DT          .US/F                                               :          
GR          .GAPI                                               :          
GR_NORM     .GAPI                                               :GammaRay Normalized
ILD         .OHMM                                               :          
ILM         .OHMM                                               :          
LL          .OHMM                                               :          
NPHI        .%                                                  :          
RHOB        .G/C3                                               :          
SP          .MV                                                 :          
SP_NORM     .MV                                                 :SP Normalized
VSH_GR      .V/V                                                :Volume of Shale from GR
VSH_SP      .V/V                                                :Volume of Shale from SP
~A        DEPTH           CALX           DRHO             DT             GR        GR_NORM            ILD            ILM             LL           NPHI           RHOB             SP        SP_NORM         VSH_GR         VSH_SP
# ...
      3079.0000        10.4783         0.0252       143.2839        81.6215       80.18098         0.7884          0.798         0.9294        53.5381         2.1129      -102.6434      0.8278275              1              1
      3079.5000        10.5182          0.017       141.5342        80.5743       79.03847         0.7913         0.7992         0.9309        51.3924         2.1126       -102.267       1.194702      0.9795418              1
      3080.0000        10.5716         0.0095       139.0732        79.3334       77.68541          0.793            0.8         0.9326        49.0468         2.1178      -102.1522       1.299973      0.9507534              1
      3080.5000        10.6059         0.0144       136.6833        77.3275       75.50087          0.794         0.7998         0.9324        47.8951         2.1387      -102.5223      0.9203491      0.9042738              1
      3081.0000        10.6352         0.0209       135.2158         75.757       73.78957         0.7928         0.7942         0.9332        48.1251         2.1535      -102.7869      0.6462173      0.8678631              1
      3081.5000        10.6521         0.0265        135.438        77.9008       76.11541         0.7958         0.7856         0.9345          48.04         2.1592      -102.3513       1.072289      0.9173492              1
      3082.0000        10.6493         0.0311       137.2092        81.8602       80.41464         0.8001         0.7824         0.9369        47.2964         2.1593      -102.2501       1.163963              1              1
      3082.5000        10.6181         0.0345       140.0632        82.9883        81.6365         0.8023         0.7847         0.9383        47.0008         2.1582      -102.2848       1.119743              1              1
      3083.0000        10.5876         0.0354       143.9082        82.2581       80.83854         0.8001         0.7916         0.9323        46.9069         2.1569       -102.312       1.083015              1              1
      3083.5000        10.5785         0.0342       144.0535        80.4543       78.87366         0.7806         0.7962         0.9226        46.6105         2.1544      -102.7207      0.6647797      0.9760354              1
      3084.0000        10.6009         0.0304       141.8525        79.0809       77.37659         0.7263         0.7935         0.9102        45.9752         2.1523      -103.7115     -0.3355408      0.9441829              1
      3084.5000        10.6475         0.0291       138.8569        78.1682       76.38027         0.6701         0.7704         0.9239        45.2504          2.154      -103.9294     -0.5629654      0.9229845              1
      3085.0000        10.7251         0.0321       135.9148        77.3058       75.43862         0.5925         0.7189         0.9442        45.5569         2.1585      -103.1315      0.2254028      0.9029494              1
      3085.5000        10.8073         0.0359       134.7939        76.3557       74.40163          0.521         0.6685         0.8665         46.249         2.1575      -103.1519      0.1954803      0.8808858              1
      3086.0000         10.817         0.0382       136.5415        74.9761       72.89783         0.4664         0.5758         0.7699        46.8077         2.1407       -104.401      -1.063148      0.8488901              1
      3086.5000        10.8013         0.0363       137.9448        72.0215       69.68214         0.4226         0.5166         0.7024        46.8779         2.1133      -105.1794      -1.851074       0.780471              1
      3087.0000        10.8415         0.0388       138.8694        68.8679       66.25014         0.3915         0.4821         0.6911        46.0736         2.0799      -106.4393      -3.120499      0.7074497      0.9199644
      3087.5000        11.0181         0.0602       139.3411        65.2095       62.26947         0.3653         0.4518         0.6818        44.7225         2.0584       -109.342       -6.03273      0.6227546      0.7119479
      3088.0000        11.2433         0.0879       139.3564         60.683       57.34523         0.3393          0.427         0.6694        43.1128         2.0524      -112.3466       -9.04686      0.5179836      0.4966529
      3088.5000        11.4348         0.0985       138.7412        52.5653       48.51767         0.3227         0.4064         0.6532        43.3366         2.0489      -114.3867      -11.09649      0.3301632      0.3502508
      3089.0000         11.641         0.0914       138.3108         49.288       44.95121         0.3188         0.3913         0.6542        44.2499         2.0423      -115.1344      -11.85371      0.2542811      0.2961638
      3089.5000        11.8697         0.0829       138.2305        47.8362       43.36893         0.3262         0.3857         0.6718        45.9715          2.033      -115.6825      -12.41134      0.2206156      0.2563329
      3090.0000        12.3335         0.0797       138.5752        47.2313       42.70716         0.3392         0.3923         0.6753        47.8201         2.0214      -116.0117      -12.75007      0.2065354      0.2321379
      3090.5000        12.1261         0.0877       138.3557        47.5763       43.07786         0.3589         0.4119         0.6537        49.6069         2.0038      -116.2012      -12.94909      0.2144225      0.2179222
      3091.0000        11.5702         0.0906       136.6782        50.0261       45.73629          0.384         0.4436         0.6444        51.1776         1.9779      -116.1028      -12.86021      0.2709848      0.2242704
      3091.5000        11.1219         0.0838       134.4351        54.8932       51.02213         0.4159         0.4776         0.6726         49.861         1.9787      -115.4568      -12.22375      0.3834496      0.2697323
      3092.0000        11.0235         0.0731        132.936        59.1174       55.60919         0.4611         0.5092         0.7352        47.2175         2.0269      -113.9927      -10.76917      0.4810466      0.3736311
      3092.5000          10.97         0.0635        132.082        61.9328         58.665         0.5112         0.5351         0.7757        44.9955         2.0664      -111.9829      -8.768898      0.5460638      0.5165073
      3093.0000        10.9247         0.0585       131.9958        63.4598       60.32043         0.5433         0.5627         0.7927        44.2759         2.1003       -110.619      -7.414528      0.5812857       0.613248
      3093.5000        11.2275         0.0549       133.6741        64.5579       61.50967         0.5714         0.5843         0.8044        43.5928         2.1056      -109.3531       -6.15815      0.6065888      0.7029893
      3094.0000        11.6881         0.0483       136.3276        66.1558       63.24216         0.5954         0.6037         0.7666        43.6942         2.0992      -108.4398      -5.254372      0.6434502      0.7675449
      3094.5000        11.2472         0.0428       137.2856        70.0269       67.44543         0.6149         0.6192         0.7464        44.8131         2.0924      -107.7594      -4.583504      0.7328814       0.815464
      3095.0000        10.8566          0.045       136.1125        74.4189       72.21487         0.6386         0.6351         0.7704        45.8802         2.0933      -108.1898       -5.02343      0.8343589      0.7840407
      3095.5000        10.8629         0.0501        133.802        77.9158       76.01141         0.6596         0.6531         0.8943        45.3789          2.114      -108.8217      -5.664856      0.9151365      0.7382246
      3096.0000        10.9296           0.06        131.915        78.3871       76.51939          0.676         0.6754         0.9264        44.2982         2.1348      -108.5205      -5.373184      0.9259444      0.7590583
      3096.5000         10.902         0.0767       131.3374        77.0204        75.0296         0.6884         0.6961          0.932        43.1915          2.148      -106.9711      -3.833313      0.8942469      0.8690491
