#------------------------------------------------------------------------------
# Created by    : vladimir.rabinovich
# Created on    : 09/19/2023 17:22:25
#------------------------------------------------------------------------------
~Version Information Section
VERS.           2.0     :   CWLS log ASCII Standard - VERSION 2.0
WRAP.           NO      :   One line per depth step
~Well Information Section
#MNEM       .UNIT                                         VALUE :DESCRIPTION
#------------------------------------------------------------------------------
STRT        .FT                                            2996 :START DEPTH
STOP        .FT                                            8909 :STOP DEPTH
STEP        .FT                                             0.5 :STEP      
NULL        .                                           -999.25 :NULL      
COMP        .                             PHILLIPS PETROLEUM CO :COMPANY   
WELL        .                                OCS 00299 ST00BP00 :WELL      
FLD         .                           WEST CAMERON BLOCK 0045 :FIELD     
LOC         .                                                   :LOCATION  
CNTY        .                                      WEST CAMERON :LOCATION  
STAT        .                                         LOUISIANA :STATE     
CTRY        .                                     UNITED STATES :COUNTRY   
SRVC        .                                                   :SERVICE COMPANY
DATE        .                             9/13/2023 11:18:09 AM :LOG DATE  
API         .                                    17700407290000 :API NUMBER
UWI         .                                    17700407290000 :UNIQUE WELL ID
XCOORD      .                                  1446390.31791034 :SURFACE X 
YCOORD      .                                  10761453.0604348 :SURFACE Y 
LAT         .                                        29.6510516 :LATITUDE  
LON         .                                       -93.6110308 :LONGITUDE 
ELEV        .FT                                              99 :ELEVATION VALUE
ELEV_TYPE   .                                                KB :ELEVATION REFERENCE TYPE
~Curve Information Section
#MNEM       .UNIT                                      API CODE :CURVE DESCRIPTION
#------------------------------------------------------------------------------
DEPT        .FT                                                 :DEPTH     
CALX        .IN                                                 :          
CDL         .%                                                  :          
CILD        .MMHO                                               :          
CNS         .%                                                  :          
DRHO        .G/C3                                               :          
GR_NORM     .GAPI                                               :GammaRay Normalized
RILD        .OHMM                                               :          
RILM        .OHMM                                               :          
RLL         .OHMM                                               :          
SP          .MV                                                 :          
SP_NORM     .MV                                                 :SP Normalized
TENS        .LB                                                 :          
VSH_GR      .V/V                                                :Volume of Shale from GR
VSH_SP      .V/V                                                :Volume of Shale from SP
~A        DEPTH           CALX            CDL           CILD            CNS           DRHO        GR_NORM           RILD           RILM            RLL             SP        SP_NORM           TENS         VSH_GR         VSH_SP
# ...
      7712.0000          11.32           25.8           2300        35.8821         0.0039       68.51768         0.4349         0.4773         1.0094           -5.8       -10.6261       2916.667      0.7556953      0.5233688
      7712.5000          11.34          26.34       2283.333        35.8824         0.0049       67.01025         0.4349         0.4817         0.7774           -5.5        -10.322       2895.833      0.7236223       0.542375
      7713.0000           11.4          26.64       2266.667        35.8824         0.0039       66.25592         0.4431         0.4954            0.8           -5.1        -9.9178           2875      0.7075728      0.5676375
      7713.5000          11.48          26.88           2200        35.8235          0.001       66.00383         0.4599         0.5097         0.9174        -4.6939        -9.5076           2875      0.7022092       0.593275
      7714.0000           11.5           26.1           2100        35.0588         -0.001       67.50895         0.4729         0.5296              1        -4.0816        -8.8911       2854.167       0.734233      0.6318063
      7714.5000          11.56          24.72       1966.667        34.8235              0         69.265         0.4862         0.5504         0.8146        -3.0612        -7.8666       2854.167      0.7715957      0.6958375
      7715.0000          11.58        23.3265           1850        34.8235         0.0118       67.50665         0.5296         0.5774         0.8447        -1.7347        -6.5359       2854.167       0.734184      0.7790062
      7715.5000           11.6        22.4694           1750        34.9412         0.0235       65.00507         0.5664         0.6055         0.9174        -0.8163        -5.6134         2812.5       0.680959      0.8366625
      7716.0000           11.6        22.8367           1650        35.0588         0.0363        64.7579         0.6055         0.6335          0.868        -0.3061         -5.099         2812.5      0.6757001      0.8688125
      7716.5000          11.64        23.6327           1584          36.06         0.0402       70.51559         0.6222         0.6569         0.7774            0.2        -4.5887         2812.5       0.798204      0.9007062
      7717.0000          11.66          24.54           1536          38.16         0.0373       74.02908         0.6451         0.6751         0.7135            0.5        -4.2846       2854.167      0.8729592      0.9197125
      7717.5000           11.7          25.14           1504        39.6471         0.0333       78.27596          0.669         0.6874         0.7483            1.2        -3.5804       2854.167      0.9633182       0.963725
      7718.0000           11.7          24.78           1504        41.1176         0.0314       82.61634         0.6874            0.7         0.8146            1.7        -3.0763       2833.333              1      0.9952313
      7718.5000          11.76        24.3611           1504        42.3613         0.0451       82.85629         0.6883          0.701         0.7925         2.1063        -2.6658       2854.167              1              1
      7719.0000          11.78        24.2419           1504        42.0812          0.048       81.64927         0.6833         0.6833         0.6961         2.4194        -2.3486       2833.333              1              1
      7719.5000          11.72        24.6078           1520        41.3841          0.049       78.75369         0.6719         0.6719         0.6289         2.6342        -2.1296       2833.333      0.9734828              1
      7720.0000           11.7        25.0994           1552        41.5152         0.0471       75.77939         0.6541         0.6541         0.6796         2.7495        -2.0102           2875      0.9101998              1
      7720.5000          11.68        25.5918           1568        42.8235         0.0402       75.27622         0.6419         0.6419         0.7517          2.551        -2.2045           2875      0.8994941              1
      7721.0000          11.64        25.5918       1616.667        43.1176         0.0392       76.53027         0.6236         0.6296         0.8485         2.3469        -2.4045       2833.333       0.926176              1
      7721.5000          11.64        25.5918       1633.333        42.8235         0.0422       77.78432         0.6058         0.6117         0.8239         2.1429        -2.6043         2812.5       0.952858              1
      7722.0000           11.7        25.5918           1650          41.64         0.0461       78.98917         0.5892            0.6         0.7126         2.3469        -2.3962         2812.5      0.9784929              1
      7722.5000           11.8        25.5918       1666.667          41.34         0.0441       80.19402         0.5785         0.5892         0.6419         2.7551        -1.9838         2812.5              1              1
      7723.0000             12         25.102           1700        42.4118         0.0314       78.26332         0.5681         0.5785         0.5946         3.1633        -1.5715         2812.5      0.9630494              1
      7723.5000        12.1224          23.82           1750        43.4706         0.0216       76.02241         0.5629         0.5733         0.6481         3.0612        -1.6694         2812.5      0.9153703              1
      7724.0000        12.1837           22.5       1783.333        43.8235         0.0176         74.515         0.5527         0.5629          0.745         2.8571        -1.8694         2812.5      0.8832979              1
      7724.5000        12.1017          22.02       1833.333          41.64         0.0284       76.24117         0.5378         0.5527         0.8079         2.7551        -1.9672         2812.5      0.9200248              1
      7725.0000        12.0203          23.52       1883.333          39.42         0.0363       78.65581         0.5329         0.5428         0.7319         2.8571        -1.8611         2812.5      0.9714001              1
      7725.5000        12.1411        24.8571           1900        38.5294         0.0363       79.56739         0.5281         0.5329         0.6543         3.1633        -1.5507       2854.167      0.9907956              1
      7726.0000        12.2003        24.9796           1900        38.7059         0.0304       79.27065         0.5233         0.5233         0.6058         3.5714        -1.1385       2895.833      0.9844818              1
      7726.5000           12.2        25.1633       1933.333          39.96         0.0245       79.74099         0.5186         0.5139         0.6296         3.6735        -1.0322           2875      0.9944891              1
      7727.0000           12.2        24.7347           1950          41.76         0.0235       80.72393         0.5092         0.5046         0.6357         3.6735        -1.0281           2875              1              1
      7727.5000          12.18        24.4898           2000        44.1765         0.0265        82.1989         0.5092            0.5         0.6176         3.9796        -0.7178       2895.833              1              1
      7728.0000          12.14        24.2449       2016.667        45.5882         0.0265       82.99093         0.5092            0.5         0.5838         3.9796        -0.7137           2875              1              1
      7728.5000          12.08         24.551       2066.667        46.0588         0.0265       80.44599         0.5092            0.5         0.6296         3.4694        -1.2197         2812.5              1              1
      7729.0000          12.02        25.1633       2083.333        45.4706         0.0216       76.74477         0.5139            0.5         0.7063         2.9592        -1.7257       2791.667      0.9307397              1
      7729.5000          12.02        25.5306           2100        44.1765         0.0167       74.43109         0.5233         0.4817         0.7789         2.6531        -2.0277       2791.667      0.8815126              1
