#------------------------------------------------------------------------------
# Created by    : vladimir.rabinovich
# Created on    : 09/19/2023 17:22:13
#------------------------------------------------------------------------------
~Version Information Section
VERS.           2.0     :   CWLS log ASCII Standard - VERSION 2.0
WRAP.           NO      :   One line per depth step
~Well Information Section
#MNEM       .UNIT                                         VALUE :DESCRIPTION
#------------------------------------------------------------------------------
STRT        .FT                                            4265 :START DEPTH
STOP        .FT                                           12768 :STOP DEPTH
STEP        .FT                                             0.5 :STEP      
NULL        .                                           -999.25 :NULL      
COMP        .                                SHELL OFFSHORE INC :COMPANY   
WELL        .                               OCS G04749 ST00BP02 :WELL      
FLD         .                                           WILDCAT :FIELD     
LOC         .                                                   :LOCATION  
CNTY        .                                      WEST CAMERON :LOCATION  
STAT        .                                         LOUISIANA :STATE     
CTRY        .                                     UNITED STATES :COUNTRY   
SRVC        .                                                   :SERVICE COMPANY
DATE        .                             9/13/2023 11:19:06 AM :LOG DATE  
API         .                                    17700406070000 :API NUMBER
UWI         .                                    17700406070000 :UNIQUE WELL ID
XCOORD      .                                   1486969.7252092 :SURFACE X 
YCOORD      .                                  10728694.6404599 :SURFACE Y 
LAT         .                                        29.5614647 :LATITUDE  
LON         .                                       -93.4828123 :LONGITUDE 
ELEV        .FT                                              98 :ELEVATION VALUE
ELEV_TYPE   .                                                KB :ELEVATION REFERENCE TYPE
~Curve Information Section
#MNEM       .UNIT                                      API CODE :CURVE DESCRIPTION
#------------------------------------------------------------------------------
DEPT        .FT                                                 :DEPTH     
CALI        .IN                                                 :          
DRHO        .G/C3                                               :          
DT          .US/F                                               :          
GR          .GAPI                                               :          
GR_1        .GAPI                                               :          
GR_NORM     .GAPI                                               :GammaRay Normalized
ILD         .OHMM                                               :          
ILM         .OHMM                                               :          
NPHI        .%                                                  :          
RHOB        .G/C3                                               :          
SFL         .OHMM                                               :          
SP          .MV                                                 :          
SP_NORM     .MV                                                 :SP Normalized
VSH_GR      .V/V                                                :Volume of Shale from GR
VSH_SP      .V/V                                                :Volume of Shale from SP
~A        DEPTH           CALI           DRHO             DT             GR           GR_1        GR_NORM            ILD            ILM           NPHI           RHOB            SFL             SP        SP_NORM         VSH_GR         VSH_SP
# ...
     10572.0000          9.186         0.0019        91.2803        -999.25        38.4791       45.78532         0.3781         0.3984        27.7475          2.272         0.5903       -78.5073       -50.0445       0.272028      0.1716466
     10572.5000         9.1973        -0.0086        93.0626        -999.25         43.439       52.01783         0.4158         0.4269        28.0302         2.2935           0.59       -73.3052       -44.8369      0.4046347      0.2614328
     10573.0000         9.2336        -0.0249        94.7074        -999.25        43.8877       52.58257         0.4615         0.4638        29.1537         2.3122          0.616       -67.2843       -38.8105      0.4166503      0.3653362
     10573.5000         9.3123        -0.0312        96.5973        -999.25        42.8677       51.30193         0.5165         0.5185        30.4306         2.3426         0.6422       -61.7227       -33.2433      0.3894028      0.4613224
     10574.0000         9.3242        -0.0274       100.4174        -999.25        43.2665       51.80399          0.583         0.5812        31.7924         2.3643         0.6645       -54.4836       -25.9987      0.4000849      0.5862293
     10574.5000         9.1714        -0.0137       103.0183        -999.25        43.8275       52.50982         0.6618           0.66         32.294         2.3681         0.7051       -52.3979       -23.9075      0.4151025      0.6222845
     10575.0000         9.0562        -0.0044       103.4314        -999.25        43.4827        52.0775         0.7425         0.7437        30.5103         2.3553         0.7816       -53.1157       -24.6197      0.4059042      0.6100052
     10575.5000         9.0008        -0.0029       100.8831        -999.25         43.053       51.53864         0.8244         0.8193        27.3219         2.3505          0.849       -55.6568       -27.1553       0.394439      0.5662879
     10576.0000         8.9934        -0.0095        94.1942        -999.25        43.9064       52.61184         0.8773         0.8722        24.1876         2.3688         0.9279       -59.0966       -30.5896      0.4172732      0.5070758
     10576.5000          9.017        -0.0099        88.2964        -999.25        46.6589        56.0709          0.895         0.8945        24.4238         2.3929         1.1169       -62.1371       -33.6245      0.4908703        0.45475
     10577.0000         9.0573        -0.0039        82.4086        -999.25        48.5389       58.43388         0.8746         0.9028        25.2194         2.4068         1.6415       -63.9893       -35.4712      0.5411465      0.4229104
     10577.5000         9.0609         0.0004        79.8578        -999.25        48.8719       58.85327         0.8414         0.8968        25.5634          2.396         2.0562       -65.0963       -36.5727      0.5500696       0.403919
     10578.0000         9.0491        -0.0019         81.903        -999.25        48.4895       58.37383         0.8083         0.8553        24.9306         2.3715         2.1175       -64.7432       -36.2141      0.5398687      0.4101017
     10578.5000         9.0177        -0.0068        85.7831        -999.25        48.7226       58.66757         0.7804         0.7959        24.0087         2.3584          1.791       -62.6413       -34.1066      0.5461186      0.4464379
     10579.0000         8.9826        -0.0122        89.9036        -999.25        49.6538       59.83851         0.7619         0.7696        24.6163         2.3605         1.1398       -60.6243       -32.0841      0.5710321      0.4813086
     10579.5000         8.9648         -0.017         92.577        -999.25        50.1013       60.40174         0.7451         0.7603        25.5141         2.3547         0.8861       -59.0767        -30.531      0.5830159      0.5080862
     10580.0000         8.9745        -0.0202         93.278        -999.25        49.3314       59.43534         0.7353         0.7598        26.9549         2.3287         0.8218        -57.856       -29.3047       0.562454      0.5292293
     10580.5000         9.0449        -0.0204        90.1388        -999.25        48.4504       58.32948          0.726         0.7666        31.9902         2.3155         0.9496       -56.6029       -28.0461      0.5389252      0.5509293
     10581.0000         9.2444        -0.0178        88.3414        -999.25        49.6788       59.87382         0.7171         0.7679        35.2418         2.3271          1.083       -53.6848       -25.1225      0.5717834      0.6013362
     10581.5000         9.4794        -0.0126        88.1111        -999.25        52.4738       63.38626         0.7053         0.7559        36.6119         2.3525         1.1252       -49.2115       -20.6436      0.6465163      0.6785586
     10582.0000         9.6524        -0.0065         91.751        -999.25        55.9037       67.69653         0.7007         0.7201        36.8434         2.3636         1.0505       -44.0093       -15.4359       0.738224      0.7683465
     10582.5000         9.8392        -0.0062        99.2809        -999.25        57.3699       69.53964         0.6995         0.6923        36.4487         2.3676         0.8315        -36.311        -7.7321      0.7774392      0.9011707
     10583.0000         9.9984        -0.0098       105.3589        -999.25        57.8986       70.20488          0.699         0.6811        37.7128         2.3673         0.6771       -32.7014        -4.1169      0.7915932      0.9635018
     10583.5000        10.1394        -0.0145       110.0902        -999.25        58.5861       71.06953         0.6983         0.6826        38.2985         2.3628         0.6497       -31.1413        -2.5513      0.8099899      0.9904948
     10584.0000         10.245        -0.0182       113.2394        -999.25        59.5261       72.25152         0.6965         0.6887        38.0482         2.3556         0.6334       -30.3986        -1.8031      0.8351387              1
     10584.5000        10.2938        -0.0197       112.6986        -999.25        61.1461       74.28786         0.6956         0.6957        36.9803          2.353         0.6202       -29.8569        -1.2558      0.8784652              1
     10585.0000        10.3222        -0.0186       107.4216        -999.25         62.591       76.10408          0.697         0.7029        35.9065         2.3567         0.6336       -29.4226         -0.816      0.9171081              1
     10585.5000        10.3226        -0.0152       103.5865        -999.25        64.2397       78.17648         0.6995         0.7039        37.1894         2.3652         0.6886       -29.1056        -0.4935      0.9612016              1
     10586.0000        10.3081         -0.009       101.9069        -999.25        64.4147       78.39735         0.7055         0.7027         38.367         2.3794         0.7502       -28.8291        -0.2114       0.965901              1
     10586.5000        10.2757         0.0006       101.6719        -999.25        63.6335       77.41675         0.7179         0.7027        39.0001         2.3943         0.7873       -28.6219         0.0013      0.9450372              1
     10587.0000        10.2255         0.0091        101.629        -999.25        61.9036       75.24433         0.7297         0.7038         38.173         2.3978         0.8001       -28.4637          0.165      0.8988156              1
     10587.5000        10.2103         0.0087       101.3636        -999.25        59.1836         71.828         0.7358         0.7052        37.5894         2.3885         0.7978       -28.3143           0.32      0.8261276              1
     10588.0000        10.2482         0.0015       100.5927        -999.25        58.0286       70.37776         0.7315          0.707        38.4076         2.3874         0.8001       -28.2335         0.4063      0.7952715              1
     10588.5000        10.3155         0.0005        99.6251        -999.25        59.3136       71.99322         0.7182         0.7027        39.1633         2.3905         0.8171       -28.1481         0.4972       0.829643              1
