#------------------------------------------------------------------------------
# Created by    : vladimir.rabinovich
# Created on    : 09/19/2023 17:22:11
#------------------------------------------------------------------------------
~Version Information Section
VERS.           2.0     :   CWLS log ASCII Standard - VERSION 2.0
WRAP.           NO      :   One line per depth step
~Well Information Section
#MNEM       .UNIT                                         VALUE :DESCRIPTION
#------------------------------------------------------------------------------
STRT        .FT                                             714 :START DEPTH
STOP        .FT                                            7955 :STOP DEPTH
STEP        .FT                                             0.5 :STEP      
NULL        .                                           -999.25 :NULL      
COMP        .                                ODECO OIL & GAS CO :COMPANY   
WELL        .                               OCS G04756 ST00BP00 :WELL      
FLD         .                           WEST CAMERON BLOCK 0165 :FIELD     
LOC         .                                                   :LOCATION  
CNTY        .                                      WEST CAMERON :LOCATION  
STAT        .                                         LOUISIANA :STATE     
CTRY        .                                     UNITED STATES :COUNTRY   
SRVC        .                                                   :SERVICE COMPANY
DATE        .                             9/13/2023 11:19:06 AM :LOG DATE  
API         .                                    17700406200000 :API NUMBER
UWI         .                                    17700406200000 :UNIQUE WELL ID
XCOORD      .                                  1451757.14487559 :SURFACE X 
YCOORD      .                                  10673474.8616073 :SURFACE Y 
LAT         .                                        29.4091131 :LATITUDE  
LON         .                                       -93.5927176 :LONGITUDE 
ELEV        .FT                                             113 :ELEVATION VALUE
ELEV_TYPE   .                                                KB :ELEVATION REFERENCE TYPE
~Curve Information Section
#MNEM       .UNIT                                      API CODE :CURVE DESCRIPTION
#------------------------------------------------------------------------------
DEPT        .FT                                                 :DEPTH     
CALI        .IN                                                 :          
CILD        .MMHO                                               :          
DRHO        .G/C3                                               :          
DT          .US/F                                               :          
GR          .GAPI                                               :          
GR_NORM     .GAPI                                               :GammaRay Normalized
ILD         .OHMM                                               :          
NPSS        .%                                                  :Neutron Porosity Sandstone
RFOC        .OHMM                                               :          
RHOB        .G/C3                                               :          
RILD        .OHMM                                               :          
RILM        .OHMM                                               :          
SN          .OHMM                                               :          
SP          .MV                                                 :          
SP_NORM     .MV                                                 :SP Normalized
VSH_GR      .V/V                                                :Volume of Shale from GR
VSH_SP      .V/V                                                :Volume of Shale from SP
~A        DEPTH           CALI           CILD           DRHO             DT             GR        GR_NORM            ILD           NPSS           RFOC           RHOB           RILD           RILM             SN             SP        SP_NORM         VSH_GR         VSH_SP
# ...
      6024.0000        10.6735       1134.694         0.0836        -999.25            106       98.22045        -999.25        37.5306              1          2.274         0.8739            0.9        -999.25        -6.5625        -0.8482              1              1
      6024.5000        10.6735       1134.694         0.0836        -999.25            104       95.95287        -999.25        38.8776              1           2.27         0.8739         0.8912        -999.25          -8.75        -3.0357              1      0.9993135
      6025.0000        10.6735       1142.857         0.0836        -999.25          102.8       94.59182        -999.25          40.56              1          2.283         0.8653         0.8912        -999.25       -11.5625        -5.8482              1      0.9452269
      6025.5000        10.6735       1142.857         0.0896        -999.25          102.8       94.59058        -999.25           41.4              1          2.298         0.8653         0.8912        -999.25       -11.5625        -5.8482              1      0.9452269
      6026.0000        10.6735        1151.02         0.0896        -999.25          102.8       94.58944        -999.25          42.48              1         2.3088         0.8569         0.8825        -999.25        -9.0625        -3.3482              1      0.9933038
      6026.5000        10.6735        1151.02         0.0812        -999.25            102       93.68166        -999.25          43.86              1          2.291         0.8569         0.8739        -999.25         -6.875        -1.1607              1              1
      6027.0000        10.6735       1167.347         0.0732        -999.25          101.4       93.00051        -999.25          43.68              1          2.273         0.8485         0.8739        -999.25         -6.875        -1.1607              1              1
      6027.5000        10.6735       1183.673         0.0672        -999.25          100.8       92.31936        -999.25          41.28              1          2.267         0.8485         0.8653        -999.25        -7.1875        -1.4732              1              1
      6028.0000        10.6735       1183.673         0.0672        -999.25          101.8       93.45129        -999.25        38.8776              1           2.27         0.8402         0.8569        -999.25           -7.5        -1.7857              1              1
      6028.5000        10.6735       1182.503         0.0716        -999.25       103.4102       95.27467        -999.25          39.48              1         2.2781         0.8402         0.8569        -999.25        -7.8125        -2.0982              1              1
      6029.0000        10.6735       1188.664         0.0776        -999.25       104.4355       96.43537        -999.25          43.14              1          2.294          0.832         0.8485        -999.25          -6.25        -0.5357              1              1
      6029.5000        10.6735       1186.707         0.0956        -999.25       103.4448       95.31151        -999.25             50              1         2.3099         0.8239         0.8402        -999.25        -5.3125         0.4018              1              1
      6030.0000        10.6735       1192.786         0.0956        -999.25       101.4257       93.02226        -999.25           51.6              1         2.2921         0.8239         0.8402        -999.25            -10        -4.2857              1       0.975275
      6030.5000        10.6531           1192         0.0612        -999.25            100       91.40546        -999.25        50.4035              1         2.2686         0.8159         0.8402        -999.25       -14.6875        -8.9732              1      0.8851308
      6031.0000        10.6531           1200         0.0672        -999.25       101.4286       93.02306        -999.25        47.3214              1         2.2647         0.8159          0.832        -999.25       -14.0625        -8.3482              1        0.89715
      6031.5000        10.6735           1208         0.0752        -999.25        104.898       96.95335        -999.25           44.7              1         2.2804         0.8079          0.832        -999.25        -8.4375        -2.7232              1              1
      6032.0000        10.6531           1208         0.0836        -999.25       108.3673       100.8834        -999.25           42.6              1         2.2931         0.8079          0.832        -999.25        -9.6875        -3.9732              1      0.9812846
      6032.5000        10.6531           1200         0.0852        -999.25       110.2041       102.9636        -999.25          41.76              1         2.2922         0.8079          0.832        -999.25       -11.5625        -5.8482              1      0.9452269
      6033.0000        10.6531           1200         0.0812        -999.25       111.2245       104.1186        -999.25          42.78              1         2.2794         0.8159          0.832        -999.25       -14.0625        -8.3482              1        0.89715
      6033.5000        10.6531           1192         0.0692        -999.25       111.6327       104.5799        -999.25          43.32              1         2.2569         0.8239         0.8485        -999.25          -15.6        -9.8857              1      0.8675827
      6034.0000        10.6531           1184         0.0552        -999.25       110.8163       103.6536        -999.25          41.64              1          2.244          0.832         0.8569        -999.25          -15.9       -10.1857              1      0.8618134
      6034.5000        10.6531           1184         0.0532        -999.25       109.7959       102.4961        -999.25          39.24              1          2.249         0.8402         0.8653        -999.25          -15.6        -9.8857              1      0.8675827
      6035.0000        10.6531           1160         0.0532        -999.25       108.3673        100.876        -999.25        38.1429              1         2.2549         0.8485         0.8739        -999.25       -14.6875        -8.9732              1      0.8851308
      6035.5000        10.6531           1152         0.0493        -999.25       108.5714       101.1061        -999.25          39.48              1         2.2539         0.8569         0.8739        -999.25         -13.75        -8.0357              1      0.9031596
      6036.0000        10.6531           1136         0.0433        -999.25       108.9796       101.5674        -999.25          41.64              1          2.246         0.8739         0.8825        -999.25       -14.0625        -8.3482              1        0.89715
      6036.5000        10.6531           1128         0.0473        -999.25        107.551       99.94728        -999.25          40.92              1           2.24         0.8739         0.8912        -999.25        -14.375        -8.6607              1      0.8911404
      6037.0000        10.6531           1120         0.0572        -999.25       105.9184       98.09615        -999.25          39.42              1          2.252         0.8825         0.8912        -999.25       -14.0625        -8.3482              1        0.89715
      6037.5000        10.6531           1112         0.0672        -999.25       104.6939       96.70733        -999.25           40.5              1         2.2833         0.8912         0.8825        -999.25       -11.5625        -5.8481              1      0.9452288
      6038.0000        10.6531           1104         0.0692        -999.25       104.4898       96.47481        -999.25           44.1              1         2.2784         0.8912         0.8825        -999.25         -6.875         -1.154              1              1
      6038.5000        10.6531       1096.785         0.0732        -999.25       105.7143       97.86113        -999.25         42.531              1         2.2745         0.9079         0.8825        -999.25          -6.25        -0.5224              1              1
