#------------------------------------------------------------------------------
# Created by    : vladimir.rabinovich
# Created on    : 09/19/2023 17:22:07
#------------------------------------------------------------------------------
~Version Information Section
VERS.           2.0     :   CWLS log ASCII Standard - VERSION 2.0
WRAP.           NO      :   One line per depth step
~Well Information Section
#MNEM       .UNIT                                         VALUE :DESCRIPTION
#------------------------------------------------------------------------------
STRT        .FT                                            4421 :START DEPTH
STOP        .FT                                           11895 :STOP DEPTH
STEP        .FT                                             0.5 :STEP      
NULL        .                                           -999.25 :NULL      
COMP        .                MURPHY EXPLORATION & PRODUCTION CO :COMPANY   
WELL        .                               OCS G02828 ST00BP00 :WELL      
FLD         .                           WEST CAMERON BLOCK 0116 :FIELD     
LOC         .                                                   :LOCATION  
CNTY        .                                      WEST CAMERON :LOCATION  
STAT        .                                         LOUISIANA :STATE     
CTRY        .                                     UNITED STATES :COUNTRY   
SRVC        .                                                   :SERVICE COMPANY
DATE        .                             9/13/2023 11:18:31 AM :LOG DATE  
API         .                                    17700404120000 :API NUMBER
UWI         .                                    17700404120000 :UNIQUE WELL ID
XCOORD      .                                  1472413.58592246 :SURFACE X 
YCOORD      .                                  10706677.6123634 :SURFACE Y 
LAT         .                                         29.500724 :LATITUDE  
LON         .                                        -93.528296 :LONGITUDE 
ELEV        .FT                                              75 :ELEVATION VALUE
ELEV_TYPE   .                                                KB :ELEVATION REFERENCE TYPE
~Curve Information Section
#MNEM       .UNIT                                      API CODE :CURVE DESCRIPTION
#------------------------------------------------------------------------------
DEPT        .FT                                                 :DEPTH     
CALI        .IN                                                 :          
DRHO        .G/C3                                               :          
DT          .US/F                                               :          
GR          .GAPI                                               :          
GR_1        .GAPI                                               :          
GR_NORM     .GAPI                                               :GammaRay Normalized
ILD         .OHMM                                               :          
NPHI        .%                                                  :          
RHOB        .G/C3                                               :          
SFL         .OHMM                                               :          
SP          .MV                                                 :          
SP_NORM     .MV                                                 :SP Normalized
VSH_GR      .V/V                                                :Volume of Shale from GR
VSH_SP      .V/V                                                :Volume of Shale from SP
~A        DEPTH           CALI           DRHO             DT             GR           GR_1        GR_NORM            ILD           NPHI           RHOB            SFL             SP        SP_NORM         VSH_GR         VSH_SP
# ...
      5987.0000        14.0288          0.048       110.2032        66.9336        -999.25       71.18842         0.8628        39.2552         2.2977         0.9918       -62.4976       -14.8786      0.8125197      0.7955778
      5987.5000        14.2845         0.0634       106.2955        68.9022        -999.25       73.00214         0.8649        38.1805         2.2863         0.9758       -62.3516       -14.7326      0.8511093      0.7978953
      5988.0000        14.3522         0.0739       104.6184        70.3042        -999.25       74.29366         0.8653        39.2545         2.3162         1.0575       -61.8607       -14.2416      0.8785886      0.8056889
      5988.5000        14.2478         0.0665       108.5726        71.0375        -999.25       74.96893         0.8601        40.5231          2.323         1.1458        -61.074        -13.455      0.8929558      0.8181746
      5989.0000        14.7021         0.0514       115.2863        70.9185        -999.25        74.8587         0.8543        41.7106         2.3045         1.1074       -59.8624       -12.2434      0.8906106      0.8374063
      5989.5000        15.1092         0.0482       119.6688        69.8743        -999.25       73.89571         0.8476        42.6304         2.2917         1.0223       -57.7657       -10.1467      0.8701216      0.8706873
      5990.0000        15.2384         0.0497       122.9645        68.4027        -999.25       72.53894         0.8409        43.5583         2.2745         0.9643       -55.1038        -7.4848      0.8412541      0.9129397
      5990.5000        15.2906         0.0449       122.7759         67.686        -999.25       71.87787         0.8343        43.0486         2.2617         0.9274       -53.0472        -5.4282      0.8271887      0.9455841
      5991.0000        15.2968         0.0383       116.0159        67.8075        -999.25        71.9893         0.8264        40.7429         2.2568         0.9023       -51.7381         -4.119      0.8295595      0.9663651
      5991.5000        15.2694         0.0522        108.558        68.7715        -999.25       72.87717         0.8193        39.7523         2.2665         0.8882       -52.0663        -4.4473      0.8484504       0.961154
      5992.0000         15.175         0.0523         104.42          70.16        -999.25       74.15625          0.815        39.3485         2.2646         0.8845       -53.8931        -6.2741      0.8756649      0.9321572
      5992.5000        14.7707         0.0257       102.8636        71.5901        -999.25       75.47368         0.8234        39.7752         2.2478         0.8971       -55.7492        -8.1301      0.9036953      0.9026968
      5993.0000        14.3116         0.0546       104.3662        71.8752        -999.25       75.73588         0.8284        41.0018         2.2716         0.9786       -57.2297        -9.6106       0.909274      0.8791968
      5993.5000        14.4738          0.068        108.171        71.2164        -999.25       75.12817         0.8183        41.4899         2.2813         1.1316       -57.0729        -9.4538      0.8963441      0.8816857
      5994.0000        14.7263         0.0667        112.921        70.1161        -999.25       74.11359         0.8348        40.4744         2.2752         1.1085       -55.1639        -7.5448      0.8747572      0.9119873
      5994.5000        14.8218         0.0509       117.1421        70.0758        -999.25       74.07589         0.8648        39.1851          2.284         0.9673       -53.3717        -5.7527      0.8739551      0.9404333
      5995.0000        14.8439         0.0595       120.3373        70.4763        -999.25       74.44444         0.8954        38.8152         2.3039         0.9398        -52.956         -5.337      0.8817967      0.9470317
      5995.5000        14.8557         0.0675       120.0312        70.6411        -999.25       74.59577         0.9185        39.1962         2.3122         0.9898       -53.2965        -5.6775      0.8850164       0.941627
      5996.0000        14.8732         0.0592       117.2964        70.5796        -999.25       74.53853         0.8978        39.8556          2.279         1.0327       -53.3491          -5.73      0.8837985      0.9407936
      5996.5000        14.8878         0.0469       114.3534        70.3575        -999.25       74.33329         0.8589        40.3345         2.2674         1.0175       -53.1155        -5.4965      0.8794317         0.9445
      5997.0000        14.9064         0.0413       114.9019        69.9733        -999.25       73.97866         0.8654        40.9553         2.2534         0.9941        -52.907         -5.288      0.8718864      0.9478095
      5997.5000        14.9151         0.0426       121.3729        69.2051        -999.25       73.27013         0.9246        41.7822         2.2474         0.9916       -52.9492        -5.3302      0.8568113      0.9471397
      5998.0000        14.9136         0.0515       131.2842        68.2599        -999.25       72.39849         0.8917        42.4276          2.213         1.0055       -53.6981        -6.0791      0.8382658      0.9352524
      5998.5000        14.8819         0.0183       135.8567        67.3481        -999.25       71.55762         0.8248        41.4658         2.1911         0.9836       -55.1567        -7.5377      0.8203748         0.9121
      5999.0000        14.7808         0.0089       134.3887        67.0234        -999.25       71.25782         0.8213        40.6013         2.1947         0.9139       -56.8286        -9.2096      0.8139962      0.8855619
      5999.5000        14.5665         0.0081       131.5093        67.0867        -999.25       71.31561         0.8186        39.9788         2.2379         0.8697       -58.5096       -10.8906      0.8152257      0.8588794
      6000.0000        13.7337           0.03       125.4177        67.2577        -999.25       71.47265         0.8013         38.639         2.2495         0.8621       -60.2654       -12.6464       0.818567      0.8310095
      6000.5000        13.0944         0.0389       115.7905        67.4919        -999.25       71.68793         0.8179        34.9412         2.2551          0.926       -62.2454       -14.6264      0.8231474      0.7995809
      6001.0000        13.0243         0.0398       108.5286        66.8579        -999.25       71.10308         0.7834        37.4848         2.2538         1.0168       -64.4734       -16.8543      0.8107039      0.7642175
      6001.5000        13.1546         0.0323       111.5352        64.4813        -999.25       68.91225         0.7429        39.7369         2.2366         1.1015       -66.6412       -19.0221      0.7640905      0.7298079
      6002.0000        13.4595         0.0221       115.9227        61.8118        -999.25       66.45149         0.7083        42.1814         2.1879         1.1689       -68.2347       -20.6157      0.7117339      0.7045127
      6002.5000        13.4758         0.0122       120.0116        59.5061        -999.25       64.32592         0.7359        44.1879         2.1523         1.0615       -67.4937       -19.8746      0.6665089      0.7162762
      6003.0000        13.1832         0.0086       122.5972        58.0186        -999.25       62.95448         0.7664        42.4566         2.1396         0.8747       -66.9913       -19.3723      0.6373293      0.7242492
      6003.5000        12.8348         0.0127       117.6465        61.8191        -999.25       66.45647          0.778        37.8873         2.1516         0.7904       -69.1537       -21.5347      0.7118397      0.6899254
      6004.0000        12.5883         0.0207       111.9857        64.8405        -999.25       69.24044         0.7529        37.0313         2.2028         0.8054       -72.3517       -24.7327      0.7710732      0.6391635
      6004.5000        12.6765         0.0284        109.192        66.7601        -999.25       71.00898          0.722        36.1353         2.2613         0.9319       -75.0209       -27.4018      0.8087017      0.5967968
