#------------------------------------------------------------------------------
# Created by    : vladimir.rabinovich
# Created on    : 09/19/2023 17:19:36
#------------------------------------------------------------------------------
~Version Information Section
VERS.           2.0     :   CWLS log ASCII Standard - VERSION 2.0
WRAP.           NO      :   One line per depth step
~Well Information Section
#MNEM       .UNIT                                         VALUE :DESCRIPTION
#------------------------------------------------------------------------------
STRT        .FT                                          2840.5 :START DEPTH
STOP        .FT                                            9365 :STOP DEPTH
STEP        .FT                                             0.5 :STEP      
NULL        .                                           -999.25 :NULL      
COMP        .                              MCMORAN OIL & GAS CO :COMPANY   
WELL        .                                OCS 00757 ST00BP00 :WELL      
FLD         .                           WEST CAMERON BLOCK 0118 :FIELD     
LOC         .                                                   :LOCATION  
CNTY        .                                      WEST CAMERON :LOCATION  
STAT        .                                         LOUISIANA :STATE     
CTRY        .                                     UNITED STATES :COUNTRY   
SRVC        .                                                   :SERVICE COMPANY
DATE        .                             9/13/2023 11:18:49 AM :LOG DATE  
API         .                                    17700410710000 :API NUMBER
UWI         .                                    17700410710000 :UNIQUE WELL ID
XCOORD      .                                  1441592.04714169 :SURFACE X 
YCOORD      .                                  10704369.2355959 :SURFACE Y 
LAT         .                                        29.4939537 :LATITUDE  
LON         .                                       -93.6251728 :LONGITUDE 
ELEV        .FT                                              90 :ELEVATION VALUE
ELEV_TYPE   .                                                KB :ELEVATION REFERENCE TYPE
~Curve Information Section
#MNEM       .UNIT                                      API CODE :CURVE DESCRIPTION
#------------------------------------------------------------------------------
DEPT        .FT                                                 :DEPTH     
AHT10       .OHMM                                               :          
AHT20       .OHMM                                               :          
AHT30       .OHMM                                               :          
AHT60       .OHMM                                               :          
AHT90       .OHMM                                               :          
AHTCO90     .MMHO                                               :          
DPHZ        .DEC                                                :          
GR          .GAPI                                               :          
GR_NORM     .GAPI                                               :GammaRay Normalized
HCAL        .IN                                                 :          
HDRA        .G/CC                                               :          
HMIN        .OHMM                                               :          
HMNO        .OHMM                                               :          
NPOR        .DEC                                                :          
RHOZ        .G/CC                                               :          
RWA         .OHMM                                               :          
TENS        .LB                                                 :          
VSH_GR      .V/V                                                :Volume of Shale from GR
~A        DEPTH          AHT10          AHT20          AHT30          AHT60          AHT90        AHTCO90           DPHZ             GR        GR_NORM           HCAL           HDRA           HMIN           HMNO           NPOR           RHOZ            RWA           TENS         VSH_GR
# ...
      6802.5000         0.5755         0.4205         0.3639         0.3492         0.3334       2999.607          0.271        76.9156       74.07068        10.5311         0.0013          2.067          1.826         0.2765          2.203         0.0325           3165      0.8738442
      6803.0000          0.554         0.4075         0.3754         0.3749         0.3576       2796.159         0.2676        79.2735       76.42496        10.1527        -0.0043          1.482          1.309         0.3567          2.208         0.0339           3185      0.9239352
      6803.5000         0.6481          0.455         0.4311         0.4328         0.4103       2437.143         0.2502        81.1933       78.34164        10.0817        -0.0027          1.026          0.907         0.3912          2.237         0.0337           3212      0.9647158
      6804.0000         0.9092          0.601         0.5286         0.5126         0.4815       2076.912         0.2148         72.956       70.11088         9.9634         0.0037          1.688          1.522         0.2863          2.296         0.0284           3192      0.7895932
      6804.5000          0.965         0.6555         0.5781         0.5578         0.5209       1919.635         0.1836        70.3586        67.5146        10.0817         0.0114          1.046          0.925         0.2419          2.347          0.022           3224      0.7343531
      6805.0000         0.7908         0.5588         0.4914         0.4764         0.4501         2221.5         0.1943        63.8794       61.04026        10.3656         0.0084          0.956          0.846         0.3192          2.329         0.0214           3161      0.5966012
      6805.5000         0.6622         0.4923         0.4404         0.4371         0.4117       2429.216         0.2271        63.8794       61.03893        10.4602        -0.0015          1.144          1.011          0.353          2.275         0.0274           3170      0.5965729
      6806.0000         0.6399         0.4797         0.4277         0.4158         0.3911       2557.211         0.2496        60.7665       57.92764        10.5548        -0.0048          1.003          0.887          0.378          2.238         0.0319           3188      0.5303754
      6806.5000         0.6411         0.4715         0.4153         0.4024         0.3772       2650.873         0.2737         65.086       62.24164        10.4838        -0.0075          1.319          1.166         0.3494          2.198         0.0375           3208      0.6221626
      6807.0000         0.6149         0.4514         0.3973         0.3849         0.3596       2781.009          0.283        68.6469       65.79783        10.1645        -0.0065          1.797          1.587         0.3156          2.183         0.0384           3296      0.6978261
      6807.5000         0.5764         0.4323         0.3774         0.3726         0.3467       2884.694         0.2818        69.6048       66.75344         10.129        -0.0054          1.066          0.943         0.3752          2.185         0.0367           3283      0.7181583
      6808.0000         0.5073         0.3945         0.3502         0.3408         0.3169       3155.238         0.2779        66.0052       63.15596         9.9634        -0.0047          1.148          1.015         0.3799          2.191         0.0326           3256      0.6416162
      6808.5000         0.4857         0.3663         0.3309         0.3182         0.2954       3385.579         0.2734        59.3022       56.45813         9.9516         -0.006          0.811          0.718          0.355          2.199         0.0293           3269      0.4991091
      6809.0000          0.593         0.4227         0.3699         0.3522          0.322       3105.483         0.2641        59.7811       56.93513        10.3656        -0.0063          0.593          0.526         0.3706          2.214         0.0297           3234      0.5092582
      6809.5000         0.7975         0.5369          0.433         0.4022         0.3611       2769.453         0.2379        67.4602       64.60551        10.5785         -0.004          0.952          0.842         0.3858          2.257         0.0266           3257      0.6724576
      6810.0000         0.8696         0.5719         0.4665         0.4326         0.3807       2626.621          0.215        73.5348         70.673        10.5548        -0.0008          1.055          0.932         0.3191          2.295         0.0226           3225      0.8015533
      6810.5000         0.8276         0.5338         0.4301         0.3998         0.3508       2850.546         0.2102        73.2953       70.43231        10.4838         0.0018           1.04           0.92         0.3891          2.303         0.0198           3246      0.7964322
      6811.0000         0.6996         0.4704         0.3877         0.3528         0.3106       3219.406         0.2363        62.4967        59.6428         10.129        -0.0005          1.553          1.372         0.3686           2.26         0.0225           3224      0.5668681
      6811.5000         0.4531         0.3558         0.3059         0.2882         0.2576       3882.641         0.2853         53.434       50.58749         9.8924        -0.0112          1.185          1.048         0.3374          2.179          0.028           3224       0.374202
      6812.0000         0.3574          0.281         0.2463         0.2321           0.21       4762.675          0.325        51.0345       48.18887          9.857        -0.0222          0.688          0.609         0.3397          2.114         0.0302           3214      0.3231674
      6812.5000         0.3777         0.2803         0.2474         0.2321         0.2078       4811.443         0.3341        49.8347       46.98895         9.9871        -0.0257            0.7           0.62          0.359          2.099         0.0317           3215      0.2976372
      6813.0000         0.4183         0.3209          0.264         0.2344         0.2078        4812.71         0.3263        49.3557       46.50901         10.058        -0.0209          1.226          1.084         0.3711          2.112         0.0302           3188      0.2874257
      6813.5000         0.4051         0.3114         0.2624         0.2266         0.1997       5008.456         0.3189        44.7474       41.90383        10.1527        -0.0129           1.89          1.669         0.3015          2.124         0.0276           3222      0.1894432
      6814.0000         0.3559         0.2768          0.254         0.2212         0.1938       5160.557         0.3194        47.6271       44.77934           10.2        -0.0085          1.428          1.261         0.2971          2.123         0.0269           3261      0.2506242
      6814.5000         0.3544         0.2828         0.2506         0.2181         0.1899       5266.901         0.3212        46.6692       43.82106        10.1053        -0.0063          0.957          0.847         0.3349           2.12         0.0266           3210      0.2302352
      6815.0000         0.4195         0.3089         0.2661         0.2278         0.1954       5117.903         0.3191        49.3923       46.54019        10.0107        -0.0077          0.881           0.78         0.3481          2.123          0.027           3195      0.2880891
      6815.5000         0.4477         0.3239         0.2674         0.2371         0.2011       4973.514         0.3192        47.9171       45.06507         9.8924        -0.0094          1.006          0.889          0.329          2.123         0.0278           3165      0.2567036
      6816.0000         0.3593         0.2931         0.2433         0.2236         0.1904       5251.146         0.3243        44.8293       41.97896         9.8806        -0.0145          0.982          0.868         0.2961          2.115         0.0273           3170      0.1910417
