#------------------------------------------------------------------------------
# Created by    : vladimir.rabinovich
# Created on    : 09/19/2023 17:22:07
#------------------------------------------------------------------------------
~Version Information Section
VERS.           2.0     :   CWLS log ASCII Standard - VERSION 2.0
WRAP.           NO      :   One line per depth step
~Well Information Section
#MNEM       .UNIT                                         VALUE :DESCRIPTION
#------------------------------------------------------------------------------
STRT        .FT                                            4421 :START DEPTH
STOP        .FT                                           11895 :STOP DEPTH
STEP        .FT                                             0.5 :STEP      
NULL        .                                           -999.25 :NULL      
COMP        .                MURPHY EXPLORATION & PRODUCTION CO :COMPANY   
WELL        .                               OCS G02828 ST00BP00 :WELL      
FLD         .                           WEST CAMERON BLOCK 0116 :FIELD     
LOC         .                                                   :LOCATION  
CNTY        .                                      WEST CAMERON :LOCATION  
STAT        .                                         LOUISIANA :STATE     
CTRY        .                                     UNITED STATES :COUNTRY   
SRVC        .                                                   :SERVICE COMPANY
DATE        .                             9/13/2023 11:18:31 AM :LOG DATE  
API         .                                    17700404120000 :API NUMBER
UWI         .                                    17700404120000 :UNIQUE WELL ID
XCOORD      .                                  1472413.58592246 :SURFACE X 
YCOORD      .                                  10706677.6123634 :SURFACE Y 
LAT         .                                         29.500724 :LATITUDE  
LON         .                                        -93.528296 :LONGITUDE 
ELEV        .FT                                              75 :ELEVATION VALUE
ELEV_TYPE   .                                                KB :ELEVATION REFERENCE TYPE
~Curve Information Section
#MNEM       .UNIT                                      API CODE :CURVE DESCRIPTION
#------------------------------------------------------------------------------
DEPT        .FT                                                 :DEPTH     
CALI        .IN                                                 :          
DRHO        .G/C3                                               :          
DT          .US/F                                               :          
GR          .GAPI                                               :          
GR_1        .GAPI                                               :          
GR_NORM     .GAPI                                               :GammaRay Normalized
ILD         .OHMM                                               :          
NPHI        .%                                                  :          
RHOB        .G/C3                                               :          
SFL         .OHMM                                               :          
SP          .MV                                                 :          
SP_NORM     .MV                                                 :SP Normalized
VSH_GR      .V/V                                                :Volume of Shale from GR
VSH_SP      .V/V                                                :Volume of Shale from SP
~A        DEPTH           CALI           DRHO             DT             GR           GR_1        GR_NORM            ILD           NPHI           RHOB            SFL             SP        SP_NORM         VSH_GR         VSH_SP
# ...
      4997.0000        12.9485         0.0315       135.5215         74.292        -999.25       83.45351         0.7103        54.1362         2.1103         0.8261       -51.6429        -0.2143              1              1
      4997.5000        12.9336         0.0286       134.7576        75.3431        -999.25       84.57107         0.7099        53.8583         2.1049         0.8403       -51.9742        -0.5456              1              1
      4998.0000        12.9853         0.0379       133.2332        76.3834        -999.25       85.67712         0.7094        52.9113         2.1231         0.8555       -51.6307        -0.2021              1              1
      4998.5000        13.0432         0.0486       132.4495        77.0427        -999.25       86.37787         0.7086        52.0248          2.142         0.8708       -51.0919         0.3367              1              1
      4999.0000        13.0508         0.0436       131.8928        77.1914        -999.25       86.53542         0.7077        51.0945         2.1416         0.8801       -50.5034         0.9252              1              1
      4999.5000         13.051         0.0343       131.2964        76.9001        -999.25       86.22489         0.7086        50.1546          2.134         0.8802       -49.8945         1.5341              1              1
      5000.0000        13.0618         0.0385       130.4338        76.1548        -999.25       85.43138         0.7098        49.3207         2.1319         0.8781       -49.4847         1.9439              1              1
      5000.5000        13.1051         0.0394       130.4978        76.4919        -999.25       85.78936          0.711        50.0219         2.1372         0.8763       -49.7404         1.6882              1              1
      5001.0000          13.17         0.0428       131.5295        77.4487        -999.25       86.80659         0.7121        50.7105          2.128          0.875       -50.4196          1.009              1              1
      5001.5000        13.1103         0.0548       132.8542        78.1691        -999.25       87.57233         0.7132        50.4919         2.1391         0.8746       -51.0716          0.357              1              1
      5002.0000        13.0367          0.064       135.1128        78.4203        -999.25       87.83894         0.7128        49.6416         2.1493         0.8751       -50.3184         1.1102              1              1
      5002.5000        13.0191         0.0592       137.2493        77.7031        -999.25       87.07533         0.7124        50.3821          2.104         0.8744       -49.0267         2.4019              1              1
      5003.0000        13.0087         0.0491        137.814        76.3043        -999.25        85.5866         0.7125        51.3969         2.0804          0.873       -49.4688         1.9598              1              1
      5003.5000        13.0069          0.037       137.4824        74.9631        -999.25       84.15915         0.7127        52.4117         2.0623         0.8707         -51.91        -0.4814              1              1
      5004.0000        13.0067         0.0289       136.7102        73.9462        -999.25        83.0767         0.7141         53.276         2.0525         0.8694        -52.854        -1.4254              1              1
      5004.5000        13.0072         0.0259       135.8831        73.4313        -999.25        82.5282         0.7159        53.6771         2.0453         0.8691       -52.3608        -0.9322              1              1
      5005.0000        12.9929         0.0257       135.1323         73.584        -999.25          82.69         0.7174        53.0937         2.0621          0.868       -51.8143        -0.3857              1              1
      5005.5000        12.9727         0.0294       134.5657        74.0088        -999.25       83.14127         0.7186        51.9388         2.0833         0.8671       -51.2131         0.2155              1              1
      5006.0000        12.9561         0.0353       134.1687        74.6848        -999.25       83.85978         0.7197        50.3784         2.1002         0.8669        -50.688         0.7406              1              1
      5006.5000        12.9533          0.039       134.0464        75.3575        -999.25       84.57479         0.7208         48.794         2.1043         0.8657       -50.5048         0.9238              1              1
      5007.0000        12.9413         0.0337       134.0046        75.7858        -999.25       85.02979         0.7219        48.8907         2.0905         0.8621       -51.1999         0.2287              1              1
      5007.5000        12.9416         0.0307        133.915        75.9091        -999.25       85.16032         0.7239        49.0992         2.0981         0.8562       -51.8335        -0.4049              1              1
      5008.0000        12.9476          0.027       133.5549        75.3616        -999.25       84.57723         0.7263         49.298         2.1038         0.8476       -51.1106          0.318              1              1
      5008.5000        12.9458         0.0324       132.3572        74.8394        -999.25       84.02106         0.7283        49.6035         2.1025         0.8379        -50.116         1.3126              1              1
      5009.0000        12.9417         0.0515       130.6089        74.8451        -999.25       84.02648         0.7297         50.069         2.1256         0.8256       -49.4606          1.968              1              1
      5009.5000        12.9348         0.0714       129.5042        75.5179        -999.25        84.7416         0.7317          50.29         2.1381         0.8149        -49.199         2.2296              1              1
      5010.0000        12.9218         0.0841       128.7605        76.0479        -999.25       85.30479         0.7345        50.8054         2.1402         0.8088       -49.4118         2.0168              1              1
      5010.5000         12.918         0.0847        128.196        76.2279        -999.25       85.49564         0.7386          51.52         2.1275         0.8244       -49.7869         1.6417              1              1
      5011.0000          12.92         0.0744       127.6924        76.2788        -999.25       85.54916         0.7455        52.2791         2.1097         0.8468       -50.1226          1.306              1              1
      5011.5000        12.9237         0.0723       127.2092        76.5778        -999.25        85.8666         0.7539        52.7396         2.0916         0.8701       -50.5157         0.9129              1              1
      5012.0000        12.9278         0.0707       126.6632        77.2103        -999.25       86.53883         0.7639        52.0997         2.0862         0.9062       -50.9907         0.4379              1              1
      5012.5000        12.9323         0.0659       125.9893        77.6134        -999.25       86.96703          0.775        50.4022         2.0954         0.9301       -51.6599        -0.2313              1              1
      5013.0000        12.9377          0.058       125.1934        76.4821        -999.25       85.76287         0.7868        48.7062         2.1167         0.9051       -52.0651        -0.6365              1              1
      5013.5000        12.9455         0.0452       124.4022        74.3527        -999.25       83.49692         0.8052        47.0087         2.1191         0.8743       -52.9949        -1.5663              1              1
      5014.0000        12.9517         0.0296       123.7539        72.3899        -999.25       81.40819         0.8261         45.662         2.0977         0.8607        -54.335        -2.9064              1      0.9856127
      5014.5000        12.9631         0.0191       124.4169        70.5129        -999.25       79.41074         0.8513        45.5621         2.0878         0.9026       -54.9858        -3.5572      0.9874626      0.9752825
