#------------------------------------------------------------------------------
# Created by    : vladimir.rabinovich
# Created on    : 09/19/2023 17:21:14
#------------------------------------------------------------------------------
~Version Information Section
VERS.           2.0     :   CWLS log ASCII Standard - VERSION 2.0
WRAP.           NO      :   One line per depth step
~Well Information Section
#MNEM       .UNIT                                         VALUE :DESCRIPTION
#------------------------------------------------------------------------------
STRT        .FT                                            3520 :START DEPTH
STOP        .FT                                            8510 :STOP DEPTH
STEP        .FT                                             0.5 :STEP      
NULL        .                                           -999.25 :NULL      
COMP        .                      SPINNAKER EXPLORATION CO LLC :COMPANY   
WELL        .                               OCS G21537 ST00BP00 :WELL      
FLD         .                                           WILDCAT :FIELD     
LOC         .                                                   :LOCATION  
CNTY        .                                      WEST CAMERON :LOCATION  
STAT        .                                         LOUISIANA :STATE     
CTRY        .                                     UNITED STATES :COUNTRY   
SRVC        .                                                   :SERVICE COMPANY
DATE        .                             9/13/2023 11:18:49 AM :LOG DATE  
API         .                                    17700410830000 :API NUMBER
UWI         .                                    17700410830000 :UNIQUE WELL ID
XCOORD      .                                   1446389.6294369 :SURFACE X 
YCOORD      .                                  10699667.6074025 :SURFACE Y 
LAT         .                                        29.4810902 :LATITUDE  
LON         .                                       -93.6100108 :LONGITUDE 
ELEV        .FT                                              91 :ELEVATION VALUE
ELEV_TYPE   .                                                KB :ELEVATION REFERENCE TYPE
~Curve Information Section
#MNEM       .UNIT                                      API CODE :CURVE DESCRIPTION
#------------------------------------------------------------------------------
DEPT        .FT                                                 :DEPTH     
CAL         .IN                                                 :          
CNC         .%                                                  :          
GR          .GAPI                                               :          
GR_NORM     .GAPI                                               :GammaRay Normalized
M0C6        .MMHO                                               :          
M2R1        .OHMM                                               :          
M2R2        .OHMM                                               :          
M2R3        .OHMM                                               :          
M2R6        .OHMM                                               :          
M2R9        .OHMM                                               :          
M2RX        .OHMM                                               :          
PORZ        .%                                                  :          
SP          .MV                                                 :          
SP_NORM     .MV                                                 :SP Normalized
TEN         .LB/F                                               :          
VSH_GR      .V/V                                                :Volume of Shale from GR
VSH_SP      .V/V                                                :Volume of Shale from SP
ZCOR        .G/CC                                               :          
~A        DEPTH            CAL            CNC             GR        GR_NORM           M0C6           M2R1           M2R2           M2R3           M2R6           M2R9           M2RX           PORZ             SP        SP_NORM            TEN         VSH_GR         VSH_SP           ZCOR
# ...
      4178.0000         12.444         44.125        103.713       77.90829       1036.789           0.75          0.869          0.941           0.98          1.003          1.035         24.855         -6.614        -4.7092        580.484      0.9554955      0.8871167          0.017
      4178.5000         12.443         42.617          104.6       78.91238       1038.743          0.724          0.841          0.911          0.948          0.971          1.001         25.342         -6.465        -4.5602        580.885      0.9768592       0.893325          0.023
      4179.0000         12.443         42.876        106.721       81.31481       1041.811           0.72          0.838          0.907          0.944          0.966          0.996         25.579         -5.948        -4.0432        579.603              1      0.9148667          0.031
      4179.5000         12.439         43.698        109.861       84.87194       1045.762           0.73          0.848          0.918          0.954          0.976          1.005         25.487         -5.533        -3.6282        575.498              1      0.9321584          0.038
      4180.0000         12.422         44.477        112.177       87.49535       1050.237          0.732          0.849          0.917          0.951          0.973          1.002         25.428         -5.481        -3.5762        578.142              1       0.934325          0.042
      4180.5000         12.397         47.666        111.122       86.29884       1054.785          0.727           0.84          0.905          0.937          0.958          0.986         25.521         -5.719        -3.8142        587.162              1      0.9244083          0.046
      4181.0000         12.371         52.783         107.93       82.68075       1058.954          0.732          0.841          0.903          0.935          0.955          0.983         25.581         -6.085        -4.1802        588.675              1      0.9091583           0.05
      4181.5000         12.346         52.369        105.892       80.37032       1062.321          0.747          0.852          0.914          0.945          0.965          0.992         25.502         -6.286        -4.3812         581.11              1      0.9007834          0.048
      4182.0000         12.329         47.075        105.806       80.27185       1064.553          0.754          0.856          0.916          0.947          0.967          0.994         25.288         -6.125        -4.2202        575.762              1      0.9074917          0.037
      4182.5000         12.325          44.23        107.668       82.38079       1065.396          0.748          0.847          0.905          0.935          0.955          0.981         25.107         -5.776        -3.8712        576.987              1      0.9220333          0.028
      4183.0000         12.323         44.696        110.745       85.86653       1064.744          0.742          0.838          0.896          0.926          0.945          0.971         25.107         -5.495        -3.5902        579.668              1      0.9337417          0.027
      4183.5000         12.315          44.68        112.273       87.59698       1062.557          0.744          0.842          0.901          0.932          0.951          0.977         25.137         -5.396        -3.4912        576.221              1      0.9378667          0.034
      4184.0000         12.305         44.049        110.147       85.18685       1058.904          0.755          0.857          0.919          0.951          0.971          0.998         25.053         -5.592        -3.6872        573.451              1         0.9297          0.039
      4184.5000         12.298         45.043        108.632       83.46909       1053.857          0.756          0.864          0.929          0.962          0.982           1.01         25.049         -5.895        -3.9902        579.739              1       0.917075          0.037
      4185.0000         12.297         47.435        111.216       86.39617       1047.552          0.736          0.847          0.913          0.946          0.966          0.994         25.239         -5.857        -3.9522        585.855              1      0.9186583          0.032
      4185.5000         12.296          48.34        114.116       89.68134       1040.164           0.71          0.821          0.887           0.92           0.94          0.967         25.442         -5.381        -3.4762        584.446              1      0.9384916          0.036
      4186.0000         12.293         46.109        113.403       88.87238       1032.031          0.701          0.815          0.881          0.915          0.934          0.962         25.535         -4.841        -2.9362        580.103              1      0.9609917          0.038
      4186.5000         12.291         43.471        110.657       85.75967       1023.651          0.723          0.842          0.912          0.947          0.967          0.997         25.514          -4.61        -2.7052        578.641              1      0.9706166          0.029
      4187.0000         12.291         41.573        106.845       81.43901        1015.71          0.763          0.891          0.965          1.003          1.025          1.057         25.457         -4.861        -2.9562        579.444              1      0.9601583          0.016
      4187.5000         12.291         39.703        103.031       77.11609       1008.966          0.794          0.928          1.005          1.044          1.067          1.102         25.572         -5.426        -3.5212        576.284      0.9386402      0.9366167          0.014
      4188.0000         12.292         38.709        101.312       75.16716       1004.119            0.8          0.934           1.01           1.05          1.073          1.109         25.887         -5.846        -3.9412        566.686      0.8971736      0.9191167          0.017
      4188.5000         12.293          39.68        100.318       74.03976       1001.641          0.793          0.923          0.998          1.038          1.061          1.098         26.097         -5.929        -4.0242         560.73      0.8731863      0.9156584          0.017
      4189.0000         12.292         40.918         99.661       73.29425       1001.686           0.79          0.916           0.99           1.03          1.053           1.09         26.099         -5.893        -3.9882        561.269      0.8573245      0.9171583          0.014
      4189.5000          12.29         41.418        101.728       75.63549       1004.074          0.788          0.913          0.986          1.026           1.05          1.088         26.143         -5.856        -3.9512        566.272      0.9071381         0.9187          0.012
      4190.0000         12.294         42.583         103.99        78.1977        1008.36          0.778          0.902          0.975          1.015          1.039          1.077         26.354         -5.644        -3.7392        583.621      0.9616532      0.9275333          0.014
      4190.5000         12.301         45.083         104.84       79.15987       1013.952          0.755          0.878           0.95           0.99          1.014          1.051         26.635         -5.195        -3.2902        601.425      0.9821248      0.9462417          0.017
      4191.0000          12.31         47.897        106.895       81.48752       1020.238          0.731          0.852          0.924          0.964          0.988          1.023         26.847         -4.773        -2.8682        599.203              1       0.963825           0.02
      4191.5000         12.319          50.36        109.388       84.31149       1026.684          0.719          0.839          0.911          0.951          0.975          1.009         26.918         -4.602        -2.6972        594.807              1        0.97095          0.026
