#------------------------------------------------------------------------------
# Created by    : vladimir.rabinovich
# Created on    : 09/19/2023 17:22:04
#------------------------------------------------------------------------------
~Version Information Section
VERS.           2.0     :   CWLS log ASCII Standard - VERSION 2.0
WRAP.           NO      :   One line per depth step
~Well Information Section
#MNEM       .UNIT                                         VALUE :DESCRIPTION
#------------------------------------------------------------------------------
STRT        .FT                                            4308 :START DEPTH
STOP        .FT                                           11086 :STOP DEPTH
STEP        .FT                                             0.5 :STEP      
NULL        .                                           -999.25 :NULL      
COMP        .                                     GULF OIL CORP :COMPANY   
WELL        .                               OCS G01859 ST00BP00 :WELL      
FLD         .                           WEST CAMERON BLOCK 0045 :FIELD     
LOC         .                                                   :LOCATION  
CNTY        .                                      WEST CAMERON :LOCATION  
STAT        .                                         LOUISIANA :STATE     
CTRY        .                                     UNITED STATES :COUNTRY   
SRVC        .                                                   :SERVICE COMPANY
DATE        .                             9/13/2023 11:18:18 AM :LOG DATE  
API         .                                    17700402800000 :API NUMBER
UWI         .                                    17700402800000 :UNIQUE WELL ID
XCOORD      .                                  1464540.60646957 :SURFACE X 
YCOORD      .                                  10776790.0411311 :SURFACE Y 
LAT         .                                        29.6934919 :LATITUDE  
LON         .                                       -93.5541052 :LONGITUDE 
ELEV        .FT                                              79 :ELEVATION VALUE
ELEV_TYPE   .                                                KB :ELEVATION REFERENCE TYPE
~Curve Information Section
#MNEM       .UNIT                                      API CODE :CURVE DESCRIPTION
#------------------------------------------------------------------------------
DEPT        .FT                                                 :DEPTH     
CALI        .IN                                                 :          
DRHO        .G/C3                                               :          
DT          .US/F                                               :          
GR          .GAPI                                               :          
GR_NORM     .GAPI                                               :GammaRay Normalized
ILD         .OHMM                                               :          
NPHI        .%                                                  :          
RHOB        .G/C3                                               :          
SFLU        .OHMM                                               :          
SP          .MV                                                 :          
SP_NORM     .MV                                                 :SP Normalized
VSH_GR      .V/V                                                :Volume of Shale from GR
VSH_SP      .V/V                                                :Volume of Shale from SP
~A        DEPTH           CALI           DRHO             DT             GR        GR_NORM            ILD           NPHI           RHOB           SFLU             SP        SP_NORM         VSH_GR         VSH_SP
# ...
     11072.0000        10.6833        -0.0498       120.6643        64.0261       59.72514         0.8882          29.22         2.2252         0.7053       -47.2531       -11.5182      0.5686199      0.8475623
     11072.5000        11.0196        -0.0523       120.6421        64.4548       60.60152         0.8995         28.791         2.1965         0.6575       -45.4076        -9.6467      0.5872663      0.8746855
     11073.0000        11.1477        -0.0611        120.615         65.074       61.86732         0.9096        29.3319         2.1754         0.6359       -43.7528        -7.9658      0.6141984      0.8990464
     11073.5000        11.0943        -0.0577       120.5795        65.8093       63.37047         0.9214         30.002         2.1839         0.6331       -42.4399        -6.6268      0.6461802      0.9184521
     11074.0000        11.4206        -0.0451       120.5439        65.6865       63.11942         0.9407        30.8242          2.233         0.6389       -41.7668        -5.9277      0.6408386       0.928584
     11074.5000        11.3032        -0.0298       120.4137        65.3877       62.50859         0.9669        31.5495         2.3075         0.6606       -44.0031        -8.1379      0.6278424      0.8965521
     11075.0000        10.0683        -0.0132        120.257        65.0023       61.72076         1.0046        32.3956         2.3631         0.7076       -51.1967       -15.3054      0.6110799      0.7926754
     11075.5000          9.999         0.0035       120.2185        64.3705       60.42919         1.0448        32.4866         2.3694         1.0779        -57.018       -21.1006      0.5835998      0.7086869
     11076.0000        10.1586         0.0018       120.2461        63.8046       59.27234         1.1172        31.8256         2.3443         1.2853       -58.4875       -22.5441      0.5589859      0.6877667
     11076.5000        10.3078        -0.0012       120.2736        63.1285       57.89021         1.1928        31.1301         2.3302         1.4489       -58.6034       -22.6339       0.529579      0.6864652
     11077.0000         10.257        -0.0014       120.3005        62.5545       56.71681         1.2797        30.4952         2.3291           1.28       -57.7079       -21.7123       0.504613      0.6998218
     11077.5000        10.1048         0.0005       120.3276        62.1987       55.98946         1.3346        29.9699         2.3387         1.1172       -56.6241       -20.6024      0.4891374      0.7159073
     11078.0000        10.0729         0.0012       120.3292         62.196       55.98396         1.3058        29.6334         2.3452         1.0239       -55.1552       -19.1075      0.4890203      0.7375725
     11078.5000        10.1261        -0.0071       120.3087        62.3947       56.39014         1.2093        29.4704         2.3398         0.9561       -52.8911       -16.8173      0.4976626      0.7707638
     11079.0000        10.1603        -0.0135       120.3063        62.7668       57.15081         1.1358        29.5043         2.3357         0.9036       -50.2256       -14.1257      0.5138469      0.8097725
     11079.5000        10.1634         -0.019        120.304        63.2876       58.21547         1.0749        29.7098         2.3317         0.8648       -46.7675       -10.6416      0.5364993      0.8602667
     11080.0000        10.2127        -0.0061       120.3051        63.6996       59.05768         1.0194        29.9127         2.3384          0.833       -44.7623        -8.6103      0.5544187      0.8897058
     11080.5000         10.346         0.0005       120.3346        63.7965       59.25578         0.9946        29.8382         2.3886         0.8104       -45.6924        -9.5143      0.5586337      0.8766043
     11081.0000        10.3959        -0.0025        120.365        63.7886       59.23963         0.9929        29.7054         2.3809         0.7907       -46.0736        -9.8831      0.5582901      0.8712595
     11081.5000        10.3351        -0.0042       120.4618        63.4392       58.52538         0.9974        29.5724         2.3571          0.783       -44.5133        -8.3228      0.5430931      0.8938724
     11082.0000        10.4436        -0.0066       120.5587        63.1614       57.95747         1.0013        29.3532         2.3405         0.7756       -40.9016        -4.7111        0.53101      0.9462159
     11082.5000        10.7494        -0.0214       120.6555        62.6691        56.9511         0.9974         29.026         2.2984         0.7711       -40.1436        -3.9531      0.5095978      0.9572014
     11083.0000        10.6394        -0.0366       120.7631        62.4299        56.4621         0.9902        28.5634          2.287         0.7668       -42.9081        -6.7176      0.4991935      0.9171363
     11083.5000         10.522        -0.0531       120.8737        62.3818       56.36378         0.9808        28.0784         2.2428         0.7653       -45.9749        -9.7844      0.4971016      0.8726898
     11084.0000        12.0834        -0.0618       120.9844        62.1313       55.85168         0.9729        27.8945         2.1915         0.7638       -44.1021        -7.9116      0.4862059      0.8998319
     11084.5000        12.9632        -0.0587       120.9144        61.4656       54.49083         0.9699        27.7943         2.1829         0.7635       -41.5977        -5.4072      0.4572518      0.9361275
     11085.0000        14.0876        -0.0438        120.844        60.5513       52.62175         0.9669         27.825          2.212         0.7644       -39.9962        -3.8057      0.4174841      0.9593377
     11085.5000        14.8254        -0.0318       120.7731        59.0614       49.57602         0.9678        28.1597         2.3134         0.7669       -39.7807        -3.5902      0.3526812      0.9624609
     11086.0000        13.6645        -0.0328       120.6918        56.8274       45.00916         0.9705        28.7246         2.3152         0.7711       -40.1888        -3.9983      0.2555139      0.9565464
