#------------------------------------------------------------------------------
# Created by    : vladimir.rabinovich
# Created on    : 09/19/2023 17:22:24
#------------------------------------------------------------------------------
~Version Information Section
VERS.           2.0     :   CWLS log ASCII Standard - VERSION 2.0
WRAP.           NO      :   One line per depth step
~Well Information Section
#MNEM       .UNIT                                         VALUE :DESCRIPTION
#------------------------------------------------------------------------------
STRT        .FT                                             955 :START DEPTH
STOP        .FT                                            8851 :STOP DEPTH
STEP        .FT                                             0.5 :STEP      
NULL        .                                           -999.25 :NULL      
COMP        .                                SHELL OFFSHORE INC :COMPANY   
WELL        .                               OCS G08627 ST00BP00 :WELL      
FLD         .                                           WILDCAT :FIELD     
LOC         .                                                   :LOCATION  
CNTY        .                                 WEST CAMERON WEST :LOCATION  
STAT        .                                         LOUISIANA :STATE     
CTRY        .                                     UNITED STATES :COUNTRY   
SRVC        .                                                   :SERVICE COMPANY
DATE        .                             9/13/2023 11:18:15 AM :LOG DATE  
API         .                                    17701402000000 :API NUMBER
UWI         .                                    17701402000000 :UNIQUE WELL ID
XCOORD      .                                  1405165.89752093 :SURFACE X 
YCOORD      .                                  10654404.2103889 :SURFACE Y 
LAT         .                                        29.3559214 :LATITUDE  
LON         .                                       -93.7387067 :LONGITUDE 
ELEV        .FT                                             100 :ELEVATION VALUE
ELEV_TYPE   .                                                KB :ELEVATION REFERENCE TYPE
~Curve Information Section
#MNEM       .UNIT                                      API CODE :CURVE DESCRIPTION
#------------------------------------------------------------------------------
DEPT        .FT                                                 :DEPTH     
CALX        .IN                                                 :          
DRHO        .G/C3                                               :          
DT          .US/F                                               :          
GR          .GAPI                                               :          
GR_NORM     .GAPI                                               :GammaRay Normalized
ILD         .OHMM                                               :          
ILM         .OHMM                                               :          
LL          .OHMM                                               :          
NPHI        .%                                                  :          
RHOB        .G/C3                                               :          
SP          .MV                                                 :          
SP_NORM     .MV                                                 :SP Normalized
VSH_GR      .V/V                                                :Volume of Shale from GR
VSH_SP      .V/V                                                :Volume of Shale from SP
~A        DEPTH           CALX           DRHO             DT             GR        GR_NORM            ILD            ILM             LL           NPHI           RHOB             SP        SP_NORM         VSH_GR         VSH_SP
# ...
      7795.0000        10.3813          0.045        82.4147        39.5115       36.07603         0.5904         0.7123         1.4222        27.9482         2.3122      -106.0663      -31.07682     0.06544746              0
      7795.5000         10.475         0.0355        85.2504        40.1361       36.78234         0.5918         0.7127         1.1773        28.6999         2.2546      -105.0308      -30.04442     0.08047542              0
      7796.0000        10.5432         0.0122        88.3466        41.3642       38.17112         0.5955          0.705         0.9818        29.6971         2.2085      -103.7007      -28.71741      0.1100237     0.04580661
      7796.5000        10.5767        -0.0164        91.4553        42.7527       39.74127         0.6004         0.6961         0.9546        30.4815         2.1982      -102.3483      -27.36811      0.1434313     0.09399605
      7797.0000        10.5676         -0.019         91.777        44.2471       41.43118         0.6055         0.6903         0.9568         30.866          2.205      -101.9181      -26.94101      0.1793868      0.1092497
      7797.5000        10.5503        -0.0155         89.842        45.4753       42.82006         0.6111         0.6852         0.9573        30.5913          2.204      -104.4994      -29.52541      0.2089375     0.01694979
      7798.0000          10.53        -0.0134        86.6232        45.9435       43.34952         0.6177          0.695         0.9557        30.4931         2.1935      -105.0112      -30.04031      0.2202026              0
      7798.5000        10.5054        -0.0096        82.6401        45.9944       43.40707          0.644         0.7114          0.955          30.81         2.1859      -105.0385       -30.0707      0.2214271              0
      7799.0000        10.4756        -0.0041        80.9838        46.4963       43.97464         0.7099         0.7471         0.9561        31.1617         2.1975       -104.832       -29.8673       0.233503    0.004739217
      7799.5000         10.467         0.0031        80.4558        47.1846       44.75299         0.7534         0.8086         0.9475        31.2445         2.2434      -104.5679      -29.60631      0.2500637     0.01406043
      7800.0000        10.4162         0.0101        78.1963        46.7623       44.27544         0.7881         0.8941         1.0138        30.2076         2.2664      -104.2853      -29.32681      0.2399029     0.02404268
      7800.5000        10.4168         0.0202        71.6432        45.6133       42.97612         0.8118         1.0124         1.7995        25.1544         2.3172      -103.9249       -28.9695      0.2122578     0.03680366
      7801.0000        10.4261         0.0305        67.6852        44.4995        41.7166           0.82         1.0545         2.2187        22.4106         2.4114      -103.5619       -28.6096      0.1854596     0.04965728
      7801.5000        10.4338         0.0453        70.2904        43.8026       40.92853         0.8043         1.0276          1.572        19.7653         2.4495      -103.1046       -28.1554      0.1686921     0.06587873
      7802.0000        10.3829         0.0599        79.1382        43.8735       41.00871         0.7749         0.9447         1.0369        19.7086         2.4412      -102.6528       -27.7067      0.1703981     0.08190373
      7802.5000        10.3242         0.0702        85.9117         45.398       42.73265         0.7367         0.8667         0.9876        21.9717         2.3461      -102.3268      -27.38379      0.2070778     0.09343611
      7803.0000        10.3257         0.0608        89.4825        46.8392        44.3624         0.6916         0.8049         0.9857        24.3244         2.2606      -102.2797      -27.33979      0.2417532     0.09500749
      7803.5000        10.3343         0.0332        90.3105        47.1621       44.72755         0.6562         0.7561          0.989        26.7338         2.2019      -102.5277      -27.59089      0.2495223     0.08603968
      7804.0000        10.3299         0.0136        90.9088        46.0327       43.45039         0.6296         0.7208         0.9727        29.2701         2.1886      -102.9591      -28.02538      0.2223486     0.07052203
      7804.5000        10.3523         0.0077        90.8402        44.8056       42.06275         0.6146         0.6974         0.9417        30.2703         2.1807      -103.6439      -28.71328      0.1928244     0.04595429
      7805.0000        10.3763         0.0082        90.4758        43.8175       40.94538         0.6041         0.6841         0.9226        30.1778         2.1758       -104.481      -29.55348      0.1690506     0.01594707
      7805.5000        10.4195         0.0095        89.7468        42.8592        39.8617         0.5953         0.6784         0.9095        29.6918         2.1736      -105.2834      -30.35898      0.1459937              0
      7806.0000        10.4612         0.0123        88.6497        41.4454       38.26294         0.5851         0.6784         0.9041        29.0424          2.175       -106.012      -31.09068      0.1119774              0
      7806.5000        10.4714         0.0228        89.5164        39.9483       36.56997         0.5746         0.6774         0.9013        29.1522         2.1801      -106.5168      -31.59858     0.07595687              0
      7807.0000        10.3792         0.0395        90.7665        39.4676       36.02639         0.5623          0.676         0.9189        30.7286         2.1877      -106.9169      -32.00178     0.06439128              0
      7807.5000        10.2686         0.0539        91.6932        39.6322       36.21252         0.5476         0.6663         0.9648        31.6124         2.1937       -107.283      -32.37097      0.0683515              0
      7808.0000        10.2519         0.0626        92.2626        39.8868       36.50043         0.5309         0.6534          0.967        31.7441         2.1857       -107.924      -33.01508     0.07447726              0
      7808.5000        10.2803         0.0524        92.4817        39.1991       35.72276         0.5102         0.6344         0.9145        31.4276         2.1673      -108.7648      -33.85897     0.05793096              0
      7809.0000        10.2957         0.0317        92.6467        37.9309       34.28865         0.4912          0.617         0.8703        31.2219         2.1566      -109.3613      -34.45856     0.02741802              0
      7809.5000        10.2975         0.0159        93.6396        37.1743       33.43306         0.4733         0.6007         0.8279        31.3735         2.1763      -108.7733      -33.87366    0.009214036              0
      7810.0000        10.3015         0.0104         95.288        39.8475       36.45599          0.459          0.582         0.7941        33.0246         2.2001      -107.7305      -32.83396     0.07353162              0
      7810.5000        10.2742         0.0088        96.4979        45.7365       43.11544         0.4505         0.5628         0.7838         35.122         2.2167      -106.0281      -31.13466      0.2152221              0
      7811.0000        10.2203         0.0096        97.3296        49.6891       47.58515         0.4448         0.5459         0.7965        36.0468         2.2091      -103.4072      -28.51686      0.3103223     0.05296925
      7811.5000        10.2103         0.0072        98.1111        48.9474       46.74641          0.449         0.5319          0.819        35.1862         2.1777      -100.0447      -25.15746      0.2924769       0.172948
      7812.0000        10.2425        -0.0002        98.9666        44.4223        41.6293         0.4576         0.5214         0.8257         32.947         2.1418      -101.7455      -26.86136      0.1836022      0.1120943
      7812.5000        10.3518        -0.0059        99.9341        38.6279       35.07683         0.4798         0.5267         0.8163         31.269         2.1417      -104.1616      -29.28056     0.04418783     0.02569444
