#------------------------------------------------------------------------------
# Created by    : vladimir.rabinovich
# Created on    : 09/19/2023 17:21:14
#------------------------------------------------------------------------------
~Version Information Section
VERS.           2.0     :   CWLS log ASCII Standard - VERSION 2.0
WRAP.           NO      :   One line per depth step
~Well Information Section
#MNEM       .UNIT                                         VALUE :DESCRIPTION
#------------------------------------------------------------------------------
STRT        .FT                                            2600 :START DEPTH
STOP        .FT                                          9205.5 :STOP DEPTH
STEP        .FT                                             0.5 :STEP      
NULL        .                                           -999.25 :NULL      
COMP        .                              MCMORAN OIL & GAS CO :COMPANY   
WELL        .                                OCS 00757 ST00BP00 :WELL      
FLD         .                           WEST CAMERON BLOCK 0118 :FIELD     
LOC         .                                                   :LOCATION  
CNTY        .                                      WEST CAMERON :LOCATION  
STAT        .                                         LOUISIANA :STATE     
CTRY        .                                     UNITED STATES :COUNTRY   
SRVC        .                                                   :SERVICE COMPANY
DATE        .                             9/13/2023 11:18:49 AM :LOG DATE  
API         .                                    17700410700000 :API NUMBER
UWI         .                                    17700410700000 :UNIQUE WELL ID
XCOORD      .                                  1436864.54905534 :SURFACE X 
YCOORD      .                                  10703419.9985863 :SURFACE Y 
LAT         .                                        29.4912718 :LATITUDE  
LON         .                                       -93.6400205 :LONGITUDE 
ELEV        .FT                                             118 :ELEVATION VALUE
ELEV_TYPE   .                                                KB :ELEVATION REFERENCE TYPE
~Curve Information Section
#MNEM       .UNIT                                      API CODE :CURVE DESCRIPTION
#------------------------------------------------------------------------------
DEPT        .FT                                                 :DEPTH     
CAL         .IN                                                 :          
CNC         .%                                                  :          
DT24        .US/F                                               :          
GR          .GAPI                                               :          
GR_NORM     .GAPI                                               :GammaRay Normalized
M0C6        .MMHO                                               :          
M2R1        .OHMM                                               :          
M2R2        .OHMM                                               :          
M2R3        .OHMM                                               :          
M2R6        .OHMM                                               :          
M2R9        .OHMM                                               :          
M2RX        .OHMM                                               :          
PORZ        .%                                                  :          
RWAZ        .OHMM                                               :          
SP          .MV                                                 :          
SP_NORM     .MV                                                 :SP Normalized
TTEN        .LB/F                                               :          
VSH_GR      .V/V                                                :Volume of Shale from GR
VSH_SP      .V/V                                                :Volume of Shale from SP
ZCOR        .G/CC                                               :          
~A        DEPTH            CAL            CNC           DT24             GR        GR_NORM           M0C6           M2R1           M2R2           M2R3           M2R6           M2R9           M2RX           PORZ           RWAZ             SP        SP_NORM           TTEN         VSH_GR         VSH_SP           ZCOR
# ...
      3497.0000        -999.25        -999.25        127.973         44.875       40.17248       2168.698          0.565          0.487          0.453          0.435          0.433          0.432        -999.25        -999.25        -27.428       -28.4266       1987.752      0.1526059     0.05827409        -999.25
      3497.5000        -999.25        -999.25        131.712         42.659       37.07874        2189.66          0.588          0.509          0.471          0.451          0.447          0.446        -999.25        -999.25        -27.446       -28.4498       1991.253     0.08678176      0.0574148        -999.25
      3498.0000        -999.25        -999.25        133.707         40.805       34.48877       2206.894          0.613          0.532          0.491          0.468          0.463          0.462        -999.25        -999.25        -27.497       -28.5061       1990.081     0.03167587     0.05532964        -999.25
      3498.5000        -999.25        -999.25        133.337         39.663       32.88971       2224.341          0.625          0.543            0.5          0.475           0.47          0.468        -999.25        -999.25        -27.544       -28.5583       1984.336              0      0.0533963        -999.25
      3499.0000        -999.25        -999.25        131.846         39.448        32.5805       2244.613          0.616          0.534          0.491          0.467          0.461           0.46        -999.25        -999.25        -27.547       -28.5665       1980.674              0      0.0530926        -999.25
      3499.5000        -999.25        -999.25        127.642         40.167       33.57116       2268.467          0.592          0.509           0.47          0.447          0.442          0.441        -999.25        -999.25          -27.6       -28.6247       1982.113     0.01215241     0.05093702        -999.25
      3500.0000        -999.25        -999.25        125.029         41.748       35.76121       2294.827          0.566          0.484          0.447          0.427          0.422          0.421        -999.25        -999.25        -27.752        -28.782       1984.836      0.0587491     0.04511113        -999.25
      3500.5000        -999.25        -999.25        126.376         43.699       38.46614       2321.404           0.55          0.467          0.432          0.414          0.409          0.409        -999.25        -999.25        -28.018       -29.0532       1985.445      0.1163009     0.03506668        -999.25
      3501.0000        -999.25        -999.25        126.776         44.121       39.04351       2345.519          0.545          0.459          0.426          0.408          0.404          0.404        -999.25        -999.25        -28.285       -29.3254       1986.687      0.1285852     0.02498521        -999.25
      3501.5000        -999.25        -999.25        127.473         41.374       35.21085       2364.929          0.543          0.457          0.423          0.407          0.403          0.404        -999.25        -999.25        -28.334       -29.3797       1987.966     0.04703927     0.02297409        -999.25
      3502.0000        -999.25        -999.25        129.565         38.589       31.32531        2378.28           0.54          0.454          0.422          0.406          0.403          0.404        -999.25        -999.25        -28.133       -29.1839       1984.738              0      0.0302259        -999.25
      3502.5000        -999.25        -999.25        129.948         38.042       30.55425       2385.207          0.534          0.451           0.42          0.405          0.403          0.404        -999.25        -999.25        -28.007       -29.0631       1981.119              0     0.03469997        -999.25
      3503.0000        -999.25        -999.25         129.51         38.143       30.68478       2386.082          0.531           0.45           0.42          0.406          0.404          0.405        -999.25        -999.25        -28.283       -29.3444        1983.94              0     0.02428147        -999.25
      3503.5000        -999.25        -999.25        128.482         37.983       30.45224       2381.653           0.53          0.451          0.421          0.408          0.407          0.408        -999.25        -999.25        -28.769       -29.8356        1989.15              0    0.006088892        -999.25
      3504.0000        -999.25        -999.25        127.128         38.362       30.96963       2372.709          0.528          0.452          0.422           0.41          0.408           0.41        -999.25        -999.25        -28.999       -30.0708       1990.238              0              0        -999.25
      3504.5000        -999.25        -999.25        126.904         38.896       31.70271       2359.934          0.525          0.451          0.423          0.411          0.409          0.411        -999.25        -999.25        -28.905       -29.9821       1987.837              0   0.0006629803        -999.25
      3505.0000        -999.25        -999.25        128.307         39.465       32.48463       2343.901          0.524          0.452          0.424          0.412          0.411          0.412        -999.25        -999.25        -28.794       -29.8763       1984.336              0    0.004581451        -999.25
      3505.5000        -999.25        -999.25        130.227         40.422       33.80634       2325.183          0.527          0.457          0.429          0.418          0.416          0.418        -999.25        -999.25        -28.956       -30.0435       1983.963     0.01715615              0        -999.25
      3506.0000        -999.25        -999.25         130.53          40.64       34.09968         2304.4          0.537          0.467          0.439          0.427          0.425          0.427        -999.25        -999.25        -29.223       -30.3157       1989.104      0.0233974              0        -999.25
      3506.5000        -999.25        -999.25         130.65          39.66       32.72606       2282.194          0.549          0.479           0.45          0.438          0.436          0.437        -999.25        -999.25        -29.076        -30.174       1994.217              0              0        -999.25
      3507.0000        -999.25        -999.25        131.552          38.48       31.07399       2259.147          0.555          0.486          0.458          0.445          0.443          0.444        -999.25        -999.25        -28.389       -29.4922       1994.319              0     0.01880738        -999.25
      3507.5000        -999.25        -999.25         132.58         38.506       31.10016       2235.737          0.553          0.486          0.458          0.445          0.442          0.444        -999.25        -999.25        -27.703       -28.8114       1993.342              0     0.04402224        -999.25
      3508.0000        -999.25        -999.25        133.953         39.865       32.98142       2212.444          0.545           0.48          0.453           0.44          0.437          0.438        -999.25        -999.25         -27.43       -28.5437       1995.354              0     0.05393706        -999.25
      3508.5000        -999.25        -999.25         135.44         42.004       35.94796       2190.003          0.545          0.479          0.452          0.439          0.435          0.436        -999.25        -999.25        -27.359       -28.4779       1996.835     0.06272255     0.05637409        -999.25
      3509.0000        -999.25        -999.25        136.203         45.159       40.32847       2169.667          0.561          0.491          0.462          0.448          0.444          0.444        -999.25        -999.25        -26.939       -28.0631       1995.552      0.1559249     0.07173701        -999.25
      3509.5000        -999.25        -999.25        135.689         48.366       44.78121       2153.368          0.592          0.514          0.481          0.465          0.461          0.461        -999.25        -999.25        -25.964       -27.0934       1998.282      0.2506641      0.1076519        -999.25
