#------------------------------------------------------------------------------
# Created by    : vladimir.rabinovich
# Created on    : 09/19/2023 17:20:47
#------------------------------------------------------------------------------
~Version Information Section
VERS.           2.0     :   CWLS log ASCII Standard - VERSION 2.0
WRAP.           NO      :   One line per depth step
~Well Information Section
#MNEM       .UNIT                                         VALUE :DESCRIPTION
#------------------------------------------------------------------------------
STRT        .FT                                            2030 :START DEPTH
STOP        .FT                                            9342 :STOP DEPTH
STEP        .FT                                             0.5 :STEP      
NULL        .                                           -999.25 :NULL      
COMP        .                                      SHELL OIL CO :COMPANY   
WELL        .                               OCS G00950 ST00BP00 :WELL      
FLD         .                           EAST CAMERON BLOCK 0193 :FIELD     
LOC         .                                                   :LOCATION  
CNTY        .                                      EAST CAMERON :LOCATION  
STAT        .                                         LOUISIANA :STATE     
CTRY        .                                     UNITED STATES :COUNTRY   
SRVC        .                                                   :SERVICE COMPANY
DATE        .                             9/13/2023 11:18:15 AM :LOG DATE  
API         .                                    17703004920000 :API NUMBER
UWI         .                                    17703004920000 :UNIQUE WELL ID
XCOORD      .                                  1684363.85071557 :SURFACE X 
YCOORD      .                                  10458597.1936422 :SURFACE Y 
LAT         .                                        28.8191951 :LATITUDE  
LON         .                                       -92.8627139 :LONGITUDE 
ELEV        .FT                                              75 :ELEVATION VALUE
ELEV_TYPE   .                                                KB :ELEVATION REFERENCE TYPE
~Curve Information Section
#MNEM       .UNIT                                      API CODE :CURVE DESCRIPTION
#------------------------------------------------------------------------------
DEPT        .FT                                                 :DEPTH     
ASN         .OHMM                                               :          
CILM        .MMHO                                               :          
ILM         .OHMM                                               :          
LN          .OHMM                                               :          
SP          .MV                                                 :          
SP_NORM     .MV                                                 :SP Normalized
VSH_SP      .V/V                                                :Volume of Shale from SP
~A        DEPTH            ASN           CILM            ILM             LN             SP        SP_NORM         VSH_SP
# ...
      4442.0000         0.3502       3914.594         0.3677        -999.25      -118.7128       -50.3209      0.2137359
      4442.5000         0.3556        3950.84         0.3631        -999.25      -117.3055       -48.9222      0.2355906
      4443.0000         0.3711       3913.965         0.3581        -999.25      -116.2297       -47.8549      0.2522672
      4443.5000         0.3891        3868.02         0.3507        -999.25      -115.1853       -46.8191      0.2684516
      4444.0000         0.3828       3822.168         0.3434        -999.25      -116.2197       -47.8621      0.2521547
      4444.5000         0.3736       3767.227          0.336        -999.25      -118.4386       -50.0895      0.2173516
      4445.0000         0.3645       3728.621         0.3286        -999.25      -121.2195        -52.879      0.1737656
      4445.5000         0.3554       3696.234         0.3212        -999.25      -123.3624       -55.0304        0.14015
      4446.0000         0.3465       3715.617         0.3139        -999.25      -125.2253       -56.9019      0.1109078
      4446.5000         0.3376       3753.977         0.3065        -999.25      -126.1665       -57.8517     0.09606719
      4447.0000         0.3287       3792.313         0.2991        -999.25      -126.4285       -58.1222     0.09184062
      4447.5000         0.3198       3839.223         0.2948        -999.25      -126.6904       -58.3927     0.08761406
      4448.0000          0.311       3898.125         0.2926        -999.25      -126.1744       -57.8852     0.09554374
      4448.5000         0.3029       3973.719         0.2905        -999.25      -125.5282       -57.2476      0.1055062
      4449.0000         0.2964       4134.148         0.2883        -999.25      -124.8815       -56.6095      0.1154765
      4449.5000         0.2899       4182.031         0.2862        -999.25      -124.2352       -55.9717      0.1254422
      4450.0000         0.2834       4157.055          0.284        -999.25      -123.5557       -55.3008       0.135925
      4450.5000         0.2784       4074.129         0.2819        -999.25      -122.6394       -54.3931      0.1501078
      4451.0000          0.289       4024.609         0.2814        -999.25      -121.7231       -53.4853      0.1642922
      4451.5000         0.2995       4005.641         0.2894        -999.25      -120.8368       -52.6076      0.1780062
      4452.0000         0.3101       3972.863         0.2975        -999.25      -120.0808       -51.8601      0.1896859
      4452.5000         0.3207       3920.309         0.3055        -999.25       -119.325       -51.1129      0.2013609
      4453.0000         0.3316       3849.797         0.3136        -999.25      -118.2943       -50.0908      0.2173312
      4453.5000         0.3428       3801.809         0.3217        -999.25      -117.1453       -48.9503      0.2351516
      4454.0000          0.354       3772.109         0.3297        -999.25      -116.1074        -47.921      0.2512344
      4454.5000         0.3652       3761.219         0.3378        -999.25       -116.288       -48.1102      0.2482781
      4455.0000         0.3756       3788.645         0.3459        -999.25      -117.3975       -49.2282      0.2308094
      4455.5000         0.3857        3816.59         0.3473        -999.25      -118.8199       -50.6592        0.20845
      4456.0000         0.3745       4065.621         0.3476        -999.25      -120.2939       -52.1417      0.1852859
      4456.5000         0.3577       4107.375         0.3478        -999.25      -122.6824       -54.5388      0.1478313
      4457.0000         0.3464       4126.742         0.3481        -999.25      -126.3929       -58.2579     0.08972031
      4457.5000         0.3473       4132.813         0.3483        -999.25      -127.5033       -59.3768     0.07223749
      4458.0000         0.3545        4116.07         0.3485        -999.25      -127.8522       -59.7343     0.06665158
      4458.5000         0.3617       4093.207         0.3488        -999.25      -127.1401       -59.0308     0.07764375
      4459.0000         0.3689       4068.953          0.349        -999.25      -126.5386       -58.4378     0.08690935
      4459.5000          0.376       4044.766         0.3497        -999.25      -126.0968       -58.0046     0.09367812
      4460.0000         0.3847       4012.348         0.3507        -999.25      -126.8562       -58.7725      0.0816797
      4460.5000         0.3938        4013.91         0.3516        -999.25      -127.6172       -59.5421      0.0696547
      4461.0000         0.4028       3991.945         0.3526        -999.25      -128.4067       -60.3402      0.0571844
      4461.5000         0.4018       3967.859         0.3535        -999.25      -129.1965       -61.1385     0.04471093
      4462.0000         0.3919       3951.762         0.3545        -999.25      -129.9863       -61.9369     0.03223592
      4462.5000         0.3787       3942.035         0.3567        -999.25      -130.2864       -62.2456     0.02741247
      4463.0000           0.38       3936.953         0.3611        -999.25      -130.0391       -62.0068     0.03114372
      4463.5000         0.3908       3931.871         0.3655        -999.25      -129.7915       -61.7678     0.03487813
      4464.0000          0.402       3926.789         0.3699        -999.25      -129.3494       -61.3342      0.0416531
      4464.5000         0.4137       3924.926         0.3743        -999.25       -128.708       -60.7014     0.05154061
      4465.0000         0.4254       3924.086         0.3787        -999.25        -129.54        -61.542     0.03840625
      4465.5000         0.4371       3923.246         0.3831        -999.25       -130.376       -62.3865     0.02521092
      4466.0000         0.4519       3937.273         0.3858        -999.25       -131.218       -63.2371     0.01192033
      4466.5000         0.4685       3951.785          0.384        -999.25      -131.5034       -63.5311    0.007326543
      4467.0000         0.4588       3965.215         0.3823        -999.25       -131.126       -63.1622     0.01309061
      4467.5000         0.4486       3978.063         0.3806        -999.25      -130.7483       -62.7931     0.01885784
      4468.0000         0.4376       3985.145         0.3788        -999.25      -130.2153       -62.2686     0.02705312
      4468.5000         0.4266           3990         0.3771        -999.25      -129.5884       -61.6503     0.03671408
      4469.0000         0.4156       3990.434         0.3754        -999.25      -128.9619       -61.0324     0.04636878
      4469.5000         0.4052       3987.359         0.3736        -999.25      -128.3352       -60.4142     0.05602813
      4470.0000         0.3979       3981.836         0.3719        -999.25      -127.7087       -59.7963     0.06568283
      4470.5000         0.3906       3971.852         0.3702        -999.25      -127.0043       -59.1004     0.07655627
      4471.0000         0.3833       3961.867         0.3698        -999.25       -126.217       -58.3217     0.08872342
      4471.5000         0.3761       3952.098         0.3696        -999.25      -125.4299       -57.5432      0.1008875
      4472.0000         0.3688       3944.285         0.3694        -999.25      -124.6427       -56.7645      0.1130547
      4472.5000         0.3633       3936.473         0.3692        -999.25      -123.8556        -55.986      0.1252187
      4473.0000         0.3584        3928.66          0.369        -999.25      -123.2831       -55.4221      0.1340297
      4473.5000         0.3535        3940.68         0.3688        -999.25      -122.8005        -54.948      0.1414375
      4474.0000         0.3506       3955.844         0.3686        -999.25      -122.3184       -54.4745       0.148836
      4474.5000         0.3489        3970.57         0.3686        -999.25      -121.8423       -54.0069      0.1561422
      4475.0000         0.3546       3983.168         0.3696        -999.25      -121.5186       -53.6918      0.1610656
