#------------------------------------------------------------------------------
# Created by    : vladimir.rabinovich
# Created on    : 09/19/2023 17:20:42
#------------------------------------------------------------------------------
~Version Information Section
VERS.           2.0     :   CWLS log ASCII Standard - VERSION 2.0
WRAP.           NO      :   One line per depth step
~Well Information Section
#MNEM       .UNIT                                         VALUE :DESCRIPTION
#------------------------------------------------------------------------------
STRT        .FT                                            1866 :START DEPTH
STOP        .FT                                            8637 :STOP DEPTH
STEP        .FT                                             0.5 :STEP      
NULL        .                                           -999.25 :NULL      
COMP        .                           GENERAL AMERICAN OIL CO :COMPANY   
WELL        .                               OCS G01862 ST00BP00 :WELL      
FLD         .                           WEST CAMERON BLOCK 0045 :FIELD     
LOC         .                                                   :LOCATION  
CNTY        .                                      WEST CAMERON :LOCATION  
STAT        .                                         LOUISIANA :STATE     
CTRY        .                                     UNITED STATES :COUNTRY   
SRVC        .                                                   :SERVICE COMPANY
DATE        .                             9/13/2023 11:18:18 AM :LOG DATE  
API         .                                    17700004060000 :API NUMBER
UWI         .                                    17700004060000 :UNIQUE WELL ID
XCOORD      .                                  1439968.94212662 :SURFACE X 
YCOORD      .                                  10754878.8884152 :SURFACE Y 
LAT         .                                        29.6328727 :LATITUDE  
LON         .                                       -93.6311393 :LONGITUDE 
ELEV        .FT                                              51 :ELEVATION VALUE
ELEV_TYPE   .                                                KB :ELEVATION REFERENCE TYPE
~Curve Information Section
#MNEM       .UNIT                                      API CODE :CURVE DESCRIPTION
#------------------------------------------------------------------------------
DEPT        .FT                                                 :DEPTH     
ASN         .OHMM                                               :          
CALI        .IN                                                 :          
DRHO        .G/C3                                               :          
DT          .US/F                                               :          
GR          .GAPI                                               :          
GR_NORM     .GAPI                                               :GammaRay Normalized
ILD         .OHMM                                               :          
RHOB        .G/C3                                               :          
SP          .MV                                                 :          
SP_NORM     .MV                                                 :SP Normalized
VSH_GR      .V/V                                                :Volume of Shale from GR
VSH_SP      .V/V                                                :Volume of Shale from SP
~A        DEPTH            ASN           CALI           DRHO             DT             GR        GR_NORM            ILD           RHOB             SP        SP_NORM         VSH_GR         VSH_SP
# ...
      2973.0000         0.9978        13.7344         0.0899         113.11        28.2729       36.64538         0.5243         2.1963       -92.0646       -46.7246     0.07756124    0.006119961
      2973.5000         1.0565        13.5882         0.0568       103.1349        29.9478       38.67641         0.5556         2.2162       -91.8685       -46.5225      0.1207747     0.01061113
      2974.0000         1.1161        14.0217        -0.0001        97.6859        30.4205       39.24645         0.5946         2.2791         -91.67        -46.318      0.1329032     0.01515554
      2974.5000         1.1205        14.7453         0.0515       111.1011        30.2345       39.01617         0.6229          2.297       -91.4283       -46.0704      0.1280037     0.02065777
      2975.0000         1.0647        15.6867         0.0947       129.3352        32.2424       41.45185         0.6168         2.1512       -91.1619        -45.798      0.1798266      0.0267111
      2975.5000         1.0171        15.9381         0.1285       127.6003        35.0261       44.83027         0.5573         2.0267       -90.5789        -45.209      0.2517078     0.03980001
      2976.0000         0.9827        15.8311         0.1043       130.7588        37.3896       47.69806         0.4814         1.9424       -90.0828       -44.7069      0.3127246     0.05095774
      2976.5000         0.9501        14.4733         0.0121        121.932        37.0827       47.32087         0.4606         1.9646       -89.9327       -44.5508      0.3046994     0.05442666
      2977.0000         0.9146        14.0674         0.0002        116.798        34.9737       44.75383         0.4539         2.0362       -89.7865       -44.3986      0.2500814     0.05780885
      2977.5000         0.8727        13.8783         0.0503       100.0198        33.0817       42.45048         0.4489          2.079       -90.0597       -44.6658      0.2010741     0.05187115
      2978.0000         0.8388        14.8324         0.1325        88.8987        32.1771       41.34686         0.4386          2.078       -90.3706       -44.9708      0.1775928     0.04509337
      2978.5000         0.8087        15.8449         0.1457       106.5227        30.9225       39.81806         0.4237         2.0404       -91.1095       -45.7037      0.1450651     0.02880664
      2979.0000         0.7819        15.9489         0.1336          110.1        29.8694       38.53411         0.4129         1.9683       -91.9253       -46.5135       0.117747     0.01081111
      2979.5000         0.7641        15.6911         0.0947          107.2        29.6697       38.28719         0.4151         1.8867        -91.972       -46.5542      0.1124934    0.009906684
      2980.0000         0.7673        14.5789         0.0724       122.3759        30.9554       39.84528         0.4131         1.8398       -91.9966       -46.5728      0.1456443    0.009493341
      2980.5000          0.778        14.5758         0.0952       128.0356        32.9512       42.26626         0.4034         1.7119        -91.469       -46.0392      0.1971544     0.02135112
      2981.0000         0.7763        14.8979         0.1085       144.9204        32.6702       41.92054         0.3891         1.5843       -90.8253       -45.3896      0.1897987     0.03578669
      2981.5000          0.757         15.559         0.1246       153.2275        33.3201       42.70591         0.3667         1.5762       -90.0736       -44.6319      0.2065086     0.05262443
      2982.0000         0.7341        15.9346         0.1467       149.8535        33.4574        42.8685         0.3383         1.6642       -89.3461       -43.8984      0.2099681     0.06892446
      2982.5000          0.707         15.934         0.1473       143.5798        33.1079       42.43954         0.3049         1.8013       -89.9366       -44.4829      0.2008414     0.05593558
      2983.0000         0.6845        15.6243         0.1178       145.1709         34.085       43.62263         0.2858         1.8613       -90.8549       -45.3952      0.2260134     0.03566225
      2983.5000         0.6698        15.4725         0.0816        150.333        35.5324       45.37721         0.2855          1.918       -91.4996       -46.0339      0.2633449     0.02146886
      2984.0000         0.6649        15.9522         0.0789        154.241        35.6099       45.46714           0.29         1.9389       -91.8485       -46.3769      0.2652583     0.01384667
      2984.5000         0.6694        15.9681         0.1137         150.28        36.0023       45.93972         0.3008         1.9455       -92.1975       -46.7199      0.2753131    0.006224484
      2985.0000         0.6822        15.9672         0.1635       142.6736        36.9279       47.06022         0.3178         2.0042       -91.7903       -46.3067      0.2991537     0.01540663
      2985.5000         0.7032        15.9604         0.2027       139.9478        36.6417       46.70807         0.3335         2.0415       -91.3531       -45.8635      0.2916611     0.02525559
      2986.0000         0.7467        15.9633         0.1449       142.5793        30.1869       38.86014         0.3627         2.0908       -90.3883       -44.8927      0.1246839     0.04682888
      2986.5000         0.7818         15.965          0.076       147.0808        31.1482       40.02404         0.4065         2.1523       -89.4069       -43.9053      0.1494476     0.06877111
      2987.0000         0.8084        15.9595         0.0838       150.2051        34.5321       44.13179         0.4713         2.2078       -88.2322       -42.7246      0.2368466     0.09500885
      2987.5000         0.8589        15.9541         0.1367       155.2776        34.9346       44.61663          0.551         2.2619       -85.9048       -40.3913      0.2471624        0.14686
      2988.0000            0.9        15.9486         0.1896       161.2944        36.9548       47.06727         0.6527          2.317       -82.5237       -37.0042      0.2993036      0.2221289
      2988.5000         0.8993         15.945         0.1697       155.4983        38.8529       49.36953         0.7486         2.2284       -76.4625        -30.937      0.3482878      0.3569556
      2989.0000         0.8916        15.9438         0.1237       152.6685        38.4958       48.93122         0.8367          2.188       -69.6042       -24.0727      0.3389621      0.5094956
      2989.5000         0.9454        15.9485         0.1552       153.4919         37.984       48.30504         0.9168         2.2571       -62.0408       -16.5033      0.3256391      0.6777045
      2990.0000         1.0208        15.9528         0.1413       149.2991        39.6055       50.27118         0.9924         2.2804       -56.3157       -10.7722       0.367472      0.8050622
      2990.5000         1.0958        15.9493         0.0564        -999.25        39.3865        50.0008         1.0728         2.2491        -55.663       -10.1135      0.3617193         0.8197
      2991.0000         1.2608        15.9437         0.0487        -999.25        36.2448       46.17886         1.1508         2.3396       -58.8054         -13.25      0.2804013           0.75
      2991.5000         1.4126        15.9389         0.0755        -999.25        33.6714       43.04749         1.2024         2.4556       -63.1722       -17.6108      0.2137764      0.6530933
      2992.0000         1.4345        15.9354         0.1107        -999.25        35.9825       45.85162         1.2074          2.439       -65.5573       -19.9899      0.2734386      0.6002244
      2992.5000         1.4024        15.9173          0.151        -999.25        38.6235       49.05662         1.1497          2.387       -65.5179       -19.9445      0.3416302      0.6012334
      2993.0000         1.3855        15.8794         0.1288        -999.25        41.1121       52.07632         1.0841         2.3093       -64.3654        -18.786      0.4058791      0.6269778
