#------------------------------------------------------------------------------
# Created by    : vladimir.rabinovich
# Created on    : 09/19/2023 17:22:04
#------------------------------------------------------------------------------
~Version Information Section
VERS.           2.0     :   CWLS log ASCII Standard - VERSION 2.0
WRAP.           NO      :   One line per depth step
~Well Information Section
#MNEM       .UNIT                                         VALUE :DESCRIPTION
#------------------------------------------------------------------------------
STRT        .FT                                            4308 :START DEPTH
STOP        .FT                                           11086 :STOP DEPTH
STEP        .FT                                             0.5 :STEP      
NULL        .                                           -999.25 :NULL      
COMP        .                                     GULF OIL CORP :COMPANY   
WELL        .                               OCS G01859 ST00BP00 :WELL      
FLD         .                           WEST CAMERON BLOCK 0045 :FIELD     
LOC         .                                                   :LOCATION  
CNTY        .                                      WEST CAMERON :LOCATION  
STAT        .                                         LOUISIANA :STATE     
CTRY        .                                     UNITED STATES :COUNTRY   
SRVC        .                                                   :SERVICE COMPANY
DATE        .                             9/13/2023 11:18:18 AM :LOG DATE  
API         .                                    17700402800000 :API NUMBER
UWI         .                                    17700402800000 :UNIQUE WELL ID
XCOORD      .                                  1464540.60646957 :SURFACE X 
YCOORD      .                                  10776790.0411311 :SURFACE Y 
LAT         .                                        29.6934919 :LATITUDE  
LON         .                                       -93.5541052 :LONGITUDE 
ELEV        .FT                                              79 :ELEVATION VALUE
ELEV_TYPE   .                                                KB :ELEVATION REFERENCE TYPE
~Curve Information Section
#MNEM       .UNIT                                      API CODE :CURVE DESCRIPTION
#------------------------------------------------------------------------------
DEPT        .FT                                                 :DEPTH     
CALI        .IN                                                 :          
DRHO        .G/C3                                               :          
DT          .US/F                                               :          
GR          .GAPI                                               :          
GR_NORM     .GAPI                                               :GammaRay Normalized
ILD         .OHMM                                               :          
NPHI        .%                                                  :          
RHOB        .G/C3                                               :          
SFLU        .OHMM                                               :          
SP          .MV                                                 :          
SP_NORM     .MV                                                 :SP Normalized
VSH_GR      .V/V                                                :Volume of Shale from GR
VSH_SP      .V/V                                                :Volume of Shale from SP
~A        DEPTH           CALI           DRHO             DT             GR        GR_NORM            ILD           NPHI           RHOB           SFLU             SP        SP_NORM         VSH_GR         VSH_SP
# ...
      9723.0000         9.9496        -0.0189        86.5172        51.5991       40.11191         0.6229        27.2415         2.2337         0.4618       -95.4717       -55.0138      0.1513173      0.2171913
      9723.5000         9.9227         -0.026        91.6517        52.6484       42.16822         0.6108        27.3655         2.2471         0.5721       -91.0669       -50.6098      0.1950684      0.2810174
      9724.0000         9.9056        -0.0286         97.129        53.9683       44.75512         0.5847        27.8511         2.2517          0.901       -92.9786       -52.5222      0.2501088      0.2533014
      9724.5000         9.9123        -0.0254       100.2439        53.6298       44.09041         0.5619        29.4519         2.2335          1.065       -99.1669       -58.7112      0.2359662      0.1636058
      9725.0000         9.9221        -0.0239        101.415        52.5095       41.89253         0.5427        31.4295         2.2157         0.9223      -101.9087       -61.4537      0.1892027      0.1238594
      9725.5000         9.9076        -0.0263        97.6174         50.999       38.92954         0.5205        32.7057         2.2047         0.5431      -102.3596       -61.9053      0.1261605      0.1173145
      9726.0000         9.8883        -0.0334        94.8414        50.4042       37.76226         0.5001        32.3974         2.1925         0.4518      -100.9011       -60.4476      0.1013248      0.1384406
      9726.5000         9.8875         -0.039        92.7257        50.0739       37.11343         0.4815        29.0141         2.1865         0.4007      -100.1781       -59.7253     0.08751971      0.1489087
      9727.0000         9.8811         -0.042        91.8898         49.776       36.52813         0.4636        27.6114         2.1878         0.4221       -99.8375       -59.3854     0.07506651      0.1538348
      9727.5000         9.8812        -0.0425        91.9434        49.1294       35.25908         0.4548        26.7931         2.1964         0.4455       -99.3319       -58.8805     0.04806559      0.1611522
      9728.0000         9.8872        -0.0455        92.5625        48.4407       33.90769         0.4666        26.4941         2.2057         0.4654       -96.7502       -56.2995     0.01931259       0.198558
      9728.5000         9.9097        -0.0505        93.3761        47.8125       32.67473         0.4879        26.4753         2.2188         0.4518       -95.5024       -55.0525              0      0.2166304
      9729.0000         9.9313        -0.0502        94.3281        47.2117       31.49549         0.5291        26.4439         2.2506         0.4735       -93.8999       -53.4507              0      0.2398449
      9729.5000         9.9517        -0.0445        95.3672        46.8607       30.80627         0.6445        26.2391         2.2801         0.5651       -92.4575        -52.009              0      0.2607391
      9730.0000         9.9668        -0.0343        93.8147        46.8219       30.72901          0.775        25.9428         2.3094         1.0844       -92.8406       -52.3928              0      0.2551768
      9730.5000         9.9813        -0.0309        87.9039        47.1578       31.38647         0.8809        25.0709         2.3496         2.0914       -95.0529       -54.6058              0      0.2231043
      9731.0000         9.9962        -0.0327        82.2273        47.5812        32.2157         0.9724        23.3286          2.406         2.4193       -96.1466       -55.7003              0      0.2072421
      9731.5000         9.9603        -0.0333        77.9363        47.7296       32.50551         1.0429        21.4449         2.4343         2.6994       -97.6444       -57.1988              0      0.1855247
      9732.0000         9.7748         -0.029        77.0068        47.4708       31.99688         1.0812        20.4754         2.4214         2.8974      -103.8771       -63.4322              0     0.09518549
      9732.5000         9.6913        -0.0276        79.1074        47.1792       31.42412         0.9849        20.5871         2.3789         2.5297      -110.3118       -69.8676              0    0.001918848
      9733.0000         9.6941        -0.0409        83.1444        47.0455       31.16078         0.8382        21.6727         2.3582         1.3705      -114.0612       -73.6178              0              0
      9733.5000         9.7429        -0.0504        86.4038        47.2103       31.48274         0.7289        23.2303         2.3204         1.1217      -115.3976       -74.9549              0              0
      9734.0000         9.8455        -0.0568        89.0203        47.3848       31.82393         0.6411        25.7499           2.28         0.9043      -116.0997       -75.6577              0              0
      9734.5000         9.9103        -0.0568        90.9266        47.5073       32.06296         0.5775        27.6873         2.2162         0.8055      -116.1934       -75.7521              0              0
      9735.0000         9.9412        -0.0464        92.2834        47.8036       32.64277         0.5146        28.6761         2.2351         0.8013      -115.7472       -75.3066              0              0
      9735.5000         9.9689        -0.0334        92.5096        48.1669       33.35395         0.4714         28.831         2.2481         0.7973      -115.1503       -74.7104    0.007530943              0
      9736.0000        10.0071        -0.0195        92.7357        48.4159       33.84122         0.4425        28.3314         2.2498         0.7897      -114.2408       -73.8017      0.0178984              0
      9736.5000         10.054        -0.0085        92.8854        48.9173        34.8232         0.4357        27.8511         2.2337         0.7658      -113.4015       -72.9631     0.03879141              0
      9737.0000        10.0849        -0.0028        92.8385        49.2834       35.53987          0.433        27.6772           2.22         0.7198      -113.0126       -72.5749     0.05403981              0
      9737.5000        10.1057         0.0024        92.7893        49.4644        35.8938         0.4313        27.7334         2.2088         0.6427      -112.5166       -72.0796     0.06157019              0
      9738.0000        10.1071         0.0147        92.7152          49.55       36.06047         0.4316        27.7978         2.2186         0.6056      -111.6108       -71.1745     0.06511648              0
      9738.5000         10.108          0.015        92.6364        49.5889       36.13557         0.4336        27.7588         2.2189         0.5094      -110.5388       -70.1033     0.06671435              0
      9739.0000        10.1056         0.0072        92.5165         49.597       36.15047         0.4369        27.4617         2.2122         0.4448      -110.5592       -70.1244     0.06703129              0
      9739.5000        10.0928         0.0064        92.4098        49.6932       36.33793          0.441        27.0626         2.2079         0.4117      -111.2736       -70.8395     0.07101976              0
      9740.0000        10.0858         0.0126        92.3483        49.8928       36.72813         0.4465        26.6978         2.2088         0.5188      -112.5609       -72.1275       0.079322              0
      9740.5000         10.085         0.0177        92.2867        50.3081       37.54148         0.4575        26.5612         2.2112         0.8111       -114.119       -73.6864     0.09662718              0
      9741.0000        10.0826         0.0186        92.2141        50.8017       38.50816         0.4693        26.7075         2.2203         1.0633      -114.8241       -74.3922      0.1171949              0
      9741.5000        10.0788         0.0086        92.1187        51.1646       39.21857           0.48        27.3351         2.2239         1.1067       -114.439       -74.0078      0.1323099              0
