#------------------------------------------------------------------------------
# Created by    : vladimir.rabinovich
# Created on    : 09/19/2023 17:20:43
#------------------------------------------------------------------------------
~Version Information Section
VERS.           2.0     :   CWLS log ASCII Standard - VERSION 2.0
WRAP.           NO      :   One line per depth step
~Well Information Section
#MNEM       .UNIT                                         VALUE :DESCRIPTION
#------------------------------------------------------------------------------
STRT        .FT                                            2986 :START DEPTH
STOP        .FT                                           10006 :STOP DEPTH
STEP        .FT                                             0.5 :STEP      
NULL        .                                           -999.25 :NULL      
COMP        .                                        CONOCO INC :COMPANY   
WELL        .                                OCS 00764 ST00BP00 :WELL      
FLD         .                           WEST CAMERON BLOCK 0192 :FIELD     
LOC         .                                                   :LOCATION  
CNTY        .                                      WEST CAMERON :LOCATION  
STAT        .                                         LOUISIANA :STATE     
CTRY        .                                     UNITED STATES :COUNTRY   
SRVC        .                                                   :SERVICE COMPANY
DATE        .                             9/13/2023 11:18:18 AM :LOG DATE  
API         .                                    17700003670000 :API NUMBER
UWI         .                                    17700003670000 :UNIQUE WELL ID
XCOORD      .                                  1596137.97932418 :SURFACE X 
YCOORD      .                                  10614860.5046116 :SURFACE Y 
LAT         .                                         29.249106 :LATITUDE  
LON         .                                        -93.138896 :LONGITUDE 
ELEV        .FT                                              84 :ELEVATION VALUE
ELEV_TYPE   .                                                KB :ELEVATION REFERENCE TYPE
~Curve Information Section
#MNEM       .UNIT                                      API CODE :CURVE DESCRIPTION
#------------------------------------------------------------------------------
DEPT        .FT                                                 :DEPTH     
ASN         .OHMM                                               :          
CALI        .IN                                                 :          
CALI_1      .IN                                                 :          
DRHO        .G/C3                                               :          
DT          .US/F                                               :          
GR          .GAPI                                               :          
ILD         .OHMM                                               :          
RHOB        .G/C3                                               :          
SP          .MV                                                 :          
SP_NORM     .MV                                                 :SP Normalized
VSH_SP      .V/V                                                :Volume of Shale from SP
~A        DEPTH            ASN           CALI         CALI_1           DRHO             DT             GR            ILD           RHOB             SP        SP_NORM         VSH_SP
# ...
      4876.0000         0.6044        10.2574        10.4844         0.0079       129.0754        60.6475         0.5154          2.161       -63.3708      -17.64043     0.07553143
      4876.5000         0.5566        10.2982        10.5114         0.0033       129.3801        55.5072         0.4833         2.1446       -64.6809       -18.9591    0.002272076
      4877.0000         0.5157        10.3081        10.5177        -0.0008       130.0679        55.3369         0.4583         2.1346       -65.3049      -19.59167              0
      4877.5000         0.4738        10.3748        10.4962        -0.0037        131.062        53.6491         0.4383         2.1271       -65.4043      -19.69964              0
      4878.0000         0.4381        10.3446        10.4546         0.0017       132.2556        51.7278          0.421         2.1266       -63.9679      -18.27181     0.04045508
      4878.5000         0.4118        10.2762        10.4052         0.0096       132.5273        48.8202         0.4052         2.1269       -62.8871      -17.19958      0.1000235
      4879.0000         0.3845        10.2271        10.3593         0.0167        132.293        46.1282         0.3928         2.1299       -62.2158      -16.53685      0.1368419
      4879.5000         0.3598        10.2115        10.3174         0.0088       132.1238        46.0804         0.3855         2.1314       -61.9144      -16.24401      0.1531105
      4880.0000         0.3373        10.2482        10.2692        -0.0077       132.2314        46.7615          0.377         2.1188       -61.8955      -16.23368      0.1536844
      4880.5000         0.3194        10.2945        10.1938        -0.0138       132.8616        46.8375         0.3637         2.1183       -62.0167      -16.36345      0.1464748
      4881.0000         0.3062          10.29        10.1285        -0.0166       133.4666        46.4407         0.3505         2.1116        -62.295      -16.65032      0.1305379
      4881.5000         0.2948        10.2231        10.1218        -0.0143       133.3835        46.1149         0.3386         2.1026       -62.5723      -16.93619      0.1146562
      4882.0000         0.2884        10.1548        10.2072        -0.0051       132.5154        45.8073          0.327          2.105       -62.8285      -17.20095     0.09994698
      4882.5000         0.2835        10.1201        10.3036         0.0027       131.6533        45.5427         0.3158         2.1127       -63.0665      -17.44753     0.08624861
      4883.0000         0.2805         10.125        10.3904         0.0111       131.0071        45.2996         0.3049          2.114       -63.2935      -17.68309     0.07316165
      4883.5000         0.2787         10.163        10.4385         0.0217        130.709        45.0914          0.296         2.1135       -63.5128      -17.91096     0.06050237
      4884.0000         0.2772        10.2947        10.4825         0.0206       131.3591        44.9371         0.2912         2.1106       -63.7424      -18.14913     0.04727067
      4884.5000         0.2758        10.3835        10.5222         0.0078       132.3513        44.7147         0.2865         2.1124       -63.9177        -18.333     0.03705554
      4885.0000          0.275        10.3977        10.4328         0.0075       132.9954        44.3921         0.2843         2.1227       -64.0488      -18.47266     0.02929645
      4885.5000         0.2745        10.3816        10.3049         0.0077       133.1577        43.9042         0.2824         2.1216       -64.1863      -18.61874     0.02118132
      4886.0000         0.2741         10.342        10.2309         0.0069       132.0591         43.384         0.2821         2.1186       -64.3251      -18.76611     0.01299413
      4886.5000         0.2737        10.3067        10.1516         0.0029        130.928         42.694         0.2822          2.126       -64.4399      -18.88947    0.006140391
      4887.0000         0.2733        10.2714        10.0685         -0.001       129.9734        40.7097         0.2798          2.124       -64.5331      -18.99123   0.0004870097
      4887.5000          0.273         10.236        10.0415        -0.0024       129.4265        39.9153         0.2761         2.1162       -64.5759       -19.0426              0
      4888.0000         0.2735        10.2027        10.0516         0.0003       129.0369        40.4793         0.2758         2.1212       -64.6338      -19.10907              0
      4888.5000         0.2737        10.1766         10.073         0.0057       128.5249        42.2008         0.2781         2.1215       -64.6759      -19.15975              0
      4889.0000         0.2737        10.1559        10.0994         0.0173       128.0767        42.4656           0.28         2.1269       -64.6461      -19.13852              0
      4889.5000         0.2739        10.1597        10.1733         0.0206       127.9935         42.567         0.2818         2.1337       -64.6169      -19.11788              0
      4890.0000         0.2743        10.1915        10.3354         0.0097       128.8159        43.7949         0.2836         2.1161       -64.5883      -19.09785              0
      4890.5000         0.2746        10.2466        10.4304         0.0038       130.0303        44.5867         0.2854         2.1041       -64.5775      -19.09562              0
      4891.0000         0.2746        10.3095        10.2961         0.0001       130.8938          45.45         0.2872          2.099       -64.5492      -19.07589              0
      4891.5000         0.2734        10.3826        10.1938         0.0032       131.1365         46.455         0.2899         2.1058       -64.5255      -19.06075              0
      4892.0000         0.2716        10.4557         10.147         0.0103       131.2212        47.4816         0.2957         2.1094       -64.5511      -19.09492              0
      4892.5000         0.2724        10.5289        10.1852         0.0124       131.6145        47.3974         0.3037         2.1082        -64.671      -19.22339              0
      4893.0000         0.2742        10.6083        10.2288         0.0096       132.8867        47.3275         0.3107         2.1086       -64.8341      -19.39506              0
      4893.5000         0.2773          10.72        10.2615         0.0056       134.0508         47.687         0.3092         2.1125       -64.9658      -19.53532              0
      4894.0000         0.2799        10.7151         10.275         0.0021       134.5229        48.0756         0.3076         2.1174       -64.8809      -19.45899              0
      4894.5000         0.2818        10.6404        10.2781        -0.0006       133.6714        48.3911         0.3072         2.1217       -64.7209      -19.30756              0
      4895.0000         0.2818        10.5699        10.2765        -0.0002       132.8198        47.9963         0.3073         2.1106       -64.5448      -19.14003              0
      4895.5000         0.2815        10.5209        10.2862         0.0102       131.9683        47.4282         0.3076         2.1132       -64.4684       -19.0722              0
      4896.0000         0.2807        10.5528        10.3005          0.007       133.9944         47.174         0.3095         2.1196       -64.6287      -19.24107              0
      4896.5000         0.2788        10.5375        10.2617        -0.0003       134.7495        46.7615         0.3115         2.1061       -64.7604      -19.38134              0
      4897.0000         0.2751        10.5442        10.2022        -0.0047       135.4421        46.2158         0.3132         2.1028       -64.8397       -19.4692              0
      4897.5000         0.2698        10.4679         10.167        -0.0093        136.104        45.1498          0.315         2.1014       -64.8693      -19.50737              0
      4898.0000          0.264        10.3868        10.1546        -0.0059       136.0513        44.1271         0.3146         2.1067       -64.8413      -19.48794              0
