#------------------------------------------------------------------------------
# Created by    : vladimir.rabinovich
# Created on    : 09/19/2023 17:22:04
#------------------------------------------------------------------------------
~Version Information Section
VERS.           2.0     :   CWLS log ASCII Standard - VERSION 2.0
WRAP.           NO      :   One line per depth step
~Well Information Section
#MNEM       .UNIT                                         VALUE :DESCRIPTION
#------------------------------------------------------------------------------
STRT        .FT                                            4308 :START DEPTH
STOP        .FT                                           11086 :STOP DEPTH
STEP        .FT                                             0.5 :STEP      
NULL        .                                           -999.25 :NULL      
COMP        .                                     GULF OIL CORP :COMPANY   
WELL        .                               OCS G01859 ST00BP00 :WELL      
FLD         .                           WEST CAMERON BLOCK 0045 :FIELD     
LOC         .                                                   :LOCATION  
CNTY        .                                      WEST CAMERON :LOCATION  
STAT        .                                         LOUISIANA :STATE     
CTRY        .                                     UNITED STATES :COUNTRY   
SRVC        .                                                   :SERVICE COMPANY
DATE        .                             9/13/2023 11:18:18 AM :LOG DATE  
API         .                                    17700402800000 :API NUMBER
UWI         .                                    17700402800000 :UNIQUE WELL ID
XCOORD      .                                  1464540.60646957 :SURFACE X 
YCOORD      .                                  10776790.0411311 :SURFACE Y 
LAT         .                                        29.6934919 :LATITUDE  
LON         .                                       -93.5541052 :LONGITUDE 
ELEV        .FT                                              79 :ELEVATION VALUE
ELEV_TYPE   .                                                KB :ELEVATION REFERENCE TYPE
~Curve Information Section
#MNEM       .UNIT                                      API CODE :CURVE DESCRIPTION
#------------------------------------------------------------------------------
DEPT        .FT                                                 :DEPTH     
CALI        .IN                                                 :          
DRHO        .G/C3                                               :          
DT          .US/F                                               :          
GR          .GAPI                                               :          
GR_NORM     .GAPI                                               :GammaRay Normalized
ILD         .OHMM                                               :          
NPHI        .%                                                  :          
RHOB        .G/C3                                               :          
SFLU        .OHMM                                               :          
SP          .MV                                                 :          
SP_NORM     .MV                                                 :SP Normalized
VSH_GR      .V/V                                                :Volume of Shale from GR
VSH_SP      .V/V                                                :Volume of Shale from SP
~A        DEPTH           CALI           DRHO             DT             GR        GR_NORM            ILD           NPHI           RHOB           SFLU             SP        SP_NORM         VSH_GR         VSH_SP
# ...
      6113.0000        12.0808         0.0082       127.7593        70.2793       83.16623         0.7911        43.4005         2.2839         0.7637       -48.1193        -0.5704              1              1
      6113.5000        12.0618         0.0039        126.077        70.3025       83.21461         0.7865        43.5707          2.277         0.7796       -50.7717        -3.2251              1      0.9652328
      6114.0000        12.1787         0.0073       122.9342        69.1299       80.71425         0.7799        43.2635         2.2762         0.8094       -53.5057        -5.9615              1      0.9224766
      6114.5000         12.341        -0.0077       124.5417        67.7686       77.81171         0.7641        42.2036         2.2535         0.8441       -54.9406        -7.3987      0.9534405      0.9000203
      6115.0000        12.1288        -0.0158       126.4589        66.2642       74.60438         0.7428        41.9682         2.2482         0.8904       -56.0631        -8.5236      0.8851995      0.8824438
      6115.5000        11.8552        -0.0106       126.6764        64.6801       71.22701         0.7252        41.9861         2.2826         0.9525       -56.8732        -9.3361      0.8133405      0.8697485
      6116.0000        11.7181        -0.0039       124.5492         63.888       69.53755         0.7146        41.8589         2.2922          0.937       -57.6246       -10.0898      0.7773947      0.8579719
      6116.5000        11.6436              0       120.9353          64.95       71.79987         0.7133        38.7128         2.2845         0.8591       -56.1063        -8.5739      0.8255292      0.8816578
      6117.0000        11.5368         0.0103       119.3047        66.5164       75.13697         0.7063        37.7348         2.2809         0.7688       -53.5156        -5.9855      0.8965313      0.9221016
      6117.5000        11.4541         0.0193       121.1597        67.6488       77.54912         0.6947        37.8356         2.2896         0.6396       -52.0196        -4.4919      0.9478536       0.945439
      6118.0000        11.4394         0.0136       125.3143        67.5695       77.37905         0.6842         38.558         2.2714         0.5585       -52.8834        -5.3581      0.9442351      0.9319047
      6118.5000        11.4565              0       128.8259        66.5709        75.2495         0.6804        41.6841         2.2514          0.673       -57.5585       -10.0355      0.8989255      0.8588203
      6119.0000        11.4776        -0.0142       132.6094        65.2332       72.39725         0.6798        42.8355          2.248         0.8398       -59.6133       -12.0927      0.8382395      0.8266765
      6119.5000        11.4347        -0.0252        130.396        63.9987       69.76518         0.6784        41.7764         2.2539         1.1819       -64.5873       -17.0691      0.7822379      0.7489203
      6120.0000        11.3874         -0.033       125.7854        62.5768       66.73347         0.6741        38.2424         2.2572         1.5349       -69.0167       -21.5008      0.7177333       0.679675
      6120.5000        11.5509        -0.0354       117.6704        61.2538       63.91257         0.6665        35.5004         2.2606         1.6263       -68.9982       -21.4847      0.6577144      0.6799266
      6121.0000        11.6492        -0.0181       113.6976        61.4905       64.41597         0.6575        33.4937         2.2676         1.2068       -65.4171       -17.9059      0.6684249      0.7358453
      6121.5000        11.6942          0.002       110.4177        62.6403        66.8652         0.6516        32.7916         2.2816         0.8511        -60.285       -12.7762      0.7205361      0.8159969
      6122.0000        11.7405          0.012       112.7057        63.9765       69.71168         0.6478        32.8625         2.2933         0.6666       -58.9465       -11.4401      0.7810995      0.8368735
      6122.5000        11.8215         0.0117       120.2025        65.1321       72.17327         0.6465        34.2157         2.2824         0.6402       -61.4069       -13.9028      0.8334739      0.7983937
      6123.0000        12.0226        -0.0055       127.2957        65.2516       72.42689         0.6425        37.1468         2.2595         0.7455       -61.8676       -14.3659      0.8388699      0.7911578
      6123.5000        12.8314        -0.0056       129.7781        64.7051       71.26089         0.6395         39.335         2.2548         0.9003       -62.3757       -14.8763      0.8140616      0.7831828
      6124.0000        12.4587        -0.0053       127.4851        64.4097       70.63003         0.6382        39.9949         2.2617         1.1149       -65.4072       -17.9102      0.8006389      0.7357781
      6124.5000        12.1866        -0.0174       121.2294        64.3195       70.43671         0.6403        40.2043         2.2581         1.0806       -65.4468       -17.9522      0.7965258      0.7351218
      6125.0000        12.0656         -0.025       114.0366         64.978       71.83887          0.652        39.4913         2.2529         0.8194       -62.8511       -15.3588      0.8263589      0.7756438
      6125.5000        11.9882        -0.0085       112.0925        66.5547       75.19794         0.6707        38.1858         2.2545         0.6663       -59.1194       -11.6295      0.8978285       0.833914
      6126.0000        11.9152         0.0009       114.0889        69.1801       80.79224         0.6959        37.5829         2.2572          0.606       -52.5475        -5.0599              1      0.9365641
      6126.5000        11.7124        -0.0028       119.1459         70.683         83.994         0.7197        39.8382         2.2544         0.6112       -50.8712         -3.386              1      0.9627187
      6127.0000        11.4196         0.0057       125.1024        71.4012        85.5234         0.7185        42.7618         2.2475         0.6187       -50.7062        -3.2234              1      0.9652594
      6127.5000        11.3371         0.0135       129.1101        71.8647       86.51015         0.7156        44.3412         2.2436         0.6246       -50.7007        -3.2202              1      0.9653094
      6128.0000        11.3346         0.0164       132.6318        72.3397       87.52123           0.72        44.8143         2.2354         0.6314       -51.1397        -3.6616              1      0.9584125
      6128.5000        11.3402         0.0121       134.9995        71.8335        86.4411         0.7037        44.7043         2.2183         0.6364       -52.7623        -5.2865              1      0.9330235
      6129.0000        11.3601         0.0053       136.5334        70.5901       83.79005         0.6815        44.4346         2.2176         0.6321       -54.9529        -7.4795              1      0.8987578
      6129.5000        11.4111         0.0023       137.4375        69.1019       80.61706         0.6493        44.2218         2.2254         0.6072       -57.4795       -10.0085              1      0.8592422
      6130.0000        11.6138         0.0004       136.8237        67.5753       77.36222         0.6208        43.9534         2.2397         0.5907       -62.2855       -14.8168       0.943877      0.7841125
      6130.5000        11.9454        -0.0051       134.9097        65.3304       72.57649         0.5856        43.4294         2.2527          0.614       -72.1495       -24.6832      0.8420531        0.62995
      6131.0000        12.2532        -0.0165       133.0354        63.2597       68.16226         0.5285        42.3629         2.2378         0.7242       -77.8151       -30.3512      0.7481332      0.5413875
      6131.5000        12.2671        -0.0339       130.0471        61.1918        63.7538         0.4577        41.0707         2.2122         0.8006       -83.0558       -35.5942      0.6543361      0.4594656
