#------------------------------------------------------------------------------
# Created by    : vladimir.rabinovich
# Created on    : 09/19/2023 17:21:58
#------------------------------------------------------------------------------
~Version Information Section
VERS.           2.0     :   CWLS log ASCII Standard - VERSION 2.0
WRAP.           NO      :   One line per depth step
~Well Information Section
#MNEM       .UNIT                                         VALUE :DESCRIPTION
#------------------------------------------------------------------------------
STRT        .FT                                            3382 :START DEPTH
STOP        .FT                                           10910 :STOP DEPTH
STEP        .FT                                             0.5 :STEP      
NULL        .                                           -999.25 :NULL      
COMP        .                               B P EXPLORATION INC :COMPANY   
WELL        .                               OCS G07597 ST00BP00 :WELL      
FLD         .                           WEST CAMERON BLOCK 0045 :FIELD     
LOC         .                                                   :LOCATION  
CNTY        .                                      WEST CAMERON :LOCATION  
STAT        .                                         LOUISIANA :STATE     
CTRY        .                                     UNITED STATES :COUNTRY   
SRVC        .                                                   :SERVICE COMPANY
DATE        .                             9/13/2023 11:18:09 AM :LOG DATE  
API         .                                    17700407640000 :API NUMBER
UWI         .                                    17700407640000 :UNIQUE WELL ID
XCOORD      .                                  1473636.79229916 :SURFACE X 
YCOORD      .                                   10762774.556795 :SURFACE Y 
LAT         .                                        29.6550545 :LATITUDE  
LON         .                                       -93.5252479 :LONGITUDE 
ELEV        .FT                                              90 :ELEVATION VALUE
ELEV_TYPE   .                                                KB :ELEVATION REFERENCE TYPE
~Curve Information Section
#MNEM       .UNIT                                      API CODE :CURVE DESCRIPTION
#------------------------------------------------------------------------------
DEPT        .FT                                                 :DEPTH     
CALI        .IN                                                 :          
DRHO        .G/C3                                               :          
DT          .US/F                                               :          
GR          .GAPI                                               :          
GR_1        .GAPI                                               :          
GR_NORM     .GAPI                                               :GammaRay Normalized
ILD         .OHMM                                               :          
ILM         .OHMM                                               :          
NPHI        .%                                                  :          
RHOB        .G/C3                                               :          
SFL         .OHMM                                               :          
SP          .MV                                                 :          
SP_NORM     .MV                                                 :SP Normalized
VSH_GR      .V/V                                                :Volume of Shale from GR
VSH_SP      .V/V                                                :Volume of Shale from SP
~A        DEPTH           CALI           DRHO             DT             GR           GR_1        GR_NORM            ILD            ILM           NPHI           RHOB            SFL             SP        SP_NORM         VSH_GR         VSH_SP
# ...
      8431.0000         11.068         0.0016        98.9795        35.2861        38.6152       39.23666         0.2624         0.2754        32.4043         2.1758         0.5043       -129.125        -84.914       0.132695      0.1096304
      8431.5000        11.0692        -0.0049        99.2786        33.6241        39.2996       36.78991         0.2711          0.285        32.5915         2.1689         0.6586      -126.9847       -82.7763     0.08063645      0.1328663
      8432.0000        11.0757        -0.0099        99.4312        33.3769        44.2015       36.42512         0.2743         0.2887        32.2479         2.1659         0.8051      -128.0022       -83.7964     0.07287484      0.1217782
      8432.5000        11.0801        -0.0138        99.1563        34.3483        46.9127       37.85356         0.2674         0.2737        32.0359          2.169         0.8051      -135.6243       -91.4212      0.1032672     0.03889996
      8433.0000        11.0852        -0.0169        98.4495        34.7092        47.8561        38.3836         0.2433         0.2537        32.0618         2.1684          0.612       -136.521       -92.3205      0.1145447     0.02912496
      8433.5000        11.0915          -0.02         97.978        33.6862        48.3713       36.87717         0.2401         0.2455        32.3859          2.164         0.5706      -138.4265       -94.2286     0.08249307    0.008384787
      8434.0000        11.0976        -0.0222        97.8409        31.8155        48.2336       34.12332         0.2396         0.2526        32.9747         2.1628         0.5541      -140.5283       -96.3331     0.02390038              0
      8434.5000        11.0912        -0.0233        98.1121        30.0689        47.3212       31.55209          0.241         0.2589        33.3273         2.1628         0.5601      -141.1011       -96.9085              0              0
      8435.0000        11.0858        -0.0224        98.4437        30.2081        46.0154       31.75589          0.247         0.2607        33.3398         2.1631         0.5936      -142.3992       -98.2092              0              0
      8435.5000        11.0808          -0.02        98.6642        31.9745        45.4355       34.35421         0.2408         0.2518        33.2243         2.1623         0.6199       -144.501      -100.3137     0.02881289              0
      8436.0000        11.0717        -0.0164        98.9648        32.8303        46.4579       35.61253          0.227         0.2394        33.1547         2.1593         0.5675      -144.5034      -100.3187     0.05558582              0
      8436.5000        11.0544        -0.0132        99.2351        32.1943        50.0226       34.67559         0.2193           0.23        33.1609         2.1559         0.5043      -139.2712       -95.0891     0.03565094              0
      8437.0000        11.0407        -0.0099        99.5139        31.1485        53.3051       33.13562         0.2215          0.242        33.4133         2.1511         0.4577      -136.5632       -92.3837    0.002885453     0.02843807
      8437.5000        11.0462        -0.0077        99.8231        31.6739        54.7421       33.90788          0.236         0.2585        33.7786         2.1476          0.439      -135.2019       -91.0251     0.01931665     0.04320543
      8438.0000        11.1251        -0.0072       100.2593        34.2228        54.4479       37.65769         0.2602         0.2751        34.1412         2.1539         0.4573      -133.8455       -89.6713     0.09909983     0.05792062
      8438.5000        11.1283        -0.0103       100.7911        36.5631        52.7799       41.10053         0.2721         0.2898        34.2503          2.156          0.555      -132.7131       -88.5415      0.1723518     0.07020113
      8439.0000        11.1031        -0.0179       101.3402        38.0786          49.05       43.32962         0.2683         0.2961        33.8594         2.1545          0.782      -132.6758       -88.5069      0.2197792      0.0705772
      8439.5000         11.078        -0.0238       101.8488         37.691        41.3226       42.75823         0.2525         0.2909        33.3484         2.1565         0.8988      -134.2876       -90.1213      0.2076219     0.05302935
      8440.0000        11.0613        -0.0276       102.1677        36.2625        38.6097       40.65508         0.2326         0.2573        32.7354         2.1595         0.9003      -137.8005       -93.6368      0.1628741     0.01481736
      8440.5000        11.0503        -0.0281        102.496        33.5222        41.8649       36.62156         0.2232         0.2453        32.2339         2.1551         0.7265      -139.0051       -94.8441     0.07705453    0.001694555
      8441.0000        11.0489        -0.0257       102.7208         31.254         43.793       33.28277         0.2274         0.2489        31.6907         2.1638         0.7042      -139.0557       -94.8973    0.006016427    0.001116297
      8441.5000        11.0675        -0.0225       102.6968        30.1012        45.6945       31.58533         0.2322         0.2523        31.3835         2.1722         0.6906      -137.9595       -93.8037              0     0.01300322
      8442.0000        11.0796        -0.0164        102.458        31.2341        46.6209       33.25143         0.2333          0.254        31.2838         2.1767         0.6562      -136.8665       -92.7133    0.005349504     0.02485541
      8442.5000        11.1099        -0.0099       102.0493        32.9658        47.0148       35.79868         0.2375          0.264        31.3484         2.1764         0.6004      -130.0591       -85.9086     0.05954645     0.09881957
      8443.0000        11.1424        -0.0052       101.3329        34.3309        46.1249       37.80646         0.2579         0.2812        31.5609         2.1735         0.6376      -126.2581       -82.1102      0.1022651      0.1401065
      8443.5000        11.1598        -0.0026       100.1096        34.9129        44.4203       38.66188         0.2914         0.3072        31.6952         2.1718         0.7132      -124.7537       -80.6084      0.1204655      0.1564305
      8444.0000        11.1584        -0.0014        98.7611        35.3483        44.5857       39.30155         0.3199         0.3308        31.6153         2.1714         0.7835       -124.037       -79.8944      0.1340756      0.1641913
      8444.5000        11.1907        -0.0027        97.9551        37.0848         48.588       41.85588         0.3252         0.3406        31.4598         2.1707         0.7473      -118.5018       -74.3618      0.1884229      0.2243282
      8445.0000        11.2079        -0.0074        97.5376        37.9482         49.115       43.12537         0.3249         0.3422        31.4736         2.1767         0.6949      -112.4995       -68.3621      0.2154335      0.2895424
      8445.5000        11.2052        -0.0116        97.6416        38.4013        49.7916       43.79111         0.3373         0.3486         32.013         2.1873         0.6348      -106.4972       -62.3625       0.229598      0.3547554
      8446.0000        11.1964        -0.0133       101.0886        38.7171        52.9792        44.2548         0.3539         0.3594        33.2199         2.1983         0.5798       -98.0403       -53.9082      0.2394639        0.44665
      8446.5000        11.1874        -0.0119       106.5315        40.4388        54.4333       46.78733         0.3687         0.3719        34.1376         2.2121         0.5227        -76.118       -31.9885      0.2933475      0.6849076
      8447.0000        11.1908        -0.0135        109.486        43.6536        57.5602       51.51704         0.3744         0.3812        34.9965         2.2196         0.4656       -71.8051       -27.6783      0.3939795      0.7317576
      8447.5000        11.2015        -0.0161       111.6282        47.3206        63.9089       56.91218         0.3762         0.3881        36.2152         2.2158         0.4359       -70.1779       -26.0537      0.5087698      0.7494163
