#------------------------------------------------------------------------------
# Created by    : vladimir.rabinovich
# Created on    : 09/19/2023 17:22:11
#------------------------------------------------------------------------------
~Version Information Section
VERS.           2.0     :   CWLS log ASCII Standard - VERSION 2.0
WRAP.           NO      :   One line per depth step
~Well Information Section
#MNEM       .UNIT                                         VALUE :DESCRIPTION
#------------------------------------------------------------------------------
STRT        .FT                                             714 :START DEPTH
STOP        .FT                                            7955 :STOP DEPTH
STEP        .FT                                             0.5 :STEP      
NULL        .                                           -999.25 :NULL      
COMP        .                                ODECO OIL & GAS CO :COMPANY   
WELL        .                               OCS G04756 ST00BP00 :WELL      
FLD         .                           WEST CAMERON BLOCK 0165 :FIELD     
LOC         .                                                   :LOCATION  
CNTY        .                                      WEST CAMERON :LOCATION  
STAT        .                                         LOUISIANA :STATE     
CTRY        .                                     UNITED STATES :COUNTRY   
SRVC        .                                                   :SERVICE COMPANY
DATE        .                             9/13/2023 11:19:06 AM :LOG DATE  
API         .                                    17700406200000 :API NUMBER
UWI         .                                    17700406200000 :UNIQUE WELL ID
XCOORD      .                                  1451757.14487559 :SURFACE X 
YCOORD      .                                  10673474.8616073 :SURFACE Y 
LAT         .                                        29.4091131 :LATITUDE  
LON         .                                       -93.5927176 :LONGITUDE 
ELEV        .FT                                             113 :ELEVATION VALUE
ELEV_TYPE   .                                                KB :ELEVATION REFERENCE TYPE
~Curve Information Section
#MNEM       .UNIT                                      API CODE :CURVE DESCRIPTION
#------------------------------------------------------------------------------
DEPT        .FT                                                 :DEPTH     
CALI        .IN                                                 :          
CILD        .MMHO                                               :          
DRHO        .G/C3                                               :          
DT          .US/F                                               :          
GR          .GAPI                                               :          
GR_NORM     .GAPI                                               :GammaRay Normalized
ILD         .OHMM                                               :          
NPSS        .%                                                  :Neutron Porosity Sandstone
RFOC        .OHMM                                               :          
RHOB        .G/C3                                               :          
RILD        .OHMM                                               :          
RILM        .OHMM                                               :          
SN          .OHMM                                               :          
SP          .MV                                                 :          
SP_NORM     .MV                                                 :SP Normalized
VSH_GR      .V/V                                                :Volume of Shale from GR
VSH_SP      .V/V                                                :Volume of Shale from SP
~A        DEPTH           CALI           CILD           DRHO             DT             GR        GR_NORM            ILD           NPSS           RFOC           RHOB           RILD           RILM             SN             SP        SP_NORM         VSH_GR         VSH_SP
# ...
      4584.0000        11.5417           1280         0.0652        -999.25        98.6274       93.39655        -999.25           42.3         0.9826         2.2118         0.7859          0.772        -999.25            -21       -11.2251              1       0.841825
      4584.5000        11.5417           1264         0.0732        -999.25            100       94.95069        -999.25          45.78         0.9826         2.2363         0.7859          0.772        -999.25          -20.1       -10.3284              1      0.8590692
      4585.0000        11.5417           1248         0.0652        -999.25       100.4082         95.412        -999.25        50.5882         0.9826         2.2265         0.7929         0.7789        -999.25          -18.9        -9.1316              1      0.8820846
      4585.5000        11.5625           1240         0.0532        -999.25        98.8235       93.61514        -999.25        51.2449         0.9913          2.194            0.8         0.7929        -999.25       -12.8125        -3.0473              1      0.9990904
      4586.0000        11.5625           1224         0.0433        -999.25        95.8824       90.28114        -999.25          45.42         0.9913          2.178         0.8079            0.8        -999.25        -11.875         -2.113              1              1
      4586.5000        11.5208           1216         0.0333        -999.25        96.2745       90.72421        -999.25          42.42              1          2.179         0.8239         0.8079        -999.25         -13.75        -3.9913              1      0.9809365
      4587.0000        11.5208           1200         0.0273        -999.25        96.6667       91.16738        -999.25          42.42              1          2.172         0.8402         0.8159        -999.25         -13.75        -3.9945              1       0.980875
      4587.5000           11.5       1191.837         0.0273        -999.25        97.2549       91.83266        -999.25          43.86              1          2.155         0.8569         0.8159        -999.25        -7.8125         1.9398              1              1
      4588.0000           11.5       1191.837         0.0289        -999.25        98.6274       93.38681        -999.25        48.4118              1          2.155         0.8569         0.8159        -999.25         -9.375          0.374              1              1
      4588.5000           11.5       1191.837         0.0373        -999.25        99.2157       94.05219        -999.25        49.1176              1          2.186         0.8569         0.8159        -999.25       -11.5625        -1.8167              1              1
      4589.0000           11.5       1191.837         0.0672        -999.25        97.8431       92.49557        -999.25          44.52              1         2.2176         0.8569         0.8159        -999.25        -9.6875         0.0551              1              1
      4589.5000           11.5       1191.837         0.0612        -999.25        96.4706       90.93904        -999.25          42.54              1         2.2118         0.8569         0.8159        -999.25        -8.4375         1.3018              1              1
      4590.0000        11.5208       1191.837         0.0512        -999.25         97.451       92.04876        -999.25          44.28              1            2.2         0.8485         0.8159        -999.25       -10.9375        -1.2014              1              1
      4590.5000        11.5417           1200         0.0409        -999.25        99.4118       94.26944        -999.25          47.58              1          2.189         0.8402         0.8159        -999.25        -13.125        -3.3921              1      0.9924596
      4591.0000        11.5208           1200         0.0373        -999.25       100.4082       95.39738        -999.25          47.52              1          2.195         0.8402         0.8159        -999.25       -12.1875        -2.4578              1              1
      4591.5000        11.5208           1208         0.0409        -999.25       101.4286       96.55242        -999.25          46.08              1         2.2078         0.8402         0.8159        -999.25         -11.25        -1.5236              1              1
      4592.0000        11.4792           1208         0.0572        -999.25       102.0408       97.24491        -999.25          43.74              1         2.2265         0.8402         0.8159        -999.25       -10.9375        -1.2143              1              1
      4592.5000        11.4583           1216         0.0632        -999.25       100.6122       95.62482        -999.25          44.04              1         2.2216         0.8402         0.8159        -999.25         -9.375          0.345              1              1
      4593.0000        11.4375           1216         0.0612        -999.25        98.2353       92.93015        -999.25          44.88              1         2.2098         0.8402         0.8159        -999.25       -10.9375        -1.2208              1              1
      4593.5000        11.4375           1208         0.0532        -999.25        96.0784       90.48488        -999.25           46.2              1          2.197         0.8402         0.8159        -999.25       -14.0625         -4.349              1      0.9740577
      4594.0000        11.4375           1208         0.0493        -999.25        96.0784       90.48363        -999.25          46.44              1          2.194         0.8402         0.8159        -999.25       -14.6875        -4.9772              1      0.9619769
      4594.5000        11.4583           1200         0.0493        -999.25        97.0588       91.59335        -999.25          44.94              1          2.194         0.8402         0.8239        -999.25       -12.1875        -2.4805              1              1
      4595.0000        11.4792       1191.837         0.0493        -999.25        97.8431       92.48084        -999.25          42.96              1          2.195         0.8402          0.832        -999.25       -14.0625        -4.3587              1      0.9738712
      4595.5000           11.5       1191.837         0.0453        -999.25        97.8431       92.47959        -999.25          40.92              1          2.193         0.8485          0.832        -999.25            -18        -8.2994              1      0.8980885
      4596.0000           11.5       1183.673         0.0453        -999.25        96.6667       91.14529        -999.25          41.04              1          2.193         0.8569         0.8402        -999.25          -19.8       -10.1027              1      0.8634096
      4596.5000           11.5       1167.347         0.0453        -999.25         95.098       89.36655        -999.25          41.46              1          2.189         0.8653         0.8485        -999.25          -20.4       -10.7059              1      0.8518096
      4597.0000           11.5       1159.184         0.0453        -999.25        93.7255       87.81004        -999.25          41.88              1          2.186         0.8739         0.8569        -999.25            -21       -11.3091              1      0.8402096
      4597.5000        11.5208        1151.02         0.0453        -999.25        93.1373       87.14225        -999.25          43.92              1          2.194         0.8825         0.8653        -999.25          -21.3       -11.6123              1      0.8343788
      4598.0000        11.5833        1151.02         0.0532        -999.25        94.1176       88.25185        -999.25          45.24              1         2.2098         0.8912         0.8739        -999.25          -20.7       -11.0156              1      0.8458539
      4598.5000        11.6875       1126.531         0.0552        -999.25        95.4902       89.80599        -999.25          42.96         1.0093         2.2206            0.9         0.8825        -999.25          -18.3        -8.6188              1      0.8919461
