#------------------------------------------------------------------------------
# Created by    : vladimir.rabinovich
# Created on    : 09/19/2023 17:22:24
#------------------------------------------------------------------------------
~Version Information Section
VERS.           2.0     :   CWLS log ASCII Standard - VERSION 2.0
WRAP.           NO      :   One line per depth step
~Well Information Section
#MNEM       .UNIT                                         VALUE :DESCRIPTION
#------------------------------------------------------------------------------
STRT        .FT                                             955 :START DEPTH
STOP        .FT                                            8851 :STOP DEPTH
STEP        .FT                                             0.5 :STEP      
NULL        .                                           -999.25 :NULL      
COMP        .                                SHELL OFFSHORE INC :COMPANY   
WELL        .                               OCS G08627 ST00BP00 :WELL      
FLD         .                                           WILDCAT :FIELD     
LOC         .                                                   :LOCATION  
CNTY        .                                 WEST CAMERON WEST :LOCATION  
STAT        .                                         LOUISIANA :STATE     
CTRY        .                                     UNITED STATES :COUNTRY   
SRVC        .                                                   :SERVICE COMPANY
DATE        .                             9/13/2023 11:18:15 AM :LOG DATE  
API         .                                    17701402000000 :API NUMBER
UWI         .                                    17701402000000 :UNIQUE WELL ID
XCOORD      .                                  1405165.89752093 :SURFACE X 
YCOORD      .                                  10654404.2103889 :SURFACE Y 
LAT         .                                        29.3559214 :LATITUDE  
LON         .                                       -93.7387067 :LONGITUDE 
ELEV        .FT                                             100 :ELEVATION VALUE
ELEV_TYPE   .                                                KB :ELEVATION REFERENCE TYPE
~Curve Information Section
#MNEM       .UNIT                                      API CODE :CURVE DESCRIPTION
#------------------------------------------------------------------------------
DEPT        .FT                                                 :DEPTH     
CALX        .IN                                                 :          
DRHO        .G/C3                                               :          
DT          .US/F                                               :          
GR          .GAPI                                               :          
GR_NORM     .GAPI                                               :GammaRay Normalized
ILD         .OHMM                                               :          
ILM         .OHMM                                               :          
LL          .OHMM                                               :          
NPHI        .%                                                  :          
RHOB        .G/C3                                               :          
SP          .MV                                                 :          
SP_NORM     .MV                                                 :SP Normalized
VSH_GR      .V/V                                                :Volume of Shale from GR
VSH_SP      .V/V                                                :Volume of Shale from SP
~A        DEPTH           CALX           DRHO             DT             GR        GR_NORM            ILD            ILM             LL           NPHI           RHOB             SP        SP_NORM         VSH_GR         VSH_SP
# ...
      2557.0000        11.6869         0.0879       147.2002        79.9567       86.88927         0.8267         0.8278         0.7985        59.9637          1.943      -113.8704     -0.5236893              1              1
      2557.5000        11.5376         0.0788       146.4707        79.1589       86.02212         0.8375         0.8377         0.7955        60.7244          1.935      -114.1156      -0.777626              1              1
      2558.0000        11.5453         0.0683       144.2339        78.1486       84.92401         0.8505         0.8492         0.8134        60.1152         1.9514      -115.0966      -1.767365              1              1
      2558.5000         11.555         0.0566       141.5344        78.4933       85.29868         0.8618         0.8609         0.8352        57.6702         1.9891      -115.1687      -1.848198              1              1
      2559.0000        11.5089         0.0497       138.6606        79.7437       86.65775         0.8746         0.8707         0.8401        47.3906         2.0205      -115.0144      -1.702629              1              1
      2559.5000        11.5462           0.05       136.1677         80.592       87.57979         0.8884         0.8856         0.8378        45.0587         2.0582      -115.3719      -2.068871              1      0.9950806
      2560.0000        11.8011         0.0583       134.3171        80.6674       87.66174         0.8964          0.901         0.8465        43.3517         2.0694      -116.1959      -2.901604              1      0.9355997
      2560.5000        11.9611         0.0814       133.7244        80.4412       87.41588         0.9074         0.9068         0.8673        45.4363         2.0585      -116.0115      -2.725937              1      0.9481474
      2561.0000        12.0135         0.0972       135.8181        80.1353       87.08339         0.9024         0.9053         0.8717        48.1376         2.0191      -116.8413      -3.564476              1      0.8882517
      2561.5000         11.922         0.0903       139.8799        79.8187       86.73927          0.887         0.8972         0.8575         51.688         1.9801      -116.4017      -3.133614              1      0.9190276
      2562.0000        11.4275         0.0699       142.7498         79.462       86.35157         0.8681         0.8878         0.8407        52.7289         1.9587      -115.3025      -2.043144              1      0.9969183
      2562.5000        11.3534         0.0396       144.7378        79.0786       85.93484           0.85         0.8725         0.8285        53.0457         1.9566       -114.395      -1.144379              1              1
      2563.0000        11.4106         0.0341       146.3823        79.5764       86.47591         0.8366         0.8532         0.8231         52.903         1.9723      -114.1908     -0.9489288              1              1
      2563.5000         11.471         0.0318       148.3137        82.0194       89.13126         0.8238         0.8354         0.8177        52.1104         1.9885      -114.3542      -1.121063              1              1
      2564.0000        11.5116         0.0311       149.9397        84.6084       91.94528         0.8155         0.8213          0.817        51.0259         1.9975      -115.0265      -1.802094              1              1
      2564.5000        11.5395         0.0332       151.3877        86.9922       94.53628         0.8121         0.8122         0.8126        49.9128         1.9937      -115.3827       -2.16703              1      0.9880692
      2565.0000        11.5264         0.0352        152.189        87.7285       95.33657         0.8104         0.8086         0.8053        49.9471         1.9753      -115.4996      -2.292671              1      0.9790949
      2565.5000          11.37         0.0342        151.407         87.323       94.89583          0.806         0.8076         0.8019        50.2666         1.9585      -115.4041      -2.205902              1      0.9852927
      2566.0000        11.1191         0.0335       147.0803        87.9308       95.55646         0.8081         0.8082         0.8072        50.3463         1.9491      -114.9315      -1.742043              1              1
      2566.5000        11.1985         0.0336       141.8503        89.0222       96.74271         0.8201         0.8146         0.8184        49.3665         1.9718      -114.2039      -1.023178              1              1
      2567.0000         11.462         0.0372        138.147        89.6639       97.44019         0.8503         0.8206         0.8289        48.1257         1.9989      -113.5713     -0.3993073              1              1
      2567.5000        11.7382         0.0407       137.0115        88.7778       96.47707         0.8773         0.8282         0.8344        47.5829         2.0195      -114.1141     -0.9508438              1              1
      2568.0000        11.9854         0.0455       138.1458        86.3269       93.81315          0.888         0.8336         0.8424        48.2501         2.0332      -115.0476      -1.893082              1              1
      2568.5000        12.2534         0.0528       140.5876        83.0925       90.29762         0.8878         0.8443          0.856        49.1826         2.0445      -115.1638      -2.018021              1      0.9987128
      2569.0000        12.4925         0.0679        141.541        80.9437       87.96206         0.8874         0.8561         0.8663         50.134          2.047      -115.0704       -1.93335              1              1
      2569.5000        12.6251         0.0857       141.4814        77.8597       84.61001          0.895         0.8678         0.8718        51.0662         2.0317      -115.4045      -2.276192              1       0.980272
      2570.0000        12.6768         0.1036       140.9326        75.0084       81.51087          0.906          0.883          0.873        51.9014          2.012      -115.4523      -2.332726              1      0.9762339
      2570.5000        12.6211          0.111       140.2422        73.2028       79.54834         0.9192         0.8994         0.8649        52.5468         2.0014      -114.5219      -1.411057      0.9903902              1
      2571.0000        12.4373         0.1022       139.4353        72.3295       78.59913         0.9409         0.9147         0.8713        52.9649         1.9946       -113.645     -0.5428925      0.9701942              1
      2571.5000        12.2515          0.088       138.5779        71.8374       78.06426         0.9611         0.9295         0.8938        52.6831         1.9743      -112.8728      0.2205658      0.9588141              1
      2572.0000        12.0985         0.0729       136.7087        71.6516       77.86232         0.9753         0.9441         0.9214        51.1205         1.9357      -112.1556      0.9290314      0.9545174              1
      2572.5000        11.9954         0.0575        134.166         72.328        78.5975         0.9801         0.9582         0.9411        48.5406         1.8988      -112.1931      0.8827972      0.9701596              1
      2573.0000        11.9908         0.0374       131.9075        74.0291       80.44645         0.9768         0.9686         0.9495        46.7144         1.8839      -112.6462      0.4209595              1              1
      2573.5000        12.4365         0.0235       130.9309        75.9969        82.5853         0.9596         0.9716          0.966        46.9921         1.8912      -113.1051    -0.04667664              1              1
      2574.0000        12.5515         0.0182       131.1772        78.2664       85.05206         0.9487         0.9638         0.9863        48.7811         1.9362      -113.6852     -0.6355133              1              1
      2574.5000        12.4004         0.0188       133.4744        80.5619       87.54707         0.9397         0.9524          0.987        49.6188         1.9938      -114.2561      -1.215149              1              1
