#------------------------------------------------------------------------------
# Created by    : vladimir.rabinovich
# Created on    : 09/19/2023 17:19:36
#------------------------------------------------------------------------------
~Version Information Section
VERS.           2.0     :   CWLS log ASCII Standard - VERSION 2.0
WRAP.           NO      :   One line per depth step
~Well Information Section
#MNEM       .UNIT                                         VALUE :DESCRIPTION
#------------------------------------------------------------------------------
STRT        .FT                                          2840.5 :START DEPTH
STOP        .FT                                            9365 :STOP DEPTH
STEP        .FT                                             0.5 :STEP      
NULL        .                                           -999.25 :NULL      
COMP        .                              MCMORAN OIL & GAS CO :COMPANY   
WELL        .                                OCS 00757 ST00BP00 :WELL      
FLD         .                           WEST CAMERON BLOCK 0118 :FIELD     
LOC         .                                                   :LOCATION  
CNTY        .                                      WEST CAMERON :LOCATION  
STAT        .                                         LOUISIANA :STATE     
CTRY        .                                     UNITED STATES :COUNTRY   
SRVC        .                                                   :SERVICE COMPANY
DATE        .                             9/13/2023 11:18:49 AM :LOG DATE  
API         .                                    17700410710000 :API NUMBER
UWI         .                                    17700410710000 :UNIQUE WELL ID
XCOORD      .                                  1441592.04714169 :SURFACE X 
YCOORD      .                                  10704369.2355959 :SURFACE Y 
LAT         .                                        29.4939537 :LATITUDE  
LON         .                                       -93.6251728 :LONGITUDE 
ELEV        .FT                                              90 :ELEVATION VALUE
ELEV_TYPE   .                                                KB :ELEVATION REFERENCE TYPE
~Curve Information Section
#MNEM       .UNIT                                      API CODE :CURVE DESCRIPTION
#------------------------------------------------------------------------------
DEPT        .FT                                                 :DEPTH     
AHT10       .OHMM                                               :          
AHT20       .OHMM                                               :          
AHT30       .OHMM                                               :          
AHT60       .OHMM                                               :          
AHT90       .OHMM                                               :          
AHTCO90     .MMHO                                               :          
DPHZ        .DEC                                                :          
GR          .GAPI                                               :          
GR_NORM     .GAPI                                               :GammaRay Normalized
HCAL        .IN                                                 :          
HDRA        .G/CC                                               :          
HMIN        .OHMM                                               :          
HMNO        .OHMM                                               :          
NPOR        .DEC                                                :          
RHOZ        .G/CC                                               :          
RWA         .OHMM                                               :          
TENS        .LB                                                 :          
VSH_GR      .V/V                                                :Volume of Shale from GR
~A        DEPTH          AHT10          AHT20          AHT30          AHT60          AHT90        AHTCO90           DPHZ             GR        GR_NORM           HCAL           HDRA           HMIN           HMNO           NPOR           RHOZ            RWA           TENS         VSH_GR
# ...
      4688.5000         0.8154          0.863         0.8604         0.8371         0.8106       1233.603         0.2492         89.141       82.83932        10.6494         0.0131          0.821          0.727         0.4063          2.239         0.0659           2447              1
      4689.0000         0.8338         0.8798         0.8887         0.8613         0.8336       1199.631         0.2359        89.2452       82.93987        10.6849         0.0178          0.934          0.827          0.395          2.261         0.0602           2465              1
      4689.5000         0.8206         0.8575         0.8753          0.859         0.8318       1202.278         0.2233         88.048       81.79021        10.7204         0.0274          0.954          0.844         0.4734          2.282         0.0534           2456              1
      4690.0000         0.8093         0.8386         0.8675         0.8558         0.8291         1206.2         0.2206         93.316       86.85111        10.7204         0.0325            0.9          0.797         0.4731          2.286         0.0519           2438              1
      4690.5000         0.8157         0.8538          0.871         0.8629         0.8359       1196.263         0.2289        97.3034       90.68179        10.6258         0.0274          0.828          0.733         0.4401          2.272         0.0566           2442              1
      4691.0000         0.8133         0.8583         0.8706         0.8689         0.8418       1187.999         0.2349        90.1197        83.7815        10.7795         0.0208          0.849          0.752          0.427          2.262         0.0603           2449              1
      4691.5000         0.7713          0.807         0.8408         0.8526         0.8264       1210.055         0.2386        87.2462       81.02158        10.6731         0.0203          0.968          0.857         0.4647          2.256         0.0612           2476              1
      4692.0000          0.738         0.7768         0.8104         0.8365         0.8115       1232.288         0.2347        88.3601       82.09197        10.5548         0.0251          0.797          0.706         0.4566          2.263          0.058           2454              1
      4692.5000         0.7297         0.7769         0.8061         0.8338         0.8089        1236.32         0.2403        97.4514       90.82563        10.5548         0.0278          0.735          0.651         0.4717          2.253         0.0609           2443              1
      4693.0000         0.7273         0.7746         0.8013         0.8337         0.8088       1236.436         0.2519       101.2827       94.50645        10.6494         0.0201          0.742          0.657         0.5061          2.234         0.0673           2464              1
      4693.5000         0.7363         0.7867         0.8131         0.8498          0.824        1213.58         0.2548        94.5779        88.0661        10.6494         0.0183          0.752          0.667         0.4874           2.23         0.0703           2492              1
      4694.0000         0.7374         0.7933         0.8188         0.8565         0.8304       1204.257          0.255        91.9519       85.54391        10.6731         0.0145          0.804          0.712         0.4522          2.229         0.0709           2474              1
      4694.5000         0.7392         0.7967         0.8245         0.8665         0.8399       1190.687         0.2569        89.7968        83.4741        10.5785         0.0127          0.777          0.689         0.4562          2.226         0.0729           2499              1
      4695.0000         0.7542          0.815         0.8349         0.8791         0.8517       1174.171         0.2626         88.882       82.59572        10.5548         0.0098          0.752          0.667          0.484          2.217         0.0775           2497              1
      4695.5000         0.7394         0.7999         0.8213         0.8638         0.8376       1193.937         0.2665         88.882       82.59611        10.6021         0.0085          0.831          0.736         0.4003           2.21         0.0787           2478              1
      4696.0000         0.7128         0.7681         0.7949          0.836         0.8115       1232.238         0.2654        89.6004       83.28659        10.6967         0.0106          0.791          0.701         0.4064          2.212         0.0755           2463              1
      4696.5000          0.717         0.7743         0.7988         0.8398         0.8153       1226.568         0.2687        93.3779       86.91566        10.6967          0.011          0.735          0.651         0.4674          2.207          0.078           2464              1
      4697.0000         0.7259         0.7878         0.8083         0.8468         0.8221       1216.413         0.2681        96.4908       89.90639        10.6021         0.0138          0.764          0.677         0.5079          2.208         0.0782           2465              1
      4697.5000         0.7157         0.7749         0.7991         0.8312         0.8074       1238.541         0.2667        90.0255       83.69607        10.6021         0.0155          0.813           0.72         0.5105           2.21          0.076           2480              1
      4698.0000         0.7249         0.7808         0.8071          0.837         0.8128       1230.251         0.2559        88.7663       82.48698        10.5785         0.0194          0.697          0.618         0.5084          2.228           0.07           2503              1
      4698.5000         0.7572         0.8169          0.837         0.8615         0.8361       1195.992         0.2519        84.4561       78.34684        10.6613         0.0163          0.667          0.592         0.4825          2.234         0.0696           2464      0.9648264
      4699.0000         0.7666         0.8269         0.8478         0.8661         0.8404        1189.94         0.2504        87.3296       81.10765        10.6021         0.0116          0.783          0.694           0.42          2.237          0.069           2477              1
      4699.5000         0.7514         0.8047         0.8307          0.845         0.8203       1219.113         0.2527        87.4653        81.2383        10.6494          0.007          0.844          0.747         0.4353          2.233         0.0687           2469              1
      4700.0000         0.7332         0.7841         0.8117         0.8303         0.8061       1240.501         0.2524        89.1334       82.84112        10.7086         0.0079          0.781          0.692         0.4644          2.234         0.0674           2468              1
      4700.5000         0.7116         0.7631         0.7949         0.8158         0.7921       1262.396         0.2537        86.7389        80.5414        10.7204          0.009           0.84          0.744         0.4257          2.231         0.0669           2466              1
      4701.0000         0.7014         0.7526         0.7827         0.8022          0.779       1283.682         0.2603        92.0182        85.6132         10.744         0.0087          0.744           0.66          0.475           2.22         0.0696           2443              1
      4701.5000         0.7096         0.7625         0.7892         0.8114         0.7871       1270.532         0.2655        90.9709        84.6075        10.6494         0.0079          0.717          0.636         0.4745          2.212         0.0734           2468              1
      4702.0000         0.7137           0.77         0.7947         0.8159          0.791        1264.21          0.268        94.8022       88.28832        10.6494         0.0076          0.736          0.652         0.4542          2.208         0.0752           2518              1
