#------------------------------------------------------------------------------
# Created by    : vladimir.rabinovich
# Created on    : 09/19/2023 17:22:11
#------------------------------------------------------------------------------
~Version Information Section
VERS.           2.0     :   CWLS log ASCII Standard - VERSION 2.0
WRAP.           NO      :   One line per depth step
~Well Information Section
#MNEM       .UNIT                                         VALUE :DESCRIPTION
#------------------------------------------------------------------------------
STRT        .FT                                             714 :START DEPTH
STOP        .FT                                            7955 :STOP DEPTH
STEP        .FT                                             0.5 :STEP      
NULL        .                                           -999.25 :NULL      
COMP        .                                ODECO OIL & GAS CO :COMPANY   
WELL        .                               OCS G04756 ST00BP00 :WELL      
FLD         .                           WEST CAMERON BLOCK 0165 :FIELD     
LOC         .                                                   :LOCATION  
CNTY        .                                      WEST CAMERON :LOCATION  
STAT        .                                         LOUISIANA :STATE     
CTRY        .                                     UNITED STATES :COUNTRY   
SRVC        .                                                   :SERVICE COMPANY
DATE        .                             9/13/2023 11:19:06 AM :LOG DATE  
API         .                                    17700406200000 :API NUMBER
UWI         .                                    17700406200000 :UNIQUE WELL ID
XCOORD      .                                  1451757.14487559 :SURFACE X 
YCOORD      .                                  10673474.8616073 :SURFACE Y 
LAT         .                                        29.4091131 :LATITUDE  
LON         .                                       -93.5927176 :LONGITUDE 
ELEV        .FT                                             113 :ELEVATION VALUE
ELEV_TYPE   .                                                KB :ELEVATION REFERENCE TYPE
~Curve Information Section
#MNEM       .UNIT                                      API CODE :CURVE DESCRIPTION
#------------------------------------------------------------------------------
DEPT        .FT                                                 :DEPTH     
CALI        .IN                                                 :          
CILD        .MMHO                                               :          
DRHO        .G/C3                                               :          
DT          .US/F                                               :          
GR          .GAPI                                               :          
GR_NORM     .GAPI                                               :GammaRay Normalized
ILD         .OHMM                                               :          
NPSS        .%                                                  :Neutron Porosity Sandstone
RFOC        .OHMM                                               :          
RHOB        .G/C3                                               :          
RILD        .OHMM                                               :          
RILM        .OHMM                                               :          
SN          .OHMM                                               :          
SP          .MV                                                 :          
SP_NORM     .MV                                                 :SP Normalized
VSH_GR      .V/V                                                :Volume of Shale from GR
VSH_SP      .V/V                                                :Volume of Shale from SP
~A        DEPTH           CALI           CILD           DRHO             DT             GR        GR_NORM            ILD           NPSS           RFOC           RHOB           RILD           RILM             SN             SP        SP_NORM         VSH_GR         VSH_SP
# ...
      3624.0000        11.0417           1328         0.0752        -999.25           88.4       86.06609        -999.25          99.84         0.8838         2.1569          0.745         0.7189        -999.25          -17.7        -1.8086              1              1
      3624.5000        11.0417           1344         0.0612        -999.25           87.6       85.15535        -999.25          59.94         0.8919         2.1312         0.7384         0.7126        -999.25          -19.2        -3.3192              1      0.9938616
      3625.0000        11.0417           1360         0.0453        -999.25           87.6       85.15105        -999.25          46.38            0.9         2.1042         0.7319         0.7063        -999.25          -17.4        -1.5299              1              1
      3625.5000        11.0208           1368         0.0373        -999.25           88.8       86.50666        -999.25          44.22         0.9174         2.1021         0.7254         0.6937        -999.25          -16.2        -0.3405              1              1
      3626.0000        11.0208           1384         0.0532        -999.25        91.3726       89.41766        -999.25          43.98         0.9174          2.126         0.7126         0.6874        -999.25          -17.7        -1.8511              1              1
      3626.5000        11.0208           1408         0.0792        -999.25        93.5294       91.85737        -999.25           45.6         0.9087         2.1588         0.7063         0.6812        -999.25          -18.6        -2.7618              1              1
      3627.0000        11.0208           1424         0.0876        -999.25        92.7451       90.96443        -999.25          46.92            0.9         2.1716            0.7         0.6751        -999.25          -16.8        -0.9724              1              1
      3627.5000             11           1424         0.0776        -999.25        90.9804       88.96054        -999.25          47.28         0.8919         2.1608         0.6937         0.6629        -999.25          -16.5         -0.683              1              1
      3628.0000             11           1416         0.0572        -999.25           89.2       86.93874        -999.25        48.2353         0.8838         2.1427         0.6874         0.6629        -999.25          -18.6        -2.7937              1              1
      3628.5000        11.0208           1408         0.0508        -999.25           86.8       84.21494        -999.25           47.4          0.868         2.1188         0.6937         0.6751        -999.25          -18.6        -2.8043              1              1
      3629.0000        11.0207           1392         0.0405        -999.25           88.8       86.47708        -999.25          43.98         0.8759            2.1         0.7126         0.6874        -999.25            -15         0.7851              1              1
      3629.5000        11.0411           1368         0.0317        -999.25        91.1765       89.16576        -999.25          39.12         0.8838         2.0913         0.7319         0.7063        -999.25            -15         0.7744              1              1
      3630.0000        11.0614           1352         0.0373        -999.25        93.3333       91.60558        -999.25          40.32         0.9087         2.1021          0.745         0.7254        -999.25          -17.4        -1.6362              1              1
      3630.5000        11.0612           1320         0.0716        -999.25        90.5882       88.49072        -999.25          41.88         0.9365         2.1458         0.7659         0.7388        -999.25       -18.2567        -2.5035              1              1
      3631.0000        11.0612           1288         0.0732        -999.25           87.4       84.87376        -999.25          44.58         0.9661         2.1863         0.7812         0.7531        -999.25       -17.8847        -2.1422              1              1
      3631.5000        11.1429           1256         0.0752        -999.25           86.6       83.96292        -999.25          46.56         0.9684          2.204           0.79         0.7611        -999.25       -19.0119          -3.28              1      0.9946154
      3632.0000        11.2245           1224         0.0692        -999.25           88.6       86.22507        -999.25          45.66         0.9707         2.1961         0.7993         0.7695        -999.25       -18.0259        -2.3046              1              1
      3632.5000        11.2653           1200         0.0612        -999.25        90.5882       88.47384        -999.25          44.94         0.9539         2.1863         0.8148         0.7777        -999.25          -16.8        -1.0894              1              1
      3633.0000        11.3469       1191.837         0.0592        -999.25        91.3726       89.35839        -999.25          45.36         0.9374         2.1765         0.8383         0.7926        -999.25            -18           -2.3              1              1
      3633.5000        11.4286       1183.673         0.0592        -999.25        91.7647       89.79852        -999.25          45.24         0.9387         2.1716         0.8391         0.7927        -999.25          -20.7        -5.0106              1      0.9613346
      3634.0000        11.4898        1175.51         0.0652        -999.25        92.3529       90.46085        -999.25          44.16         0.9483         2.1706         0.8399         0.7929        -999.25          -19.5        -3.8213              1      0.9842058
      3634.5000        11.5306        1175.51         0.0632        -999.25        90.3922       88.23474        -999.25          45.42         0.9655         2.1647         0.8402         0.7929        -999.25          -18.3        -2.6319              1              1
      3635.0000        11.5714        1175.51         0.0532        -999.25           87.6       85.06651        -999.25           47.1          0.974         2.1588         0.8402         0.7929        -999.25          -19.2        -3.5425              1      0.9895673
      3635.5000        11.5918        1175.51         0.0572        -999.25           85.6       82.79598        -999.25             45          0.974         2.1657         0.8402         0.7929        -999.25          -19.8        -4.1532              1      0.9778231
      3636.0000        11.6122        1175.51         0.0672        -999.25             87       84.37822        -999.25             42          0.974         2.1892         0.8402         0.7929        -999.25          -18.6        -2.9638              1              1
      3636.5000        11.6327        1175.51         0.0852        -999.25           89.2        86.8669        -999.25          43.44         0.9663           2.21          0.841          0.794        -999.25          -19.2        -3.5744              1      0.9889538
      3637.0000        11.6531        1175.51         0.0792        -999.25        90.1961       87.99146        -999.25          47.58         0.9678         2.1922         0.8421         0.7957        -999.25          -19.8        -4.1851              1      0.9772096
      3637.5000        11.6327       1183.673         0.0572        -999.25        90.7843       88.65379        -999.25        51.0612         0.9604         2.1696         0.8432         0.7974        -999.25          -16.5        -0.8957              1              1
      3638.0000        11.6122       1191.837         0.0493        -999.25        91.7647       89.76044        -999.25          55.92         0.9527         2.1637          0.829         0.7993        -999.25          -15.9        -0.3063              1              1
      3638.5000        11.5714           1216         0.0493        -999.25        93.3333       91.53374        -999.25          55.74         0.9539         2.1647         0.8223         0.7929        -999.25          -18.6         -3.017              1      0.9996731
