#------------------------------------------------------------------------------
# Created by    : vladimir.rabinovich
# Created on    : 09/19/2023 17:22:25
#------------------------------------------------------------------------------
~Version Information Section
VERS.           2.0     :   CWLS log ASCII Standard - VERSION 2.0
WRAP.           NO      :   One line per depth step
~Well Information Section
#MNEM       .UNIT                                         VALUE :DESCRIPTION
#------------------------------------------------------------------------------
STRT        .FT                                            2996 :START DEPTH
STOP        .FT                                            8909 :STOP DEPTH
STEP        .FT                                             0.5 :STEP      
NULL        .                                           -999.25 :NULL      
COMP        .                             PHILLIPS PETROLEUM CO :COMPANY   
WELL        .                                OCS 00299 ST00BP00 :WELL      
FLD         .                           WEST CAMERON BLOCK 0045 :FIELD     
LOC         .                                                   :LOCATION  
CNTY        .                                      WEST CAMERON :LOCATION  
STAT        .                                         LOUISIANA :STATE     
CTRY        .                                     UNITED STATES :COUNTRY   
SRVC        .                                                   :SERVICE COMPANY
DATE        .                             9/13/2023 11:18:09 AM :LOG DATE  
API         .                                    17700407290000 :API NUMBER
UWI         .                                    17700407290000 :UNIQUE WELL ID
XCOORD      .                                  1446390.31791034 :SURFACE X 
YCOORD      .                                  10761453.0604348 :SURFACE Y 
LAT         .                                        29.6510516 :LATITUDE  
LON         .                                       -93.6110308 :LONGITUDE 
ELEV        .FT                                              99 :ELEVATION VALUE
ELEV_TYPE   .                                                KB :ELEVATION REFERENCE TYPE
~Curve Information Section
#MNEM       .UNIT                                      API CODE :CURVE DESCRIPTION
#------------------------------------------------------------------------------
DEPT        .FT                                                 :DEPTH     
CALX        .IN                                                 :          
CDL         .%                                                  :          
CILD        .MMHO                                               :          
CNS         .%                                                  :          
DRHO        .G/C3                                               :          
GR_NORM     .GAPI                                               :GammaRay Normalized
RILD        .OHMM                                               :          
RILM        .OHMM                                               :          
RLL         .OHMM                                               :          
SP          .MV                                                 :          
SP_NORM     .MV                                                 :SP Normalized
TENS        .LB                                                 :          
VSH_GR      .V/V                                                :Volume of Shale from GR
VSH_SP      .V/V                                                :Volume of Shale from SP
~A        DEPTH           CALX            CDL           CILD            CNS           DRHO        GR_NORM           RILD           RILM            RLL             SP        SP_NORM           TENS         VSH_GR         VSH_SP
# ...
      7316.0000           12.6        26.0816       1142.857           39.6         0.0324        80.9305         0.8838         0.8447            0.8              6         0.3354       2714.286              1              1
      7316.5000          12.92        25.4694       1142.857        38.9412         0.0333       77.48506         0.8838         0.8524         0.8295            5.9         0.2541       2714.286      0.9464906              1
      7317.0000          13.18        24.8571       1159.184        38.0588         0.0412       74.28566         0.8838         0.8524         0.8524            5.8         0.1728       2673.469      0.8784183              1
      7317.5000          13.08        24.3061       1208.163        37.3529          0.048       72.31635         0.8524         0.8524         0.8524            5.5        -0.1084       2693.877       0.836518              1
      7318.0000           12.8          23.94       1240.816        36.4706          0.056       70.59306            0.8         0.8524         0.7924            5.1        -0.4897       2714.286      0.7998524              1
      7318.5000           12.5        23.5273       1322.449        36.2941          0.064       70.34587         0.7483         0.8146         0.7203         4.1837        -1.3873       2734.694       0.794593              1
      7319.0000          12.22        23.7208       1453.061        37.1176         0.0679       71.82085            0.7         0.7627         0.7135         2.9592        -2.5931       2755.102      0.8259756              1
      7319.5000          12.04        24.9463           1600        37.2353         0.0609       74.77197          0.651         0.7067          0.868         1.0204        -4.5132       2734.694      0.8887654      0.8919143
      7320.0000          12.04        25.9179       1779.592             37          0.039       77.47702         0.5886         0.6165         0.9262           -0.6        -6.1149       2693.877      0.9463196      0.7775071
      7320.5000          11.94        25.9769       2057.143        35.3421          0.023       77.72189         0.5097         0.5664          0.868           -1.9        -7.3962       2693.877      0.9515296      0.6859857
      7321.0000          11.68        25.9113       2269.388        33.6796           0.02       75.01452         0.4472         0.5196         0.9352           -3.2        -8.6775       2714.286      0.8939259      0.5944643
      7321.5000          11.62        26.3921           2560         32.444          0.012       72.55318          0.389         0.4599          0.981           -4.8       -10.2587       2693.877       0.841557      0.4815214
      7322.0000          11.62           27.9           2800        31.8571          0.002       68.61569         0.3513          0.419         0.9717        -6.0204       -11.4604       2693.877      0.7577807      0.3956857
      7322.5000          11.62          28.74           3104          31.08        -0.0029       63.44813         0.3261         0.3854         0.9624        -6.9388       -12.3601       2673.469      0.6478326      0.3314214
      7323.0000          11.64          29.64       3388.235          30.06        -0.0049       61.72483            0.3         0.3578         0.9717        -7.6531       -13.0557       2714.286      0.6111666      0.2817357
      7323.5000          11.64          30.42       3780.392          30.12        -0.0049       64.67593          0.273         0.3353         0.9717        -8.3673       -13.7512       2755.102      0.6739559      0.2320572
      7324.0000          11.64           30.9       4179.592          30.66              0       64.92079         0.2508         0.3113         0.9174        -8.8776       -14.2428       2714.286      0.6791658      0.1969429
      7324.5000          11.72          31.86       4669.388          31.92        -0.0078        61.7214         0.2282         0.2889         0.8601        -9.3878       -14.7343       2693.877      0.6110936      0.1618357
      7325.0000          11.78          32.82           4992             33        -0.0157       58.52198         0.1945          0.273            0.8         -9.898       -15.2257       2693.877      0.5430208      0.1267357
      7325.5000          11.82        33.7059           5216        34.0588        -0.0186       55.07655         0.1945         0.2604         0.7701          -10.1        -15.409       2693.877      0.4697137      0.1136428
      7326.0000          11.98        34.1176           5408        35.2353        -0.0098       53.12655         0.1875         0.2461         0.7272        -9.7959       -15.0862       2693.877      0.4282244         0.1367
      7326.5000          12.12        34.1176           5584          36.54          0.012       51.67818         0.1807          0.237         0.6629        -9.1837       -14.4553       2714.286      0.3974081      0.1817643
      7327.0000          11.92        34.5882       5714.286           37.2          0.037       50.95349         0.1741          0.237          0.561        -7.9592       -13.2121       2714.286      0.3819892      0.2705643
      7327.5000           11.8        35.4118       5861.225           37.8          0.052       51.43467         0.1693          0.237         0.4954        -6.6327       -11.8669       2734.694      0.3922269        0.36665
      7328.0000          11.78          36.12       5877.551          37.08          0.034       51.67474         0.1678          0.237         0.4729        -6.8367       -12.0522       2755.102      0.3973348      0.3534143
      7328.5000          11.96          36.84       5716.293        35.3529        -0.0028        49.2616         0.1725         0.2348         0.8759        -8.1633       -13.3601       2755.102      0.3459915      0.2599929
      7329.0000          12.42          36.48       5444.839        33.7059        -0.0135       51.19011         0.1892          0.237         0.8295        -8.9796       -14.1576       2755.102      0.3870237      0.2030285
      7329.5000          12.54        35.5882       5026.973        32.0524        -0.0225       52.87729         0.1981         0.2415         0.8295        -9.3878       -14.5471       2755.102       0.422921      0.1752071
      7330.0000           12.5        35.0588           4800        31.2319        -0.0214       51.67014         0.2116         0.2556         0.8601        -9.6939       -14.8345        2775.51      0.3972371      0.1546786
      7330.5000          12.48        34.5294       4653.061        32.3529        -0.0235       49.49823         0.2198         0.2654         0.8919         -9.898       -15.0199       2816.326      0.3510262      0.1414357
      7331.0000          12.52        34.2941       4653.061        33.9412        -0.0286       47.32632         0.2198         0.2756         0.9174         -9.898       -15.0012        2775.51      0.3048153      0.1427715
      7331.5000           12.7        34.4706       4702.041        35.2353        -0.0347       46.11919         0.2157          0.273         0.9352            -10       -15.0845        2775.51      0.2791316      0.1368214
      7332.0000          12.84        34.7059       4783.673          36.42        -0.0357       45.87681         0.2097         0.2679         0.9262          -10.1       -15.1658        2775.51      0.2739746      0.1310143
      7332.5000          12.86        34.7059       4930.612          36.12        -0.0306        44.9109         0.1982         0.2604         0.8295          -10.2       -15.2471       2714.286      0.2534233      0.1252072
      7333.0000          12.84        34.6471        5175.51        35.5882        -0.0173       42.98021         0.1982         0.2461         0.8371          -10.5       -15.5283       2714.286      0.2123449      0.1051214
      7333.5000          12.82        34.5294       5485.714          36.24        -0.0061       40.54297         0.1892         0.2348         0.8601          -10.6       -15.6096       2693.877      0.1604887     0.09931428
