#------------------------------------------------------------------------------
# Created by    : vladimir.rabinovich
# Created on    : 09/19/2023 17:21:07
#------------------------------------------------------------------------------
~Version Information Section
VERS.           2.0     :   CWLS log ASCII Standard - VERSION 2.0
WRAP.           NO      :   One line per depth step
~Well Information Section
#MNEM       .UNIT                                         VALUE :DESCRIPTION
#------------------------------------------------------------------------------
STRT        .FT                                            3895 :START DEPTH
STOP        .FT                                         10595.5 :STOP DEPTH
STEP        .FT                                             0.5 :STEP      
NULL        .                                           -999.25 :NULL      
COMP        .                               TALOS PETROLEUM LLC :COMPANY   
WELL        .                                OCS 00300 ST00BP00 :WELL      
FLD         .                           WEST CAMERON BLOCK 0045 :FIELD     
LOC         .                                                   :LOCATION  
CNTY        .                                      WEST CAMERON :LOCATION  
STAT        .                                         LOUISIANA :STATE     
CTRY        .                                     UNITED STATES :COUNTRY   
SRVC        .                                                   :SERVICE COMPANY
DATE        .                             9/13/2023 11:18:36 AM :LOG DATE  
API         .                                    17700410070000 :API NUMBER
UWI         .                                    17700410070000 :UNIQUE WELL ID
XCOORD      .                                  1453771.49108141 :SURFACE X 
YCOORD      .                                  10773222.7644816 :SURFACE Y 
LAT         .                                        29.6835328 :LATITUDE  
LON         .                                       -93.5879752 :LONGITUDE 
ELEV        .FT                                             100 :ELEVATION VALUE
ELEV_TYPE   .                                                KB :ELEVATION REFERENCE TYPE
~Curve Information Section
#MNEM       .UNIT                                      API CODE :CURVE DESCRIPTION
#------------------------------------------------------------------------------
DEPT        .FT                                                 :DEPTH     
ATR         .OHMM                                               :          
CATR        .MMHO                                               :          
DCAL        .IN                                                 :          
DRHB        .G/C3                                               :          
GR          .GAPI                                               :          
GR_NORM     .GAPI                                               :GammaRay Normalized
PSR         .OHMM                                               :          
RHOB        .G/C3                                               :          
ROP5        .F/HR                                               :          
TNPH        .%                                                  :          
VSH_GR      .V/V                                                :Volume of Shale from GR
~A        DEPTH            ATR           CATR           DCAL           DRHB             GR        GR_NORM            PSR           RHOB           ROP5           TNPH         VSH_GR
# ...
      4862.5000           0.54       1851.852           0.92           0.12          46.58       46.40981           0.59           2.25         285.73             32      0.2853152
      4863.0000           0.75       1333.332              1           0.13          55.67       54.00279              1           2.29         327.23             31      0.4468679
      4863.5000           0.93       1075.268           1.02           0.12           62.4       59.62457           1.35           2.32         285.71             30      0.5664802
      4864.0000           1.02       980.3916              1           0.11          63.64       60.66036           1.52           2.35            250             29      0.5885183
      4864.5000           1.03        970.873           0.99           0.12        63.7599       60.76052           1.56           2.36          219.5             27      0.5906494
      4865.0000           0.95       1052.631           0.98           0.11          62.65       59.83334           1.43           2.34       206.8899             27       0.570922
      4865.5000            0.8           1250           0.94           0.11          61.53       58.89783           1.15            2.3       185.5598             27      0.5510177
      4866.0000            0.8           1250           0.89           0.11          58.78       56.60067           1.15           2.27         179.99             28      0.5021419
      4866.5000           0.62       1612.902           0.79            0.1          56.02       54.29519           0.76           2.22         179.99             31      0.4530892
      4867.0000           0.43       2325.578           0.71           0.11          53.27       51.99804           0.48           2.19         178.21             34      0.4042137
      4867.5000           0.32           3125           0.61           0.11          53.27       51.99804           0.33           2.17         178.21             38      0.4042137
      4868.0000           0.32           3125           0.52           0.12          51.27       50.32746           0.33           2.18         178.21             39      0.3686694
      4868.5000           0.31       3225.805           0.49           0.13          49.27       48.65676            0.3           2.21       209.2798             37      0.3331227
      4869.0000           0.31       3225.805           0.41           0.12          47.27       46.98619           0.41           2.25       209.2798             35      0.2975785
      4869.5000           0.31       3225.805           0.31           0.09           47.9       47.51247           0.41           2.23       276.9297             35       0.308776
      4870.0000           0.23        4347.82           0.16           0.07          48.53       48.03864           0.27            2.2       276.9297             37      0.3199711
      4870.5000           0.23        4347.82           0.12           0.06          49.16       48.56493           0.27           2.18       276.9297             36      0.3311687
      4871.0000           0.22       4545.453           0.16           0.05          49.16       48.56493           0.25           2.16       418.5996             36      0.3311687
      4871.5000           0.22       4545.453           0.23           0.05          47.56       47.22839           0.26           2.16       418.5996             33      0.3027317
      4872.0000           0.22       4545.453           0.31           0.04          45.97       45.90031           0.26           2.16       418.5996             33      0.2744746
      4872.5000           0.26       3846.152           0.43           0.08          44.37       44.56377           0.27           2.22       503.9199             34      0.2460376
      4873.0000           0.26       3846.152           0.49           0.09          48.53       48.03864           0.27           2.24       503.9199             35      0.3199711
      4873.5000           0.31       3225.805            0.5           0.08          52.68       51.50518           0.36           2.24       503.9199             38      0.3937272
      4874.0000           0.29       3448.273           0.44           0.07          56.84       54.98018           0.31           2.21            500             40      0.4676634
      4874.5000           0.29       3448.273           0.39           0.07          56.84       54.98018           0.31           2.22            500             42      0.4676634
      4875.0000            0.3       3333.332           0.42           0.09          58.18       56.09949           0.33           2.25            500             41      0.4914784
      4875.5000            0.3       3333.332           0.37           0.07          59.53       57.22713           0.33           2.23       545.4092             39      0.5154708
      4876.0000           0.26       3846.152           0.33           0.04          60.87       58.34656           0.29           2.19       545.4092             38      0.5392885
      4876.5000           0.26       3846.152           0.22           0.02          60.87       58.34656           0.29           2.15       545.4092             39      0.5392885
      4877.0000           0.26       3846.152            0.2           0.02          59.78       57.43602           0.29           2.15       529.3496             39      0.5199154
      4877.5000           0.27       3703.703            0.2           0.02        58.6899       56.52536           0.25           2.16       529.3496             38      0.5005396
      4878.0000           0.27       3703.703           0.26           0.06           57.6       55.61495           0.25           2.22       529.3496             36      0.4811692
      4878.5000           0.27       3703.703           0.37           0.09           57.6       55.61495           0.25           2.29       534.5801             35      0.4811692
      4879.0000           0.27       3703.703           0.36           0.09        58.1299       56.05761           0.25           2.31       534.5801             36      0.4905874
      4879.5000           0.41       2439.023           0.32           0.06          58.66       56.50038           0.51           2.26       518.8398             35      0.5000081
      4880.0000           0.41       2439.023           0.24           0.05        59.1899       56.94304           0.51            2.2       518.8398             35      0.5094263
      4880.5000           0.41       2439.023           0.32           0.05          57.62       55.63173           0.51           2.19       439.0298             33      0.4815262
      4881.0000           0.42       2380.949           0.44           0.06          56.06       54.32862           0.35           2.23       439.0298             32      0.4538005
      4881.5000           0.42       2380.949           0.55           0.06          54.49       53.01719           0.35           2.27       418.5396             32      0.4258977
      4882.0000           0.42       2380.949           0.63           0.07          51.53       50.54456           0.35           2.29       418.5396             32      0.3732886
      4882.5000           0.42       2380.949            0.7           0.08          48.58       48.08039           0.35           2.29       391.2695             33      0.3208595
      4883.0000           0.59       1694.914           0.73            0.1          45.62       45.60789           0.67           2.28       391.2695             35       0.268253
      4883.5000           0.59       1694.914           0.79           0.11          43.65        43.9623           0.67           2.27       359.9897             36      0.2332403
      4884.0000           0.59       1694.914           0.83           0.11          41.67       42.30837           0.67           2.24       359.9897             36      0.1980504
      4884.5000           0.45       2222.219            0.9           0.12           39.7       40.66277           0.55           2.19       352.9199             38      0.1630376
