#------------------------------------------------------------------------------
# Created by    : vladimir.rabinovich
# Created on    : 09/19/2023 17:22:25
#------------------------------------------------------------------------------
~Version Information Section
VERS.           2.0     :   CWLS log ASCII Standard - VERSION 2.0
WRAP.           NO      :   One line per depth step
~Well Information Section
#MNEM       .UNIT                                         VALUE :DESCRIPTION
#------------------------------------------------------------------------------
STRT        .FT                                            2996 :START DEPTH
STOP        .FT                                            8909 :STOP DEPTH
STEP        .FT                                             0.5 :STEP      
NULL        .                                           -999.25 :NULL      
COMP        .                             PHILLIPS PETROLEUM CO :COMPANY   
WELL        .                                OCS 00299 ST00BP00 :WELL      
FLD         .                           WEST CAMERON BLOCK 0045 :FIELD     
LOC         .                                                   :LOCATION  
CNTY        .                                      WEST CAMERON :LOCATION  
STAT        .                                         LOUISIANA :STATE     
CTRY        .                                     UNITED STATES :COUNTRY   
SRVC        .                                                   :SERVICE COMPANY
DATE        .                             9/13/2023 11:18:09 AM :LOG DATE  
API         .                                    17700407290000 :API NUMBER
UWI         .                                    17700407290000 :UNIQUE WELL ID
XCOORD      .                                  1446390.31791034 :SURFACE X 
YCOORD      .                                  10761453.0604348 :SURFACE Y 
LAT         .                                        29.6510516 :LATITUDE  
LON         .                                       -93.6110308 :LONGITUDE 
ELEV        .FT                                              99 :ELEVATION VALUE
ELEV_TYPE   .                                                KB :ELEVATION REFERENCE TYPE
~Curve Information Section
#MNEM       .UNIT                                      API CODE :CURVE DESCRIPTION
#------------------------------------------------------------------------------
DEPT        .FT                                                 :DEPTH     
CALX        .IN                                                 :          
CDL         .%                                                  :          
CILD        .MMHO                                               :          
CNS         .%                                                  :          
DRHO        .G/C3                                               :          
GR_NORM     .GAPI                                               :GammaRay Normalized
RILD        .OHMM                                               :          
RILM        .OHMM                                               :          
RLL         .OHMM                                               :          
SP          .MV                                                 :          
SP_NORM     .MV                                                 :SP Normalized
TENS        .LB                                                 :          
VSH_GR      .V/V                                                :Volume of Shale from GR
VSH_SP      .V/V                                                :Volume of Shale from SP
~A        DEPTH           CALX            CDL           CILD            CNS           DRHO        GR_NORM           RILD           RILM            RLL             SP        SP_NORM           TENS         VSH_GR         VSH_SP
# ...
      5768.0000          12.54        42.7647       4342.857        56.8235          0.039       58.23926         0.2348         0.3028         0.6607        -4.7959        -6.7007        2224.49      0.5370055      0.7356643
      5768.5000           12.5             32       3968.627          53.46          0.052        70.2486         0.2704         0.3261         0.5892        -1.8367        -3.7415        2224.49      0.7925233      0.9470357
      5769.0000           12.5        30.5882       3560.784        50.7647         0.0569        82.0313         0.2916          0.348         0.5329            0.5        -1.4048        2224.49              1              1
      5769.5000          12.52          29.94           3056        48.9412         0.0569       86.56158         0.3231         0.3748         0.5233            1.8        -0.1048       2204.082              1              1
      5770.0000          12.54          29.64           2736           47.1          0.049       85.65259         0.3545         0.4075         0.5092            2.5         0.5952       2204.082              1              1
      5770.5000           12.6          29.46       2498.106          47.58         0.0578       80.66409         0.3926         0.4309         0.5092         2.8929         0.9881       2204.684              1              1
      5771.0000          12.72          29.28       2340.718        48.8235         0.0578       78.62186         0.4309          0.439         0.5092         2.7817         0.8769       2205.697       0.970678              1
      5771.5000          13.14          29.28       2195.556        48.1176         0.0578       77.25957         0.4556         0.4642         0.5092         2.3653         0.4605       2227.394      0.9416931              1
      5772.0000           13.2          29.58       2115.424          46.26         0.0539       75.21737         0.4729         0.4773         0.5092          1.843        -0.0618        2187.16      0.8982419              1
      5772.5000          13.14          29.28       2033.333        43.2353          0.051        72.7219         0.4908         0.4908         0.6117         1.0204        -0.8844       2208.333      0.8451468              1
      5773.0000          13.22          28.98       1983.333        43.2353          0.048       70.45306         0.5092         0.5046         0.6176         0.4082        -1.4966       2208.333      0.7968735              1
      5773.5000          13.34          28.86           1950        43.8235          0.048       68.41084         0.5092         0.5046         0.5785           -0.1        -2.0048       2208.333      0.7534222              1
      5774.0000          13.38          29.64       1983.333        44.6471          0.051       66.82191         0.5046            0.5         0.5681           -0.9        -2.8048       2229.167      0.7196152              1
      5774.5000          13.16        30.8824       2066.667             45         0.0588       62.96662         0.4729         0.4862         0.6481           -2.4        -4.3048       2208.333      0.6375876         0.9068
      5775.0000          13.04        32.5294       2266.667             45         0.0627       59.56459         0.4349         0.4642         0.6176           -3.7        -5.6048       2208.333       0.565204      0.8139428
      5775.5000          13.34        33.4706       2494.118        44.1176         0.0627       55.06495         0.4037         0.4472         0.5378        -5.7143        -7.6191       2208.333      0.4694671      0.6700643
      5776.0000          14.24             34       2745.098        42.5294         0.0608       47.73007         0.3612          0.419         0.5092        -7.7551        -9.6599       2229.167      0.3134058      0.5242929
      5776.5000          15.42        34.2941       3011.765        40.1765         0.0578       41.06174         0.3416         0.3819         0.8485         -9.898       -11.8028       2229.167      0.1715264      0.3712285
      5777.0000          14.22        34.7647       3215.686          38.76         0.0627       36.17104         0.3201         0.3513         0.9159          -11.2       -13.1048       2208.333     0.06746901      0.2782286
      5777.5000           12.9        35.2941       3466.667        39.6471         0.0569       37.50178            0.3         0.3353         0.8739          -11.5       -13.4048       2208.333      0.0957825         0.2568
      5778.0000          12.62        35.3529       3686.274        41.1176          0.044       45.05383         0.2808         0.3292         0.7584          -11.3       -13.2048       2208.333      0.2564644      0.2710857
      5778.5000           12.7        34.9412       3890.196        42.5882          0.031       51.93945         0.2601         0.3288         0.7857       -11.3042        -13.209       2208.333      0.4029671      0.2707857
      5779.0000          12.64        34.3529       4048.979        42.1176          0.019       53.93671         0.2499         0.3279          0.831       -12.2183       -14.1231       2208.333       0.445462      0.2054928
      5779.5000          12.78        34.8824       4114.286        40.2353          0.015       49.49034         0.2446         0.3182         0.7636       -12.7361       -14.6409       2208.333      0.3508583      0.1685072
      5780.0000          13.16        35.9412       4048.979          38.82          0.017        44.1552         0.2487         0.3145         0.7208        -13.157       -15.0618       2229.167      0.2373448      0.1384429
      5780.5000           13.2          36.96       3968.627        39.4118         0.0189       38.59796         0.2532         0.3142         0.9615       -13.6775       -15.5823           2250      0.1191055      0.1012643
      5781.0000          13.14           37.2       3921.569        42.1176         0.0198       34.59602          0.258         0.3172         0.9426       -14.0891       -15.9939       2208.333     0.03395779     0.07186426
      5781.5000          13.02        35.3529       3890.196        42.1765         0.0207       31.88274         0.2604         0.3172          0.883       -14.2951       -16.1999       2208.333              0     0.05715002
      5782.0000          12.92        32.2941        3874.51        42.2353         0.0206       30.97373         0.2604         0.3201         1.0298        -14.499       -16.4038       2208.333              0     0.04258578
      5782.5000          13.28        31.1176       3827.451        34.3529         0.0235       30.74463         0.2679         0.3292         1.3296          -14.7       -16.6048       2229.167              0     0.02822862
      5783.0000          14.26        31.8824       3654.902        33.8235         0.0333       30.51552          0.273         0.3353         1.3046          -15.1       -17.0048       2229.167              0              0
      5783.5000           14.2        33.2353       3529.412             34         0.0382       30.51306         0.2835          0.348         1.0789          -15.5       -17.4048       2229.167              0              0
      5784.0000          13.62        34.5882        3450.98          37.32         0.0392       32.09706         0.2916          0.348         0.9913          -15.9       -17.8048       2229.167              0              0
      5784.5000           14.6        35.7647       3482.353        39.9412         0.0412       35.91185         0.2944         0.3448         0.8825          -16.2       -18.1048         2187.5     0.06195426              0
      5785.0000          15.06          36.78       3545.098        41.1176         0.0363       35.90939         0.2916         0.3416            0.8          -16.3       -18.2048         2187.5      0.0619019              0
      5785.5000          14.42          37.86       3686.274        41.1765         0.0265        35.6847         0.2808         0.3385            0.9          -16.6       -18.5048       2208.333     0.05712136              0
