#------------------------------------------------------------------------------
# Created by    : vladimir.rabinovich
# Created on    : 09/19/2023 17:20:47
#------------------------------------------------------------------------------
~Version Information Section
VERS.           2.0     :   CWLS log ASCII Standard - VERSION 2.0
WRAP.           NO      :   One line per depth step
~Well Information Section
#MNEM       .UNIT                                         VALUE :DESCRIPTION
#------------------------------------------------------------------------------
STRT        .FT                                            2030 :START DEPTH
STOP        .FT                                            9342 :STOP DEPTH
STEP        .FT                                             0.5 :STEP      
NULL        .                                           -999.25 :NULL      
COMP        .                                      SHELL OIL CO :COMPANY   
WELL        .                               OCS G00950 ST00BP00 :WELL      
FLD         .                           EAST CAMERON BLOCK 0193 :FIELD     
LOC         .                                                   :LOCATION  
CNTY        .                                      EAST CAMERON :LOCATION  
STAT        .                                         LOUISIANA :STATE     
CTRY        .                                     UNITED STATES :COUNTRY   
SRVC        .                                                   :SERVICE COMPANY
DATE        .                             9/13/2023 11:18:15 AM :LOG DATE  
API         .                                    17703004920000 :API NUMBER
UWI         .                                    17703004920000 :UNIQUE WELL ID
XCOORD      .                                  1684363.85071557 :SURFACE X 
YCOORD      .                                  10458597.1936422 :SURFACE Y 
LAT         .                                        28.8191951 :LATITUDE  
LON         .                                       -92.8627139 :LONGITUDE 
ELEV        .FT                                              75 :ELEVATION VALUE
ELEV_TYPE   .                                                KB :ELEVATION REFERENCE TYPE
~Curve Information Section
#MNEM       .UNIT                                      API CODE :CURVE DESCRIPTION
#------------------------------------------------------------------------------
DEPT        .FT                                                 :DEPTH     
ASN         .OHMM                                               :          
CILM        .MMHO                                               :          
ILM         .OHMM                                               :          
LN          .OHMM                                               :          
SP          .MV                                                 :          
SP_NORM     .MV                                                 :SP Normalized
VSH_SP      .V/V                                                :Volume of Shale from SP
~A        DEPTH            ASN           CILM            ILM             LN             SP        SP_NORM         VSH_SP
# ...
      7356.5000         0.4818       2356.699         0.4328        -999.25       -59.1339       -14.9443      0.8096427
      7357.0000         0.4747        2415.32         0.4266        -999.25       -61.6064       -17.4295      0.7730956
      7357.5000          0.468       2482.422         0.4204        -999.25       -70.8154       -26.6512      0.6374823
      7358.0000         0.4613       2552.496         0.4179        -999.25       -83.4825        -39.331      0.4510147
      7358.5000         0.4532       2657.113         0.4198        -999.25       -89.8501       -45.7114      0.3571853
      7359.0000         0.4441       2775.258         0.4218        -999.25       -93.2539       -49.1279      0.3069427
      7359.5000         0.4352       2890.156         0.4229        -999.25       -95.4791       -51.3658      0.2740324
      7360.0000         0.4292       2986.297          0.403        -999.25       -95.3978       -51.2972      0.2750412
      7360.5000         0.4303       3072.332         0.3832        -999.25       -92.8644       -48.7765      0.3121103
      7361.0000         0.4392       2174.613         0.4014        -999.25       -87.8687       -43.7935      0.3853897
      7361.5000          0.448       2029.412         0.4377        -999.25       -84.9119       -40.8494      0.4286853
      7362.0000         0.4599       1916.678         0.4699        -999.25       -80.7595       -36.7097      0.4895632
      7362.5000         0.4851       1832.713         0.5022        -999.25       -74.3379       -30.3008      0.5838118
      7363.0000         0.5187       1724.939          0.515        -999.25       -54.6123       -10.5879      0.8737074
      7363.5000         0.5335       1661.268         0.5225        -999.25       -48.8274        -4.8157      0.9585927
      7364.0000         0.5438        1628.98           0.53        -999.25       -45.9993        -2.0003      0.9999956
      7364.5000         0.5525       1600.752         0.5354        -999.25       -44.1161        -0.1298              1
      7365.0000         0.5628       1572.502         0.5408        -999.25       -42.7208         1.2528              1
      7365.5000         0.5744       1547.023         0.5461        -999.25       -41.5184         2.4425              1
      7366.0000         0.5863       1521.568         0.5515        -999.25       -40.7292          3.219              1
      7366.5000         0.5987       1495.301         0.5568        -999.25        -42.084         1.8515              1
      7367.0000         0.6083       1517.645         0.5683        -999.25       -43.2101         0.7127              1
      7367.5000         0.6015       1540.012         0.5818        -999.25       -44.3465        -0.4365              1
      7368.0000         0.5963       1552.502         0.5953        -999.25       -45.4083         -1.511              1
      7368.5000         0.6115       1546.178         0.6131        -999.25       -46.3329        -2.4483      0.9934074
      7369.0000         0.6277       1536.617         0.6404        -999.25       -47.2245        -3.3526      0.9801088
      7369.5000         0.6443       1523.078         0.6676        -999.25       -48.1009        -4.2417      0.9670338
      7370.0000          0.661        1504.32         0.6948        -999.25       -48.8037        -4.9572      0.9565117
      7370.5000         0.6845       1485.584          0.722        -999.25       -49.6564        -5.8226      0.9437853
      7371.0000         0.7103       1466.848         0.7527        -999.25       -52.3092        -8.4881      0.9045868
      7371.5000         0.7511        1447.84         0.7841        -999.25       -63.9061       -20.0977      0.7338573
      7372.0000         0.7924       1428.631         0.8155        -999.25       -67.2185       -23.4228      0.6849588
      7372.5000         0.8392       1444.863         0.8484        -999.25        -69.835        -26.052      0.6462941
      7373.0000         0.8662       1487.883         0.8508        -999.25       -68.0348       -24.2645      0.6725809
      7373.5000         0.8905       1685.619         0.7992        -999.25       -69.5555       -25.7979      0.6500309
      7374.0000         0.8163       1928.672         0.7359        -999.25       -83.3743       -39.6294      0.4466265
      7374.5000         0.6453       2044.201         0.6652        -999.25       -89.7146       -45.9824         0.3532
      7375.0000         0.6024       2157.836         0.5768        -999.25       -93.8873       -50.1678        0.29165
      7375.5000         0.5682           2251         0.5379        -999.25       -96.0042       -52.2974      0.2603323
      7376.0000         0.5288       2901.879         0.5064        -999.25       -97.6722       -53.9781      0.2356162
      7376.5000         0.4688       3154.945         0.4805        -999.25       -99.4063       -55.7249      0.2099279
      7377.0000         0.4387       3316.742         0.4546        -999.25      -100.9863       -57.3176      0.1865059
      7377.5000         0.4227       3373.469         0.4287        -999.25      -102.3885       -58.7326       0.165697
      7378.0000         0.4111       3398.359         0.4103        -999.25      -104.7712        -61.128      0.1304706
      7378.5000         0.4009       3423.656         0.3922        -999.25      -106.0905         -62.46      0.1108824
      7379.0000         0.3909       3450.219         0.3873        -999.25      -107.1234       -63.5056     0.09550589
      7379.5000         0.3833        3440.16         0.3824        -999.25      -105.4841        -61.879      0.1194264
      7380.0000          0.376       3397.008         0.3775        -999.25      -102.0328       -58.4404      0.1699941
      7380.5000         0.3877        3326.48         0.3766        -999.25       -99.5977        -56.018      0.2056176
      7381.0000         0.3864       3223.125         0.3899        -999.25       -94.5376       -50.9706      0.2798441
      7381.5000         0.3803       3132.758         0.4031        -999.25       -96.4817       -52.9274      0.2510677
      7382.0000         0.3741       2936.871         0.4163        -999.25       -96.3124       -52.7708      0.2533706
      7382.5000         0.3901        2781.93         0.4316        -999.25        -93.132       -49.6031      0.2999544
      7383.0000         0.4202       2635.828          0.447        -999.25       -87.1201       -43.6039      0.3881779
      7383.5000         0.4472       2567.465         0.4623        -999.25        -81.613       -38.1095      0.4689779
      7384.0000         0.4683       2462.852         0.4777        -999.25       -75.6926       -32.2018      0.5558559
      7384.5000         0.4902       2342.449         0.4882        -999.25       -70.1787       -26.7006      0.6367559
      7385.0000         0.5063       2296.727         0.4896        -999.25       -68.8595       -25.3941      0.6559691
      7385.5000         0.5237        2262.68         0.4907        -999.25       -71.7672       -28.3145       0.613022
      7386.0000         0.5099       2280.941         0.4898        -999.25       -73.5623       -30.1223      0.5864367
      7386.5000         0.4947       2310.973         0.4889        -999.25       -75.1575       -31.7303      0.5627897
      7387.0000         0.4873       2350.297          0.488        -999.25       -74.3276       -30.9131      0.5748073
      7387.5000         0.4958       2387.094         0.4871        -999.25       -72.0787       -28.6769      0.6076927
      7388.0000         0.5117       2411.805         0.4856        -999.25       -69.8569       -26.4678      0.6401794
      7388.5000         0.5168       2425.375         0.4829        -999.25        -69.569       -26.1926      0.6442265
      7389.0000         0.5077        2417.34         0.4803        -999.25       -73.9991       -30.6354      0.5788912
      7389.5000         0.4974       2405.164         0.4776        -999.25       -76.5631       -33.2121      0.5409985
