#------------------------------------------------------------------------------
# Created by    : vladimir.rabinovich
# Created on    : 09/19/2023 17:22:07
#------------------------------------------------------------------------------
~Version Information Section
VERS.           2.0     :   CWLS log ASCII Standard - VERSION 2.0
WRAP.           NO      :   One line per depth step
~Well Information Section
#MNEM       .UNIT                                         VALUE :DESCRIPTION
#------------------------------------------------------------------------------
STRT        .FT                                            4421 :START DEPTH
STOP        .FT                                           11895 :STOP DEPTH
STEP        .FT                                             0.5 :STEP      
NULL        .                                           -999.25 :NULL      
COMP        .                MURPHY EXPLORATION & PRODUCTION CO :COMPANY   
WELL        .                               OCS G02828 ST00BP00 :WELL      
FLD         .                           WEST CAMERON BLOCK 0116 :FIELD     
LOC         .                                                   :LOCATION  
CNTY        .                                      WEST CAMERON :LOCATION  
STAT        .                                         LOUISIANA :STATE     
CTRY        .                                     UNITED STATES :COUNTRY   
SRVC        .                                                   :SERVICE COMPANY
DATE        .                             9/13/2023 11:18:31 AM :LOG DATE  
API         .                                    17700404120000 :API NUMBER
UWI         .                                    17700404120000 :UNIQUE WELL ID
XCOORD      .                                  1472413.58592246 :SURFACE X 
YCOORD      .                                  10706677.6123634 :SURFACE Y 
LAT         .                                         29.500724 :LATITUDE  
LON         .                                        -93.528296 :LONGITUDE 
ELEV        .FT                                              75 :ELEVATION VALUE
ELEV_TYPE   .                                                KB :ELEVATION REFERENCE TYPE
~Curve Information Section
#MNEM       .UNIT                                      API CODE :CURVE DESCRIPTION
#------------------------------------------------------------------------------
DEPT        .FT                                                 :DEPTH     
CALI        .IN                                                 :          
DRHO        .G/C3                                               :          
DT          .US/F                                               :          
GR          .GAPI                                               :          
GR_1        .GAPI                                               :          
GR_NORM     .GAPI                                               :GammaRay Normalized
ILD         .OHMM                                               :          
NPHI        .%                                                  :          
RHOB        .G/C3                                               :          
SFL         .OHMM                                               :          
SP          .MV                                                 :          
SP_NORM     .MV                                                 :SP Normalized
VSH_GR      .V/V                                                :Volume of Shale from GR
VSH_SP      .V/V                                                :Volume of Shale from SP
~A        DEPTH           CALI           DRHO             DT             GR           GR_1        GR_NORM            ILD           NPHI           RHOB            SFL             SP        SP_NORM         VSH_GR         VSH_SP
# ...
      4511.0000        10.4825         0.0429       139.4426        60.7054        -999.25       69.62415         0.7191        -999.25         2.3248         1.0455        -74.207       -18.9689      0.7792372      0.6053744
      4511.5000        10.8641         0.0668       139.8374        64.7388        -999.25       73.91437         0.7058        59.2053         2.1832         1.0976       -73.2262       -17.9881      0.8705184      0.6281837
      4512.0000         11.595         0.0191       140.3276        67.7129        -999.25       77.07765         0.9096        55.3864         2.1048          1.131       -72.0055       -16.7674      0.9378224      0.6565721
      4512.5000        11.7542         0.0098       141.0217        69.1375        -999.25       78.59245         1.0952        52.0166         2.1209         1.1637       -70.7457       -15.5076       0.970052      0.6858698
      4513.0000        11.7817         0.0236       140.4822        69.3738        -999.25        78.8433         1.1345        50.7795         2.1218         1.2032       -70.2794       -15.0413      0.9753894       0.696714
      4513.5000        11.8162         0.0312        135.877        69.2253        -999.25       78.68457         1.0864        50.4902         2.1084         1.2529       -70.9945       -15.7564      0.9720122      0.6800837
      4514.0000         11.901           0.02       131.0205        69.4941        -999.25       78.96989         0.9873        50.2462         2.1102         1.3176       -70.3901        -15.152      0.9780828      0.6941395
      4514.5000        11.7529         0.0125       128.4932        71.1713        -999.25       80.75351         0.9215         49.509         2.1323         1.3071       -69.1459       -13.9078              1      0.7230744
      4515.0000        11.6048         0.0093       128.5688        72.6007        -999.25       82.27351          0.891        48.4156         2.1581         1.2487        -67.504       -12.2659              1      0.7612581
      4515.5000        11.3993         0.0021       130.2756        73.1671        -999.25       82.87543         0.8761        46.8071         2.1727         1.1852       -65.6251        -10.387              1      0.8049535
      4516.0000        11.3464         0.0101       132.1753        73.3597        -999.25       83.07967         0.8737        45.3053         2.1773          1.135       -65.3285       -10.0904              1      0.8118511
      4516.5000         11.358         0.0136       132.2256        73.2302        -999.25       82.94128          0.875        43.7938         2.1797         1.1457       -66.0336       -10.7955              1      0.7954535
      4517.0000        11.4037         0.0233       132.7847        72.7577        -999.25       82.43798         0.8767        42.9577         2.1846         1.1963       -66.7661        -11.528              1      0.7784186
      4517.5000        11.4142         0.0187       135.2422        72.1073        -999.25       81.74543         0.8785         42.321         2.1778         1.2324       -67.4155       -12.1774              1      0.7633163
      4518.0000        11.3761         0.0279       137.7986        71.4425        -999.25       81.03756          0.882        43.0756         2.1773         1.1393       -67.6157       -12.3776              1      0.7586605
      4518.5000        11.3243         0.0374       138.3699        71.0917        -999.25       80.66373         0.8805        44.2623         2.2224         1.0715       -67.0787       -11.8406              1      0.7711489
      4519.0000        11.3024         0.0308       135.4814        71.4711        -999.25        81.0667         0.8715        44.9283         2.2147         1.0951       -66.5122       -11.2741              1      0.7843233
      4519.5000        11.3388         0.0278       130.4661        72.4646        -999.25       82.12297         0.8592        44.4321         2.2079         1.1182        -66.233       -10.9949              1      0.7908163
      4520.0000        11.4018         0.0217       126.0686        73.0992        -999.25       82.79745          0.847        43.0963         2.2146         1.1359       -66.3119       -11.0738              1      0.7889814
      4520.5000        11.4637         0.0136       123.6715        74.1421        -999.25       83.90627         0.8347        43.0793         2.2161         1.1215        -65.853       -10.6149              1      0.7996535
      4521.0000        11.5085         0.0093       123.7167        72.5729        -999.25       82.23627         0.8218        43.9814         2.2156         1.0236       -64.4994        -9.2613              1      0.8311325
      4521.5000        11.5824         0.0091       127.5947        71.5349        -999.25       81.13139         0.8037        45.3201         2.2093         0.9312       -62.5905        -7.3524              1      0.8755256
      4522.0000        11.6839         0.0123       132.3462        72.9583        -999.25         82.645         0.7842        46.6566         2.2014         0.8989        -60.966        -5.7279              1      0.9133046
      4522.5000        11.7875         0.0194       137.6301        73.6525        -999.25       83.38287         0.7814        47.6714         2.2043         0.8866       -60.1332        -4.8951              1      0.9326721
      4523.0000         11.988         0.0323       140.3184         72.538        -999.25       82.19659         0.7866        49.1361         2.2169         0.8794       -59.8609        -4.6228              1      0.9390047
      4523.5000        12.4324         0.0351       140.4456        71.7931        -999.25        81.4035         0.7966        50.9692         2.2055         0.8757       -59.8589        -4.6208              1      0.9390512
      4524.0000        12.8068         0.0234       138.0354        72.5992        -999.25       82.26043         0.8065        51.3254         2.1972         0.8756       -59.6141         -4.376              1      0.9447442
      4524.5000        12.7369         0.0308       134.8931        73.2242        -999.25       82.92468         0.8121        49.9426         2.1985         0.8899       -59.1986        -3.9605              1       0.954407
      4525.0000        12.5736         0.0327       131.9751        71.9669        -999.25       81.58649         0.8165        48.5134         2.2009          0.933       -59.0524        -3.8143              1       0.957807
      4525.5000        12.4322         0.0146       128.1343        72.0073        -999.25       81.62883         0.8201        47.2451         2.1854         1.0408       -59.6573        -4.4192              1      0.9437395
      4526.0000        12.3156         0.0163       126.1249        73.5146        -999.25        83.2317         0.8255        46.8275          2.191         1.1708       -60.3392        -5.1011              1      0.9278814
      4526.5000        12.2532         0.0291       126.8964        72.7781        -999.25       82.44745         0.8312        47.4464         2.2199         1.2015       -60.4302        -5.1921              1      0.9257651
      4527.0000        12.2399         0.0279       128.8337        71.1912        -999.25       80.75861         0.8316         48.098         2.2216         1.0801       -60.2166        -4.9831              1      0.9306256
      4527.5000        12.2453         0.0343        130.145        69.2977        -999.25       78.74361         0.8289        47.8952         2.2071         0.9662       -60.4529        -5.2254      0.9732684      0.9249907
      4528.0000        12.1259          0.033       131.4404        68.5183        -999.25       77.91383         0.8232        47.1172         2.1833         0.9725       -60.4345        -5.2129      0.9556133      0.9252814
      4528.5000        11.9535         0.0171       132.7295        69.8783        -999.25          79.36          0.816         47.687         2.1542         1.0134       -59.6418        -4.4261       0.986383      0.9435791
