#------------------------------------------------------------------------------
# Created by    : vladimir.rabinovich
# Created on    : 09/19/2023 17:22:24
#------------------------------------------------------------------------------
~Version Information Section
VERS.           2.0     :   CWLS log ASCII Standard - VERSION 2.0
WRAP.           NO      :   One line per depth step
~Well Information Section
#MNEM       .UNIT                                         VALUE :DESCRIPTION
#------------------------------------------------------------------------------
STRT        .FT                                             955 :START DEPTH
STOP        .FT                                            8851 :STOP DEPTH
STEP        .FT                                             0.5 :STEP      
NULL        .                                           -999.25 :NULL      
COMP        .                                SHELL OFFSHORE INC :COMPANY   
WELL        .                               OCS G08627 ST00BP00 :WELL      
FLD         .                                           WILDCAT :FIELD     
LOC         .                                                   :LOCATION  
CNTY        .                                 WEST CAMERON WEST :LOCATION  
STAT        .                                         LOUISIANA :STATE     
CTRY        .                                     UNITED STATES :COUNTRY   
SRVC        .                                                   :SERVICE COMPANY
DATE        .                             9/13/2023 11:18:15 AM :LOG DATE  
API         .                                    17701402000000 :API NUMBER
UWI         .                                    17701402000000 :UNIQUE WELL ID
XCOORD      .                                  1405165.89752093 :SURFACE X 
YCOORD      .                                  10654404.2103889 :SURFACE Y 
LAT         .                                        29.3559214 :LATITUDE  
LON         .                                       -93.7387067 :LONGITUDE 
ELEV        .FT                                             100 :ELEVATION VALUE
ELEV_TYPE   .                                                KB :ELEVATION REFERENCE TYPE
~Curve Information Section
#MNEM       .UNIT                                      API CODE :CURVE DESCRIPTION
#------------------------------------------------------------------------------
DEPT        .FT                                                 :DEPTH     
CALX        .IN                                                 :          
DRHO        .G/C3                                               :          
DT          .US/F                                               :          
GR          .GAPI                                               :          
GR_NORM     .GAPI                                               :GammaRay Normalized
ILD         .OHMM                                               :          
ILM         .OHMM                                               :          
LL          .OHMM                                               :          
NPHI        .%                                                  :          
RHOB        .G/C3                                               :          
SP          .MV                                                 :          
SP_NORM     .MV                                                 :SP Normalized
VSH_GR      .V/V                                                :Volume of Shale from GR
VSH_SP      .V/V                                                :Volume of Shale from SP
~A        DEPTH           CALX           DRHO             DT             GR        GR_NORM            ILD            ILM             LL           NPHI           RHOB             SP        SP_NORM         VSH_GR         VSH_SP
# ...
      6751.0000        13.1621         0.0617       115.8405        95.5416       85.91654         0.7779         0.7902          0.734        43.8338         2.2472       -72.5308      0.6932449              1              1
      6751.5000        13.0384          0.067       119.3904        93.1539       83.21511         0.7504         0.7664         0.7147        45.5853         2.2281       -72.3987      0.8253479              1              1
      6752.0000        12.3646         0.0639       123.1333        91.0038       80.78238          0.729         0.7435         0.6915        48.3715         2.1996       -72.1549       1.069145              1              1
      6752.5000        12.0151         0.0519       127.5466        91.5687       81.41984         0.7119         0.7225         0.6787        50.6037         2.1824        -72.767      0.4570465              1              1
      6753.0000        12.3671         0.0418       128.3499        93.6758       83.80125         0.7012         0.7008         0.6692        50.9706         2.1843       -73.9362     -0.7121582              1              1
      6753.5000        12.9192         0.0404       127.8071        96.5927       87.09842         0.6975         0.6907         0.6615        50.6227         2.1921       -74.4015      -1.177452              1       0.991934
      6754.0000        13.5386         0.0419       126.7368        99.5908       90.48741         0.6984         0.6861         0.6536        50.1408         2.1935       -74.3167      -1.092659              1      0.9957882
      6754.5000        13.7157         0.0403       125.1294       100.6552       91.68972         0.6986         0.6827         0.6458        49.3912         2.1896       -74.2139     -0.9898529              1              1
      6755.0000        13.6727          0.037       122.4056        98.2517       88.97044         0.6992         0.6809         0.6392        47.8324         2.1981       -74.1532     -0.9291534              1              1
      6755.5000        13.6399           0.04       119.3206        92.5361       82.50573         0.7025         0.6844         0.6499        46.3438         2.2188       -74.5143      -1.290253              1      0.9868067
      6756.0000         13.613         0.0565       117.3855        88.5756       78.02574         0.7063         0.6928         0.6834        44.9969          2.238       -74.6998      -1.475754      0.9579945      0.9783748
      6756.5000        13.4284         0.0738       117.1351        86.6851       75.88656         0.7141         0.6962         0.6974        44.7312         2.2426       -74.0646     -0.8405533        0.91248              1
      6757.0000        12.4354         0.0823       119.6943        86.0586       75.17675          0.722         0.6922         0.6905        45.4471         2.2234       -73.6096     -0.3855515      0.8973777              1
      6757.5000        12.0947         0.0737       122.8741         88.322       77.73492          0.733         0.6852         0.6758        45.6196         2.2003       -73.1436     0.08044434      0.9518067              1
      6758.0000        12.2745         0.0577       124.5393         91.714       81.56935         0.7452         0.6933         0.6604         45.215         2.1846       -72.6842      0.5398483              1              1
      6758.5000         12.447         0.0456       122.9639        94.4635       84.67722         0.7598         0.7062         0.6527        45.3777         2.1878        -72.926      0.2980423              1              1
      6759.0000        12.5188         0.0438       119.9087        95.6167       85.97994         0.7799         0.7238         0.6935        46.4229         2.2056       -72.9797      0.2443466              1              1
      6759.5000        12.5616         0.0483       116.3651        95.1428        85.4427         0.8021         0.7461         0.7324        47.1172         2.2375       -72.9374       0.286644              1              1
      6760.0000        12.5656         0.0538       112.6993        92.0315         81.923         0.8287         0.7733         0.7618        45.9899         2.2501       -72.9316      0.2924423              1              1
      6760.5000        12.5564         0.0579        110.535        89.8555       79.46098         0.8524         0.7967         0.7728        44.7282         2.2582       -73.3972     -0.1731567      0.9885314              1
      6761.0000        12.5329         0.0529       109.8074        88.2642       77.66013         0.8721         0.8166         0.7787        43.8412         2.2571       -73.8767     -0.6526566      0.9502156              1
      6761.5000        12.4733         0.0522       111.3711        87.6637       76.97972         0.8829         0.8326         0.7837        44.0563         2.2488        -73.903     -0.6789551      0.9357387              1
      6762.0000        12.2551         0.0439        115.119        89.0653       78.56335         0.8854         0.8396         0.7827        44.9753         2.2342       -73.8645     -0.6404572      0.9694329              1
      6762.5000        12.0929         0.0426       119.4302        92.5657       82.52036         0.8913         0.8399         0.7779          45.39         2.2249       -73.9124     -0.6883545              1              1
      6763.0000        12.1805         0.0474        122.615        95.1503       85.44175         0.9028         0.8294         0.7588        45.9623         2.2261       -73.9934     -0.7693558              1              1
      6763.5000        12.4633         0.0575       124.2211        97.3422       87.91908         0.9202         0.8259         0.7421        46.5939         2.2327       -74.1187     -0.8946533              1              1
      6764.0000        12.4985         0.0653       123.6642        96.7798       87.28176         0.9412         0.8474         0.7313        46.9926          2.244       -74.2556      -1.031555              1      0.9985657
      6764.5000        12.5302         0.0687       118.9667         94.173       84.33257         0.9601         0.8816         0.7434        46.3109         2.2472       -74.2667      -1.042656              1      0.9980611
      6765.0000        12.5665         0.0597       112.5225        93.3029       83.34729         0.9749         0.9115         0.7747        43.7397         2.2465       -73.9711     -0.7470551              1              1
      6765.5000        12.5989         0.0464       106.9104        93.3071       83.35069         0.9896         0.9321         0.8169        41.5643         2.2471       -73.5688     -0.3447571              1              1
      6766.0000        12.6243         0.0471       103.8378        93.4733       83.53728         0.9986          0.952         0.8477        40.2854         2.2575       -73.2673    -0.04325867              1              1
      6766.5000        12.6413         0.0664       103.5812        91.2512       81.02312         1.0076         0.9745          0.863        40.1906         2.2794       -73.2205    0.003547668              1              1
      6767.0000        12.6976         0.0895       105.5723        89.1835       78.68356         1.0098         0.9846         0.8548        41.5001         2.2958       -72.9839      0.2401428      0.9719907              1
      6767.5000        12.7901         0.1026       108.3583        88.2943       77.67668         1.0112         0.9878         0.8278        42.8319         2.3002       -73.0842      0.1398468      0.9505677              1
      6768.0000        12.9673         0.1023       110.6571        88.0946       77.44952         1.0039         0.9817         0.8142        43.6166         2.2869       -73.2203    0.003746033      0.9457344              1
      6768.5000        13.0309         0.0891       109.5096        88.3358       77.72092         0.9967         0.9753         0.8162        43.4799           2.28         -73.27    -0.04595184      0.9515091              1
