#------------------------------------------------------------------------------
# Created by    : vladimir.rabinovich
# Created on    : 09/19/2023 17:21:07
#------------------------------------------------------------------------------
~Version Information Section
VERS.           2.0     :   CWLS log ASCII Standard - VERSION 2.0
WRAP.           NO      :   One line per depth step
~Well Information Section
#MNEM       .UNIT                                         VALUE :DESCRIPTION
#------------------------------------------------------------------------------
STRT        .FT                                            3895 :START DEPTH
STOP        .FT                                         10595.5 :STOP DEPTH
STEP        .FT                                             0.5 :STEP      
NULL        .                                           -999.25 :NULL      
COMP        .                               TALOS PETROLEUM LLC :COMPANY   
WELL        .                                OCS 00300 ST00BP00 :WELL      
FLD         .                           WEST CAMERON BLOCK 0045 :FIELD     
LOC         .                                                   :LOCATION  
CNTY        .                                      WEST CAMERON :LOCATION  
STAT        .                                         LOUISIANA :STATE     
CTRY        .                                     UNITED STATES :COUNTRY   
SRVC        .                                                   :SERVICE COMPANY
DATE        .                             9/13/2023 11:18:36 AM :LOG DATE  
API         .                                    17700410070000 :API NUMBER
UWI         .                                    17700410070000 :UNIQUE WELL ID
XCOORD      .                                  1453771.49108141 :SURFACE X 
YCOORD      .                                  10773222.7644816 :SURFACE Y 
LAT         .                                        29.6835328 :LATITUDE  
LON         .                                       -93.5879752 :LONGITUDE 
ELEV        .FT                                             100 :ELEVATION VALUE
ELEV_TYPE   .                                                KB :ELEVATION REFERENCE TYPE
~Curve Information Section
#MNEM       .UNIT                                      API CODE :CURVE DESCRIPTION
#------------------------------------------------------------------------------
DEPT        .FT                                                 :DEPTH     
ATR         .OHMM                                               :          
CATR        .MMHO                                               :          
DCAL        .IN                                                 :          
DRHB        .G/C3                                               :          
GR          .GAPI                                               :          
GR_NORM     .GAPI                                               :GammaRay Normalized
PSR         .OHMM                                               :          
RHOB        .G/C3                                               :          
ROP5        .F/HR                                               :          
TNPH        .%                                                  :          
VSH_GR      .V/V                                                :Volume of Shale from GR
~A        DEPTH            ATR           CATR           DCAL           DRHB             GR        GR_NORM            PSR           RHOB           ROP5           TNPH         VSH_GR
# ...
      5740.0000           0.38       2631.578           0.82           0.07          76.12       67.01541           0.37           2.16       147.5498             46      0.7237322
      5740.5000           0.38       2631.578           0.85           0.07           79.2       70.30955           0.37           2.13       153.8499             43      0.7938201
      5741.0000           0.36       2777.777           0.91           0.07        84.7999       76.29969           0.31           2.12       153.8499             42        0.92127
      5741.5000           0.38       2631.578           0.96           0.06          88.33       80.07545            0.4           2.12         183.72             43              1
      5742.0000           0.38       2631.578           1.04           0.06          86.61       78.23401           0.46            2.1         195.72             47      0.9624257
      5742.5000            0.3       3333.332           1.16           0.05          79.99       71.15014           0.35           2.05       197.8799             51      0.8117051
      5743.0000           0.25           4000           1.32           0.04        73.3999       64.09827           0.27           1.99       202.2998             50      0.6616653
      5743.5000           0.21       4761.898           1.42           0.05        68.8799       59.26125           0.23           1.95       191.5498             50        0.55875
      5744.0000           0.19       5263.156           1.14           0.06          66.73       56.95996           0.21           1.98       185.6099             49      0.5097865
      5744.5000           0.19       5263.156           0.81           0.11             66       56.17775           0.21           2.03       180.0298             49      0.4931435
      5745.0000           0.19       5263.156           0.56            0.1        65.0499       55.16015            0.2           2.09         178.25             49      0.4714926
      5745.5000           0.19       5263.156           0.61            0.1          65.61       55.75828            0.2           2.09       173.1199             49      0.4842187
      5746.0000           0.19       5263.156           0.66           0.06        69.0499       59.43744            0.2           2.08       159.3098             47      0.5624986
      5746.5000           0.19       5263.156            0.6           0.05        73.9299       64.65736            0.2           2.08       159.3098             46      0.6735608
      5747.0000           0.19       5263.156           0.66           0.05        75.0199       65.82227           0.19           2.08       159.3098             43      0.6983463
      5747.5000           0.19       5263.156           0.77           0.04        73.7699        64.4838           0.21           2.05         160.74             43      0.6698682
      5748.0000            0.2           5000           0.79           0.06          70.21       60.67404            0.2           2.05       162.1799             43      0.5888094
      5748.5000            0.2           5000           0.67            0.1        71.7799       62.35245            0.2           2.06          176.5             44      0.6245202
      5749.0000            0.2           5000           0.53           0.14        73.5299        64.2236            0.2           2.08       181.8699             44       0.664332
      5749.5000            0.2           5000           0.46           0.15           76.5       67.40013            0.2           2.11       187.5498             42      0.7319177
      5750.0000           0.19       5263.156           0.49           0.14        79.1499       70.23407           0.22           2.12       193.6099             40      0.7922143
      5750.5000           0.19       5263.156           0.45           0.14        78.8799       69.94405           0.21           2.14       191.5498             40      0.7860435
      5751.0000           0.21       4761.898           0.37           0.12        81.9299       73.20618           0.22           2.15       191.5798             40      0.8554507
      5751.5000           0.26       3846.152           0.26            0.1        81.9099       73.18355           0.23           2.17       191.5798             39      0.8549691
      5752.0000           0.28       3571.426           0.19           0.09        82.0199       73.30019           0.35           2.17       169.8899             38      0.8574509
      5752.5000           0.27       3703.703           0.11           0.07          76.75       67.66077           0.32           2.15       169.8899             38      0.7374633
      5753.0000           0.24       4166.664           0.11           0.07          71.59       62.13884           0.25           2.13         183.75             38      0.6199753
      5753.5000           0.22       4545.453           0.14           0.07          67.37       57.62286           0.23           2.12         183.75             37      0.5238907
      5754.0000           0.21       4761.898           0.23           0.07        65.7999       55.94185           0.21           2.11         183.75             36      0.4881244
      5754.5000            0.2           5000           0.24           0.06          64.24       54.27182           0.21            2.1       221.3098             36       0.452592
      5755.0000            0.2           5000           0.19           0.06        65.0399       55.12635           0.21            2.1       221.3098             36      0.4707735
      5755.5000            0.2           5000            0.1           0.06          65.72       55.85294           0.22           2.12       285.8696             36      0.4862328
      5756.0000            0.2           5000              0           0.06           65.5       55.61637           0.21           2.12       285.8696             35      0.4811995
      5756.5000            0.2           5000              0           0.06        64.5699       54.62009            0.2           2.12       285.8696             36       0.460002
      5757.0000            0.2           5000              0           0.06        66.3999       56.57689            0.2           2.11       439.3198             37      0.5016358
      5757.5000           0.19       5263.156              0           0.07        69.1599       59.52865           0.21           2.12       400.3496             37      0.5644394
      5758.0000           0.19       5263.156           0.25           0.07        71.9199       62.48041           0.21           2.13       400.3496             37      0.6272428
      5758.5000           0.19       5263.156           0.36           0.08          69.46        59.8474            0.2           2.13       400.3496             36      0.5712212
      5759.0000           0.19       5263.156           0.39           0.07          65.95       56.09097            0.2           2.12       339.8198             36      0.4912971
      5759.5000           0.19       5263.156           0.35           0.06        62.4399       52.33438            0.2           2.11       339.8198             35      0.4113698
      5760.0000           0.18       5555.555           0.31           0.05        62.9399       52.86821            0.2            2.1         315.96             36      0.4227278
      5760.5000           0.21       4761.898           0.26           0.05          66.61       56.79361           0.19           2.11         315.96             39      0.5062469
      5761.0000           0.26       3846.152           0.19           0.06          73.09       63.72536           0.24           2.12         315.96             41      0.6537312
      5761.5000           0.26       3846.152           0.08           0.07        77.7699       68.73122           0.33           2.13       333.5298             44      0.7602386
      5762.0000           0.26       3846.152           0.13           0.08        79.3799        70.4526           0.27           2.14       333.5298             45      0.7968638
