#------------------------------------------------------------------------------
# Created by    : vladimir.rabinovich
# Created on    : 09/19/2023 17:21:14
#------------------------------------------------------------------------------
~Version Information Section
VERS.           2.0     :   CWLS log ASCII Standard - VERSION 2.0
WRAP.           NO      :   One line per depth step
~Well Information Section
#MNEM       .UNIT                                         VALUE :DESCRIPTION
#------------------------------------------------------------------------------
STRT        .FT                                            2600 :START DEPTH
STOP        .FT                                          9205.5 :STOP DEPTH
STEP        .FT                                             0.5 :STEP      
NULL        .                                           -999.25 :NULL      
COMP        .                              MCMORAN OIL & GAS CO :COMPANY   
WELL        .                                OCS 00757 ST00BP00 :WELL      
FLD         .                           WEST CAMERON BLOCK 0118 :FIELD     
LOC         .                                                   :LOCATION  
CNTY        .                                      WEST CAMERON :LOCATION  
STAT        .                                         LOUISIANA :STATE     
CTRY        .                                     UNITED STATES :COUNTRY   
SRVC        .                                                   :SERVICE COMPANY
DATE        .                             9/13/2023 11:18:49 AM :LOG DATE  
API         .                                    17700410700000 :API NUMBER
UWI         .                                    17700410700000 :UNIQUE WELL ID
XCOORD      .                                  1436864.54905534 :SURFACE X 
YCOORD      .                                  10703419.9985863 :SURFACE Y 
LAT         .                                        29.4912718 :LATITUDE  
LON         .                                       -93.6400205 :LONGITUDE 
ELEV        .FT                                             118 :ELEVATION VALUE
ELEV_TYPE   .                                                KB :ELEVATION REFERENCE TYPE
~Curve Information Section
#MNEM       .UNIT                                      API CODE :CURVE DESCRIPTION
#------------------------------------------------------------------------------
DEPT        .FT                                                 :DEPTH     
CAL         .IN                                                 :          
CNC         .%                                                  :          
DT24        .US/F                                               :          
GR          .GAPI                                               :          
GR_NORM     .GAPI                                               :GammaRay Normalized
M0C6        .MMHO                                               :          
M2R1        .OHMM                                               :          
M2R2        .OHMM                                               :          
M2R3        .OHMM                                               :          
M2R6        .OHMM                                               :          
M2R9        .OHMM                                               :          
M2RX        .OHMM                                               :          
PORZ        .%                                                  :          
RWAZ        .OHMM                                               :          
SP          .MV                                                 :          
SP_NORM     .MV                                                 :SP Normalized
TTEN        .LB/F                                               :          
VSH_GR      .V/V                                                :Volume of Shale from GR
VSH_SP      .V/V                                                :Volume of Shale from SP
ZCOR        .G/CC                                               :          
~A        DEPTH            CAL            CNC           DT24             GR        GR_NORM           M0C6           M2R1           M2R2           M2R3           M2R6           M2R9           M2RX           PORZ           RWAZ             SP        SP_NORM           TTEN         VSH_GR         VSH_SP           ZCOR
# ...
      6552.0000         11.006         36.865        109.075         45.332       40.79531       2401.374          0.619          0.544          0.524          0.493          0.494            0.5         28.704          0.055        -33.741       -34.1328       2944.932      0.1658577      0.4459862         -0.038
      6552.5000         11.475          36.87        106.385         38.364       32.26847       2594.853          0.543          0.462           0.44          0.417          0.418          0.422         32.189          0.059        -42.587       -42.9723       2946.558              0       0.293581         -0.033
      6553.0000         11.975         37.015        102.752         34.444       27.47263       2783.548          0.466           0.39          0.369          0.351          0.353          0.354         35.733          0.063        -47.901       -48.2797       2948.789              0      0.2020741         -0.015
      6553.5000         12.311         36.997        103.599         31.978       24.45662       2956.243          0.419          0.346          0.325          0.311          0.312          0.313         38.517          0.065        -50.484       -50.8561       2954.514              0      0.1576535         -0.004
      6554.0000         12.422          37.74        104.642         30.631       22.81035        3106.77          0.402          0.327          0.305          0.292          0.292          0.293         40.173          0.066        -51.747       -52.1126       2959.741              0      0.1359897          0.004
      6554.5000          12.47         40.013        104.755         31.032       23.30378       3230.868          0.405          0.324          0.299          0.286          0.286          0.286         40.921          0.068        -52.663        -53.022       2957.728              0      0.1203104          0.017
      6555.0000         12.529         42.685        106.296         32.184       24.71649        3330.17          0.416          0.327          0.299          0.285          0.284          0.284         40.813          0.067        -53.499       -53.8514       2952.266              0      0.1060104          0.025
      6555.5000         12.473         42.498        105.596         32.256       24.80719       3408.332           0.43          0.333          0.302          0.287          0.285          0.285         39.585          0.063        -54.172       -54.5179       2953.726              0     0.09451899          0.018
      6556.0000          12.19         38.854        102.836         31.971       24.46091       3472.652          0.449          0.342          0.306           0.29          0.287          0.287         37.199          0.055        -54.717       -55.0563       2961.864              0     0.08523618          0.005
      6556.5000         11.761         36.168        101.805         32.969        25.6851       3529.185          0.466          0.348           0.31          0.292          0.289          0.289         34.425          0.047        -55.179       -55.5117       2965.451              0     0.07738449         -0.008
      6557.0000          11.34         35.638        102.164         34.455       27.50667        3583.38          0.471          0.345          0.306          0.289          0.285          0.285         32.461          0.041        -55.475       -55.8012       2958.486              0     0.07239309         -0.021
      6557.5000         11.031         35.139        102.127         34.658       27.75773       3636.948          0.461          0.334          0.297           0.28          0.276          0.276         31.736          0.038        -55.611       -55.9306       2952.001              0     0.07016208         -0.033
      6558.0000         10.889         33.063        102.647         34.869       28.01858       3689.388          0.443          0.319          0.284          0.269          0.264          0.265         31.635          0.036         -55.74       -56.0531       2955.496              0     0.06804999         -0.036
      6558.5000         10.886         30.567        102.569         36.644       30.19389       3737.146          0.423          0.304          0.272          0.258          0.254          0.255         31.391          0.034        -55.975       -56.2815       2961.706              0     0.06411204         -0.025
      6559.0000         10.929         28.628        101.037         38.606       32.59812       3776.242          0.403          0.291          0.262           0.25          0.246          0.247         31.123          0.032        -56.269       -56.5689       2961.333              0     0.05915688         -0.011
      6559.5000         10.986         27.871        100.207         38.714       32.73289        3802.83          0.386          0.282          0.255          0.244          0.241          0.242         31.199          0.032        -56.447       -56.7404       2956.287              0     0.05620003         -0.006
      6560.0000         11.071         28.417        100.537         37.764       31.57258       3815.348          0.374          0.276          0.252          0.241          0.238          0.239          31.47          0.032        -56.347       -56.6338       2953.295              0     0.05803792         -0.009
      6560.5000         11.234         29.361         98.604         37.352       31.07083       3814.128          0.367          0.274          0.251          0.242          0.239           0.24         31.554          0.032        -56.001       -56.2812       2954.776              0     0.06411724         -0.006
      6561.0000         11.394         29.957         96.901         37.691       31.48836       3801.981          0.365          0.276          0.254          0.245          0.242          0.242         31.394          0.032        -55.495       -55.7687       2956.788              0     0.07295346          0.004
      6561.5000         11.339         30.118          98.25         38.051        31.9316       3782.724           0.37          0.281          0.259           0.25          0.247          0.247         31.418          0.033         -54.95       -55.2171       2956.004              0     0.08246382          0.001
      6562.0000         11.086         30.438         98.453         38.072       31.95988       3760.297          0.377          0.287          0.266          0.256          0.253          0.253         32.006          0.035        -54.508       -54.7685       2953.845              0     0.09019826         -0.001
      6562.5000         10.917         31.844        100.814         37.781       31.60624       3737.814          0.382          0.292          0.271          0.262          0.258          0.258         32.779          0.038         -54.28        -54.534       2951.529              0     0.09424137          0.003
      6563.0000         10.902         34.578        106.977         37.702       31.51211       3716.949           0.38          0.292          0.272          0.263          0.259          0.258         33.487           0.04        -54.255       -54.5024       2947.458              0     0.09478622          0.006
      6563.5000          11.03         37.252         109.74         38.992       33.09375       3697.658          0.369          0.288          0.269          0.259          0.256          0.254         34.545          0.042         -54.39       -54.6309       2945.521    0.001994681     0.09257067          0.013
      6564.0000         11.465         38.485        109.201         41.127       35.70974       3678.623          0.358          0.281          0.264          0.255          0.251          0.249         35.574          0.044        -54.708       -54.9423       2952.313     0.05765396     0.08720174           0.03
      6564.5000         12.146         37.146        108.248         42.021       36.80664       3658.191          0.354           0.28          0.262          0.253          0.249          0.247         35.461          0.043        -55.222       -55.4497       2961.505     0.08099227     0.07845346          0.037
