#------------------------------------------------------------------------------
# Created by    : vladimir.rabinovich
# Created on    : 09/19/2023 17:22:11
#------------------------------------------------------------------------------
~Version Information Section
VERS.           2.0     :   CWLS log ASCII Standard - VERSION 2.0
WRAP.           NO      :   One line per depth step
~Well Information Section
#MNEM       .UNIT                                         VALUE :DESCRIPTION
#------------------------------------------------------------------------------
STRT        .FT                                             714 :START DEPTH
STOP        .FT                                            7955 :STOP DEPTH
STEP        .FT                                             0.5 :STEP      
NULL        .                                           -999.25 :NULL      
COMP        .                                ODECO OIL & GAS CO :COMPANY   
WELL        .                               OCS G04756 ST00BP00 :WELL      
FLD         .                           WEST CAMERON BLOCK 0165 :FIELD     
LOC         .                                                   :LOCATION  
CNTY        .                                      WEST CAMERON :LOCATION  
STAT        .                                         LOUISIANA :STATE     
CTRY        .                                     UNITED STATES :COUNTRY   
SRVC        .                                                   :SERVICE COMPANY
DATE        .                             9/13/2023 11:19:06 AM :LOG DATE  
API         .                                    17700406200000 :API NUMBER
UWI         .                                    17700406200000 :UNIQUE WELL ID
XCOORD      .                                  1451757.14487559 :SURFACE X 
YCOORD      .                                  10673474.8616073 :SURFACE Y 
LAT         .                                        29.4091131 :LATITUDE  
LON         .                                       -93.5927176 :LONGITUDE 
ELEV        .FT                                             113 :ELEVATION VALUE
ELEV_TYPE   .                                                KB :ELEVATION REFERENCE TYPE
~Curve Information Section
#MNEM       .UNIT                                      API CODE :CURVE DESCRIPTION
#------------------------------------------------------------------------------
DEPT        .FT                                                 :DEPTH     
CALI        .IN                                                 :          
CILD        .MMHO                                               :          
DRHO        .G/C3                                               :          
DT          .US/F                                               :          
GR          .GAPI                                               :          
GR_NORM     .GAPI                                               :GammaRay Normalized
ILD         .OHMM                                               :          
NPSS        .%                                                  :Neutron Porosity Sandstone
RFOC        .OHMM                                               :          
RHOB        .G/C3                                               :          
RILD        .OHMM                                               :          
RILM        .OHMM                                               :          
SN          .OHMM                                               :          
SP          .MV                                                 :          
SP_NORM     .MV                                                 :SP Normalized
VSH_GR      .V/V                                                :Volume of Shale from GR
VSH_SP      .V/V                                                :Volume of Shale from SP
~A        DEPTH           CALI           CILD           DRHO             DT             GR        GR_NORM            ILD           NPSS           RFOC           RHOB           RILD           RILM             SN             SP        SP_NORM         VSH_GR         VSH_SP
# ...
      1224.0000        -999.25       1191.837        -999.25          201.4           94.2       84.07746         0.8371        -999.25        -999.25        -999.25        -999.25        -999.25         1.0855       -25.6863        -0.5077              1              1
      1224.5000        -999.25        1175.51        -999.25          201.6           94.4       84.33759         0.8601        -999.25        -999.25        -999.25        -999.25        -999.25         1.0955       -25.4902        -0.3219              1              1
      1225.0000        -999.25       1159.184        -999.25            201           94.4        84.3359         0.8838        -999.25        -999.25        -999.25        -999.25        -999.25         1.0955       -25.4902        -0.3321              1              1
      1225.5000        -999.25       1142.857        -999.25          200.6           94.4       84.33418         0.8838        -999.25        -999.25        -999.25        -999.25        -999.25         1.0855       -26.0784        -0.9305              1              1
      1226.0000        -999.25       1134.694        -999.25            200             96       86.42805         0.8838        -999.25        -999.25        -999.25        -999.25        -999.25         1.0855       -26.4706        -1.3329              1              1
      1226.5000        -999.25       1159.184        -999.25            200           99.8       91.40319          0.868        -999.25        -999.25        -999.25        -999.25        -999.25         1.0757       -26.8627        -1.7352              1              1
      1227.0000        -999.25       1183.673        -999.25          199.6       100.9804       92.94751         0.8447        -999.25        -999.25        -999.25        -999.25        -999.25         1.0659       -27.2549        -2.1377              1       0.994013
      1227.5000        -999.25           1216        -999.25          199.6       102.1569       94.48669         0.8146        -999.25        -999.25        -999.25        -999.25        -999.25         1.0562       -27.6471        -2.5401              1      0.9765174
      1228.0000        -999.25           1240        -999.25          199.8       101.9608       94.22803            0.8        -999.25        -999.25        -999.25        -999.25        -999.25         1.0372       -28.0392        -2.9424              1      0.9590261
      1228.5000        -999.25           1280        -999.25          200.6           98.8       90.08652          0.784        -999.25        -999.25        -999.25        -999.25        -999.25         1.0265       -28.6275        -3.5409              1      0.9330043
      1229.0000        -999.25           1312        -999.25          201.8           95.8       86.15562         0.7681        -999.25        -999.25        -999.25        -999.25        -999.25          1.015       -29.0196        -3.9433              1      0.9155087
      1229.5000        -999.25           1328        -999.25            203           96.8       87.46365         0.7461        -999.25        -999.25        -999.25        -999.25        -999.25         1.0123       -29.8039        -4.7378              1      0.8809652
      1230.0000        -999.25           1352        -999.25            205           98.4       89.55739         0.7387        -999.25        -999.25        -999.25        -999.25        -999.25         1.0009          -30.4        -5.3441              1      0.8546044
      1230.5000        -999.25           1360        -999.25          207.8             98        89.0318         0.7384        -999.25        -999.25        -999.25        -999.25        -999.25              1          -30.4        -5.3543              1      0.8541608
      1231.0000        -999.25           1360        -999.25          210.4           97.2        87.9823         0.7319        -999.25        -999.25        -999.25        -999.25        -999.25              1       -29.8039        -4.7685              1      0.8796304
      1231.5000        -999.25           1344        -999.25          211.2             97       87.71853         0.7384        -999.25        -999.25        -999.25        -999.25        -999.25              1       -29.4118        -4.3866              1      0.8962348
      1232.0000        -999.25           1320        -999.25            212             98       89.02655         0.7584        -999.25        -999.25        -999.25        -999.25        -999.25         1.0093       -28.8235        -3.8085              1      0.9213696
      1232.5000        -999.25           1304        -999.25          212.2           97.2       87.97707          0.772        -999.25        -999.25        -999.25        -999.25        -999.25         1.0187       -28.2353        -3.2305              1         0.9465
      1233.0000        -999.25           1280        -999.25          211.2             96       86.40369         0.7789        -999.25        -999.25        -999.25        -999.25        -999.25         1.0281       -27.8431        -2.8485              1      0.9631087
      1233.5000        -999.25           1256        -999.25          209.8           94.2       84.04433         0.7929        -999.25        -999.25        -999.25        -999.25        -999.25         1.0473        -27.451        -2.4667              1      0.9797087
      1234.0000        -999.25           1224        -999.25            206           92.4       81.68512            0.8        -999.25        -999.25        -999.25        -999.25        -999.25          1.057       -27.2549        -2.2808              1      0.9877913
      1234.5000        -999.25           1216        -999.25            202           90.2       78.80201         0.8239        -999.25        -999.25        -999.25        -999.25        -999.25         1.0668       -27.2549         -2.291      0.9745108      0.9873478
      1235.0000        -999.25           1192        -999.25          192.8        87.3077       75.01203         0.8402        -999.25        -999.25        -999.25        -999.25        -999.25         1.0867        -27.451        -2.4973       0.893873      0.9783782
      1235.5000        -999.25           1168        -999.25          186.4        84.8077       71.73602         0.8739        -999.25        -999.25        -999.25        -999.25        -999.25         1.0867       -27.2549        -2.3115      0.8241705      0.9864565
      1236.0000        -999.25           1128        -999.25            185        84.0385       70.72684         0.9079        -999.25        -999.25        -999.25        -999.25        -999.25         1.0968       -26.8627        -1.9295      0.8026989              1
      1236.5000        -999.25           1072        -999.25          183.8        83.6538        70.2213         0.9487        -999.25        -999.25        -999.25        -999.25        -999.25          1.107       -26.8627        -1.9397      0.7919425              1
      1237.0000        -999.25           1032        -999.25          182.8        83.4615       69.96761              1        -999.25        -999.25        -999.25        -999.25        -999.25         1.1277       -26.6667        -1.7539      0.7865448              1
      1237.5000        -999.25            984        -999.25          182.8        82.6923       68.95845          1.057        -999.25        -999.25        -999.25        -999.25        -999.25         1.1594       -26.2745         -1.372      0.7650734              1
      1238.0000        -999.25            912        -999.25          183.8        82.1154       68.20117         1.1277        -999.25        -999.25        -999.25        -999.25        -999.25          1.192       -26.2745        -1.3822      0.7489611              1
      1238.5000        -999.25       855.8394        -999.25       184.8286        81.7308       67.69563          1.192        -999.25        -999.25        -999.25        -999.25        -999.25         1.2368       -25.8824        -1.0003      0.7382048              1
