#------------------------------------------------------------------------------
# Created by    : vladimir.rabinovich
# Created on    : 09/19/2023 17:22:11
#------------------------------------------------------------------------------
~Version Information Section
VERS.           2.0     :   CWLS log ASCII Standard - VERSION 2.0
WRAP.           NO      :   One line per depth step
~Well Information Section
#MNEM       .UNIT                                         VALUE :DESCRIPTION
#------------------------------------------------------------------------------
STRT        .FT                                             714 :START DEPTH
STOP        .FT                                            7955 :STOP DEPTH
STEP        .FT                                             0.5 :STEP      
NULL        .                                           -999.25 :NULL      
COMP        .                                ODECO OIL & GAS CO :COMPANY   
WELL        .                               OCS G04756 ST00BP00 :WELL      
FLD         .                           WEST CAMERON BLOCK 0165 :FIELD     
LOC         .                                                   :LOCATION  
CNTY        .                                      WEST CAMERON :LOCATION  
STAT        .                                         LOUISIANA :STATE     
CTRY        .                                     UNITED STATES :COUNTRY   
SRVC        .                                                   :SERVICE COMPANY
DATE        .                             9/13/2023 11:19:06 AM :LOG DATE  
API         .                                    17700406200000 :API NUMBER
UWI         .                                    17700406200000 :UNIQUE WELL ID
XCOORD      .                                  1451757.14487559 :SURFACE X 
YCOORD      .                                  10673474.8616073 :SURFACE Y 
LAT         .                                        29.4091131 :LATITUDE  
LON         .                                       -93.5927176 :LONGITUDE 
ELEV        .FT                                             113 :ELEVATION VALUE
ELEV_TYPE   .                                                KB :ELEVATION REFERENCE TYPE
~Curve Information Section
#MNEM       .UNIT                                      API CODE :CURVE DESCRIPTION
#------------------------------------------------------------------------------
DEPT        .FT                                                 :DEPTH     
CALI        .IN                                                 :          
CILD        .MMHO                                               :          
DRHO        .G/C3                                               :          
DT          .US/F                                               :          
GR          .GAPI                                               :          
GR_NORM     .GAPI                                               :GammaRay Normalized
ILD         .OHMM                                               :          
NPSS        .%                                                  :Neutron Porosity Sandstone
RFOC        .OHMM                                               :          
RHOB        .G/C3                                               :          
RILD        .OHMM                                               :          
RILM        .OHMM                                               :          
SN          .OHMM                                               :          
SP          .MV                                                 :          
SP_NORM     .MV                                                 :SP Normalized
VSH_GR      .V/V                                                :Volume of Shale from GR
VSH_SP      .V/V                                                :Volume of Shale from SP
~A        DEPTH           CALI           CILD           DRHO             DT             GR        GR_NORM            ILD           NPSS           RFOC           RHOB           RILD           RILM             SN             SP        SP_NORM         VSH_GR         VSH_SP
# ...
      6504.0000        11.1633           1200         0.0473        -999.25        99.0196       89.13356        -999.25          39.36         0.9655         2.2951          0.832         0.8569        -999.25       -19.4118        -6.4848              1      0.9329846
      6504.5000        11.1633           1224         0.0393        -999.25        98.0392       88.02148        -999.25          38.16         0.9655         2.2725         0.8159         0.8402        -999.25       -19.7059        -6.7693              1      0.9275135
      6505.0000        11.1633           1232         0.0409        -999.25        96.8627       86.68707        -999.25          38.16         0.9655         2.2833            0.8         0.8239        -999.25       -18.8235        -5.8773              1      0.9446673
      6505.5000        11.1837           1256         0.0572        -999.25        96.8627       86.68581        -999.25          38.04         0.9826          2.305         0.7859         0.8079        -999.25       -18.5294        -5.5736              1      0.9505077
      6506.0000        11.1837           1280         0.0672        -999.25        97.0588       86.90678        -999.25          37.68         0.9913          2.321         0.7859         0.8079        -999.25       -19.1176        -6.1522              1      0.9393808
      6506.5000        11.1837           1272         0.0692        -999.25        96.2745        86.0168        -999.25          38.94         0.9913          2.326         0.7859         0.8079        -999.25       -19.1176        -6.1426              1      0.9395654
      6507.0000        11.1837           1264         0.0672        -999.25        95.6863       85.34913        -999.25          40.92          0.974          2.323         0.7789            0.8        -999.25       -18.2353        -5.2507              1      0.9567173
      6507.5000        11.1837           1240         0.0652        -999.25        96.2745        86.0144        -999.25          40.92         0.9487          2.322            0.8          0.832        -999.25       -17.9412         -4.947              1      0.9625577
      6508.0000        11.1837           1208         0.0652        -999.25         97.451       87.34634        -999.25           38.1          0.924          2.321          0.832         0.8653        -999.25       -17.9412        -4.9374              1      0.9627423
      6508.5000        11.1837       1159.184         0.0692        -999.25        98.6234       88.67362        -999.25          36.24         0.9159          2.314         0.8653            0.9        -999.25       -18.2448        -5.2314              1      0.9570885
      6509.0000        11.1633       1110.204         0.0692        -999.25        97.0356       86.87312        -999.25        34.3846         0.9655          2.302         0.9079         0.9404        -999.25       -18.5573        -5.5343              1      0.9512635
      6509.5000        11.2041       1061.224         0.0632        -999.25        92.6514       81.90384        -999.25        32.5625         1.0187         2.2951         0.9487         0.9826        -999.25        -18.575        -5.5424              1      0.9511077
      6510.0000        11.2653       1028.571         0.0552        -999.25        89.0373       77.80732        -999.25         31.375         1.0867          2.306         0.9913         1.0281        -999.25       -18.5928        -5.5506      0.9533472        0.95095
      6510.5000        11.3265       987.7551         0.0473        -999.25        85.2941       73.56439        -999.25        33.5769         1.1487          2.323         1.0377         1.0668        -999.25          -19.5        -6.4482      0.8630722      0.9336885
      6511.0000        11.4082       938.7755         0.0393        -999.25        82.9412       70.89691        -999.25          37.86          1.181          2.335          1.057         1.0867        -999.25          -20.7        -7.6386      0.8063173      0.9107962
      6511.5000        11.4286       906.1224         0.0333        -999.25        82.7451       70.67345        -999.25          39.54         1.1277          2.329         1.0867         1.1173        -999.25            -21         -7.929      0.8015628      0.9052116
      6512.0000        11.4286       881.6326         0.0273        -999.25        84.5098       72.67191        -999.25          39.42         1.0767          2.318          1.107         1.1381        -999.25          -19.8        -6.7194      0.8440831      0.9284731
      6512.5000        11.4286       881.6326         0.0189        -999.25        86.6667       75.11491        -999.25          38.88         1.0377          2.304         1.1173         1.1487        -999.25          -18.9        -5.8098      0.8960618      0.9459654
      6513.0000        11.4286       897.9592         0.0149        -999.25        86.2745       74.66924        -999.25          38.16         1.0473         2.2922         1.0968         1.1381        -999.25          -18.9        -5.8002      0.8865796        0.94615
      6513.5000        11.4286       930.6122         0.0189        -999.25        84.1176       72.22385        -999.25           36.9         1.0968         2.2853          1.057         1.0968        -999.25          -19.8        -6.6905      0.8345501      0.9290289
      6514.0000        11.4082       955.1021         0.0289        -999.25        82.3529       70.22291        -999.25           36.6         1.1487         2.2892         1.0281         1.0668        -999.25          -20.4        -7.2809      0.7919767       0.917675
      6514.5000        11.4286       995.9184         0.0433        -999.25        83.3333       71.33262        -999.25          39.48         1.0867           2.31         0.9913         1.0377        -999.25          -20.7        -7.5713      0.8155876      0.9120904
      6515.0000         11.449       1020.408         0.0692        -999.25        86.0784       74.44204        -999.25          40.74         0.9913          2.335         0.9655         1.0093        -999.25          -20.1        -6.9617      0.8817455      0.9238135
      6515.5000        11.4694       1044.898         0.0792        -999.25        89.2157         77.996        -999.25          39.36         0.9913          2.352         0.9487          0.974        -999.25          -18.9        -5.7521      0.9573618       0.947075
      6516.0000        11.5102       1069.388         0.0792        -999.25           90.4       79.33676        -999.25          38.16         0.9913          2.343         0.9322         0.9655        -999.25            -18        -4.8425      0.9858885      0.9645673
      6516.5000        11.5714       1077.551         0.0716        -999.25           91.8       80.92194        -999.25          37.62              1          2.329          0.924         0.9487        -999.25          -17.4        -4.2329              1      0.9762904
      6517.0000        11.6327       1102.041         0.0532        -999.25           93.6       82.96041        -999.25          37.56         1.0093          2.317         0.9079         0.9322        -999.25          -17.4        -4.2233              1       0.976475
      6517.5000        11.6531       1118.367         0.0433        -999.25           95.2       84.77223        -999.25          36.66         1.0093         2.2951         0.8912         0.9159        -999.25          -17.1        -3.9137              1      0.9824288
      6518.0000        11.5918       1118.367         0.0393        -999.25             95       84.54446        -999.25        35.4231         1.0093         2.2873         0.8825         0.9159        -999.25          -16.5        -3.3041              1      0.9941519
      6518.5000        11.4913       1126.531         0.0493        -999.25             94       83.41005        -999.25        34.5577         1.0093          2.303         0.8825         0.9159        -999.25       -15.5982        -2.3927              1              1
