#------------------------------------------------------------------------------
# Created by    : vladimir.rabinovich
# Created on    : 09/19/2023 17:22:11
#------------------------------------------------------------------------------
~Version Information Section
VERS.           2.0     :   CWLS log ASCII Standard - VERSION 2.0
WRAP.           NO      :   One line per depth step
~Well Information Section
#MNEM       .UNIT                                         VALUE :DESCRIPTION
#------------------------------------------------------------------------------
STRT        .FT                                             714 :START DEPTH
STOP        .FT                                            7955 :STOP DEPTH
STEP        .FT                                             0.5 :STEP      
NULL        .                                           -999.25 :NULL      
COMP        .                                ODECO OIL & GAS CO :COMPANY   
WELL        .                               OCS G04756 ST00BP00 :WELL      
FLD         .                           WEST CAMERON BLOCK 0165 :FIELD     
LOC         .                                                   :LOCATION  
CNTY        .                                      WEST CAMERON :LOCATION  
STAT        .                                         LOUISIANA :STATE     
CTRY        .                                     UNITED STATES :COUNTRY   
SRVC        .                                                   :SERVICE COMPANY
DATE        .                             9/13/2023 11:19:06 AM :LOG DATE  
API         .                                    17700406200000 :API NUMBER
UWI         .                                    17700406200000 :UNIQUE WELL ID
XCOORD      .                                  1451757.14487559 :SURFACE X 
YCOORD      .                                  10673474.8616073 :SURFACE Y 
LAT         .                                        29.4091131 :LATITUDE  
LON         .                                       -93.5927176 :LONGITUDE 
ELEV        .FT                                             113 :ELEVATION VALUE
ELEV_TYPE   .                                                KB :ELEVATION REFERENCE TYPE
~Curve Information Section
#MNEM       .UNIT                                      API CODE :CURVE DESCRIPTION
#------------------------------------------------------------------------------
DEPT        .FT                                                 :DEPTH     
CALI        .IN                                                 :          
CILD        .MMHO                                               :          
DRHO        .G/C3                                               :          
DT          .US/F                                               :          
GR          .GAPI                                               :          
GR_NORM     .GAPI                                               :GammaRay Normalized
ILD         .OHMM                                               :          
NPSS        .%                                                  :Neutron Porosity Sandstone
RFOC        .OHMM                                               :          
RHOB        .G/C3                                               :          
RILD        .OHMM                                               :          
RILM        .OHMM                                               :          
SN          .OHMM                                               :          
SP          .MV                                                 :          
SP_NORM     .MV                                                 :SP Normalized
VSH_GR      .V/V                                                :Volume of Shale from GR
VSH_SP      .V/V                                                :Volume of Shale from SP
~A        DEPTH           CALI           CILD           DRHO             DT             GR        GR_NORM            ILD           NPSS           RFOC           RHOB           RILD           RILM             SN             SP        SP_NORM         VSH_GR         VSH_SP
# ...
      4104.0000        10.6327       1152.941         0.0512        -999.25        99.0196       95.01778        -999.25        48.6471          0.981         2.1588          0.868         0.8371        -999.25          -21.3        -8.4237              1      0.8956981
      4104.5000        10.6327       1130.375         0.0592        -999.25        99.6078       95.68317        -999.25          44.52          0.981         2.1479         0.8838         0.8601        -999.25          -22.8        -9.9269              1      0.8667904
      4105.0000        10.6327        1116.18         0.0632        -999.25        99.0196       95.01539        -999.25          40.98          0.981         2.1362         0.8919         0.8759        -999.25          -23.4       -10.5302              1      0.8551885
      4105.5000        10.6531        1101.84         0.0552        -999.25        96.8627       92.57002        -999.25          40.92         0.9905         2.1234         0.9174         0.8919        -999.25            -24       -11.1334              1      0.8435885
      4106.0000        10.6531       1079.367         0.0433        -999.25        93.9216       89.23601        -999.25          41.46              1         2.1202         0.9352         0.9087        -999.25          -24.3       -11.4366              1      0.8377577
      4106.5000        10.6735           1072         0.0409        -999.25        90.5882       85.45745        -999.25          41.46         1.0187         2.1255         0.9624         0.9262        -999.25          -21.6        -8.7398              1      0.8896192
      4107.0000        10.6735           1056         0.0465        -999.25           87.4       81.84357        -999.25          40.02         1.0281          2.134         0.9717         0.9352        -999.25          -20.4        -7.5431              1      0.9126327
      4107.5000        10.6531           1040         0.0636        -999.25           84.8       78.89607        -999.25          36.42         1.0093         2.1415         0.9624         0.9442        -999.25          -21.6        -8.7463      0.9765122      0.8894942
      4108.0000        10.6531           1032         0.0744        -999.25           83.2       77.08176        -999.25        34.3269          0.981         2.1539         0.9532         0.9442        -999.25          -22.5        -9.6495      0.9379097       0.872125
      4108.5000        10.6327       1032.583         0.0996        -999.25           82.2       75.94734        -999.25        34.1538         0.9707         2.1774         0.9436         0.9436        -999.25            -21        -8.1528      0.9137732      0.9009077
      4109.0000        10.6327       1058.162         0.1456        -999.25           81.8       75.49283        -999.25        34.6731         0.9782          2.202          0.934          0.934        -999.25          -19.5         -6.656      0.9041027      0.9296923
      4109.5000        10.6327       1075.648         0.1416        -999.25           80.4       73.90514        -999.25        34.5577         1.0218         2.2345         0.9247         0.9331        -999.25          -20.4        -7.5592      0.8703222      0.9123231
      4110.0000        10.6327       1101.448         0.1312        -999.25        78.7037       71.98181        -999.25        33.0577          1.029         2.2383         0.9161         0.9242        -999.25          -21.3        -8.4625      0.8294002      0.8949519
      4110.5000        10.6327       1118.367          0.112        -999.25        77.4074       70.51163        -999.25        31.8077         0.9826         2.2216         0.9079          0.924        -999.25          -22.2        -9.3657      0.7981199      0.8775827
      4111.0000        10.6327       1142.857         0.0876        -999.25        77.2222       70.30053        -999.25        32.9764         0.9826            2.2            0.9         0.9159        -999.25          -26.7       -13.8689      0.7936283      0.7909827
      4111.5000        10.6327        1151.02         0.0764        -999.25        76.4815       69.45995        -999.25        34.6939         0.9913          2.198         0.8912         0.9159        -999.25       -33.5294       -20.7016      0.7757435      0.6595846
      4112.0000        10.6327       1159.184         0.0664        -999.25        73.3333       65.89125        -999.25        36.3722         1.0377          2.199         0.8739         0.9159        -999.25       -38.8235       -25.9989      0.6998138      0.5577134
      4112.5000        10.6327       1159.184         0.0724        -999.25        70.5556       62.74252        -999.25        36.9184         1.0968          2.212         0.8739            0.9        -999.25       -40.5882       -27.7668      0.6328195      0.5237154
      4113.0000        10.6327       1159.184           0.09        -999.25        68.7755       60.72412        -999.25        36.7347         1.0968          2.225         0.8739         0.8825        -999.25       -37.3529       -24.5347      0.5898749      0.5858712
      4113.5000        10.6327        1175.51          0.106        -999.25        67.9592       59.79787        -999.25        37.2245         1.0968          2.229         0.8653         0.8825        -999.25       -34.4118       -21.5969      0.5701674      0.6423673
      4114.0000        10.6531        1175.51           0.08        -999.25        68.9796       60.95291        -999.25        38.5102         1.0867          2.218         0.8653         0.8825        -999.25       -35.2941       -22.4824      0.5947427      0.6253384
      4114.5000        10.6531        1175.51         0.0532        -999.25        70.5556       62.73753        -999.25          42.12         1.0377          2.199         0.8653         0.8825        -999.25       -34.4118       -21.6033      0.6327135      0.6422442
      4115.0000        10.6531       1167.347         0.0357        -999.25        73.1481       65.67403        -999.25          46.86         0.9913          2.176         0.8653         0.8825        -999.25            -30       -17.1948       0.695192      0.7270231
      4115.5000        10.6735       1167.347         0.0141        -999.25        76.8519       69.86993        -999.25           47.4          0.957          2.156         0.8653         0.8825        -999.25          -22.8         -9.998      0.7844665      0.8654231
      4116.0000        10.6531       1159.184         0.0125        -999.25             83       76.83552        -999.25          46.02         0.9404         2.1429         0.8653         0.8825        -999.25          -20.7        -7.9012      0.9326706      0.9057462
      4116.5000        10.6531        1151.02         0.0277        -999.25           89.2       83.85992        -999.25          44.04         0.9322         2.1439         0.8653         0.8825        -999.25          -19.8        -7.0045              1      0.9229904
      4117.0000        10.6122       1142.857         0.0453        -999.25           89.4        84.0853        -999.25          42.54         0.9487          2.151         0.8653         0.8739        -999.25          -17.7        -4.9077              1      0.9633135
      4117.5000        10.6122       1142.857         0.0628        -999.25             89       83.63078        -999.25          40.92          0.974          2.151         0.8653         0.8739        -999.25          -18.6        -5.8109              1      0.9459442
      4118.0000        10.5918       1134.694          0.074        -999.25           88.8       83.40302        -999.25          40.14         0.9913          2.157         0.8739         0.8739        -999.25          -20.4        -7.6142              1      0.9112654
      4118.5000        10.6122       1126.531         0.0824        -999.25           89.4       84.08168        -999.25          41.04         1.0093         2.1751         0.8825         0.8653        -999.25          -22.5        -9.7174              1      0.8708192
