#------------------------------------------------------------------------------
# Created by    : vladimir.rabinovich
# Created on    : 09/19/2023 17:20:42
#------------------------------------------------------------------------------
~Version Information Section
VERS.           2.0     :   CWLS log ASCII Standard - VERSION 2.0
WRAP.           NO      :   One line per depth step
~Well Information Section
#MNEM       .UNIT                                         VALUE :DESCRIPTION
#------------------------------------------------------------------------------
STRT        .FT                                            1866 :START DEPTH
STOP        .FT                                            8637 :STOP DEPTH
STEP        .FT                                             0.5 :STEP      
NULL        .                                           -999.25 :NULL      
COMP        .                           GENERAL AMERICAN OIL CO :COMPANY   
WELL        .                               OCS G01862 ST00BP00 :WELL      
FLD         .                           WEST CAMERON BLOCK 0045 :FIELD     
LOC         .                                                   :LOCATION  
CNTY        .                                      WEST CAMERON :LOCATION  
STAT        .                                         LOUISIANA :STATE     
CTRY        .                                     UNITED STATES :COUNTRY   
SRVC        .                                                   :SERVICE COMPANY
DATE        .                             9/13/2023 11:18:18 AM :LOG DATE  
API         .                                    17700004060000 :API NUMBER
UWI         .                                    17700004060000 :UNIQUE WELL ID
XCOORD      .                                  1439968.94212662 :SURFACE X 
YCOORD      .                                  10754878.8884152 :SURFACE Y 
LAT         .                                        29.6328727 :LATITUDE  
LON         .                                       -93.6311393 :LONGITUDE 
ELEV        .FT                                              51 :ELEVATION VALUE
ELEV_TYPE   .                                                KB :ELEVATION REFERENCE TYPE
~Curve Information Section
#MNEM       .UNIT                                      API CODE :CURVE DESCRIPTION
#------------------------------------------------------------------------------
DEPT        .FT                                                 :DEPTH     
ASN         .OHMM                                               :          
CALI        .IN                                                 :          
DRHO        .G/C3                                               :          
DT          .US/F                                               :          
GR          .GAPI                                               :          
GR_NORM     .GAPI                                               :GammaRay Normalized
ILD         .OHMM                                               :          
RHOB        .G/C3                                               :          
SP          .MV                                                 :          
SP_NORM     .MV                                                 :SP Normalized
VSH_GR      .V/V                                                :Volume of Shale from GR
VSH_SP      .V/V                                                :Volume of Shale from SP
~A        DEPTH            ASN           CALI           DRHO             DT             GR        GR_NORM            ILD           RHOB             SP        SP_NORM         VSH_GR         VSH_SP
# ...
      2870.5000         0.5853        15.9642            0.1       176.1692        74.3073       92.88641         0.5678         2.1507       -45.1949        -1.0818              1              1
      2871.0000         0.5879        15.9704         0.0864       183.9224        70.9672       88.82642         0.5579         2.1273       -45.0422        -0.9231              1              1
      2871.5000          0.592        15.8941         0.0641       181.9634          73.74       92.19463         0.5517         2.1047       -45.9022        -1.7771              1              1
      2872.0000         0.5987         15.605          0.064       178.6392        75.2373       94.01288         0.5521         2.1136       -46.9579        -2.8268              1      0.9816267
      2872.5000         0.6081        15.2657         0.0686       175.8643        74.5613       93.19034         0.5722         2.1246       -47.6779        -3.5408              1        0.96576
      2873.0000         0.6277        15.4192         0.0827       174.3491        73.8342       92.30557         0.6082         2.1348       -48.1829        -4.0399              1      0.9546689
      2873.5000         0.6752        15.6561         0.0974       173.9087        73.3881       91.76227         0.6497         2.1527       -48.7654        -4.6164              1      0.9418578
      2874.0000         0.7441        15.6141         0.0775       187.2104         74.144       92.67959         0.6824         2.1442       -50.2971        -6.1421              1      0.9079533
      2874.5000         0.8723        15.5981         0.0583       186.1895        74.7373       93.39934         0.7075         2.1367       -53.1412        -8.9802              1      0.8448845
      2875.0000         1.0014        15.7126         0.0643       177.8628        72.7848       91.02551         0.7249         2.1588       -58.4825       -14.3155              1      0.7263222
      2875.5000         1.1077        15.7133          0.074       173.6211        62.3013       78.28506          0.729         2.2052       -63.2442       -19.0712       0.963512        0.62064
      2876.0000         1.1329        15.6703         0.0682       173.1968         55.792       70.37396         0.6943         2.2327       -66.3596       -22.1806      0.7951907      0.5515422
      2876.5000         1.1244        15.6212         0.0826       173.5139         41.988       53.59868         0.6577         2.2494       -69.2258       -25.0409      0.4382698        0.48798
      2877.0000         1.0562        15.5463         0.1242       176.1201        37.4202       48.04681         0.6208         2.3176       -71.5237       -27.3328      0.3201449      0.4370489
      2877.5000         0.9769        15.5585         0.1417       172.3501        37.1987       47.77644         0.5851         2.3852       -73.0177       -28.8208      0.3143924      0.4039822
      2878.0000         0.9184        15.6563         0.1696       150.6936        38.2753       49.08348         0.5562         2.3718       -73.6332       -29.4303      0.3422018      0.3904378
      2878.5000          0.882         15.658          0.179        139.769        39.5586        50.6417         0.5416         2.3261       -74.0449        -29.836      0.3753552      0.3814222
      2879.0000         0.8602         15.582         0.1389       128.0178        39.7544        50.8784         0.5418         2.2284          -74.3       -30.0851      0.3803915      0.3758866
      2879.5000          0.845        15.5144         0.0855       123.9485        39.3652       50.40424         0.5422         2.1361       -73.8063       -29.5855      0.3703029      0.3869889
      2880.0000         0.8363        15.7231         0.0277       123.7946        42.2222       53.87476         0.5426         2.1022       -74.1719       -29.9451      0.4441439      0.3789978
      2880.5000         0.8383        15.9207         0.0207       142.4075         44.449       56.57962         0.5443         2.1345       -74.4063       -30.1735       0.501694      0.3739222
      2881.0000         0.8417        15.9795         0.0369       150.1172        44.5734       56.72956          0.547         2.1524       -74.4015       -30.1627      0.5048843      0.3741622
      2881.5000         0.8365        15.9797         0.0406       153.2307        43.3389       55.22822         0.5388         2.1639       -74.0446       -29.7998      0.4729408      0.3822266
      2882.0000         0.8231        15.9804         0.0581       146.1492         42.296       53.95971         0.5303         2.1717       -73.8928        -29.642      0.4459513      0.3857333
      2882.5000         0.8265        15.9812         0.0599       142.1753        41.6537       53.17798          0.525         2.1718        -74.303       -30.0463      0.4293188      0.3767489
      2883.0000         0.8321        15.9819         0.0537       140.1572        42.4045       54.08913         0.5283         2.1478       -74.3826       -30.1199      0.4487048      0.3751133
      2883.5000         0.8084        15.9826         0.0292       139.9778        43.1151        54.9514         0.5433         2.0971       -74.1519       -29.8832      0.4670511      0.3803733
      2884.0000         0.7773        15.9833         0.0752       140.7554         44.879       57.09376         0.5558         2.1104       -73.1963       -28.9216      0.5126331      0.4017422
      2884.5000         0.7571         15.984         0.1424       139.6157        46.8479       59.48507         0.6051         2.1433       -71.9333       -27.6526      0.5635122      0.4299423
      2885.0000         0.7586        15.9847         0.0826       140.8672        45.5219       57.87255         0.6723         2.1103       -70.3618       -26.0751      0.5292031      0.4649978
      2885.5000          0.792        15.9855         0.0411       142.2739        44.6979       56.87004         0.7257         2.0794       -68.9204       -24.6277      0.5078731      0.4971622
      2886.0000         0.8439        15.9862         0.0535        142.553        46.2886       58.80179         0.7578         2.0997        -67.562       -23.2634      0.5489742        0.52748
      2886.5000         0.9124        15.9869         0.0508       143.7678        47.7714       60.60242         0.7695         2.1205       -65.9609       -21.6563      0.5872856      0.5631933
      2887.0000         0.9476        15.9876         0.0331       144.4834        48.0837       60.98071         0.7675         2.1059       -64.2095       -19.8989      0.5953342      0.6022467
      2887.5000         0.9705        15.9883          0.062       145.5378        47.0382       59.70904         0.7361         2.1794       -62.8594       -18.5428      0.5682775      0.6323822
      2888.0000         0.9347         15.989         0.0383       147.8972        44.9083       57.11975         0.6942         2.1972       -64.5564       -20.2338      0.5131863      0.5948044
      2888.5000         0.8341        15.9897         -0.003        146.656        45.2224       57.50023         0.6438         2.1765       -69.1354       -24.8068      0.5212814      0.4931822
      2889.0000         0.7316        15.9905         0.0155       143.8784        44.5521       56.68448         0.5952         2.1625       -74.7922       -30.4576      0.5039251      0.3676089
      2889.5000         0.7356        15.9912         0.0237       133.1257        42.6332       54.35147          0.564         2.1439       -78.8093       -34.4688      0.4542866      0.2784711
      2890.0000         0.7143        15.9919         0.0479       123.3523        40.1887       51.37978         0.5437         2.0778       -80.8732       -36.5267      0.3910591        0.23274
      2890.5000         0.6605        15.9926         0.0938       120.3412        39.4033       50.42418         0.5451         2.1117       -77.7397       -33.3872      0.3707271      0.3025067
