#------------------------------------------------------------------------------
# Created by    : vladimir.rabinovich
# Created on    : 09/19/2023 17:21:14
#------------------------------------------------------------------------------
~Version Information Section
VERS.           2.0     :   CWLS log ASCII Standard - VERSION 2.0
WRAP.           NO      :   One line per depth step
~Well Information Section
#MNEM       .UNIT                                         VALUE :DESCRIPTION
#------------------------------------------------------------------------------
STRT        .FT                                            3520 :START DEPTH
STOP        .FT                                            8510 :STOP DEPTH
STEP        .FT                                             0.5 :STEP      
NULL        .                                           -999.25 :NULL      
COMP        .                      SPINNAKER EXPLORATION CO LLC :COMPANY   
WELL        .                               OCS G21537 ST00BP00 :WELL      
FLD         .                                           WILDCAT :FIELD     
LOC         .                                                   :LOCATION  
CNTY        .                                      WEST CAMERON :LOCATION  
STAT        .                                         LOUISIANA :STATE     
CTRY        .                                     UNITED STATES :COUNTRY   
SRVC        .                                                   :SERVICE COMPANY
DATE        .                             9/13/2023 11:18:49 AM :LOG DATE  
API         .                                    17700410830000 :API NUMBER
UWI         .                                    17700410830000 :UNIQUE WELL ID
XCOORD      .                                   1446389.6294369 :SURFACE X 
YCOORD      .                                  10699667.6074025 :SURFACE Y 
LAT         .                                        29.4810902 :LATITUDE  
LON         .                                       -93.6100108 :LONGITUDE 
ELEV        .FT                                              91 :ELEVATION VALUE
ELEV_TYPE   .                                                KB :ELEVATION REFERENCE TYPE
~Curve Information Section
#MNEM       .UNIT                                      API CODE :CURVE DESCRIPTION
#------------------------------------------------------------------------------
DEPT        .FT                                                 :DEPTH     
CAL         .IN                                                 :          
CNC         .%                                                  :          
GR          .GAPI                                               :          
GR_NORM     .GAPI                                               :GammaRay Normalized
M0C6        .MMHO                                               :          
M2R1        .OHMM                                               :          
M2R2        .OHMM                                               :          
M2R3        .OHMM                                               :          
M2R6        .OHMM                                               :          
M2R9        .OHMM                                               :          
M2RX        .OHMM                                               :          
PORZ        .%                                                  :          
SP          .MV                                                 :          
SP_NORM     .MV                                                 :SP Normalized
TEN         .LB/F                                               :          
VSH_GR      .V/V                                                :Volume of Shale from GR
VSH_SP      .V/V                                                :Volume of Shale from SP
ZCOR        .G/CC                                               :          
~A        DEPTH            CAL            CNC             GR        GR_NORM           M0C6           M2R1           M2R2           M2R3           M2R6           M2R9           M2RX           PORZ             SP        SP_NORM            TEN         VSH_GR         VSH_SP           ZCOR
# ...
      7832.0000         12.083         43.244        100.351       74.35936       1504.373          0.623          0.686          0.703          0.707          0.712          0.739         20.265         -2.739        -0.8342        563.859      0.8799864              1          0.051
      7832.5000         12.115         44.273        105.149       77.87681       1497.001          0.609          0.672          0.691          0.696          0.701          0.724         19.104          -2.64        -0.7352        542.344      0.9548257              1          0.049
      7833.0000         12.125          43.86        107.652       79.70996       1489.917          0.611          0.677          0.697          0.703          0.708          0.728         17.976         -1.449         0.4558        542.331       0.993829              1          0.035
      7833.5000         12.125         42.462         106.39       78.77996       1483.255          0.624          0.693          0.716          0.722          0.726          0.744          17.36         -0.224         1.6808        546.203      0.9740417              1          0.025
      7834.0000         12.117         40.709        103.098        76.3602       1477.222          0.633          0.705           0.73          0.736           0.74          0.754         17.636          0.453         2.3578        546.802      0.9225574              1          0.026
      7834.5000         12.098         39.671        102.409       75.85073       1471.951          0.631          0.703           0.73          0.736          0.738          0.749         18.631          0.613         2.5178        542.582      0.9117177              1           0.04
      7835.0000         12.067         39.755        105.205        77.8989       1467.474          0.619          0.687          0.715          0.721          0.722          0.729         19.504          0.547         2.4518        534.635      0.9552958              1          0.069
      7835.5000         12.033         38.936        106.983       79.19997       1463.705          0.609          0.673          0.702          0.707          0.707          0.712         19.397          0.437         2.3418        530.684      0.9829782              1          0.097
      7836.0000          12.04         36.904        105.177        77.8708       1460.549          0.614          0.676          0.707          0.711          0.711          0.713         18.311          0.147         2.0518        540.048       0.954698              1          0.102
      7836.5000         12.175         36.133        102.337       75.78269       1457.985          0.628          0.693          0.725          0.729          0.729          0.729          17.16          -0.26         1.6448        553.264        0.91027              1          0.085
      7837.0000         12.428         37.643        101.523       75.18148       1456.129          0.633          0.702          0.735           0.74          0.739          0.738         16.762         -0.499         1.4058        549.975      0.8974783              1          0.063
      7837.5000         12.655          39.82        101.936       75.48077       1455.236          0.621          0.696           0.73          0.735          0.734          0.732         17.104         -0.565         1.3398          533.1      0.9038461              1          0.049
      7838.0000          12.78         40.355         102.51       75.89829       1455.636          0.602          0.683          0.718          0.724          0.723          0.721          17.89         -0.667         1.2378        524.963      0.9127296              1          0.044
      7838.5000         12.851         39.419        102.603       75.96272       1457.599          0.588          0.675          0.711          0.717          0.717          0.715         18.852          -0.78         1.1248        530.358      0.9141005              1          0.044
      7839.0000         12.884         38.341        101.818        75.3828       1461.208          0.582          0.673          0.711          0.716          0.717          0.715         19.537         -0.767         1.1378        536.852      0.9017617              1          0.044
      7839.5000         12.885         38.033         101.17       74.90348        1466.26          0.576          0.669          0.708          0.714          0.715          0.714         19.635         -0.711         1.1938         538.75      0.8915634              1          0.049
      7840.0000         12.922          40.04        103.031       76.26545       1472.272          0.565          0.656          0.695          0.701          0.702          0.702         19.337         -0.722         1.1828        539.363      0.9205415              1          0.065
      7840.5000         13.007         45.049        106.886       79.09084       1478.603           0.55          0.638          0.675          0.681          0.682          0.683         19.028         -0.648         1.2568        541.372      0.9806561              1          0.077
      7841.0000         13.091          49.17         110.48       81.72468       1484.649          0.542          0.627          0.663          0.668           0.67          0.672         18.678           -0.4         1.5048        544.868              1              1          0.071
      7841.5000          13.11         48.231         112.86       83.46762       1490.054          0.544          0.627          0.662          0.668          0.669          0.673         17.989         -0.245         1.6598        547.282              1              1          0.059
      7842.0000         13.074          45.92        113.296       83.78379       1494.841          0.552          0.636          0.671          0.676          0.678          0.682         17.247         -0.382         1.5228        546.516              1              1          0.056
      7842.5000         13.102         45.306        110.407        82.2615        1499.39          0.561          0.646           0.68          0.685          0.687          0.692         17.035         -0.667         1.2378        543.462              1              1           0.06
      7843.0000         13.275         44.093        105.898        77.7473       1504.277          0.565          0.649          0.683          0.688           0.69          0.696         17.364         -0.974         0.9308        541.384      0.9520702              1          0.062
      7843.5000         13.224         42.442        103.025        74.8692       1510.019          0.567          0.649          0.682          0.687          0.688          0.696         17.916         -1.276         0.6288        542.202      0.8908341              1          0.054
      7844.0000         12.925         43.824        102.711          74.55       1516.791          0.569          0.648          0.681          0.685          0.687          0.695         18.851         -1.479         0.4258        543.793      0.8840426              1          0.038
      7844.5000          12.96         47.549        103.316        75.1498       1524.267          0.564          0.641          0.673          0.677          0.679          0.688         20.359         -1.472         0.4328        541.656      0.8968043              1           0.03
      7845.0000         13.193         48.283        103.918        75.7467        1531.61          0.549          0.623          0.655          0.658           0.66           0.67         21.882         -1.322         0.5828        535.958      0.9095042              1          0.041
      7845.5000         13.304         46.097        105.031        76.8545       1537.648          0.531          0.604          0.634          0.637          0.639          0.649         22.722         -1.221         0.6838        531.829      0.9330745              1          0.064
