#------------------------------------------------------------------------------
# Created by    : vladimir.rabinovich
# Created on    : 09/19/2023 17:21:14
#------------------------------------------------------------------------------
~Version Information Section
VERS.           2.0     :   CWLS log ASCII Standard - VERSION 2.0
WRAP.           NO      :   One line per depth step
~Well Information Section
#MNEM       .UNIT                                         VALUE :DESCRIPTION
#------------------------------------------------------------------------------
STRT        .FT                                            2600 :START DEPTH
STOP        .FT                                          9205.5 :STOP DEPTH
STEP        .FT                                             0.5 :STEP      
NULL        .                                           -999.25 :NULL      
COMP        .                              MCMORAN OIL & GAS CO :COMPANY   
WELL        .                                OCS 00757 ST00BP00 :WELL      
FLD         .                           WEST CAMERON BLOCK 0118 :FIELD     
LOC         .                                                   :LOCATION  
CNTY        .                                      WEST CAMERON :LOCATION  
STAT        .                                         LOUISIANA :STATE     
CTRY        .                                     UNITED STATES :COUNTRY   
SRVC        .                                                   :SERVICE COMPANY
DATE        .                             9/13/2023 11:18:49 AM :LOG DATE  
API         .                                    17700410700000 :API NUMBER
UWI         .                                    17700410700000 :UNIQUE WELL ID
XCOORD      .                                  1436864.54905534 :SURFACE X 
YCOORD      .                                  10703419.9985863 :SURFACE Y 
LAT         .                                        29.4912718 :LATITUDE  
LON         .                                       -93.6400205 :LONGITUDE 
ELEV        .FT                                             118 :ELEVATION VALUE
ELEV_TYPE   .                                                KB :ELEVATION REFERENCE TYPE
~Curve Information Section
#MNEM       .UNIT                                      API CODE :CURVE DESCRIPTION
#------------------------------------------------------------------------------
DEPT        .FT                                                 :DEPTH     
CAL         .IN                                                 :          
CNC         .%                                                  :          
DT24        .US/F                                               :          
GR          .GAPI                                               :          
GR_NORM     .GAPI                                               :GammaRay Normalized
M0C6        .MMHO                                               :          
M2R1        .OHMM                                               :          
M2R2        .OHMM                                               :          
M2R3        .OHMM                                               :          
M2R6        .OHMM                                               :          
M2R9        .OHMM                                               :          
M2RX        .OHMM                                               :          
PORZ        .%                                                  :          
RWAZ        .OHMM                                               :          
SP          .MV                                                 :          
SP_NORM     .MV                                                 :SP Normalized
TTEN        .LB/F                                               :          
VSH_GR      .V/V                                                :Volume of Shale from GR
VSH_SP      .V/V                                                :Volume of Shale from SP
ZCOR        .G/CC                                               :          
~A        DEPTH            CAL            CNC           DT24             GR        GR_NORM           M0C6           M2R1           M2R2           M2R3           M2R6           M2R9           M2RX           PORZ           RWAZ             SP        SP_NORM           TTEN         VSH_GR         VSH_SP           ZCOR
# ...
      8736.0000         10.041         32.473         96.351         74.509        81.4662       1311.076          0.802          0.836          0.833           0.82          0.796          0.816         16.691          0.028         -7.817         -6.736       3670.194              1      0.9037714          0.031
      8736.5000         10.033         32.878         95.924         75.856        82.8149       1296.715          0.806          0.833          0.831          0.818            0.8           0.82         17.057           0.03         -7.375        -6.3019       3670.196              1      0.9099728          0.027
      8737.0000         10.036         32.476         95.379         73.907        80.8676       1291.444           0.81          0.833          0.832          0.821          0.809          0.829         17.616          0.032         -7.546        -6.4807       3670.885              1      0.9074185          0.029
      8737.5000         10.064          33.18         96.567         72.242        79.2043       1291.675           0.81          0.834          0.836          0.827          0.821          0.841         17.395          0.032         -7.838        -6.7806       3669.857      0.9830702      0.9031343          0.038
      8738.0000         10.115         35.739         96.146         73.532         80.496        1295.66          0.799          0.829          0.836           0.83           0.83          0.849         16.268          0.028         -7.327        -6.2775       3668.274              1      0.9103214          0.053
      8738.5000         10.159         37.949         95.357         75.626        82.5917       1302.711          0.782          0.821          0.833          0.831          0.835          0.852          15.48          0.025         -5.825        -4.7834       3667.572              1      0.9316657           0.06
      8739.0000         10.179         37.795         97.719         74.743        81.7104       1312.618          0.758          0.808          0.825          0.825          0.833          0.848         16.113          0.027          -4.12        -3.0862       3670.192              1      0.9559115          0.053
      8739.5000         10.188         36.793        101.059         72.692        79.6611       1324.972          0.715          0.769           0.79          0.792          0.801          0.812         17.723          0.032         -2.864        -1.8381       3674.719      0.9927894      0.9737414          0.051
      8740.0000         10.197         36.477        104.788         73.908        80.8788       1339.107           0.66          0.713          0.734          0.737          0.746          0.754         18.965          0.034         -2.225         -1.207       3676.955              1      0.9827572          0.052
      8740.5000         10.199         36.852        108.627         76.512        83.4845       1354.094           0.63           0.68            0.7          0.702          0.711          0.716         19.012          0.033         -2.144        -1.1338       3677.186              1      0.9838029           0.05
      8741.0000         10.196         37.861        107.895         77.452        84.4262       1369.047          0.636          0.681            0.7          0.702           0.71          0.711         18.136          0.029         -2.317        -1.3147        3676.13              1      0.9812186          0.049
      8741.5000          10.19         38.448          103.6         76.503        83.4789       1383.374          0.665          0.707          0.724          0.725          0.733          0.731         16.906          0.026         -2.447        -1.4526       3670.897              1      0.9792486           0.05
      8742.0000         10.187          37.88        101.203         74.043        81.0206       1396.967          0.704          0.743          0.758          0.759          0.765          0.761         15.765          0.023         -2.484        -1.4975         3664.1              1      0.9786071          0.046
      8742.5000          10.19         37.018        100.586         72.036        79.0153       1410.112          0.725          0.763          0.777          0.777          0.782          0.775         15.414          0.022         -2.495        -1.5163       3663.531      0.9790488      0.9783386          0.043
      8743.0000         10.189         37.276        101.518         73.885         80.866       1423.293          0.705          0.744          0.758          0.757          0.761          0.751         16.165          0.024         -2.453        -1.4822       3665.469              1      0.9788257          0.043
      8743.5000         10.169         38.189          103.6         77.528        84.5107       1436.925          0.663          0.703          0.717          0.714          0.717          0.707         17.177          0.026         -2.217        -1.2541       3664.138              1      0.9820843          0.044
      8744.0000         10.137         38.887         104.68         80.439        87.4234       1451.141          0.632          0.672          0.686          0.683          0.685          0.673         17.623          0.026         -1.791        -0.8359       3663.746              1      0.9880586          0.051
      8744.5000         10.116         40.833        105.234         83.756        90.7421       1465.729          0.622          0.662          0.675          0.671          0.672           0.66         17.725          0.026          -1.24        -0.2928       3668.959              1      0.9958171          0.063
      8745.0000         10.112         42.972        106.314          87.11        94.0978       1480.209          0.621          0.658           0.67          0.664          0.664          0.652         17.903          0.026         -0.665         0.2743       3674.394              1              1          0.074
      8745.5000         10.124         40.052         106.36         86.609        93.5985       1494.006          0.622          0.653          0.662          0.655          0.654          0.642         18.008          0.026          -0.26         0.6715       3674.925              1              1          0.078
      8746.0000         10.131          35.27        104.726         81.912        88.9033       1506.618          0.637           0.66          0.666          0.659          0.657          0.645         17.723          0.025         -0.354         0.5696       3671.073              1              1          0.068
      8746.5000         10.115         34.634         102.14         77.121         84.114       1517.743          0.672          0.688          0.692          0.684          0.682          0.669         17.419          0.025         -1.043        -0.1273       3665.553              1      0.9981814           0.05
      8747.0000         10.109         37.319         98.926         74.301        81.2957       1527.291          0.701          0.716          0.719           0.71          0.708          0.695         17.829          0.028         -2.467        -1.5592       3662.833              1      0.9777257          0.035
      8747.5000         10.186         39.188        100.267         73.906        80.9024       1535.367          0.686          0.707          0.711          0.702          0.699          0.688         18.677           0.03         -4.403         -3.503       3665.459              1      0.9499571          0.045
      8748.0000         10.336         38.535        104.531         74.356        81.3541       1542.153          0.628          0.657          0.663          0.655          0.653          0.644         19.113           0.03         -5.843        -4.9509       3669.519              1      0.9292728          0.074
      8748.5000         10.451         38.415        106.462         73.745        80.7448       1547.904          0.577          0.613          0.622          0.615          0.613          0.606         19.066          0.028         -5.776        -4.8918       3671.646              1      0.9301171          0.084
