#------------------------------------------------------------------------------
# Created by    : vladimir.rabinovich
# Created on    : 09/19/2023 17:21:14
#------------------------------------------------------------------------------
~Version Information Section
VERS.           2.0     :   CWLS log ASCII Standard - VERSION 2.0
WRAP.           NO      :   One line per depth step
~Well Information Section
#MNEM       .UNIT                                         VALUE :DESCRIPTION
#------------------------------------------------------------------------------
STRT        .FT                                            3520 :START DEPTH
STOP        .FT                                            8510 :STOP DEPTH
STEP        .FT                                             0.5 :STEP      
NULL        .                                           -999.25 :NULL      
COMP        .                      SPINNAKER EXPLORATION CO LLC :COMPANY   
WELL        .                               OCS G21537 ST00BP00 :WELL      
FLD         .                                           WILDCAT :FIELD     
LOC         .                                                   :LOCATION  
CNTY        .                                      WEST CAMERON :LOCATION  
STAT        .                                         LOUISIANA :STATE     
CTRY        .                                     UNITED STATES :COUNTRY   
SRVC        .                                                   :SERVICE COMPANY
DATE        .                             9/13/2023 11:18:49 AM :LOG DATE  
API         .                                    17700410830000 :API NUMBER
UWI         .                                    17700410830000 :UNIQUE WELL ID
XCOORD      .                                   1446389.6294369 :SURFACE X 
YCOORD      .                                  10699667.6074025 :SURFACE Y 
LAT         .                                        29.4810902 :LATITUDE  
LON         .                                       -93.6100108 :LONGITUDE 
ELEV        .FT                                              91 :ELEVATION VALUE
ELEV_TYPE   .                                                KB :ELEVATION REFERENCE TYPE
~Curve Information Section
#MNEM       .UNIT                                      API CODE :CURVE DESCRIPTION
#------------------------------------------------------------------------------
DEPT        .FT                                                 :DEPTH     
CAL         .IN                                                 :          
CNC         .%                                                  :          
GR          .GAPI                                               :          
GR_NORM     .GAPI                                               :GammaRay Normalized
M0C6        .MMHO                                               :          
M2R1        .OHMM                                               :          
M2R2        .OHMM                                               :          
M2R3        .OHMM                                               :          
M2R6        .OHMM                                               :          
M2R9        .OHMM                                               :          
M2RX        .OHMM                                               :          
PORZ        .%                                                  :          
SP          .MV                                                 :          
SP_NORM     .MV                                                 :SP Normalized
TEN         .LB/F                                               :          
VSH_GR      .V/V                                                :Volume of Shale from GR
VSH_SP      .V/V                                                :Volume of Shale from SP
ZCOR        .G/CC                                               :          
~A        DEPTH            CAL            CNC             GR        GR_NORM           M0C6           M2R1           M2R2           M2R3           M2R6           M2R9           M2RX           PORZ             SP        SP_NORM            TEN         VSH_GR         VSH_SP           ZCOR
# ...
      6166.0000         11.509         41.513        101.214        72.7393       1373.441          0.639          0.711          0.733          0.735          0.738          0.753         21.471         -7.602        -4.7617        615.229      0.8455171      0.9523845          0.056
      6166.5000         11.433         38.872         99.841        71.3686       1379.468          0.648          0.712          0.733          0.735          0.739          0.754         22.693          -8.11        -5.2508        589.956      0.8163531      0.9439517          0.072
      6167.0000         11.328         37.089         97.784         69.314       1388.777          0.673          0.728          0.748          0.751          0.756          0.772         23.616         -9.294        -6.4159        579.919      0.7726384      0.9238638          0.078
      6167.5000         11.263         37.981         96.775        68.3073       1399.362          0.689          0.737          0.758          0.762          0.768          0.784         23.688        -10.791        -7.8941        574.149      0.7512191      0.8983776          0.064
      6168.0000          11.28         41.019         97.729        69.2636       1409.367          0.664          0.709          0.733          0.738          0.745          0.759         23.214        -11.405        -8.4892        561.649       0.771566      0.8881173          0.048
      6168.5000          11.47         43.489        101.257         72.794       1417.375          0.608          0.656          0.682          0.689          0.696          0.709         22.938        -10.749        -7.8143        567.306      0.8466808      0.8997535          0.044
      6169.0000         11.899         43.364        105.717        77.2563       1422.613          0.559          0.615          0.644          0.652          0.659           0.67          23.11         -9.686        -6.7324        603.022      0.9416234      0.9184069          0.041
      6169.5000         12.379         41.951        109.394        80.9356       1425.039           0.54          0.604          0.637          0.646          0.654          0.664         23.249         -9.157        -6.1846        627.714              1      0.9278517          0.034
      6170.0000           12.5         41.317         111.88         83.424       1425.281          0.546          0.621          0.657          0.668          0.676          0.686          22.97         -9.074        -6.0827        606.119              1      0.9296086          0.028
      6170.5000         12.224         41.221        112.089        83.6353        1424.44          0.565          0.647          0.686          0.698          0.707          0.717         22.631         -8.817        -5.8068        563.867              1      0.9343655          0.025
      6171.0000         11.921         41.362        109.422        80.9707       1423.853          0.579          0.663          0.703          0.716          0.725          0.735         22.643         -8.353        -5.3239        540.001              1      0.9426914          0.025
      6171.5000         11.822         41.898        106.092         77.643       1424.847          0.582          0.664          0.703          0.717          0.725          0.735         22.628         -8.096        -5.0481        536.188       0.949851      0.9474465          0.029
      6172.0000         11.823         42.639        105.705        77.2583        1428.55          0.581          0.659          0.698          0.711           0.72          0.728         22.227         -7.749        -4.6822        536.965      0.9416659      0.9537552           0.04
      6172.5000         11.815          43.88         108.43        79.9857       1435.713          0.582          0.658          0.696           0.71          0.718          0.726         21.866         -7.178        -4.0923        539.104      0.9996958      0.9639258          0.051
      6173.0000         11.849         47.115        110.169         81.727       1446.566          0.586           0.66          0.699          0.712          0.721          0.729         21.966         -6.975        -3.8704        546.912              1      0.9677517          0.054
      6173.5000         11.936         49.652        109.259        80.8193       1460.685          0.588          0.662            0.7          0.714          0.723          0.731         22.341         -7.075        -3.9516        555.587              1      0.9663517          0.043
      6174.0000          11.94         47.654        107.926        79.4887       1476.945           0.58          0.653          0.691          0.705          0.714          0.722         22.711         -6.734        -3.5917        550.456      0.9891213      0.9725569          0.028
      6174.5000         11.814          45.62        108.353         79.918       1493.571          0.557          0.626          0.664          0.678          0.686          0.695         23.166         -5.931        -2.7698        540.725      0.9982553      0.9867276          0.022
      6175.0000         11.695         47.289        109.981        81.5483        1508.37          0.527          0.592          0.629          0.643          0.651           0.66         23.958         -5.338        -2.1579        555.594              1      0.9972776          0.021
      6175.5000         11.659         49.978        111.129        82.6987       1519.111            0.5          0.563          0.599          0.613          0.621           0.63         24.918         -5.219        -2.0201        589.086              1      0.9996535           0.02
      6176.0000         11.653         50.057        112.572         84.144       1523.973          0.483          0.546           0.58          0.594          0.602          0.612         25.482         -5.313        -2.0952        601.182              1      0.9983586           0.02
      6176.5000         11.632         49.348        115.807        87.3814        1521.98          0.479          0.542          0.576           0.59          0.599          0.609         25.428         -5.377        -2.1403        590.981              1       0.997581          0.027
      6177.0000         11.588          51.42        117.849        89.4257       1513.287          0.489          0.552          0.586            0.6          0.609           0.62         25.091         -5.477        -2.2214        590.855              1      0.9961827          0.038
      6177.5000         11.623          53.04        116.347         87.926       1499.212          0.511          0.576           0.61          0.625          0.633          0.646         24.702         -5.791        -2.5166        597.559              1      0.9910931          0.049
      6178.0000         11.823         49.036        112.365        83.9464        1481.98          0.548          0.618          0.652          0.668          0.676          0.691         24.136         -6.473        -3.1797        596.245              1      0.9796603          0.063
      6178.5000         12.048         43.529        106.538        78.1217       1464.255          0.598          0.675          0.711          0.728          0.736          0.753         23.527         -7.345        -4.0328        601.857      0.9600361      0.9649517          0.071
      6179.0000          12.02         39.943        101.353       69.57259       1448.497          0.636          0.721          0.758          0.775          0.783          0.802          23.32         -7.805        -4.4739        614.421      0.7781401      0.9573466          0.065
      6179.5000         11.735         38.349        102.279       70.42819       1436.466          0.628          0.715          0.751          0.766          0.774          0.792         23.501         -7.497        -4.1471        620.023      0.7963445       0.962981          0.055
