#------------------------------------------------------------------------------
# Created by    : vladimir.rabinovich
# Created on    : 09/19/2023 17:22:07
#------------------------------------------------------------------------------
~Version Information Section
VERS.           2.0     :   CWLS log ASCII Standard - VERSION 2.0
WRAP.           NO      :   One line per depth step
~Well Information Section
#MNEM       .UNIT                                         VALUE :DESCRIPTION
#------------------------------------------------------------------------------
STRT        .FT                                            4421 :START DEPTH
STOP        .FT                                           11895 :STOP DEPTH
STEP        .FT                                             0.5 :STEP      
NULL        .                                           -999.25 :NULL      
COMP        .                MURPHY EXPLORATION & PRODUCTION CO :COMPANY   
WELL        .                               OCS G02828 ST00BP00 :WELL      
FLD         .                           WEST CAMERON BLOCK 0116 :FIELD     
LOC         .                                                   :LOCATION  
CNTY        .                                      WEST CAMERON :LOCATION  
STAT        .                                         LOUISIANA :STATE     
CTRY        .                                     UNITED STATES :COUNTRY   
SRVC        .                                                   :SERVICE COMPANY
DATE        .                             9/13/2023 11:18:31 AM :LOG DATE  
API         .                                    17700404120000 :API NUMBER
UWI         .                                    17700404120000 :UNIQUE WELL ID
XCOORD      .                                  1472413.58592246 :SURFACE X 
YCOORD      .                                  10706677.6123634 :SURFACE Y 
LAT         .                                         29.500724 :LATITUDE  
LON         .                                        -93.528296 :LONGITUDE 
ELEV        .FT                                              75 :ELEVATION VALUE
ELEV_TYPE   .                                                KB :ELEVATION REFERENCE TYPE
~Curve Information Section
#MNEM       .UNIT                                      API CODE :CURVE DESCRIPTION
#------------------------------------------------------------------------------
DEPT        .FT                                                 :DEPTH     
CALI        .IN                                                 :          
DRHO        .G/C3                                               :          
DT          .US/F                                               :          
GR          .GAPI                                               :          
GR_1        .GAPI                                               :          
GR_NORM     .GAPI                                               :GammaRay Normalized
ILD         .OHMM                                               :          
NPHI        .%                                                  :          
RHOB        .G/C3                                               :          
SFL         .OHMM                                               :          
SP          .MV                                                 :          
SP_NORM     .MV                                                 :SP Normalized
VSH_GR      .V/V                                                :Volume of Shale from GR
VSH_SP      .V/V                                                :Volume of Shale from SP
~A        DEPTH           CALI           DRHO             DT             GR           GR_1        GR_NORM            ILD           NPHI           RHOB            SFL             SP        SP_NORM         VSH_GR         VSH_SP
# ...
     11873.0000        10.6161          0.047         82.005        76.9832        -999.25        76.2655         1.1324        30.7896         2.3462         1.2754       -42.4732        -6.2827      0.9205426      0.9331304
     11873.5000        10.8889         0.0085        81.9192        77.0731        -999.25       76.35698         1.0433        33.3751         2.3358         1.0898       -41.2451        -5.0546      0.9224889      0.9486759
     11874.0000        10.5487        -0.0017        81.9254        77.1627        -999.25       76.44825         0.9613        35.8663         2.3288         0.9836       -40.5934        -4.4029      0.9244308      0.9569253
     11874.5000        10.6782         0.0221        81.9825        78.0337        -999.25        77.3418         0.8859        37.6146         2.3202         0.9065       -40.2028        -4.0123      0.9434425      0.9618696
     11875.0000        11.5299         0.0327        81.8827        79.1501        -999.25        78.4872         0.8168        38.6803         2.3057         0.8712       -39.9752        -3.7847      0.9678127      0.9647506
     11875.5000        10.6191         0.0411         81.547         80.087        -999.25       79.44841         0.7654         39.009         2.2903         0.8564       -39.9708        -3.7803       0.988264      0.9648063
     11876.0000         10.624         0.0367        81.7306        79.0304        -999.25       78.36287         0.7203        38.5425         2.2612         0.8523       -39.9678        -3.7773      0.9651674      0.9648443
     11876.5000        10.9293         0.0475        82.4962        77.5426        -999.25        76.8345         0.7166        38.1666         2.2832         0.8628       -39.9661        -3.7756       0.932649      0.9648658
     11877.0000        10.9142         0.0295        82.6553         76.635        -999.25       75.90195         0.7171         37.895         2.2634         0.8748       -39.9596        -3.7691      0.9128074      0.9649481
     11877.5000        10.8965         0.0136        82.6696        76.1868        -999.25       75.44106         0.7176        37.7037         2.2447         0.8875        -39.966        -3.7755      0.9030012      0.9648671
     11878.0000        11.1592         0.0073         82.619         75.899        -999.25       75.14474         0.7182        37.5369         2.2307         0.9018       -40.1918        -4.0013      0.8966965      0.9620088
     11878.5000        11.0061         0.0044        82.5533        75.8661        -999.25       75.11023         0.7187        37.5928         2.2162         0.9209       -40.4952        -4.3047      0.8959624      0.9581683
     11879.0000        10.5502         0.0149        82.4797        75.8427        -999.25        75.0854         0.7192        38.2292         2.2209         0.9436        -40.799        -4.6085       0.895434      0.9543228
     11879.5000        10.1711         0.0108        82.4124        76.0951        -999.25       75.34382         0.7157        39.2286         2.2169         0.9624       -41.0228        -4.8323      0.9009323      0.9514899
     11880.0000        10.0462         0.0044        82.3875        76.8268        -999.25       76.09435         0.7128         39.606         2.1999         0.9592       -41.0905           -4.9      0.9169009      0.9506329
     11880.5000        10.0391         0.0015        82.4061        77.2823        -999.25       76.56119          0.712        39.3141          2.196         0.9377       -41.0785         -4.888      0.9268338      0.9507848
     11881.0000         9.9614         -0.001        82.4504        77.1578        -999.25       76.43306         0.7205        38.7039          2.192         0.9145       -41.0586        -4.8681      0.9241077      0.9510367
     11881.5000         9.6236        -0.0039        82.4464        76.9086        -999.25        76.1772         0.7305         38.387         2.1951         0.8911       -40.8719        -4.6814      0.9186639         0.9534
     11882.0000         9.4297        -0.0065        82.4241        77.0283        -999.25       76.30009         0.7426        38.4452         2.1969         0.8694       -40.4897        -4.2992      0.9212786      0.9582379
     11882.5000         9.4622         -0.005        82.3912        77.4604        -999.25       76.74374         0.7527        38.8572         2.1969         0.8598       -39.9114        -3.7209      0.9307179      0.9655582
     11883.0000         9.6463        -0.0027        82.3484        77.5707        -999.25       76.85697         0.7625        39.6119          2.198         0.8741       -39.7517        -3.5612       0.933127      0.9675797
     11883.5000         9.5818        -0.0006        82.2983        77.5472        -999.25       76.83286          0.776        40.4153         2.1915         0.8886       -40.0509        -3.8604       0.932614      0.9637924
     11884.0000         9.2288         0.0011        82.2354        77.5237        -999.25       76.80873         0.7869        40.9319          2.182         0.9017       -40.5475         -4.357      0.9321007      0.9575064
     11884.5000         8.9891         0.0022        82.2468        77.4393        -999.25       76.72207         0.7966        41.0082         2.1726         0.9115        -40.967        -4.7765      0.9302568      0.9521962
     11885.0000         8.7744         0.0041        82.3052         75.874        -999.25       75.11496         0.8003        40.7595          2.164         0.9221       -41.2584        -5.0679       0.896063      0.9485076
     11885.5000         8.6316         0.0083        82.3711        74.6403        -999.25       73.84831         0.8038        40.2443         2.1592         0.9363       -41.2452        -5.0547       0.869113      0.9486747
     11886.0000         8.8217         0.0146        82.4526        74.3328        -999.25       73.53259         0.8064        39.8326           2.17         0.9455       -41.0367        -4.8462      0.8623956      0.9513139
     11886.5000         8.8143         0.0131        82.5569        74.1089        -999.25       73.30271          0.809        39.8522         2.1713         0.9492       -40.9087        -4.7182      0.8575045      0.9529341
     11887.0000         8.5519         0.0091         82.661        70.4993        -999.25       69.59669         0.8114        40.1135         2.1456         0.9495       -40.9255         -4.735      0.7786531      0.9527215
     11887.5000         8.3786          0.005        82.6227        65.7012        -999.25       64.67043         0.8138        40.0762         2.1246         0.9486       -40.9819        -4.7914      0.6738389      0.9520076
     11888.0000         8.2863         0.0015        82.5853        61.6458        -999.25       60.50669          0.817        39.5441         2.1122         0.9486        -40.843        -4.6525      0.5852486      0.9537658
     11888.5000         8.2176        -0.0014        82.5895         53.916        -999.25        52.5704         0.8204        39.2476         2.1007           0.95       -40.5778        -4.3873      0.4163916      0.9571228
     11889.0000         8.1761        -0.0044         82.665        45.7269        -999.25       44.16255         0.8225        39.3856         2.0936         0.9544       -40.6884        -4.4979      0.2375011      0.9557228
     11889.5000         8.1746        -0.0076        82.7405        40.7578        -999.25       39.06071          0.824        39.7343         2.0872         0.9603       -40.9435         -4.753      0.1289514      0.9524937
     11890.0000         8.1813         -0.012        82.6971        47.1146        -999.25       45.58732         0.8242         40.056         2.0807         0.9685        -40.861        -4.6705      0.2678153       0.953538
     11890.5000         8.1927         -0.016        82.6387        63.2777        -999.25       62.18218         0.8242        40.2051         2.0743         0.9757       -40.3621        -4.1716      0.6208974      0.9598532
