#------------------------------------------------------------------------------
# Created by    : vladimir.rabinovich
# Created on    : 09/19/2023 17:22:32
#------------------------------------------------------------------------------
~Version Information Section
VERS.           2.0     :   CWLS log ASCII Standard - VERSION 2.0
WRAP.           NO      :   One line per depth step
~Well Information Section
#MNEM       .UNIT                                         VALUE :DESCRIPTION
#------------------------------------------------------------------------------
STRT        .FT                                            2450 :START DEPTH
STOP        .FT                                            9560 :STOP DEPTH
STEP        .FT                                             0.5 :STEP      
NULL        .                                           -999.25 :NULL      
COMP        .                               TALOS PETROLEUM LLC :COMPANY   
WELL        .                                OCS 00301 ST00BP00 :WELL      
FLD         .                           WEST CAMERON BLOCK 0045 :FIELD     
LOC         .                                                   :LOCATION  
CNTY        .                                      WEST CAMERON :LOCATION  
STAT        .                                         LOUISIANA :STATE     
CTRY        .                                     UNITED STATES :COUNTRY   
SRVC        .                                                   :SERVICE COMPANY
DATE        .                             9/13/2023 11:18:49 AM :LOG DATE  
API         .                                    17700410870000 :API NUMBER
UWI         .                                    17700410870000 :UNIQUE WELL ID
XCOORD      .                                  1447194.98921956 :SURFACE X 
YCOORD      .                                  10757079.9124673 :SURFACE Y 
LAT         .                                        29.6390336 :LATITUDE  
LON         .                                       -93.6084245 :LONGITUDE 
ELEV        .FT                                              96 :ELEVATION VALUE
ELEV_TYPE   .                                                KB :ELEVATION REFERENCE TYPE
~Curve Information Section
#MNEM       .UNIT                                      API CODE :CURVE DESCRIPTION
#------------------------------------------------------------------------------
DEPT        .FT                                                 :DEPTH     
CNC         .%                                                  :          
DCAL        .IN                                                 :          
GR          .GAPI                                               :          
GR_NORM     .GAPI                                               :GammaRay Normalized
M0C6        .MMHO                                               :          
M2R1        .OHMM                                               :          
M2R2        .OHMM                                               :          
M2R3        .OHMM                                               :          
M2R6        .OHMM                                               :          
M2R9        .OHMM                                               :          
M2RX        .OHMM                                               :          
SP          .MV                                                 :          
SP_NORM     .MV                                                 :SP Normalized
TEN         .LB/F                                               :          
VSH_GR      .V/V                                                :Volume of Shale from GR
VSH_SP      .V/V                                                :Volume of Shale from SP
ZCOR        .G/CC                                               :          
ZDEN        .G/CC                                               :          
~A        DEPTH            CNC           DCAL             GR        GR_NORM           M0C6           M2R1           M2R2           M2R3           M2R6           M2R9           M2RX             SP        SP_NORM            TEN         VSH_GR         VSH_SP           ZCOR           ZDEN
# ...
      5278.0000        -999.25           0.53         49.566       49.05682        2812.27          0.628          0.463          0.424          0.402          0.401            0.4        -59.532       -59.4881         -63.93      0.3416344     0.08749051        -999.25        -999.25
      5278.5000        -999.25          0.437         50.414       50.03868        2992.35          0.551          0.414           0.38          0.362          0.361           0.36        -62.518       -62.4662        -35.491      0.3625252     0.04021902        -999.25        -999.25
      5279.0000        -999.25          0.407         51.155       50.89676       3165.537          0.472          0.363          0.336          0.321           0.32          0.319        -64.311       -64.2513        -25.287       0.380782     0.01188417        -999.25        -999.25
      5279.5000        -999.25          0.414         50.411       50.03856       3324.651          0.414          0.325          0.302           0.29          0.289          0.288        -65.366       -65.2984        -41.604      0.3625226              0        -999.25        -999.25
      5280.0000        -999.25          0.429         48.989       48.39673       3461.647          0.382          0.303          0.281          0.271           0.27          0.269        -65.945       -65.8695        -56.885        0.32759              0        -999.25        -999.25
      5280.5000        -999.25          0.437         47.904       47.14441       3570.836          0.364           0.29           0.27           0.26          0.259          0.257        -66.186       -66.1026        -45.235      0.3009449              0        -999.25        -999.25
      5281.0000        -999.25          0.437         48.091       47.36228       3647.073           0.35           0.28          0.261          0.252           0.25          0.249        -66.013       -65.9217          -13.7      0.3055805              0        -999.25        -999.25
      5281.5000        -999.25          0.454         49.426       48.90702       3689.991           0.34          0.273          0.254          0.246          0.244          0.242        -65.326       -65.2267         -0.865      0.3384473              0        -999.25        -999.25
      5282.0000        -999.25          0.507         50.582       50.24488       3701.358          0.339          0.271          0.252          0.244          0.241          0.239        -64.421       -64.3138        -20.278      0.3669123     0.01089211        -999.25        -999.25
      5282.5000        -999.25           0.57         50.642       50.31585       3687.589          0.349          0.277          0.256          0.247          0.244          0.242        -63.917       -63.8019          -55.2      0.3684222     0.01901748        -999.25        -999.25
      5283.0000        -999.25          0.619          52.11       52.01431       3656.148          0.378          0.293          0.268          0.258          0.253          0.251        -63.895        -63.772        -83.527      0.4045598     0.01949207        -999.25        -999.25
      5283.5000        -999.25          0.649         57.696       58.47242       3616.918          0.434          0.322           0.29          0.278          0.271          0.268        -63.625       -63.4941        -93.385      0.5419664      0.0239032        -999.25        -999.25
      5284.0000        -999.25          0.675         63.785       65.51189        3577.93          0.508          0.357          0.316            0.3          0.291          0.288         -62.71       -62.5712        -77.544      0.6917424     0.03855236        -999.25        -999.25
      5284.5000        -999.25            0.7         65.933       67.99632       3546.747          0.555          0.376          0.329           0.31            0.3          0.296        -61.518       -61.3713        -54.817      0.7446026     0.05759842        -999.25        -999.25
      5285.0000        -999.25          0.693         64.865       66.76364       3527.698           0.55          0.372          0.325          0.305          0.295           0.29        -60.576       -60.4213        -44.551      0.7183753     0.07267779        -999.25        -999.25
      5285.5000        -999.25          0.641         62.946       64.54726       3523.711          0.521          0.359          0.315          0.296          0.285          0.281        -60.299       -60.1364        -41.114      0.6712182     0.07720003        -999.25        -999.25
      5286.0000        -999.25          0.587          60.77       62.03394       3534.603          0.495          0.349          0.308          0.289          0.278          0.274        -60.931       -60.7605        -39.644      0.6177435     0.06729362        -999.25        -999.25
      5286.5000        -999.25          0.562         60.489       61.71089       3559.424          0.477          0.344          0.306          0.287          0.276          0.272        -61.964       -61.7856        -50.976      0.6108701     0.05102224        -999.25        -999.25
      5287.0000        -999.25          0.558         62.194       63.68328       3595.301          0.457          0.337          0.303          0.284          0.274           0.27        -62.723       -62.5367        -76.014      0.6528358     0.03909998        -999.25        -999.25
      5287.5000        -999.25          0.581         61.873       63.31401       3639.386          0.426          0.324          0.294          0.277          0.268          0.264        -63.065       -62.8708        -94.085      0.6449789     0.03379682        -999.25        -999.25
      5288.0000        -999.25          0.627         57.102       57.80135       3687.961          0.388          0.304           0.28          0.265          0.257          0.253        -63.346       -63.1439        -90.269      0.5276883     0.02946188        -999.25        -999.25
      5288.5000        -999.25          0.674         51.172       50.94911       3738.057          0.353          0.283          0.264          0.251          0.244          0.241        -63.837        -63.627        -65.931       0.381896     0.02179367        -999.25        -999.25
      5289.0000        -999.25          0.719         48.658       48.04502       3786.539          0.328          0.267          0.251          0.241          0.235          0.231        -64.398         -64.18        -32.788      0.3201068     0.01301587        -999.25        -999.25
      5289.5000        -999.25          0.766         48.665       48.05485       3831.491          0.314          0.258          0.244          0.235          0.229          0.226        -64.713       -64.4871         -12.89      0.3203159     0.00814129        -999.25        -999.25
      5290.0000        -999.25          0.798         47.576        46.7979       3871.497          0.309          0.254          0.241          0.233          0.227          0.225        -64.724       -64.4902        -15.754      0.2935723    0.008092123        -999.25        -999.25
      5290.5000        -999.25          0.805          45.03       43.85693       3906.618           0.31          0.254          0.241          0.233          0.228          0.225         -64.32       -64.0783        -24.357      0.2309985     0.01463015        -999.25        -999.25
      5291.0000        -999.25          0.795         43.564       42.16424       3937.299          0.315          0.256          0.242          0.235           0.23          0.227        -63.465       -63.2154         -26.41      0.1949839     0.02832697        -999.25        -999.25
      5291.5000        -999.25          0.777         43.888       42.54046       3964.243          0.321          0.259          0.245          0.238          0.233           0.23        -62.615       -62.3575        -27.594      0.2029886     0.04194447        -999.25        -999.25
