#------------------------------------------------------------------------------
# Created by    : vladimir.rabinovich
# Created on    : 09/19/2023 17:20:47
#------------------------------------------------------------------------------
~Version Information Section
VERS.           2.0     :   CWLS log ASCII Standard - VERSION 2.0
WRAP.           NO      :   One line per depth step
~Well Information Section
#MNEM       .UNIT                                         VALUE :DESCRIPTION
#------------------------------------------------------------------------------
STRT        .FT                                             612 :START DEPTH
STOP        .FT                                            9868 :STOP DEPTH
STEP        .FT                                             0.5 :STEP      
NULL        .                                           -999.25 :NULL      
COMP        .                                      SHELL OIL CO :COMPANY   
WELL        .                               OCS G00950 ST00BP00 :WELL      
FLD         .                                           WILDCAT :FIELD     
LOC         .                                                   :LOCATION  
CNTY        .                                      EAST CAMERON :LOCATION  
STAT        .                                         LOUISIANA :STATE     
CTRY        .                                     UNITED STATES :COUNTRY   
SRVC        .                                                   :SERVICE COMPANY
DATE        .                             9/13/2023 11:18:15 AM :LOG DATE  
API         .                                    17703002450000 :API NUMBER
UWI         .                                    17703002450000 :UNIQUE WELL ID
XCOORD      .                                  1691932.89207312 :SURFACE X 
YCOORD      .                                   10460306.475122 :SURFACE Y 
LAT         .                                        28.8238717 :LATITUDE  
LON         .                                       -92.8390619 :LONGITUDE 
ELEV        .FT                                              75 :ELEVATION VALUE
ELEV_TYPE   .                                                KB :ELEVATION REFERENCE TYPE
~Curve Information Section
#MNEM       .UNIT                                      API CODE :CURVE DESCRIPTION
#------------------------------------------------------------------------------
DEPT        .FT                                                 :DEPTH     
ASN         .OHMM                                               :          
GR          .GAPI                                               :          
GR_NORM     .GAPI                                               :GammaRay Normalized
ILD         .OHMM                                               :          
SP          .MV                                                 :          
SP_NORM     .MV                                                 :SP Normalized
VSH_GR      .V/V                                                :Volume of Shale from GR
VSH_SP      .V/V                                                :Volume of Shale from SP
~A        DEPTH            ASN             GR        GR_NORM            ILD             SP        SP_NORM         VSH_GR         VSH_SP
# ...
      6777.5000         0.6614        -999.25        -999.25         0.3775       -61.1213       -23.4762        -999.25      0.6547618
      6778.0000          0.678        -999.25        -999.25         0.4024       -55.3881        -17.739        -999.25      0.7391323
      6778.5000         0.6945        -999.25        -999.25           0.42       -52.2424       -14.5893        -999.25      0.7854515
      6779.0000           0.71        -999.25        -999.25         0.4331       -49.4276       -11.7705        -999.25      0.8269044
      6779.5000         0.7215        -999.25        -999.25         0.4388       -47.5437        -9.8826        -999.25      0.8546677
      6780.0000         0.7085        -999.25        -999.25         0.4443       -45.8005        -8.1354        -999.25      0.8803618
      6780.5000         0.7008        -999.25        -999.25         0.4472       -43.9882        -6.3191        -999.25      0.9070721
      6781.0000         0.7018        -999.25        -999.25         0.4487       -42.2857        -4.6126        -999.25      0.9321676
      6781.5000         0.7143        -999.25        -999.25         0.4501       -41.0018        -3.3247        -999.25      0.9511073
      6782.0000         0.7377        -999.25        -999.25         0.4565       -40.6326        -2.9515        -999.25      0.9565956
      6782.5000          0.765        -999.25        -999.25         0.4649       -41.0573        -3.3722        -999.25      0.9504088
      6783.0000         0.7849        -999.25        -999.25         0.4749       -42.0227        -4.3335        -999.25      0.9362721
      6783.5000         0.7963        -999.25        -999.25         0.4856       -43.9388        -6.2456        -999.25      0.9081529
      6784.0000         0.7838        -999.25        -999.25         0.5005       -46.5684        -8.8712        -999.25      0.8695412
      6784.5000         0.7802        -999.25        -999.25         0.5173       -46.0005        -8.2993        -999.25      0.8779514
      6785.0000         0.7831        -999.25        -999.25         0.5329       -42.6573        -4.9521        -999.25       0.927175
      6785.5000          0.786        -999.25        -999.25         0.5482       -39.8376        -2.1284        -999.25         0.9687
      6786.0000         0.7807        -999.25        -999.25         0.5693       -37.9252         -0.212        -999.25      0.9968824
      6786.5000         0.7764        -999.25        -999.25         0.5882       -36.6598         1.0574        -999.25              1
      6787.0000         0.7804        -999.25        -999.25         0.6007       -35.7092          2.012        -999.25              1
      6787.5000          0.789        -999.25        -999.25         0.6044       -35.8444         1.8808        -999.25              1
      6788.0000         0.7918        -999.25        -999.25         0.6031       -36.3969         1.3323        -999.25              1
      6788.5000         0.7818        -999.25        -999.25         0.5934       -36.8469         0.8863        -999.25              1
      6789.0000         0.7692        -999.25        -999.25         0.5695       -37.0691         0.6614        -999.25              1
      6789.5000         0.7554        -999.25        -999.25          0.544       -37.5715         0.1435        -999.25              1
      6790.0000         0.7472        -999.25        -999.25         0.4826       -38.3561        -0.6565        -999.25      0.9903456
      6790.5000         0.7424        -999.25        -999.25         0.4073       -40.9388        -3.2547        -999.25      0.9521368
      6791.0000         0.7389        -999.25        -999.25         0.3445       -45.5461        -7.8775        -999.25      0.8841544
      6791.5000          0.731        -999.25        -999.25         0.3013       -53.4868       -15.8336        -999.25       0.767153
      6792.0000         0.7124        -999.25        -999.25         0.2733       -59.6399       -22.0022        -999.25      0.6764383
      6792.5000         0.6881        -999.25        -999.25         0.2537       -68.7854       -31.1632        -999.25      0.5417176
      6793.0000         0.6744        -999.25        -999.25         0.2439       -75.8323       -38.2255        -999.25      0.4378603
      6793.5000         0.6726        -999.25        -999.25         0.2453        -79.531       -41.9397        -999.25      0.3832397
      6794.0000         0.6806        -999.25        -999.25         0.2521       -80.0051       -42.4293        -999.25      0.3760397
      6794.5000         0.6817        -999.25        -999.25         0.2619       -77.8472       -40.2869        -999.25      0.4075456
      6795.0000         0.6806        -999.25        -999.25          0.275       -75.0669        -37.522        -999.25      0.4482059
      6795.5000         0.6866        -999.25        -999.25         0.2916       -71.2299       -33.7005        -999.25      0.5044044
      6796.0000          0.694        -999.25        -999.25          0.312       -68.3682       -30.8543        -999.25      0.5462603
      6796.5000         0.6975        -999.25        -999.25         0.3345       -66.5238       -29.0253        -999.25      0.5731574
      6797.0000         0.6909        -999.25        -999.25         0.3523       -65.3237       -27.8407        -999.25       0.590578
      6797.5000         0.6906        -999.25        -999.25         0.3574       -64.5636       -27.0961        -999.25      0.6015279
      6798.0000          0.679        -999.25        -999.25           0.35       -64.4603       -27.0082        -999.25      0.6028206
      6798.5000         0.6609        -999.25        -999.25         0.3386        -64.679       -27.2424        -999.25      0.5993765
      6799.0000         0.6459        -999.25        -999.25          0.327       -65.8744       -28.4533        -999.25      0.5815691
      6799.5000         0.6344        -999.25        -999.25         0.3179       -68.0027        -30.597        -999.25      0.5500441
      6800.0000          0.631        -999.25        -999.25         0.3087       -71.1904       -33.8002        -999.25      0.5029382
      6800.5000         0.6234        -999.25        -999.25         0.2997         -76.41       -39.0353        -999.25      0.4259515
      6801.0000         0.6091        -999.25        -999.25         0.2906       -78.2125       -40.8532        -999.25      0.3992177
      6801.5000         0.5878        -999.25        -999.25         0.2813       -77.1915       -39.8477        -999.25      0.4140044
      6802.0000         0.5816        -999.25        -999.25         0.2704       -76.8298       -39.5015        -999.25      0.4190956
      6802.5000         0.5889        -999.25        -999.25         0.2556       -79.1606       -41.8478        -999.25      0.3845912
      6803.0000         0.5777        -999.25        -999.25         0.2461       -84.4199       -47.1225        -999.25       0.307022
      6803.5000         0.5622        -999.25        -999.25          0.241       -88.8989        -51.617        -999.25      0.2409265
      6804.0000         0.5456        -999.25        -999.25         0.2399       -89.2643       -51.9979        -999.25       0.235325
      6804.5000         0.5358        -999.25        -999.25         0.2418       -85.5409       -48.2899        -999.25      0.2898544
      6805.0000         0.5399        -999.25        -999.25         0.2592       -79.5015        -42.266        -999.25      0.3784412
      6805.5000         0.5644        -999.25        -999.25         0.2813       -73.0027       -35.7827        -999.25      0.4737838
      6806.0000          0.594        -999.25        -999.25         0.3114       -68.4521       -31.2475        -999.25      0.5404779
      6806.5000         0.6199        -999.25        -999.25          0.346       -66.3151        -29.126        -999.25      0.5716765
