#------------------------------------------------------------------------------
# Created by    : vladimir.rabinovich
# Created on    : 09/19/2023 17:20:47
#------------------------------------------------------------------------------
~Version Information Section
VERS.           2.0     :   CWLS log ASCII Standard - VERSION 2.0
WRAP.           NO      :   One line per depth step
~Well Information Section
#MNEM       .UNIT                                         VALUE :DESCRIPTION
#------------------------------------------------------------------------------
STRT        .FT                                            2030 :START DEPTH
STOP        .FT                                            9342 :STOP DEPTH
STEP        .FT                                             0.5 :STEP      
NULL        .                                           -999.25 :NULL      
COMP        .                                      SHELL OIL CO :COMPANY   
WELL        .                               OCS G00950 ST00BP00 :WELL      
FLD         .                           EAST CAMERON BLOCK 0193 :FIELD     
LOC         .                                                   :LOCATION  
CNTY        .                                      EAST CAMERON :LOCATION  
STAT        .                                         LOUISIANA :STATE     
CTRY        .                                     UNITED STATES :COUNTRY   
SRVC        .                                                   :SERVICE COMPANY
DATE        .                             9/13/2023 11:18:15 AM :LOG DATE  
API         .                                    17703004920000 :API NUMBER
UWI         .                                    17703004920000 :UNIQUE WELL ID
XCOORD      .                                  1684363.85071557 :SURFACE X 
YCOORD      .                                  10458597.1936422 :SURFACE Y 
LAT         .                                        28.8191951 :LATITUDE  
LON         .                                       -92.8627139 :LONGITUDE 
ELEV        .FT                                              75 :ELEVATION VALUE
ELEV_TYPE   .                                                KB :ELEVATION REFERENCE TYPE
~Curve Information Section
#MNEM       .UNIT                                      API CODE :CURVE DESCRIPTION
#------------------------------------------------------------------------------
DEPT        .FT                                                 :DEPTH     
ASN         .OHMM                                               :          
CILM        .MMHO                                               :          
ILM         .OHMM                                               :          
LN          .OHMM                                               :          
SP          .MV                                                 :          
SP_NORM     .MV                                                 :SP Normalized
VSH_SP      .V/V                                                :Volume of Shale from SP
~A        DEPTH            ASN           CILM            ILM             LN             SP        SP_NORM         VSH_SP
# ...
      6385.0000         0.2486        4640.93           0.21        -999.25      -128.5796       -72.3008              0
      6385.5000         0.2501       4609.688         0.2162        -999.25      -127.9574       -71.6694              0
      6386.0000         0.2515       4570.539         0.2224        -999.25       -126.998       -70.7008              0
      6386.5000         0.2529       4528.609         0.2286        -999.25      -125.5739       -69.2674     0.01077349
      6387.0000         0.2553       4477.469         0.2359        -999.25      -123.7872       -67.4715     0.03718387
      6387.5000         0.2581       4399.641         0.2433        -999.25       -121.545       -65.2201     0.07029264
      6388.0000         0.2616       3969.785         0.2507        -999.25      -119.1539       -62.8198      0.1055912
      6388.5000         0.2652       3899.621         0.2581        -999.25      -114.2767       -57.9333      0.1774515
      6389.0000         0.2692       3832.609         0.2659        -999.25      -108.8915       -52.5389      0.2567809
      6389.5000         0.2763       3761.004         0.2778        -999.25      -106.0481       -49.6863      0.2987309
      6390.0000         0.2835       3693.723         0.2896        -999.25      -103.4316       -47.0606      0.3373441
      6390.5000         0.2918       3635.824         0.3012        -999.25      -105.2047       -48.8244      0.3114059
      6391.0000         0.3014       3596.074         0.3094        -999.25      -106.4613       -50.0718      0.2930618
      6391.5000         0.3134       3571.969         0.3176        -999.25      -107.4215       -51.0228      0.2790765
      6392.0000         0.3214       3581.215         0.3203        -999.25        -106.59       -50.1821      0.2914397
      6392.5000         0.3304           3691         0.3169        -999.25      -100.6205       -44.2033      0.3793632
      6393.0000         0.3399       3958.082         0.3134        -999.25       -96.1057       -39.6793      0.4458927
      6393.5000         0.3494       4013.551         0.3097        -999.25       -97.2251       -40.7895      0.4295661
      6394.0000         0.3604       4078.215         0.3052        -999.25       -100.021       -43.5762      0.3885853
      6394.5000         0.3437       4134.805         0.3008        -999.25      -103.7568       -47.3027      0.3337838
      6395.0000         0.3327        4183.82         0.2964        -999.25      -113.7754       -57.3121      0.1865868
      6395.5000         0.3235       4232.883          0.292        -999.25      -122.3325         -65.86     0.06088234
      6396.0000          0.321       4276.172         0.2893        -999.25      -124.0413       -67.5595     0.03588968
      6396.5000         0.3283        4209.07          0.291        -999.25      -125.2581       -68.7671     0.01813092
      6397.0000         0.3357       4118.883         0.2959        -999.25      -124.3427       -67.8425     0.03172796
      6397.5000         0.3431        4044.75         0.3085        -999.25      -122.3054        -65.796     0.06182357
      6398.0000         0.3505       3805.195         0.3211        -999.25      -120.0311       -63.5124     0.09540586
      6398.5000         0.3578       2885.648         0.3337        -999.25      -115.3267       -58.7988      0.1647235
      6399.0000         0.3715        2915.59         0.3419        -999.25      -110.2157       -53.6786      0.2400206
      6399.5000          0.387       3218.078         0.3423        -999.25      -106.8457       -50.2994      0.2897147
      6400.0000         0.4038        3270.07          0.335        -999.25       -81.0981       -24.5425      0.6684927
      6400.5000         0.4149       3558.805         0.3276        -999.25       -79.1371       -22.5723      0.6974662
      6401.0000         0.3857       3795.816         0.3203        -999.25      -103.1539       -46.5799      0.3444133
      6401.5000         0.3509       3924.781         0.3129        -999.25      -123.4824       -66.8992     0.04559999
      6402.0000         0.3286       3989.719         0.3056        -999.25      -125.7787       -69.1862      0.0119676
      6402.5000         0.3156       3988.875         0.2971        -999.25      -126.3308       -69.7291    0.003983778
      6403.0000         0.3093       3958.375         0.2873        -999.25      -124.5831       -67.9722     0.02982061
      6403.5000         0.3053       3927.906         0.2775        -999.25      -122.9896       -66.3695     0.05338972
      6404.0000         0.3013       4069.285          0.268        -999.25      -121.1099       -64.4805     0.08116913
      6404.5000         0.2986       4273.016         0.2615        -999.25      -119.3893       -62.7507      0.1066073
      6405.0000         0.2958       4370.867          0.255        -999.25      -117.5553       -60.9075      0.1337132
      6405.5000         0.2889       4449.602         0.2484        -999.25      -115.0455       -58.3885      0.1707574
      6406.0000         0.2801       4500.875         0.2423        -999.25      -112.6104       -55.9441      0.2067044
      6406.5000         0.2676       4536.945         0.2391        -999.25       -108.275       -51.5995      0.2705956
      6407.0000         0.2401       4528.992         0.2359        -999.25      -112.3157        -55.631      0.2113088
      6407.5000         0.2558       4500.375         0.2327        -999.25      -115.0116       -58.3176         0.1718
      6408.0000         0.2683       4449.148         0.2317        -999.25       -117.562       -60.8588      0.1344294
      6408.5000         0.2745           4394         0.2326        -999.25      -112.7932       -56.0808      0.2046941
      6409.0000         0.2758       4361.898         0.2334        -999.25       -109.833       -53.1114      0.2483618
      6409.5000         0.2755       4388.188         0.2342        -999.25       -107.623       -50.8921      0.2809985
      6410.0000         0.2753       4417.859         0.2376        -999.25         -104.8       -48.0599      0.3226486
      6410.5000         0.2759       4441.547          0.241        -999.25      -100.1769       -43.4276      0.3907706
      6411.0000         0.2779       4438.102         0.2445        -999.25      -104.0989       -47.3404      0.3332294
      6411.5000         0.2799       4405.273         0.2556        -999.25      -106.6052       -49.8374      0.2965088
      6412.0000         0.2845       4372.398         0.2668        -999.25      -108.4858       -51.7088      0.2689882
      6412.5000          0.291       3975.105         0.2822        -999.25      -109.4241       -52.6379       0.255325
      6413.0000          0.298       3906.836         0.2986        -999.25      -108.4105       -51.6151      0.2703662
      6413.5000         0.3078       3643.219         0.3151        -999.25      -103.5875       -46.7828      0.3414294
      6414.0000         0.3183       3471.684         0.3317        -999.25      -100.1193       -43.3054      0.3925676
      6414.5000          0.331       3354.258         0.3483        -999.25       -90.4733       -33.6502      0.5345559
      6415.0000         0.3482       3215.191         0.3648        -999.25        -73.166       -16.3336      0.7892118
      6415.5000         0.3638       3071.434         0.3653        -999.25       -70.6808       -13.8392      0.8258941
      6416.0000         0.3807       2858.953         0.3652        -999.25       -71.7249       -14.8741       0.810675
      6416.5000         0.3974       2620.137         0.3613        -999.25       -72.8798       -16.0198      0.7938265
      6417.0000         0.4129       2382.043         0.3546        -999.25        -71.713       -14.8437      0.8111221
      6417.5000         0.4284       2238.012         0.3479        -999.25       -70.3549       -13.4764      0.8312294
      6418.0000          0.435       2230.574         0.3384        -999.25       -68.7324       -11.8447       0.855225
