#------------------------------------------------------------------------------
# Created by    : vladimir.rabinovich
# Created on    : 09/19/2023 17:21:07
#------------------------------------------------------------------------------
~Version Information Section
VERS.           2.0     :   CWLS log ASCII Standard - VERSION 2.0
WRAP.           NO      :   One line per depth step
~Well Information Section
#MNEM       .UNIT                                         VALUE :DESCRIPTION
#------------------------------------------------------------------------------
STRT        .FT                                            3895 :START DEPTH
STOP        .FT                                         10595.5 :STOP DEPTH
STEP        .FT                                             0.5 :STEP      
NULL        .                                           -999.25 :NULL      
COMP        .                               TALOS PETROLEUM LLC :COMPANY   
WELL        .                                OCS 00300 ST00BP00 :WELL      
FLD         .                           WEST CAMERON BLOCK 0045 :FIELD     
LOC         .                                                   :LOCATION  
CNTY        .                                      WEST CAMERON :LOCATION  
STAT        .                                         LOUISIANA :STATE     
CTRY        .                                     UNITED STATES :COUNTRY   
SRVC        .                                                   :SERVICE COMPANY
DATE        .                             9/13/2023 11:18:36 AM :LOG DATE  
API         .                                    17700410070000 :API NUMBER
UWI         .                                    17700410070000 :UNIQUE WELL ID
XCOORD      .                                  1453771.49108141 :SURFACE X 
YCOORD      .                                  10773222.7644816 :SURFACE Y 
LAT         .                                        29.6835328 :LATITUDE  
LON         .                                       -93.5879752 :LONGITUDE 
ELEV        .FT                                             100 :ELEVATION VALUE
ELEV_TYPE   .                                                KB :ELEVATION REFERENCE TYPE
~Curve Information Section
#MNEM       .UNIT                                      API CODE :CURVE DESCRIPTION
#------------------------------------------------------------------------------
DEPT        .FT                                                 :DEPTH     
ATR         .OHMM                                               :          
CATR        .MMHO                                               :          
DCAL        .IN                                                 :          
DRHB        .G/C3                                               :          
GR          .GAPI                                               :          
GR_NORM     .GAPI                                               :GammaRay Normalized
PSR         .OHMM                                               :          
RHOB        .G/C3                                               :          
ROP5        .F/HR                                               :          
TNPH        .%                                                  :          
VSH_GR      .V/V                                                :Volume of Shale from GR
~A        DEPTH            ATR           CATR           DCAL           DRHB             GR        GR_NORM            PSR           RHOB           ROP5           TNPH         VSH_GR
# ...
      8800.0000           0.18       5555.555           0.05           0.06           54.9       35.93394           0.19           2.18          48.52             33     0.06242435
      8800.5000           0.19       5263.156              0           0.05          60.56       41.40078           0.21           2.19             47             34        0.17874
      8801.0000           0.19       5263.156              0           0.03          64.62       45.32219           0.21           2.17          44.89             34      0.2621742
      8801.5000           0.19       5263.156           0.07           0.01        65.1699       45.85343            0.2           2.14          38.96             35      0.2734773
      8802.0000           0.19       5263.156           0.16           0.02          63.24       43.98928           0.19           2.13        37.1899             33      0.2338145
      8802.5000           0.19       5263.156           0.18           0.04          61.97       42.76272            0.2           2.16        38.6299             33      0.2077175
      8803.0000           0.21       4761.898           0.18           0.07          62.31       43.09105           0.21           2.19           43.8             33      0.2147033
      8803.5000           0.21       4761.898           0.18           0.08          64.33       45.04213           0.22            2.2          46.39             36      0.2562156
      8804.0000           0.22       4545.453           0.13           0.08        74.5099       54.87469           0.21           2.22          68.97             39      0.4654189
      8804.5000           0.36       2777.777           0.19           0.07        87.5699       67.48903           0.37           2.27          77.59             42      0.7338091
      8805.0000           0.43       2325.578           0.23           0.07        99.4399       78.95393           0.57           2.34          81.09             46      0.9777433
      8805.5000           0.51       1960.783            0.2           0.06       104.0199       83.37754           0.54            2.4          81.09             47              1
      8806.0000           0.54       1851.852           0.23           0.07       107.4299       86.67116           0.55           2.43          81.45             48              1
      8806.5000           0.55       1818.182           0.22           0.08       111.5199       90.62161           0.57           2.43          101.7             46              1
      8807.0000           0.58       1724.137           0.34           0.13       111.1799       90.29327            0.6           2.41          81.45             45              1
      8807.5000            0.6       1666.666           0.49           0.14       110.2899       89.43356           0.61           2.35          81.45             44              1
      8808.0000           0.63       1587.301            0.8           0.14         105.72       85.01971           0.62           2.32          68.45             43              1
      8808.5000           0.61       1639.344           0.94           0.12       106.0399       85.32864           0.65           2.29        64.5199             42              1
      8809.0000            0.6       1666.666           0.88           0.11         104.98       84.30497            0.6           2.32        64.5199             44              1
      8809.5000           0.56       1785.713           0.74            0.1         107.34       86.58439           0.52           2.36          64.99             46              1
      8810.0000           0.56       1785.713            0.7           0.07         107.45       86.69057           0.54           2.39        56.2599             49              1
      8810.5000           0.57       1754.385           0.74           0.06         106.33       85.60885           0.57           2.38        56.2599             47              1
      8811.0000           0.57       1754.385           0.75           0.06       107.6599       86.89332           0.56           2.38          54.39             43              1
      8811.5000           0.57       1754.385           0.72           0.08       108.1599       87.37628           0.56           2.39          54.39             43              1
      8812.0000           0.58       1724.137            0.7           0.09       111.0099       90.12903           0.57            2.4        58.2599             42              1
      8812.5000           0.58       1724.137           0.71           0.09            111       90.11954           0.57            2.4          60.41             43              1
      8813.0000           0.58       1724.137           0.69           0.09       113.2799       92.32151           0.57            2.4          65.22             42              1
      8813.5000           0.58       1724.137            0.7            0.1         112.95       92.00294           0.56           2.41          65.22             39              1
      8814.0000           0.59       1694.914           0.62            0.1       112.3199        91.3944           0.56           2.42          62.29             39              1
      8814.5000            0.6       1666.666           0.59           0.09       109.9299       89.08594           0.58            2.4        62.0699             35              1
      8815.0000           0.61       1639.344            0.5           0.07       105.5199       84.82643           0.64           2.38          61.86             35              1
      8815.5000           0.59       1694.914           0.42           0.07          98.33       77.88182            0.6           2.37        70.0399             33      0.9549323
      8816.0000           0.59       1694.914           0.39           0.08          92.62        72.3667           0.65           2.37        70.0399             34      0.8375893
      8816.5000           0.59       1694.914           0.39            0.1        91.9099       71.68086           0.65           2.38        67.6699             34      0.8229971
      8817.0000           0.57       1754.385           0.47           0.11          93.34       73.06219           0.73           2.36        66.1799             35      0.8523871
      8817.5000            0.5           2000           0.56           0.11        94.1799       73.87334           0.46           2.35        70.3099             36      0.8696457
      8818.0000           0.46        2173.91           0.64           0.07        95.3199       74.97447           0.52           2.33        72.2899             36      0.8930739
      8818.5000           0.46        2173.91           0.59           0.07        97.0199       76.61646           0.45           2.32        71.4299             36      0.9280099
      8819.0000           0.45       2222.219           0.49           0.07        94.9099       74.57845            0.5           2.28        73.1699             39      0.8846478
      8819.5000           0.37       2702.699           0.39           0.11        87.3199       67.24747           0.43           2.31          71.71             41      0.7286697
      8820.0000            0.3       3333.332           0.46           0.11        82.1599       62.26357           0.32           2.34        70.3099             41       0.622629
      8820.5000           0.25           4000           0.42            0.1          79.99       60.16765            0.2           2.38        70.3099             36      0.5780351
      8821.0000           0.36       2777.777           0.36           0.07        81.4099       61.53922           0.35           2.36        76.9199             33      0.6072174
      8821.5000           0.45       2222.219           0.32           0.05        82.8099       62.89138           0.51           2.32        76.9199             33      0.6359869
      8822.0000           0.43       2325.578           0.44           0.06             86       65.97261           0.51            2.3          81.45             36      0.7015449
