#------------------------------------------------------------------------------
# Created by    : vladimir.rabinovich
# Created on    : 09/19/2023 17:21:58
#------------------------------------------------------------------------------
~Version Information Section
VERS.           2.0     :   CWLS log ASCII Standard - VERSION 2.0
WRAP.           NO      :   One line per depth step
~Well Information Section
#MNEM       .UNIT                                         VALUE :DESCRIPTION
#------------------------------------------------------------------------------
STRT        .FT                                            3382 :START DEPTH
STOP        .FT                                           10910 :STOP DEPTH
STEP        .FT                                             0.5 :STEP      
NULL        .                                           -999.25 :NULL      
COMP        .                               B P EXPLORATION INC :COMPANY   
WELL        .                               OCS G07597 ST00BP00 :WELL      
FLD         .                           WEST CAMERON BLOCK 0045 :FIELD     
LOC         .                                                   :LOCATION  
CNTY        .                                      WEST CAMERON :LOCATION  
STAT        .                                         LOUISIANA :STATE     
CTRY        .                                     UNITED STATES :COUNTRY   
SRVC        .                                                   :SERVICE COMPANY
DATE        .                             9/13/2023 11:18:09 AM :LOG DATE  
API         .                                    17700407640000 :API NUMBER
UWI         .                                    17700407640000 :UNIQUE WELL ID
XCOORD      .                                  1473636.79229916 :SURFACE X 
YCOORD      .                                   10762774.556795 :SURFACE Y 
LAT         .                                        29.6550545 :LATITUDE  
LON         .                                       -93.5252479 :LONGITUDE 
ELEV        .FT                                              90 :ELEVATION VALUE
ELEV_TYPE   .                                                KB :ELEVATION REFERENCE TYPE
~Curve Information Section
#MNEM       .UNIT                                      API CODE :CURVE DESCRIPTION
#------------------------------------------------------------------------------
DEPT        .FT                                                 :DEPTH     
CALI        .IN                                                 :          
DRHO        .G/C3                                               :          
DT          .US/F                                               :          
GR          .GAPI                                               :          
GR_1        .GAPI                                               :          
GR_NORM     .GAPI                                               :GammaRay Normalized
ILD         .OHMM                                               :          
ILM         .OHMM                                               :          
NPHI        .%                                                  :          
RHOB        .G/C3                                               :          
SFL         .OHMM                                               :          
SP          .MV                                                 :          
SP_NORM     .MV                                                 :SP Normalized
VSH_GR      .V/V                                                :Volume of Shale from GR
VSH_SP      .V/V                                                :Volume of Shale from SP
~A        DEPTH           CALI           DRHO             DT             GR           GR_1        GR_NORM            ILD            ILM           NPHI           RHOB            SFL             SP        SP_NORM         VSH_GR         VSH_SP
# ...
      3484.0000        -999.25        -999.25        -999.25        18.8101        -999.25       32.85714        -999.25        -999.25        -999.25        -999.25         1.7389      -114.2084       -28.5979              0       0.550914
      3484.5000        -999.25        -999.25        -999.25        20.3705        -999.25       36.56568        -999.25        -999.25        -999.25        -999.25         1.8219      -116.6569       -31.0755     0.07586556      0.5074474
      3485.0000        -999.25        -999.25        -999.25        22.2007        -999.25       40.91717        -999.25        -999.25        -999.25        -999.25         1.6166      -118.1501       -32.5979      0.1684505      0.4807386
      3485.5000        -999.25        -999.25        -999.25        22.8234        -999.25       42.39111        -999.25        -999.25        -999.25        -999.25         1.2773      -118.6133       -33.0902      0.1998108      0.4721018
      3486.0000        -999.25        -999.25        -999.25         23.301        -999.25       43.51922        -999.25        -999.25        -999.25        -999.25          0.827      -119.0973       -33.6034      0.2238132      0.4630982
      3486.5000        -999.25        -999.25        -999.25        24.0806        -999.25       45.36708        -999.25        -999.25        -999.25        -999.25         0.6547       -120.281       -34.8162      0.2631294       0.441821
      3487.0000        -999.25        -999.25        -999.25         24.775        -999.25       47.01188        -999.25        -999.25        -999.25        -999.25         0.6996      -121.6996       -36.2639       0.298125      0.4164228
      3487.5000        -999.25        -999.25        -999.25        25.2871        -999.25       48.22224        -999.25        -999.25        -999.25        -999.25          0.714      -124.0198       -38.6133      0.3238774      0.3752052
      3488.0000        -999.25        -999.25        -999.25        25.1087        -999.25       47.78708        -999.25        -999.25        -999.25        -999.25         0.7157      -127.7311       -42.3537      0.3146186      0.3095842
      3488.5000        -999.25        -999.25        -999.25        23.9324        -999.25       44.97387        -999.25        -999.25        -999.25        -999.25         0.7013      -132.2817       -46.9335      0.2547632      0.2292369
      3489.0000        -999.25        -999.25        -999.25        22.9473        -999.25        42.6163        -999.25        -999.25        -999.25        -999.25         0.6669      -127.8556       -42.5365      0.2046022      0.3063772
      3489.5000        -999.25        -999.25        -999.25        21.9706        -999.25       40.27872        -999.25        -999.25        -999.25        -999.25         0.6151      -119.9023       -34.6124      0.1548664      0.4453965
      3490.0000        -999.25        -999.25        -999.25        22.0631        -999.25       40.48915        -999.25        -999.25        -999.25        -999.25         0.5731      -121.8253       -36.5645      0.1593436      0.4111491
      3490.5000        -999.25        -999.25        -999.25         22.437        -999.25       41.37019        -999.25        -999.25        -999.25        -999.25         0.5579      -123.9353       -38.7037      0.1780891      0.3736193
      3491.0000        -999.25        -999.25       150.3726        22.9641        -999.25        42.6163        -999.25        -999.25        -999.25        -999.25         0.6365      -123.8441       -38.6416      0.2046022      0.3747087
      3491.5000        -999.25        -999.25       146.8171        23.4411        -999.25       43.74302        -999.25        -999.25        -999.25        -999.25         0.7073      -129.3152       -44.1418      0.2285749       0.278214
      3492.0000        15.3947         0.0154        141.689        23.7901        32.1442       44.56467        -999.25        -999.25        56.7435         2.2421         0.7446      -134.9595       -49.8153      0.2460567      0.1786789
      3492.5000        14.9006        -0.0196       137.3279        24.0919        31.9991       45.27389        -999.25        -999.25        57.0561         2.1515         0.7342      -130.0823       -44.9672      0.2611466      0.2637333
      3493.0000        14.4957        -0.0655        132.876        23.7686        31.6004        44.4937        -999.25        -999.25        57.9101         2.0518           0.68      -128.3667       -43.2808      0.2445468      0.2933193
      3493.5000        14.2615        -0.0925        127.952        22.3831        30.7854       41.18193        -999.25        -999.25        57.4217         1.9947         0.6115       -130.877       -45.8202      0.1740837      0.2487684
      3494.0000         14.177        -0.1033       125.5735         19.576        28.5682        34.4824        -999.25        -999.25        57.2256         1.9721         0.5853       -132.605       -47.5773     0.03154049      0.2179421
      3494.5000        14.1483        -0.1026       124.6798        17.9426        27.3176       30.57987        -999.25        -999.25        57.1073          1.979         0.5672       -129.071       -44.0725              0      0.2794299
      3495.0000        14.1582          -0.09       125.3116        18.4937        27.4676       31.88318        -999.25        -999.25        56.0716         2.0273         0.5567      -124.9189       -39.9495              0      0.3517631
      3495.5000        14.1892        -0.0583       127.5548        20.4415        27.7079       36.51491        -999.25        -999.25        55.4987         2.0512         0.5504      -129.6714       -44.7312     0.07478535      0.2678737
      3496.0000        14.2178        -0.0358       131.0964        22.0313        27.7538       40.29351        -999.25        -999.25        55.2141         2.0559         0.5539      -130.0898       -45.1787       0.155181      0.2600228
      3496.5000        14.2536        -0.0342       133.1995        23.5476        27.5167       43.89695        -999.25        -999.25        55.5651          2.036         0.5661      -129.6887       -44.8068        0.23185      0.2665474
      3497.0000        14.3167        -0.0482       134.2268        25.2924        27.1119       48.04494        -999.25        -999.25        56.4636         2.0232         0.5758       -138.885       -54.0322      0.3201052      0.1046982
      3497.5000        14.4115        -0.0551       134.8855        26.9999        27.2914       52.10402        -999.25        -999.25        56.7195          2.029         0.5813      -135.5222       -50.6985      0.4064686      0.1631842
      3498.0000        14.5163        -0.0524       135.2273        28.7347        28.8031       56.22815        -999.25        -999.25        56.9803          2.051         0.5862      -128.1631       -43.3686       0.494216       0.291779
      3498.5000        14.6366          -0.06       134.9978        29.6887        29.8965       58.49158        -999.25        -999.25        57.4131         2.0479         0.5886      -131.8721       -47.1067      0.5423741      0.2261982
      3499.0000        14.7209        -0.0729       134.1975        29.9098         30.046       59.00848        -999.25        -999.25        56.1631         2.0436         0.5868      -132.7065       -47.9703      0.5533719      0.2110474
      3499.5000        14.7567        -0.0734       132.4888        27.9763        31.0884       54.39083        -999.25        -999.25        55.9027         2.0517         0.5814      -132.9194       -48.2123       0.455124      0.2068018
      3500.0000        14.7813        -0.0632        130.698        22.3495        31.7704       40.97172        -999.25        -999.25        54.9152         2.0536         0.5709      -134.5359        -49.858       0.169611      0.1779298
      3500.5000        14.8074        -0.0688        130.302        20.9584        30.6412       37.64664        -999.25        -999.25        53.5435          2.043         0.5542      -136.9795       -52.3307      0.0988647      0.1345491
