#------------------------------------------------------------------------------
# Created by    : vladimir.rabinovich
# Created on    : 09/19/2023 17:20:43
#------------------------------------------------------------------------------
~Version Information Section
VERS.           2.0     :   CWLS log ASCII Standard - VERSION 2.0
WRAP.           NO      :   One line per depth step
~Well Information Section
#MNEM       .UNIT                                         VALUE :DESCRIPTION
#------------------------------------------------------------------------------
STRT        .FT                                            2986 :START DEPTH
STOP        .FT                                           10006 :STOP DEPTH
STEP        .FT                                             0.5 :STEP      
NULL        .                                           -999.25 :NULL      
COMP        .                                        CONOCO INC :COMPANY   
WELL        .                                OCS 00764 ST00BP00 :WELL      
FLD         .                           WEST CAMERON BLOCK 0192 :FIELD     
LOC         .                                                   :LOCATION  
CNTY        .                                      WEST CAMERON :LOCATION  
STAT        .                                         LOUISIANA :STATE     
CTRY        .                                     UNITED STATES :COUNTRY   
SRVC        .                                                   :SERVICE COMPANY
DATE        .                             9/13/2023 11:18:18 AM :LOG DATE  
API         .                                    17700003670000 :API NUMBER
UWI         .                                    17700003670000 :UNIQUE WELL ID
XCOORD      .                                  1596137.97932418 :SURFACE X 
YCOORD      .                                  10614860.5046116 :SURFACE Y 
LAT         .                                         29.249106 :LATITUDE  
LON         .                                        -93.138896 :LONGITUDE 
ELEV        .FT                                              84 :ELEVATION VALUE
ELEV_TYPE   .                                                KB :ELEVATION REFERENCE TYPE
~Curve Information Section
#MNEM       .UNIT                                      API CODE :CURVE DESCRIPTION
#------------------------------------------------------------------------------
DEPT        .FT                                                 :DEPTH     
ASN         .OHMM                                               :          
CALI        .IN                                                 :          
CALI_1      .IN                                                 :          
DRHO        .G/C3                                               :          
DT          .US/F                                               :          
GR          .GAPI                                               :          
ILD         .OHMM                                               :          
RHOB        .G/C3                                               :          
SP          .MV                                                 :          
SP_NORM     .MV                                                 :SP Normalized
VSH_SP      .V/V                                                :Volume of Shale from SP
~A        DEPTH            ASN           CALI         CALI_1           DRHO             DT             GR            ILD           RHOB             SP        SP_NORM         VSH_SP
# ...
      4718.5000         0.8604        10.9328        10.7267         0.0115       135.5823        72.8546          0.608         2.2598       -51.3224      -5.168556      0.7684135
      4719.0000          0.856        10.9068         10.675         0.0087       136.5806        71.2738         0.5905         2.2514       -51.4223      -5.268456      0.7628636
      4719.5000         0.8523        10.8841        10.6258         0.0173       134.0925        68.5394         0.5796         2.2359       -51.6899      -5.536057      0.7479969
      4720.0000         0.8494        10.8536        10.5577          0.028       131.2461        66.6614         0.5689         2.2234       -52.3147      -6.160858      0.7132857
      4720.5000         0.8458        10.8046        10.4767         0.0218       128.5105        68.7107         0.5582          2.203       -53.1442      -6.990356      0.6672024
      4721.0000         0.8413        10.7556        10.5125         0.0098       128.5332        71.7621         0.5547         2.2194       -53.7678      -7.613956       0.632558
      4721.5000         0.8343        10.7066        10.6381         0.0102       128.5076        73.3143         0.5565         2.2515       -54.3026      -8.148758      0.6028468
      4722.0000          0.832        10.6692        10.7436         0.0123       127.3842        73.3921         0.5769         2.2513       -54.2231      -8.069256      0.6072636
      4722.5000         0.8347        10.6508        10.6886         0.0117       126.2433         73.479         0.5998         2.2433       -53.6783      -7.524456      0.6375302
      4723.0000         0.8474        10.6547        10.6393         0.0092       125.8481        73.0997         0.6261         2.2379       -53.0995      -6.945656      0.6696858
      4723.5000         0.8617        10.6725        10.6075         0.0157       126.2832        69.5217          0.645         2.2319       -52.6115      -6.457657      0.6967968
      4724.0000         0.8729         10.691        10.4869         0.0155       127.7169        61.4034         0.6581          2.222       -52.5739      -6.420055      0.6988858
      4724.5000         0.8801         10.675         10.207         0.0061       129.4556        58.7246         0.6596         2.2107       -52.7558      -6.601955      0.6887802
      4725.0000           0.88        10.5933        10.3201         0.0042       128.7349        60.6652         0.6505         2.2113       -53.3188      -7.164959      0.6575023
      4725.5000         0.8736        10.4682          10.37         0.0062        126.619        66.2894         0.6359         2.2151       -53.9301      -7.776257      0.6235413
      4726.0000         0.8677        10.3634        10.4345         0.0088       124.6272        72.3929         0.6183          2.222       -54.4466      -8.292759      0.5948467
      4726.5000         0.8553        10.3154        10.5345         0.0147       122.7938        73.8723         0.6022         2.2395       -54.5322      -8.378357      0.5900913
      4727.0000         0.8345        10.3195        10.6078         0.0182       123.0259        74.5447         0.5891         2.2419       -54.0038      -7.849957      0.6194469
      4727.5000         0.8122        10.3456        10.6512         0.0149       125.6244        74.5736         0.5775         2.2399       -53.4919      -7.338058      0.6478856
      4728.0000         0.7943        10.4252        10.6484         0.0112       128.2202        74.3771         0.5749         2.2361       -52.9313      -6.777458      0.6790301
      4728.5000         0.7921        10.3831        10.5895          0.007       130.8188        74.4379         0.5727          2.225       -52.5139      -6.360058       0.702219
      4729.0000         0.7972        10.3798        10.5108         0.0037        131.488        73.3566         0.5722         2.2123       -52.5673      -6.413456      0.6992524
      4729.5000         0.7986        10.3511        10.4091          0.001       130.5303          71.64         0.5716         2.2128       -52.8185      -6.664658      0.6852968
      4730.0000         0.7989        10.3091         10.318         0.0008       129.3525        69.7826         0.5617          2.224       -53.1959      -7.042057      0.6643302
      4730.5000         0.7983        10.2575        10.2412         0.0061       128.1909        68.5125         0.5514         2.2225       -53.6886      -7.534756       0.636958
      4731.0000         0.7975        10.2457        10.1814         0.0159       127.1747        67.9863         0.5396         2.2161       -54.2816      -8.127758      0.6040134
      4731.5000         0.7935        10.2585        10.1632         0.0251       126.5803        67.2841         0.5291         2.2153        -54.912      -8.758156      0.5689914
      4732.0000         0.7873        10.2601        10.2211          0.032       127.1281        68.6064         0.5241         2.2226       -55.4458      -9.291958      0.5393357
      4732.5000         0.7843        10.2569        10.2663         0.0309        127.004        72.4767         0.5219         2.2361        -55.767      -9.613155      0.5214913
      4733.0000         0.7829        10.2457        10.3015          0.017       126.4948        73.6536          0.524         2.2169       -55.6915      -9.537659      0.5256856
      4733.5000         0.7839        10.2578         10.332         0.0114       126.8425        73.1981         0.5372          2.216       -55.3138      -9.159958       0.546669
      4734.0000          0.797        10.2936        10.3593         0.0086       126.8788        72.5613         0.5531         2.2218       -54.7913      -8.637459      0.5756967
      4734.5000         0.8019        10.3074        10.3955         0.0088       126.6548        74.1617          0.572         2.2362       -54.3915      -8.237656       0.597908
      4735.0000         0.8005        10.3231        10.4403         0.0099       126.5878        76.1067         0.5873         2.2457       -54.0154      -7.861557      0.6188024
      4735.5000         0.7977        10.3381        10.5121         0.0118       126.0474        78.0458         0.6009         2.2459       -53.6259      -7.472057      0.6404412
      4736.0000          0.795        10.3503        10.6251         0.0159       126.9015        79.4198         0.6223         2.2453       -52.7975      -6.643658      0.6864635
      4736.5000         0.7937        10.3569        10.7964         0.0211       128.0686        79.5842         0.6433         2.2432       -51.9105      -5.756657      0.7357413
      4737.0000         0.7972        10.3277        11.0605         0.0237       130.5388        78.7161         0.6467         2.2402       -51.2289      -5.075058      0.7736079
      4737.5000         0.8025        10.3279        11.4202         0.0232       135.6865         77.469         0.6573         2.2458       -50.8195      -4.665657      0.7963524
      4738.0000         0.8084        10.3282        10.7595         0.0258       139.3167        76.7336          0.657         2.2524       -50.6127      -4.458858      0.8078412
      4738.5000          0.811        10.3294        10.5824         0.0283       138.4692        78.4789         0.6629         2.2543       -50.6705      -4.516659        0.80463
      4739.0000         0.8079        10.3334        10.7438         0.0118       136.1165        80.9071         0.6716         2.2476       -50.8372      -4.683357       0.795369
      4739.5000         0.8052        10.3398        10.9224         0.0175        132.533        82.0498          0.669         2.2553       -50.9868      -4.832958      0.7870579
      4740.0000         0.8019          10.38        11.0845         0.0267       130.1238        80.9258         0.6649         2.2629       -50.9744      -4.820557      0.7877468
      4740.5000         0.7958        10.3518        11.1441          0.038       129.9443        78.8967         0.6533         2.2652       -50.4997      -4.345856      0.8141191
