#------------------------------------------------------------------------------
# Created by    : vladimir.rabinovich
# Created on    : 09/19/2023 17:20:42
#------------------------------------------------------------------------------
~Version Information Section
VERS.           2.0     :   CWLS log ASCII Standard - VERSION 2.0
WRAP.           NO      :   One line per depth step
~Well Information Section
#MNEM       .UNIT                                         VALUE :DESCRIPTION
#------------------------------------------------------------------------------
STRT        .FT                                            1866 :START DEPTH
STOP        .FT                                            8637 :STOP DEPTH
STEP        .FT                                             0.5 :STEP      
NULL        .                                           -999.25 :NULL      
COMP        .                           GENERAL AMERICAN OIL CO :COMPANY   
WELL        .                               OCS G01862 ST00BP00 :WELL      
FLD         .                           WEST CAMERON BLOCK 0045 :FIELD     
LOC         .                                                   :LOCATION  
CNTY        .                                      WEST CAMERON :LOCATION  
STAT        .                                         LOUISIANA :STATE     
CTRY        .                                     UNITED STATES :COUNTRY   
SRVC        .                                                   :SERVICE COMPANY
DATE        .                             9/13/2023 11:18:18 AM :LOG DATE  
API         .                                    17700004060000 :API NUMBER
UWI         .                                    17700004060000 :UNIQUE WELL ID
XCOORD      .                                  1439968.94212662 :SURFACE X 
YCOORD      .                                  10754878.8884152 :SURFACE Y 
LAT         .                                        29.6328727 :LATITUDE  
LON         .                                       -93.6311393 :LONGITUDE 
ELEV        .FT                                              51 :ELEVATION VALUE
ELEV_TYPE   .                                                KB :ELEVATION REFERENCE TYPE
~Curve Information Section
#MNEM       .UNIT                                      API CODE :CURVE DESCRIPTION
#------------------------------------------------------------------------------
DEPT        .FT                                                 :DEPTH     
ASN         .OHMM                                               :          
CALI        .IN                                                 :          
DRHO        .G/C3                                               :          
DT          .US/F                                               :          
GR          .GAPI                                               :          
GR_NORM     .GAPI                                               :GammaRay Normalized
ILD         .OHMM                                               :          
RHOB        .G/C3                                               :          
SP          .MV                                                 :          
SP_NORM     .MV                                                 :SP Normalized
VSH_GR      .V/V                                                :Volume of Shale from GR
VSH_SP      .V/V                                                :Volume of Shale from SP
~A        DEPTH            ASN           CALI           DRHO             DT             GR        GR_NORM            ILD           RHOB             SP        SP_NORM         VSH_GR         VSH_SP
# ...
      6068.5000         0.3965        15.9415         0.0408       106.4564         40.333        41.3001         0.3167         2.1366       -96.8928       -62.5068      0.1765979      0.1085971
      6069.0000         0.3756        15.8508         0.0581       110.3127        38.8483       39.70678          0.301          2.146       -97.3859       -63.0064      0.1426974      0.1013565
      6069.5000         0.3618        15.9013         0.0403       111.4449        37.5588        38.3229         0.2622         2.1315       -96.3441        -61.971      0.1132531      0.1163623
      6070.0000         0.3538         15.903         0.0237       114.7842        38.8214       39.67568         0.2366         2.1176       -94.8997       -60.5331      0.1420358      0.1372014
      6070.5000         0.3574        15.4974         0.0158       118.9803        39.4409       40.33894         0.2322         2.1135       -93.5988       -59.2386      0.1561477      0.1559623
      6071.0000         0.3643        14.0436         0.0243       117.4452        40.2292       41.18311         0.2364         2.1068       -93.3358        -58.982      0.1741087      0.1596812
      6071.5000         0.3705        13.9714         0.0386       119.7292        39.8556       40.78139         0.2591         2.1082       -94.1646       -59.8173      0.1655616      0.1475754
      6072.0000         0.3686        13.5216         0.0472       114.1741        39.0534       39.91997          0.281         2.1053       -95.6238       -61.2829      0.1472334      0.1263348
      6072.5000         0.3679        13.6939         0.0319       112.0714         38.145       38.94476         0.2938         2.0958       -97.5997       -63.2653      0.1264843     0.09760433
      6073.0000         0.3719        14.2664         0.0299       113.6434        35.8934       36.52905         0.3035         2.0962       -98.3154       -63.9874     0.07508615     0.08713913
      6073.5000         0.3766        14.7979          0.039         115.61        35.7416       36.36518         0.3056         2.1025       -97.5951       -63.2736     0.07159968     0.09748404
      6074.0000         0.3858        15.3525         0.0471       115.6152        36.0869        36.7343          0.305         2.1009       -97.4016       -63.0865     0.07945316      0.1001957
      6074.5000          0.395        14.1499          0.048       114.9193        34.9263       35.48864         0.3029         2.1011       -100.233       -65.9243     0.05294978      0.0590681
      6075.0000         0.4031         13.108         0.0334        115.181        33.1314       33.56268         0.3005         2.1053      -101.1284       -66.8262      0.0119719     0.04599707
      6075.5000         0.4024        12.9201         0.0239       116.3726        32.2327       32.59787         0.2967         2.0999       -99.8627       -65.5669              0     0.06424779
      6076.0000          0.392        12.9427         0.0534       118.0925        33.4513       33.90348         0.2928         2.1034       -98.1442       -63.8549     0.01922299     0.08905941
      6076.5000         0.3783        13.1315         0.0603       117.4998        34.1107       34.60952         0.2921         2.1226      -100.4053       -66.1224     0.03424511     0.05619713
      6077.0000         0.3627        13.0872         0.0403       113.4078         33.969       34.45638         0.2917         2.1111      -102.4071       -68.1307     0.03098687     0.02709132
      6077.5000         0.3507        12.7816          0.048       112.1368        32.5062       32.88666         0.2832         2.1153      -103.2544       -68.9844              0     0.01471887
      6078.0000         0.3432        12.7704         0.0656       112.7885        29.5782        29.7456         0.2745         2.1384      -104.1238       -69.8603              0    0.002024664
      6078.5000         0.3407        13.2334         0.0647       113.9695        27.3169       27.31959         0.2696         2.1317      -105.4923       -71.2352              0              0
      6079.0000         0.3427        13.4149          0.074       116.7086         27.881       27.92333         0.2654           2.11      -106.1493       -71.8986              0              0
      6079.5000         0.3435         13.037         0.0698       120.8776        29.1454       29.27805         0.2624         2.0956      -105.7844       -71.5402              0              0
      6080.0000          0.341        12.6586         0.1017       119.7888        29.3914       29.54078         0.2592         2.0825      -105.1534       -70.9156              0              0
      6080.5000          0.327        12.5142         0.1608       120.8452        29.9482        30.1368         0.2542         2.1101      -104.3312       -70.0999              0              0
      6081.0000          0.314        12.4857         0.1644       118.7571        31.4403       31.73569         0.2475         2.1119      -103.8534       -69.6285              0    0.005384031
      6081.5000         0.3127        12.5303         0.0891       115.0619        31.3133       31.59832         0.2435         2.0729      -105.1423       -70.9239              0              0
      6082.0000         0.3196        12.6786         0.0232       112.9838        30.3181       30.53004         0.2414         2.0683      -106.2701       -72.0581              0              0
      6082.5000         0.3091        12.3727         0.0206       114.7618        28.6624       28.75334         0.2375         2.0854      -107.2794       -73.0738              0              0
      6083.0000          0.301        12.7135         0.0285       115.8542        28.7467       28.84267         0.2298          2.097      -106.6692       -72.4701              0              0
      6083.5000          0.307         12.876         0.0211       117.0608        29.7809       29.95053         0.2245         2.0945      -105.3275       -71.1348              0              0
      6084.0000         0.3333        12.7068         0.0099       118.6034        29.7926         29.962         0.2323         2.0873      -103.0256       -68.8394              0     0.01682027
      6084.5000         0.3514        12.4446         0.0153       121.8571        30.6063       30.83341         0.2377         2.0968       -101.083       -66.9032              0     0.04488118
      6085.0000          0.359        12.4422         0.0225       120.9197        30.3053       30.50955         0.2352         2.1073       -99.7413        -65.568              0     0.06423187
      6085.5000         0.3576        12.3168         0.0308       120.5774        29.7079       29.86775         0.2349         2.1125       -100.585       -66.4181              0     0.05191161
      6086.0000         0.3703        12.1363         0.0256        120.813         29.442       29.58153         0.2386         2.1063       -101.458       -67.2975              0     0.03916666
      6086.5000         0.3853        12.3041         0.0119       117.5022        29.6161       29.76705         0.2421         2.0962      -102.5951       -68.4411              0     0.02259274
      6087.0000         0.3922         12.337         0.0171       115.3651        29.2498       29.37317         0.2455         2.1026      -103.7322       -69.5846              0    0.006020256
      6087.5000         0.3748        12.2759         0.0126       115.9845        27.6465       27.65267         0.2483         2.1074      -104.8469       -70.7058              0              0
      6088.0000         0.3542         12.502          0.026       116.8922        27.2204       27.19466         0.2501         2.1132      -105.9562       -71.8215              0              0
      6088.5000         0.3336        12.2554         0.0369       116.8894        27.6349       27.63798         0.2528         2.1231      -107.0238       -72.8956              0              0
