#------------------------------------------------------------------------------
# Created by    : vladimir.rabinovich
# Created on    : 09/19/2023 17:21:14
#------------------------------------------------------------------------------
~Version Information Section
VERS.           2.0     :   CWLS log ASCII Standard - VERSION 2.0
WRAP.           NO      :   One line per depth step
~Well Information Section
#MNEM       .UNIT                                         VALUE :DESCRIPTION
#------------------------------------------------------------------------------
STRT        .FT                                            2600 :START DEPTH
STOP        .FT                                          9205.5 :STOP DEPTH
STEP        .FT                                             0.5 :STEP      
NULL        .                                           -999.25 :NULL      
COMP        .                              MCMORAN OIL & GAS CO :COMPANY   
WELL        .                                OCS 00757 ST00BP00 :WELL      
FLD         .                           WEST CAMERON BLOCK 0118 :FIELD     
LOC         .                                                   :LOCATION  
CNTY        .                                      WEST CAMERON :LOCATION  
STAT        .                                         LOUISIANA :STATE     
CTRY        .                                     UNITED STATES :COUNTRY   
SRVC        .                                                   :SERVICE COMPANY
DATE        .                             9/13/2023 11:18:49 AM :LOG DATE  
API         .                                    17700410700000 :API NUMBER
UWI         .                                    17700410700000 :UNIQUE WELL ID
XCOORD      .                                  1436864.54905534 :SURFACE X 
YCOORD      .                                  10703419.9985863 :SURFACE Y 
LAT         .                                        29.4912718 :LATITUDE  
LON         .                                       -93.6400205 :LONGITUDE 
ELEV        .FT                                             118 :ELEVATION VALUE
ELEV_TYPE   .                                                KB :ELEVATION REFERENCE TYPE
~Curve Information Section
#MNEM       .UNIT                                      API CODE :CURVE DESCRIPTION
#------------------------------------------------------------------------------
DEPT        .FT                                                 :DEPTH     
CAL         .IN                                                 :          
CNC         .%                                                  :          
DT24        .US/F                                               :          
GR          .GAPI                                               :          
GR_NORM     .GAPI                                               :GammaRay Normalized
M0C6        .MMHO                                               :          
M2R1        .OHMM                                               :          
M2R2        .OHMM                                               :          
M2R3        .OHMM                                               :          
M2R6        .OHMM                                               :          
M2R9        .OHMM                                               :          
M2RX        .OHMM                                               :          
PORZ        .%                                                  :          
RWAZ        .OHMM                                               :          
SP          .MV                                                 :          
SP_NORM     .MV                                                 :SP Normalized
TTEN        .LB/F                                               :          
VSH_GR      .V/V                                                :Volume of Shale from GR
VSH_SP      .V/V                                                :Volume of Shale from SP
ZCOR        .G/CC                                               :          
~A        DEPTH            CAL            CNC           DT24             GR        GR_NORM           M0C6           M2R1           M2R2           M2R3           M2R6           M2R9           M2RX           PORZ           RWAZ             SP        SP_NORM           TTEN         VSH_GR         VSH_SP           ZCOR
# ...
      2626.0000        -999.25        -999.25        154.476         60.626       79.89192       1557.769          0.555          0.568          0.585          0.603          0.616          0.639        -999.25        -999.25        -16.657        -3.3237       1704.854      0.9977005      0.9880111        -999.25
      2626.5000        -999.25        -999.25        154.151         60.911        80.3786       1546.947          0.555          0.569          0.586          0.606          0.622          0.651        -999.25        -999.25        -17.395        -4.0617       1705.328              1      0.9606778        -999.25
      2627.0000        -999.25        -999.25        151.648         63.562       84.90532        1536.44          0.568          0.584          0.602          0.624          0.642          0.676        -999.25        -999.25        -18.794        -5.4607       1700.886              1      0.9088629        -999.25
      2627.5000        -999.25        -999.25        149.856         66.267       89.52422       1526.754          0.588          0.606          0.624          0.647          0.667          0.705        -999.25        -999.25          -20.4        -7.0667       1696.512              1      0.8493815        -999.25
      2628.0000        -999.25        -999.25         148.83         65.159       87.63226       1518.478          0.599          0.618          0.636           0.66           0.68          0.721        -999.25        -999.25        -21.678        -8.3447       1695.821              1      0.8020481        -999.25
      2628.5000        -999.25        -999.25        148.906         62.324       82.79134       1512.079          0.599          0.617          0.635          0.658          0.678           0.72        -999.25        -999.25         -22.53        -9.1967       1695.998              1      0.7704926        -999.25
      2629.0000        -999.25        -999.25         149.18         61.938       82.13224       1507.982          0.594          0.612          0.628           0.65          0.669           0.71        -999.25        -999.25        -23.318        -9.9847       1696.569              1      0.7413074        -999.25
      2629.5000        -999.25        -999.25        149.699         61.574       81.51067       1506.405          0.594          0.612          0.626          0.647          0.665          0.704        -999.25        -999.25        -24.412       -11.0787       1698.111              1      0.7007889        -999.25
      2630.0000        -999.25        -999.25        150.718         58.625       76.47512       1507.532          0.603          0.619          0.633          0.651          0.668          0.706        -999.25        -999.25        -25.683       -12.3497        1700.83      0.9250026      0.6537148        -999.25
      2630.5000        -999.25        -999.25        150.237         56.908       73.54328       1511.419          0.618          0.631          0.643           0.66          0.676          0.713        -999.25        -999.25        -26.801       -13.4677       1703.086       0.862623      0.6123074        -999.25
      2631.0000        -999.25        -999.25        148.306         58.904       76.95152        1518.11          0.635          0.647          0.657          0.673          0.689          0.724        -999.25        -999.25        -27.914       -14.5807        1703.56      0.9351388      0.5710852        -999.25
      2631.5000        -999.25        -999.25        147.006         60.548       79.75876       1527.537          0.649           0.66           0.67          0.685          0.701          0.734        -999.25        -999.25        -29.311       -15.9777       1704.704      0.9948672      0.5193444        -999.25
      2632.0000        -999.25        -999.25        146.813         60.291        79.3199       1539.459          0.649          0.661          0.672          0.686          0.702          0.733        -999.25        -999.25         -30.73       -17.3967       1707.106      0.9855298      0.4667889        -999.25
      2632.5000        -999.25        -999.25        148.866         61.195       80.86353       1553.367          0.632          0.647          0.659          0.673          0.688          0.717        -999.25        -999.25        -31.419       -18.0857       1710.687              1      0.4412704        -999.25
      2633.0000        -999.25        -999.25          151.6         61.778       81.85903       1568.354          0.605          0.623          0.638          0.652          0.667          0.693        -999.25        -999.25        -30.914       -17.5807        1711.44              1      0.4599741        -999.25
      2633.5000        -999.25        -999.25        151.831         61.005       80.53909       1583.175          0.576          0.596          0.614          0.628          0.642          0.666        -999.25        -999.25        -29.684       -16.3507       1707.971              1      0.5055296        -999.25
      2634.0000        -999.25        -999.25         151.31          62.84       83.67039       1596.272          0.547          0.569          0.589          0.603          0.617          0.639        -999.25        -999.25        -28.829       -15.4957       1702.858              1      0.5371963        -999.25
      2634.5000        -999.25        -999.25        152.972         68.202       92.81416       1606.094          0.524          0.547          0.567          0.582          0.595          0.615        -999.25        -999.25        -28.975       -15.6417       1700.227              1      0.5317889        -999.25
      2635.0000        -999.25        -999.25        156.075         71.132       97.80499       1611.287          0.511          0.533          0.552          0.567          0.579          0.597        -999.25        -999.25        -29.726       -16.3927       1700.715              1      0.5039741        -999.25
      2635.5000        -999.25        -999.25        158.147          67.76         92.035       1611.081          0.512           0.53          0.548          0.562          0.574           0.59        -999.25        -999.25        -30.417       -17.0837       1704.404              1      0.4783815        -999.25
      2636.0000        -999.25        -999.25        156.377         62.043       82.26064       1605.413          0.533          0.545           0.56          0.573          0.584            0.6        -999.25        -999.25        -31.142       -17.8087       1708.467              1      0.4515296        -999.25
      2636.5000        -999.25        -999.25        149.219         59.322        77.6021       1595.038          0.578          0.582          0.592          0.604          0.615           0.63        -999.25        -999.25        -32.884       -19.5507       1707.401      0.9489809      0.3870111        -999.25
      2637.0000        -999.25        -999.25         140.43         60.009       78.76308       1581.354          0.645          0.638          0.643          0.654          0.664          0.679        -999.25        -999.25        -35.935       -22.6017       1701.781      0.9736826      0.2740111        -999.25
      2637.5000        -999.25        -999.25        135.492          60.34       79.31599       1566.174           0.71          0.692          0.691            0.7          0.709          0.724        -999.25        -999.25        -39.143       -25.8097       1698.218      0.9854465      0.1551963        -999.25
      2638.0000        -999.25        -999.25        136.495         58.915       76.87043       1551.368          0.737          0.712          0.706          0.712          0.719          0.734        -999.25        -999.25        -41.412       -28.0787       1698.588      0.9334134      0.0711593        -999.25
      2638.5000        -999.25        -999.25        140.012         57.004       73.59517       1538.593          0.728          0.703          0.694          0.696          0.701          0.714        -999.25        -999.25        -42.518       -29.1847        1702.26       0.863727      0.0301963        -999.25
