#------------------------------------------------------------------------------
# Created by    : vladimir.rabinovich
# Created on    : 09/19/2023 17:22:11
#------------------------------------------------------------------------------
~Version Information Section
VERS.           2.0     :   CWLS log ASCII Standard - VERSION 2.0
WRAP.           NO      :   One line per depth step
~Well Information Section
#MNEM       .UNIT                                         VALUE :DESCRIPTION
#------------------------------------------------------------------------------
STRT        .FT                                             714 :START DEPTH
STOP        .FT                                            7955 :STOP DEPTH
STEP        .FT                                             0.5 :STEP      
NULL        .                                           -999.25 :NULL      
COMP        .                                ODECO OIL & GAS CO :COMPANY   
WELL        .                               OCS G04756 ST00BP00 :WELL      
FLD         .                           WEST CAMERON BLOCK 0165 :FIELD     
LOC         .                                                   :LOCATION  
CNTY        .                                      WEST CAMERON :LOCATION  
STAT        .                                         LOUISIANA :STATE     
CTRY        .                                     UNITED STATES :COUNTRY   
SRVC        .                                                   :SERVICE COMPANY
DATE        .                             9/13/2023 11:19:06 AM :LOG DATE  
API         .                                    17700406200000 :API NUMBER
UWI         .                                    17700406200000 :UNIQUE WELL ID
XCOORD      .                                  1451757.14487559 :SURFACE X 
YCOORD      .                                  10673474.8616073 :SURFACE Y 
LAT         .                                        29.4091131 :LATITUDE  
LON         .                                       -93.5927176 :LONGITUDE 
ELEV        .FT                                             113 :ELEVATION VALUE
ELEV_TYPE   .                                                KB :ELEVATION REFERENCE TYPE
~Curve Information Section
#MNEM       .UNIT                                      API CODE :CURVE DESCRIPTION
#------------------------------------------------------------------------------
DEPT        .FT                                                 :DEPTH     
CALI        .IN                                                 :          
CILD        .MMHO                                               :          
DRHO        .G/C3                                               :          
DT          .US/F                                               :          
GR          .GAPI                                               :          
GR_NORM     .GAPI                                               :GammaRay Normalized
ILD         .OHMM                                               :          
NPSS        .%                                                  :Neutron Porosity Sandstone
RFOC        .OHMM                                               :          
RHOB        .G/C3                                               :          
RILD        .OHMM                                               :          
RILM        .OHMM                                               :          
SN          .OHMM                                               :          
SP          .MV                                                 :          
SP_NORM     .MV                                                 :SP Normalized
VSH_GR      .V/V                                                :Volume of Shale from GR
VSH_SP      .V/V                                                :Volume of Shale from SP
~A        DEPTH           CALI           CILD           DRHO             DT             GR        GR_NORM            ILD           NPSS           RFOC           RHOB           RILD           RILM             SN             SP        SP_NORM         VSH_GR         VSH_SP
# ...
      2184.0000        -999.25       2832.653        -999.25       152.0408        59.1837        43.7703         0.3513        -999.25        -999.25        -999.25        -999.25        -999.25         0.7517       -54.7917        -40.576      0.2291554     0.01115789
      2184.5000        -999.25       2816.326        -999.25       152.0408        58.5714       43.03061         0.3513        -999.25        -999.25        -999.25        -999.25        -999.25         0.7319       -54.7917       -40.5697      0.2134171     0.01132373
      2185.0000        -999.25           2800        -999.25       152.0408        59.5918       44.25913         0.3545        -999.25        -999.25        -999.25        -999.25        -999.25         0.7126       -54.5833        -40.355      0.2395559      0.0169737
      2185.5000        -999.25           2776        -999.25       152.2449        60.6122       45.48766         0.3578        -999.25        -999.25        -999.25        -999.25        -999.25         0.7126       -53.9583       -39.7236      0.2656948     0.03358951
      2186.0000        -999.25           2744        -999.25       152.6531             60       44.74796         0.3612        -999.25        -999.25        -999.25        -999.25        -999.25         0.7189        -53.125        -38.884      0.2499567     0.05568424
      2186.5000        -999.25           2696        -999.25       152.8571        59.1837       43.76234         0.3679        -999.25        -999.25        -999.25        -999.25        -999.25         0.7189       -52.7083        -38.461      0.2289861     0.06681583
      2187.0000        -999.25           2656        -999.25       152.8571        58.9796       43.51473         0.3748        -999.25        -999.25        -999.25        -999.25        -999.25         0.7189       -52.0833       -37.8297      0.2237176     0.08342893
      2187.5000        -999.25           2640        -999.25       153.0612        60.4082       45.23522         0.3748        -999.25        -999.25        -999.25        -999.25        -999.25         0.7384       -51.6667       -37.4067      0.2603239     0.09456053
      2188.0000        -999.25           2632        -999.25       151.4286        61.8367       46.95571         0.3748        -999.25        -999.25        -999.25        -999.25        -999.25         0.7584         -51.25       -36.9837        0.29693      0.1056921
      2188.5000        -999.25           2648        -999.25            149         62.251       47.45358         0.3748        -999.25        -999.25        -999.25        -999.25        -999.25         0.7652       -51.0104       -36.7378       0.307523      0.1121631
      2189.0000        -999.25           2664        -999.25          146.6             60       44.73844         0.3714        -999.25        -999.25        -999.25        -999.25        -999.25         0.7789       -50.9583       -36.6794      0.2497541         0.1137
      2189.5000        -999.25           2680        -999.25          145.6         58.792       43.28051         0.3679        -999.25        -999.25        -999.25        -999.25        -999.25         0.7652       -51.1146       -36.8293      0.2187342      0.1097553
      2190.0000        -999.25           2704        -999.25          147.2        60.8317       45.73779         0.3679        -999.25        -999.25        -999.25        -999.25        -999.25         0.7319       -51.0625       -36.7709      0.2710169      0.1112921
      2190.5000        -999.25           2720        -999.25          149.2        63.5306       48.98975         0.3646        -999.25        -999.25        -999.25        -999.25        -999.25            0.7        -50.627       -36.3291      0.3402075      0.1229184
      2191.0000        -999.25           2744        -999.25          151.2        61.6529        46.7245         0.3578        -999.25        -999.25        -999.25        -999.25        -999.25         0.6866       -50.2101       -35.9058      0.2920106      0.1340579
      2191.5000        -999.25           2768        -999.25            152        59.7974       44.48613         0.3578        -999.25        -999.25        -999.25        -999.25        -999.25         0.6866       -49.8077       -35.4971      0.2443857      0.1448131
      2192.0000        -999.25           2792        -999.25          151.8        59.7963       44.48323         0.3513        -999.25        -999.25        -999.25        -999.25        -999.25         0.6735       -49.8077       -35.4908      0.2443241       0.144979
      2192.5000        -999.25           2816        -999.25            152        60.2041       44.97327         0.3513        -999.25        -999.25        -999.25        -999.25        -999.25         0.6607       -50.2128       -35.8896      0.2547503      0.1344842
      2193.0000        -999.25           2824        -999.25          152.6        60.2041       44.97158          0.348        -999.25        -999.25        -999.25        -999.25        -999.25         0.6607       -50.2128       -35.8832      0.2547145      0.1346526
      2193.5000        -999.25           2848        -999.25            153             60       44.72397          0.348        -999.25        -999.25        -999.25        -999.25        -999.25         0.6801            -50       -35.6641      0.2494462      0.1404184
      2194.0000        -999.25           2864        -999.25          153.2             60        44.7224         0.3448        -999.25        -999.25        -999.25        -999.25        -999.25         0.6866       -49.6154       -35.2732      0.2494128      0.1507052
      2194.5000        -999.25           2864        -999.25          153.2        60.6122       45.45873         0.3448        -999.25        -999.25        -999.25        -999.25        -999.25         0.6933       -49.2308       -34.8822      0.2650793      0.1609948
      2195.0000        -999.25           2864        -999.25          153.2        61.8367       46.93329         0.3448        -999.25        -999.25        -999.25        -999.25        -999.25         0.6933       -48.8462       -34.4913      0.2964529      0.1712816
      2195.5000        -999.25           2864        -999.25          153.2        62.2449       47.42381         0.3448        -999.25        -999.25        -999.25        -999.25        -999.25         0.6933       -48.2692        -33.908      0.3068896      0.1866316
      2196.0000        -999.25           2872        -999.25          153.6         62.449       47.66829         0.3448        -999.25        -999.25        -999.25        -999.25        -999.25         0.7063       -48.0769       -33.7094      0.3120912      0.1918579
      2196.5000        -999.25           2904        -999.25            154        62.6531       47.91263         0.3416        -999.25        -999.25        -999.25        -999.25        -999.25         0.7126       -48.2692       -33.8953        0.31729      0.1869657
      2197.0000        -999.25           2944        -999.25          154.6        62.2449       47.41898         0.3385        -999.25        -999.25        -999.25        -999.25        -999.25         0.7126       -49.0385       -34.6583      0.3067869      0.1668869
      2197.5000        -999.25           2984        -999.25            155        61.4286       46.43337         0.3322        -999.25        -999.25        -999.25        -999.25        -999.25         0.7063       -49.4231       -35.0366      0.2858163      0.1569316
      2198.0000        -999.25           3024        -999.25          155.6        60.6122       45.44751         0.3261        -999.25        -999.25        -999.25        -999.25        -999.25         0.6866       -49.4231       -35.0302      0.2648406         0.1571
      2198.5000        -999.25           3048        -999.25          156.2        60.4082       45.20003         0.3265        -999.25        -999.25        -999.25        -999.25        -999.25          0.661        -48.875       -34.4758       0.259575      0.1716895
