#------------------------------------------------------------------------------
# Created by    : vladimir.rabinovich
# Created on    : 09/19/2023 17:22:07
#------------------------------------------------------------------------------
~Version Information Section
VERS.           2.0     :   CWLS log ASCII Standard - VERSION 2.0
WRAP.           NO      :   One line per depth step
~Well Information Section
#MNEM       .UNIT                                         VALUE :DESCRIPTION
#------------------------------------------------------------------------------
STRT        .FT                                            4421 :START DEPTH
STOP        .FT                                           11895 :STOP DEPTH
STEP        .FT                                             0.5 :STEP      
NULL        .                                           -999.25 :NULL      
COMP        .                MURPHY EXPLORATION & PRODUCTION CO :COMPANY   
WELL        .                               OCS G02828 ST00BP00 :WELL      
FLD         .                           WEST CAMERON BLOCK 0116 :FIELD     
LOC         .                                                   :LOCATION  
CNTY        .                                      WEST CAMERON :LOCATION  
STAT        .                                         LOUISIANA :STATE     
CTRY        .                                     UNITED STATES :COUNTRY   
SRVC        .                                                   :SERVICE COMPANY
DATE        .                             9/13/2023 11:18:31 AM :LOG DATE  
API         .                                    17700404120000 :API NUMBER
UWI         .                                    17700404120000 :UNIQUE WELL ID
XCOORD      .                                  1472413.58592246 :SURFACE X 
YCOORD      .                                  10706677.6123634 :SURFACE Y 
LAT         .                                         29.500724 :LATITUDE  
LON         .                                        -93.528296 :LONGITUDE 
ELEV        .FT                                              75 :ELEVATION VALUE
ELEV_TYPE   .                                                KB :ELEVATION REFERENCE TYPE
~Curve Information Section
#MNEM       .UNIT                                      API CODE :CURVE DESCRIPTION
#------------------------------------------------------------------------------
DEPT        .FT                                                 :DEPTH     
CALI        .IN                                                 :          
DRHO        .G/C3                                               :          
DT          .US/F                                               :          
GR          .GAPI                                               :          
GR_1        .GAPI                                               :          
GR_NORM     .GAPI                                               :GammaRay Normalized
ILD         .OHMM                                               :          
NPHI        .%                                                  :          
RHOB        .G/C3                                               :          
SFL         .OHMM                                               :          
SP          .MV                                                 :          
SP_NORM     .MV                                                 :SP Normalized
VSH_GR      .V/V                                                :Volume of Shale from GR
VSH_SP      .V/V                                                :Volume of Shale from SP
~A        DEPTH           CALI           DRHO             DT             GR           GR_1        GR_NORM            ILD           NPHI           RHOB            SFL             SP        SP_NORM         VSH_GR         VSH_SP
# ...
      8435.0000        19.5194         0.0053       104.6609        78.5259        -999.25       79.80013         0.6887        35.3997         2.3248         0.7795       -50.1512        -2.5322      0.9957475      0.9817595
      8435.5000        19.4051         0.0169       104.1931        78.4097        -999.25       79.69451         0.6851        35.8639         2.3319         0.7212       -50.3327        -2.7136      0.9935002         0.9796
      8436.0000        19.3244         0.0262       104.7061        77.9484        -999.25       79.27086         0.6784        37.1255         2.3373          0.669        -50.503        -2.8839      0.9844863      0.9775726
      8436.5000        19.3047         0.0242       105.3043        77.8108        -999.25       79.14542         0.6684        37.5886         2.3418         0.6435       -51.2264        -3.6073      0.9818175      0.9689607
      8437.0000        19.2944         0.0236       105.8154        78.7505        -999.25       80.01293         0.6685        37.2408         2.3448         0.6738       -51.7928        -4.1738              1      0.9622167
      8437.5000         19.131         0.0231        106.324        78.2638        -999.25       79.56577         0.6702        36.9223          2.347         0.7119       -51.7696        -4.1506      0.9907611      0.9624929
      8438.0000        18.9045         0.0232       106.8278        77.3005        -999.25       78.67947         0.6707        36.8953         2.3468         0.7114       -51.4608        -3.8418      0.9719036      0.9661691
      8438.5000        18.9868         0.0233       107.3517        77.3011        -999.25       78.68149         0.6682        36.5409         2.3366         0.7104       -50.9419        -3.3228      0.9719465      0.9723476
      8439.0000        19.0757         0.0216       107.7452        78.1615        -999.25       79.47582         0.6635         35.671         2.3323         0.7123       -50.7438        -3.1248      0.9888473      0.9747047
      8439.5000        19.1253         0.0192       107.6267        78.9218        -999.25       80.17799         0.6589        35.6414         2.3305         0.7121       -50.8755        -3.2565              1      0.9731369
      8440.0000        19.1581         0.0109       107.2729        78.7083        -999.25        79.9826         0.6524        36.1321         2.3227         0.7102       -50.7025        -3.0835      0.9996299      0.9751964
      8440.5000         19.189         0.0065       106.6564        77.8607        -999.25       79.20293         0.6506        36.5446         2.3151         0.6934       -49.6491        -2.0301      0.9830412      0.9877369
      8441.0000        19.2193         0.0033        107.376        77.3134        -999.25       78.69992         0.6507        36.6953         2.3112         0.6739       -49.0563        -1.4373      0.9723387      0.9947941
      8441.5000        19.2487         0.0038       108.8263        76.9023        -999.25       78.32253         0.6552        36.6873         2.3159         0.6514        -49.014         -1.395      0.9643092      0.9952976
      8442.0000        19.2762         0.0162       110.1948        76.5394        -999.25       77.98956         0.6618        36.5385         2.3398         0.6954       -49.0899        -1.4709      0.9572246      0.9943941
      8442.5000         19.285         0.0279       111.2865        76.6831        -999.25       78.12337         0.6693         36.472         2.3513         0.7414       -49.2642        -1.6451      0.9600716      0.9923202
      8443.0000        19.2823         0.0353       111.6732        77.3036        -999.25        78.6967         0.6739        36.4711         2.3574         0.7765       -49.6468        -2.0278      0.9722703      0.9877643
      8443.5000        19.2685         0.0285       110.8743         77.597        -999.25       78.96848           0.68        36.0856         2.3634         0.7424       -50.0471        -2.4281      0.9780529      0.9829988
      8444.0000        19.2278         0.0113       109.7545        77.5929        -999.25       78.96617         0.6813        35.2726         2.3388         0.7735       -50.4212        -2.8022      0.9780036      0.9785452
      8444.5000         19.168         0.0069       108.6238        77.9819        -999.25       79.32615         0.6752        36.1226         2.3219         0.8226       -50.6346        -3.0156      0.9856628      0.9760048
      8445.0000        19.0996         0.0052       107.7297        78.0594        -999.25       79.39896         0.6716        36.7589         2.3172         0.8929       -50.8171        -3.1981       0.987212      0.9738321
      8445.5000        19.0246         0.0106       107.3007         77.616        -999.25       78.99179         0.6707         37.209         2.3107         0.8028       -51.1574        -3.5383      0.9785488      0.9697821
      8446.0000        18.9456         0.0143       107.8676        76.6356        -999.25       78.08964         0.6714        37.2652         2.3192         0.7193       -51.6143        -3.9953       0.959354      0.9643416
      8446.5000        18.9883         0.0157       108.8336         76.042        -999.25       77.54405         0.6724        36.8499          2.319         0.6561       -51.7347        -4.1157      0.9477458      0.9629083
      8447.0000        19.0615          0.013       110.0436        76.3214        -999.25       77.80302         0.6728        37.1078         2.3196          0.619        -50.776         -3.157      0.9532558      0.9743214
      8447.5000        19.0032         0.0124       110.8999        76.7251        -999.25       78.17645         0.6755        37.6525         2.3268         0.6206       -50.6942        -3.0751      0.9612011      0.9752964
      8448.0000        18.7276         0.0138       110.8315        77.6329        -999.25       79.01456         0.6873        37.2312          2.344         0.6335       -51.0242        -3.4052      0.9790331      0.9713666
      8448.5000        18.9374         0.0146       107.7383        79.4669        -999.25       80.70615          0.704         35.753         2.3713         0.6747       -51.1613        -3.5423              1      0.9697345
      8449.0000         18.996         0.0153       105.4037        82.1241        -999.25       83.15651         0.7222        36.3236         2.3723         0.7344       -50.7255        -3.1064              1      0.9749238
      8449.5000        18.9587         0.0142       103.6594        83.4077        -999.25       84.34094         0.7414        37.4027         2.3608          0.795       -49.8725        -2.2535              1      0.9850774
      8450.0000        18.8051          0.012       101.8787        84.1201        -999.25       84.99888         0.7586        38.3317         2.3547           0.86       -49.0112        -1.3922              1      0.9953309
      8450.5000        18.7609         0.0096       102.8959        84.7576        -999.25       85.58788         0.7758        38.6259         2.3468          0.871       -48.7029        -1.0839              1      0.9990012
      8451.0000        18.7983         0.0072       103.9523        85.1661        -999.25       85.96573         0.7833        38.7462         2.3356         0.8291       -49.0181        -1.3991              1      0.9952488
      8451.5000        19.2272         0.0049       104.4486        84.3624        -999.25       85.22652         0.7698        38.7708         2.3346          0.793       -49.3026        -1.6836              1      0.9918619
      8452.0000        19.3745         0.0059       104.8176        83.3882        -999.25       84.33017         0.7655        38.5372         2.3495         0.7815       -49.5999        -1.9809              1      0.9883226
      8452.5000        19.3626         0.0136       105.0571         82.772        -999.25       83.76366         0.7645         37.954         2.3557         0.7896       -49.9819        -2.3629              1       0.983775
