#------------------------------------------------------------------------------
# Created by    : vladimir.rabinovich
# Created on    : 09/19/2023 17:20:14
#------------------------------------------------------------------------------
~Version Information Section
VERS.           2.0     :   CWLS log ASCII Standard - VERSION 2.0
WRAP.           NO      :   One line per depth step
~Well Information Section
#MNEM       .UNIT                                         VALUE :DESCRIPTION
#------------------------------------------------------------------------------
STRT        .FT                                             920 :START DEPTH
STOP        .FT                                            7860 :STOP DEPTH
STEP        .FT                                             0.5 :STEP      
NULL        .                                           -999.25 :NULL      
COMP        .                               ARCO OIL & GAS CORP :COMPANY   
WELL        .                               OCS G10568 ST00BP00 :WELL      
FLD         .                                           WILDCAT :FIELD     
LOC         .                                                   :LOCATION  
CNTY        .                                 WEST CAMERON WEST :LOCATION  
STAT        .                                         LOUISIANA :STATE     
CTRY        .                                     UNITED STATES :COUNTRY   
SRVC        .                                                   :SERVICE COMPANY
DATE        .                             9/13/2023 11:18:15 AM :LOG DATE  
API         .                                    17701402460000 :API NUMBER
UWI         .                                    17701402460000 :UNIQUE WELL ID
XCOORD      .                                  1443937.81344993 :SURFACE X 
YCOORD      .                                  10680295.6485051 :SURFACE Y 
LAT         .                                        29.4277648 :LATITUDE  
LON         .                                       -93.6173961 :LONGITUDE 
ELEV        .FT                                             100 :ELEVATION VALUE
ELEV_TYPE   .                                                KB :ELEVATION REFERENCE TYPE
~Curve Information Section
#MNEM       .UNIT                                      API CODE :CURVE DESCRIPTION
#------------------------------------------------------------------------------
DEPT        .FT                                                 :DEPTH     
ASFL        .OHMM                                               :          
CALI        .IN                                                 :          
DPHI        .%                                                  :          
DRHO        .G/CC                                               :          
DT          .US/F                                               :          
GR          .GAPI                                               :          
GR_1        .GAPI                                               :          
GR_NORM     .GAPI                                               :GammaRay Normalized
ILD         .OHMM                                               :          
ILM         .OHMM                                               :          
NPHI        .%                                                  :          
RFOC        .OHMM                                               :          
SP          .MV                                                 :          
SP_NORM     .MV                                                 :SP Normalized
VSH_GR      .V/V                                                :Volume of Shale from GR
VSH_SP      .V/V                                                :Volume of Shale from SP
~A        DEPTH           ASFL           CALI           DPHI           DRHO             DT             GR           GR_1        GR_NORM            ILD            ILM           NPHI           RFOC             SP        SP_NORM         VSH_GR         VSH_SP
# ...
      4184.0000        -999.25        14.1346        30.6102         0.0436       126.8446        75.6122        71.4923       51.02166         0.6631         0.8006        38.7789         1.1724       -74.3184      -25.13807      0.3834396      0.1059974
      4184.5000        -999.25         14.055        29.0106         0.0415       124.6477        81.1379        74.7864       54.75383         0.7078          0.832        38.7289         1.1945       -70.7249      -21.54457      0.4628475        0.23909
      4185.0000        -999.25        14.0667        27.7247         0.0391       123.0748        85.3141        77.3541       57.66288         0.7618         0.8622        37.7684         1.2234       -68.0735      -18.89317      0.5247422      0.3372899
      4185.5000        -999.25        14.0991        26.9081         0.0361       121.8915        88.4709        79.0298       59.56114         0.8134         0.8895        37.3495         1.2441       -65.3318      -16.15147      0.5651306      0.4388343
      4186.0000        -999.25        14.1363        26.4304         0.0346       121.0271        90.0087        79.9125       60.56079         0.8568         0.9122        37.0946         1.2558       -62.4496      -13.26927      0.5863998      0.5455825
      4186.5000        -999.25        14.1671        26.2315         0.0346        120.687        91.1313        83.4586       64.57853          0.887          0.929        36.6909         1.2522       -59.7557      -10.57537      0.6718836      0.6453567
      4187.0000        -999.25        14.1752         26.262         0.0363       120.9105        92.3147        87.3922       69.03535         0.9085         0.9382        36.6464         1.2248       -57.4069       -8.22657      0.7667097      0.7323493
      4187.5000        -999.25        14.1628        26.6429         0.0384       122.3177        94.7849        89.9639       71.94894         0.9206         0.9413        37.2112          1.183       -55.4203      -6.239971       0.828701       0.805927
      4188.0000        -999.25         14.109        27.1485         0.0396       126.5562        97.8345        92.1882       74.46886         0.9271         0.9411        37.7323         1.1488       -53.9699       -4.78957      0.8823161      0.8596455
      4188.5000        -999.25        14.0672        27.4745         0.0404       132.5083       100.7825        93.7316       76.21719         0.9319         0.9407        37.9152         1.1217       -52.9037      -3.723373      0.9195146      0.8991343
      4189.0000        -999.25        14.0557        27.5165         0.0398       135.7429        103.611        95.0332       77.69153         0.9268         0.9385        38.0114         1.1032       -52.0491      -2.868771      0.9508836      0.9307863
      4189.5000        -999.25        14.0519        27.3543         0.0394       137.4053       105.9738        96.2352         79.053          0.921         0.9365        38.3751         1.1031       -51.3922      -2.211872      0.9798511      0.9551159
      4190.0000        -999.25        14.0623        27.1208          0.042       137.9399        108.015        97.4233       80.39873         0.9134         0.9348        38.8068          1.108       -50.9072      -1.726871              1      0.9730788
      4190.5000        -999.25        14.1062        26.9011         0.0439       136.3774       109.0809        98.3978        81.5024         0.9054         0.9327        38.9811         1.1185       -50.5346      -1.354271              1      0.9868789
      4191.0000        -999.25        14.1472        26.7138         0.0443         134.52       107.8379        97.5151       80.50156         0.8967         0.9268        38.9989         1.1318       -50.3885      -1.208172              1        0.99229
      4191.5000        -999.25        14.1811        26.5435         0.0444       132.9299       106.6251        96.1434        78.9466         0.8878         0.9209        39.0012         1.1447       -50.3255      -1.145172      0.9775873      0.9946232
      4192.0000        -999.25        14.2014        26.4013         0.0437       131.6892       106.2365        95.5189       78.23833         0.8785         0.9126        38.7898          1.156       -50.4135      -1.233173      0.9625176      0.9913639
      4192.5000        -999.25        14.2128         26.336         0.0424       130.7659       106.8103         95.639       78.37383          0.869         0.9042        38.3052         1.1527       -50.8265      -1.646172      0.9654007      0.9760677
      4193.0000        -999.25        14.1788        26.4431         0.0403       129.9441       107.6354        95.7211       78.46628         0.8592         0.8929        37.7075         1.1502       -51.3438      -2.163471      0.9673676      0.9569085
      4193.5000        -999.25        14.1194        27.0482          0.038       128.6523       108.2743         94.748         77.363         0.8486          0.881        37.1202          1.156       -52.2707       -3.09037      0.9438936      0.9225789
      4194.0000        -999.25        14.0592        28.0349         0.0357       127.4301       107.0128        86.4705       67.98259          0.837         0.8715        36.9272         1.1708       -53.4365      -4.256172      0.7443104       0.879401
      4194.5000        -999.25        13.9999        28.9045         0.0365        126.665       103.7543        82.1284       63.06167         0.8251         0.8627        38.0181         1.1764       -54.3949      -5.214573        0.63961      0.8439047
      4195.0000        -999.25        13.9736        29.6001         0.0385       126.9294       100.5057         80.697       61.43904         0.8128         0.8538          39.24         1.1591       -54.8633      -5.682972      0.6050861      0.8265566
      4195.5000        -999.25        13.9608        29.7187         0.0411       129.3157         98.778        80.0161       60.66689         0.7992          0.845        40.0296         1.1274       -55.2024      -6.022072      0.5886571      0.8139973
      4196.0000        -999.25        13.9619         29.649         0.0383       131.6716        98.7191        80.3077       60.99672         0.7834         0.8368        39.8697         1.1037       -55.6277      -6.447372      0.5956749      0.7982455
      4196.5000        -999.25        13.9745        30.2434         0.0383       132.8987        99.5623        81.0587       61.84714         0.7662          0.829        38.6329         1.1021       -56.1602       -6.97987      0.6137689      0.7785233
      4197.0000        -999.25        13.9835        33.6891         0.0437       132.7327       100.4113        80.9965       61.77605         0.7473         0.8202        37.9783         1.1055       -56.9026      -7.722271      0.6122565       0.751027
      4197.5000        -999.25        13.9894         36.701         0.0622       132.2385       100.3265        79.5261       60.10925         0.7257         0.8097        38.4465         1.1129       -58.3385      -9.158173      0.5767925      0.6978455
      4198.0000        -999.25        14.0006        38.3091         0.0817       132.2688        98.2405        77.4814       57.79167         0.7036         0.7916         38.583         1.1202        -61.802      -12.62167      0.5274823      0.5695678
      4198.5000        -999.25        14.0717        37.9158          0.085       133.4194        92.1932        75.5956       55.65414         0.6868         0.7763        37.2643         1.1335        -66.197      -17.01667      0.4820029        0.40679
      4199.0000        -999.25        14.2117        36.9046         0.0614        133.332        87.5991        73.1798       52.91604         0.6706         0.7574        36.4536         1.1591        -69.788      -20.60767      0.4237455      0.2737899
      4199.5000        -999.25        14.3556        36.8679          0.064       131.7212        83.0129        70.0811       49.40409         0.6551         0.7405        38.0649         1.1791       -73.4293      -24.24897      0.3490232       0.138927
