#------------------------------------------------------------------------------
# Created by    : vladimir.rabinovich
# Created on    : 09/19/2023 17:21:18
#------------------------------------------------------------------------------
~Version Information Section
VERS.           2.0     :   CWLS log ASCII Standard - VERSION 2.0
WRAP.           NO      :   One line per depth step
~Well Information Section
#MNEM       .UNIT                                         VALUE :DESCRIPTION
#------------------------------------------------------------------------------
STRT        .FT                                             949 :START DEPTH
STOP        .FT                                            6560 :STOP DEPTH
STEP        .FT                                             0.5 :STEP      
NULL        .                                           -999.25 :NULL      
COMP        .                                    VASCO SERVICES :COMPANY   
WELL        .                                       POOLE HEIRS :WELL      
FLD         .                                           WILDCAT :FIELD     
LOC         .                                                   :LOCATION  
CNTY        .                                          BRAZORIA :LOCATION  
STAT        .                                             TEXAS :STATE     
CTRY        .                                     UNITED STATES :COUNTRY   
SRVC        .                                                   :SERVICE COMPANY
DATE        .                             9/13/2023 11:18:59 AM :LOG DATE  
API         .                                    42039322130000 :API NUMBER
UWI         .                                    42039322130000 :UNIQUE WELL ID
XCOORD      .                                  814093.995322374 :SURFACE X 
YCOORD      .                                  10494122.2566385 :SURFACE Y 
LAT         .                                        28.8922368 :LATITUDE  
LON         .                                       -95.5826759 :LONGITUDE 
ELEV        .FT                                              23 :ELEVATION VALUE
ELEV_TYPE   .                                                KB :ELEVATION REFERENCE TYPE
~Curve Information Section
#MNEM       .UNIT                                      API CODE :CURVE DESCRIPTION
#------------------------------------------------------------------------------
DEPT        .FT                                                 :DEPTH     
CALD        .IN                                                 :          
DCAL        .IN                                                 :          
DPSS        .V/V                                                :          
DRHO        .G/CM3                                              :          
GR_NORM     .GAPI                                               :GammaRay Normalized
GRR         .GAPI                                               :          
ILD         .OHMM                                               :          
ILM         .OHMM                                               :          
NPSS        .V/V                                                :Neutron Porosity Sandstone
RHOB        .G/CM3                                              :          
SFLU        .OHMM                                               :          
SP          .MV                                                 :          
SP_NORM     .MV                                                 :SP Normalized
TENR        .LB                                                 :          
VSH_GR      .V/V                                                :Volume of Shale from GR
VSH_SP      .V/V                                                :Volume of Shale from SP
~A        DEPTH           CALD           DCAL           DPSS           DRHO        GR_NORM            GRR            ILD            ILM           NPSS           RHOB           SFLU             SP        SP_NORM           TENR         VSH_GR         VSH_SP
# ...
      3941.0000         8.2802         0.3854         0.1756           0.03        60.0633        64.4389         1.4145         1.2911         0.3228         2.3675         1.2505         0.6061        1.07981        1948.98      0.5758148              1
      3941.5000         8.2904         0.3865         0.1626          0.032       61.33501        65.4331         1.4341          1.321          0.324         2.3835         1.2563         1.6162       2.124707       1938.776      0.6028727              1
      3942.0000         8.3206         0.4279         0.1595          0.029       63.54186        67.1574         1.4741         1.3455         0.3215         2.3845         1.2622         2.2222       2.765504       1938.776      0.6498269              1
      3942.5000         8.4009         0.4895          0.165          0.021       65.57093        68.7429         1.4947         1.3704         0.3233          2.373         1.2739         2.0202       2.598301       1938.776      0.6929985              1
      3943.0000         8.4813         0.5713         0.1724           0.01       65.74025        68.8764         1.5155         1.3959         0.3281          2.362          1.274         1.2121       1.824998        1948.98       0.696601              1
      3943.5000         8.5317         0.6127         0.1773          0.002       64.97635        68.2813         1.5157         1.4153         0.3281          2.353         1.2227           -0.2      0.4476953       1938.776      0.6803479              1
      3944.0000          8.522         0.6339         0.1798          0.004       64.02034        67.5362         1.3962          1.435         0.3203          2.353         1.1628           -3.2      -2.517508       1938.776      0.6600072       0.971898
      3944.5000         8.5122         0.6551         0.1804          0.006       63.62417        67.2282         1.2801         1.3963         0.3094         2.3525          1.147           -8.4       -7.68271       1928.571      0.6515781      0.8762461
      3945.0000         8.4622         0.5955         0.1871          0.002       63.03819         66.772          1.179          1.292         0.2966          2.329         1.2063          -14.4      -13.64791       1928.571      0.6391103      0.7657794
      3945.5000         8.3519         0.4551         0.2097         -0.002       60.56388        64.8415         1.0859         1.1791         0.2856         2.2875         1.2687       -20.4019      -19.61502       1928.571      0.5864655      0.6552775
      3946.0000          8.181         0.2541         0.2366         -0.004       56.00441         61.283         0.9684         1.0711         0.2801         2.2465         1.2922       -26.4272      -25.60552       1938.776      0.4894555      0.5443422
      3946.5000         8.0503         0.0531         0.2494         -0.005        51.5406        57.7992         0.8439         0.9509         0.2825         2.2312         1.2288       -32.2454      -31.38892        1948.98      0.3944809      0.4372422
      3947.0000           7.99         0.0541         0.2561         -0.002       48.98164        55.8026          0.736         0.8325         0.2935         2.2262         1.1421       -36.8546      -35.96333        1948.98       0.340035       0.352531
      3947.5000           7.99         0.0551         0.2579         -0.001       48.75531        55.6272         0.6506         0.7394         0.3044         2.2243         1.1421       -42.0695      -41.14343        1948.98      0.3352194      0.2566032
      3948.0000           7.99         0.0965         0.2591         -0.003       47.94928        54.9992         0.5675         0.6567         0.3128         2.2228         1.2576       -46.4947      -45.53383       1938.776      0.3180699      0.1752994
      3948.5000              8         0.0773         0.2554         -0.001       44.44444        52.2641         0.4951         0.5968         0.3098         2.2342         1.4234       -49.9167      -48.92103        1948.98      0.2434986      0.1125735
      3949.0000           7.99         0.0783         0.2431          0.001       40.17595        48.9328         0.4541         0.5449         0.2891         2.2545         1.5747       -52.7363      -51.70584       1938.776      0.1526798     0.06100301
      3949.5000           7.97         0.0591          0.237          0.006       36.69109        46.2133         0.4147         0.4976         0.2737         2.2605         1.4906       -54.1457      -53.08044       1928.571     0.07853374     0.03554747
      3950.0000           7.92         0.0399         0.2461          0.019       35.90825        45.6034         0.3872         0.4585         0.2725         2.2332         1.2294       -55.3545      -54.25444       1928.571     0.06187756     0.01380666
      3950.5000           7.88              0         0.2596          0.035       36.86333        46.3504         0.3697         0.4263         0.2908          2.203              1        -55.753      -54.61814       1918.069     0.08219861    0.007071389
      3951.0000           7.89         0.0202         0.2718         0.0479       37.24706        46.6513         0.3529         0.4186         0.3127          2.195         0.9864       -55.9471      -54.77745       1937.979     0.09036295    0.004121286
      3951.5000           7.94         0.0404         0.2761         0.0459       37.24642        46.6521         0.3369         0.4092         0.3273         2.1929         0.9864       -55.9391      -54.73465       1937.481     0.09034932    0.004913895
      3952.0000           7.99         0.0202         0.2767         0.0398       36.28348        45.9016         0.3307         0.4018         0.3327         2.1994         0.9774       -55.9312      -54.69195       1947.188     0.06986131    0.005704597
      3952.5000         8.0202         0.0808         0.2669         0.0378        35.8973        45.6014         0.3231         0.3926         0.3212         2.2118         1.0232       -55.9233      -54.64926        1946.64     0.06164478    0.006495229
      3953.0000         8.0808         0.1414         0.2608         0.0337       36.08866        45.7521         0.3216         0.3854         0.3079         2.2227         1.0713       -55.9146      -54.60576       1935.938     0.06571612    0.007300765
      3953.5000          8.202         0.2828         0.2663         0.0277       35.70196        45.4515         0.3231         0.3783         0.3061         2.2113          1.047       -55.9067      -54.56306       1925.236     0.05748854    0.008091397
      3954.0000          8.303         0.4444         0.2767         0.0216       34.35351           44.4         0.3385         0.3748         0.3145         2.1849         0.8146       -55.2951      -53.91667       1934.943     0.02879804     0.02006171
      3954.5000         8.4545         0.6061         0.2841         0.0226       32.81485           43.2         0.3513         0.3783         0.3273         2.1779         0.6599       -53.6784      -52.26517       1934.395              0     0.05064505
      3955.0000         8.7374         0.8081         0.2737         0.0335       32.42892           42.9         0.3595            0.4         0.3321         2.2082         0.5329       -52.4653      -51.01727       1944.101              0     0.07375421
      3955.5000         8.8081         0.8889         0.2467         0.0395       33.57999           43.8         0.3697         0.4205          0.317           2.25         0.4977        -51.052      -49.56917       1953.808     0.01234022      0.1005709
      3956.0000         8.6667         0.8081         0.2222         0.0324       33.57832           43.8         0.3783         0.4503         0.2951         2.2945            0.6       -51.2473      -49.72968        1953.31     0.01230467      0.0975986
      3956.5000         8.5556         0.6465         0.2124         0.0224       32.23178          42.75         0.3766         0.4713         0.2847          2.303         1.0327        -51.844      -50.29158       1942.558              0     0.08719296
