#------------------------------------------------------------------------------
# Created by    : vladimir.rabinovich
# Created on    : 09/19/2023 17:21:18
#------------------------------------------------------------------------------
~Version Information Section
VERS.           2.0     :   CWLS log ASCII Standard - VERSION 2.0
WRAP.           NO      :   One line per depth step
~Well Information Section
#MNEM       .UNIT                                         VALUE :DESCRIPTION
#------------------------------------------------------------------------------
STRT        .FT                                             949 :START DEPTH
STOP        .FT                                            6560 :STOP DEPTH
STEP        .FT                                             0.5 :STEP      
NULL        .                                           -999.25 :NULL      
COMP        .                                    VASCO SERVICES :COMPANY   
WELL        .                                       POOLE HEIRS :WELL      
FLD         .                                           WILDCAT :FIELD     
LOC         .                                                   :LOCATION  
CNTY        .                                          BRAZORIA :LOCATION  
STAT        .                                             TEXAS :STATE     
CTRY        .                                     UNITED STATES :COUNTRY   
SRVC        .                                                   :SERVICE COMPANY
DATE        .                             9/13/2023 11:18:59 AM :LOG DATE  
API         .                                    42039322130000 :API NUMBER
UWI         .                                    42039322130000 :UNIQUE WELL ID
XCOORD      .                                  814093.995322374 :SURFACE X 
YCOORD      .                                  10494122.2566385 :SURFACE Y 
LAT         .                                        28.8922368 :LATITUDE  
LON         .                                       -95.5826759 :LONGITUDE 
ELEV        .FT                                              23 :ELEVATION VALUE
ELEV_TYPE   .                                                KB :ELEVATION REFERENCE TYPE
~Curve Information Section
#MNEM       .UNIT                                      API CODE :CURVE DESCRIPTION
#------------------------------------------------------------------------------
DEPT        .FT                                                 :DEPTH     
CALD        .IN                                                 :          
DCAL        .IN                                                 :          
DPSS        .V/V                                                :          
DRHO        .G/CM3                                              :          
GR_NORM     .GAPI                                               :GammaRay Normalized
GRR         .GAPI                                               :          
ILD         .OHMM                                               :          
ILM         .OHMM                                               :          
NPSS        .V/V                                                :Neutron Porosity Sandstone
RHOB        .G/CM3                                              :          
SFLU        .OHMM                                               :          
SP          .MV                                                 :          
SP_NORM     .MV                                                 :SP Normalized
TENR        .LB                                                 :          
VSH_GR      .V/V                                                :Volume of Shale from GR
VSH_SP      .V/V                                                :Volume of Shale from SP
~A        DEPTH           CALD           DCAL           DPSS           DRHO        GR_NORM            GRR            ILD            ILM           NPSS           RHOB           SFLU             SP        SP_NORM           TENR         VSH_GR         VSH_SP
# ...
      4677.0000         8.4382         0.5859         0.2743         0.0107       73.11246        75.4545         0.3982         0.4442         0.3929          2.199         0.6113          -61.6      -63.39734       2132.653      0.8534567     0.02504152
      4677.5000         8.4585         0.5859         0.2676         0.0137       75.69012        77.8788         0.3982         0.4442         0.3982         2.2095            0.5          -63.6      -65.39573       2132.653      0.9083005              0
      4678.0000         8.4488         0.5859         0.2743         0.0158       73.91565        76.2121         0.3982         0.4442         0.3765         2.1916          0.467          -69.2      -70.99411       2122.449      0.8705457              0
      4678.5000          8.399         0.5859         0.2982         0.0148       70.86947          73.35         0.4092         0.4523         0.3464          2.149         0.5329          -76.8       -78.5925       2102.041      0.8057334              0
      4679.0000         8.3892         0.5455         0.3099         0.0189        70.7085           73.2         0.4263         0.4606         0.3445          2.128         0.7229          -79.6      -81.39088       2112.245      0.8023086              0
      4679.5000         8.3595         0.5051         0.3049         0.0419       74.23392        76.5152         0.4462         0.4756         0.3688         2.1599         0.8485          -73.4      -75.18926       2122.449      0.8773175              0
      4680.0000         8.3398         0.4848         0.2651          0.072       81.80827        83.6364         0.4649         0.4865         0.3859          2.206         0.6935            -64      -65.78764       2142.857              1              0
      4680.5000         8.3201         0.5051         0.2247          0.094       85.83646        87.4242         0.4865         0.5023         0.3965         2.2765         0.5354       -56.9697      -58.75573       2153.061              1     0.09756678
      4681.0000         8.4103         0.5253         0.2149          0.084       86.31869        87.8788         0.4932         0.5162         0.3941         2.2995         0.5452       -53.1313      -54.91571       2142.857              1       0.157567
      4681.5000         8.4205         0.5253         0.2253          0.065       85.02782        86.6667         0.4586         0.5209         0.3899          2.277         0.6199       -54.5455      -56.32829       2142.857              1      0.1354954
      4682.0000         8.3807         0.5051         0.2504           0.05       79.86846        81.8182         0.4244         0.4932         0.3922         2.2345         0.6435          -60.8      -62.58117       2163.265      0.9972013     0.03779417
      4682.5000         8.3207         0.4646         0.2822          0.036       74.22558        76.5152         0.3982         0.4482         0.3928         2.1851         0.5655          -69.2      -70.97955       2173.469        0.87714              0
      4683.0000         8.3309         0.4646         0.3135          0.021       69.10163           71.7         0.3928         0.4074         0.3856           2.14         0.5186          -77.2      -78.97794       2163.265      0.7681198              0
      4683.5000         8.4114         0.5657         0.3165          0.006       69.89812          72.45          0.391         0.4018         0.3695         2.1285         0.5305          -78.4      -80.17632       2132.653      0.7850663              0
      4684.0000         8.4919         0.6465         0.2963          0.002        72.6095             75         0.3874         0.3964         0.3641         2.1554         0.5209          -71.6       -73.3747       2102.041      0.8427553              0
      4684.5000         8.5423         0.6667         0.2608           0.01       73.89756        76.2121         0.3839         0.4018         0.3646          2.226          0.467          -60.6      -62.37309       2102.041      0.8701609     0.04104555
      4685.0000         8.5627         0.7071         0.2351          0.018       72.60671             75         0.3804         0.4148         0.3699          2.268         0.4342       -52.7273      -54.49877       2102.041       0.842696      0.1640817
      4685.5000         8.5831         0.7071         0.2339           0.02       70.69043           73.2         0.3804         0.4422         0.3644         2.2615         0.4523       -53.3333      -55.10316       2091.837       0.801924      0.1546382
      4686.0000         8.5431         0.6667         0.2486          0.019       69.89116          72.45         0.3874         0.4606         0.3608         2.2355         0.5139       -58.1818      -59.95004       2102.041      0.7849182     0.07890564
      4686.5000         8.4629         0.6263         0.2718          0.019       71.32594           73.8         0.3946         0.4565         0.3816         2.1881         0.6316          -63.2      -64.96662       2122.449      0.8154456   0.0005215406
      4687.0000         8.4128         0.5455         0.2865           0.02       73.24594        75.6061         0.4055         0.4565         0.4164         2.1738         0.6588          -66.6        -68.365       2132.653      0.8562966              0
      4687.5000         8.3727         0.5253         0.2865          0.023        75.1787        77.4242         0.4111         0.4523         0.4503         2.1777         0.6085          -65.6      -67.36338       2142.857       0.897419              0
      4688.0000         8.3931         0.5455         0.2761          0.026       77.75635        79.8485         0.4111         0.4482         0.4545         2.1975         0.5115          -62.8      -64.56177       2153.061      0.9522627    0.006847382
      4688.5000         8.4537         0.6061         0.2584          0.035       80.01155        81.9697          0.413         0.4523         0.4303         2.2255         0.4586          -60.4      -62.16015       2112.245              1     0.04437262
      4689.0000         8.5448         0.6869         0.2424          0.045       81.94442        83.7879         0.4244         0.4628         0.4001         2.2535         0.4565       -59.3939      -61.15244       2132.653              1      0.0601182
      4689.5000         8.6157         0.7677         0.2284          0.045       78.39685        80.4545         0.4342         0.4821         0.3734         2.2725         0.4932          -60.2      -61.95692       2122.449      0.9658905     0.04754817
      4690.0000         8.6867         0.8283         0.2198          0.048       74.36589        76.6667         0.4628         0.5046         0.3474          2.285         0.5785          -62.4       -64.1553       2122.449      0.8801253     0.01319838
      4690.5000         8.7072         0.8283         0.2118          0.058       71.79354          74.25          0.491         0.5282         0.3228            2.3         0.7501          -64.6      -66.35368       2112.245      0.8253945              0
      4691.0000         8.7073         0.8283         0.1989          0.076       68.91982          71.55         0.5211         0.5529         0.3156         2.3255          0.841          -67.2      -68.95206       2091.837      0.7642514              0
      4691.5000         8.6873         0.8283          0.194          0.086       66.20565             69          0.548         0.5788         0.3282         2.3295         0.8883          -68.8      -70.55045       2091.837      0.7065032              0
      4692.0000         8.6471         0.7475         0.2154          0.072       65.56596           68.4          0.579         0.6176         0.3576         2.2985         0.8489          -70.4      -72.14883       2091.837      0.6928928              0
      4692.5000         8.5969         0.7071         0.2264          0.043        64.7667          67.65         0.6091         0.6625         0.3788          2.271         0.7784          -72.2      -73.94721       2102.041      0.6758872              0
