#------------------------------------------------------------------------------
# Created by    : vladimir.rabinovich
# Created on    : 09/19/2023 17:21:18
#------------------------------------------------------------------------------
~Version Information Section
VERS.           2.0     :   CWLS log ASCII Standard - VERSION 2.0
WRAP.           NO      :   One line per depth step
~Well Information Section
#MNEM       .UNIT                                         VALUE :DESCRIPTION
#------------------------------------------------------------------------------
STRT        .FT                                             949 :START DEPTH
STOP        .FT                                            6560 :STOP DEPTH
STEP        .FT                                             0.5 :STEP      
NULL        .                                           -999.25 :NULL      
COMP        .                                    VASCO SERVICES :COMPANY   
WELL        .                                       POOLE HEIRS :WELL      
FLD         .                                           WILDCAT :FIELD     
LOC         .                                                   :LOCATION  
CNTY        .                                          BRAZORIA :LOCATION  
STAT        .                                             TEXAS :STATE     
CTRY        .                                     UNITED STATES :COUNTRY   
SRVC        .                                                   :SERVICE COMPANY
DATE        .                             9/13/2023 11:18:59 AM :LOG DATE  
API         .                                    42039322130000 :API NUMBER
UWI         .                                    42039322130000 :UNIQUE WELL ID
XCOORD      .                                  814093.995322374 :SURFACE X 
YCOORD      .                                  10494122.2566385 :SURFACE Y 
LAT         .                                        28.8922368 :LATITUDE  
LON         .                                       -95.5826759 :LONGITUDE 
ELEV        .FT                                              23 :ELEVATION VALUE
ELEV_TYPE   .                                                KB :ELEVATION REFERENCE TYPE
~Curve Information Section
#MNEM       .UNIT                                      API CODE :CURVE DESCRIPTION
#------------------------------------------------------------------------------
DEPT        .FT                                                 :DEPTH     
CALD        .IN                                                 :          
DCAL        .IN                                                 :          
DPSS        .V/V                                                :          
DRHO        .G/CM3                                              :          
GR_NORM     .GAPI                                               :GammaRay Normalized
GRR         .GAPI                                               :          
ILD         .OHMM                                               :          
ILM         .OHMM                                               :          
NPSS        .V/V                                                :Neutron Porosity Sandstone
RHOB        .G/CM3                                              :          
SFLU        .OHMM                                               :          
SP          .MV                                                 :          
SP_NORM     .MV                                                 :SP Normalized
TENR        .LB                                                 :          
VSH_GR      .V/V                                                :Volume of Shale from GR
VSH_SP      .V/V                                                :Volume of Shale from SP
~A        DEPTH           CALD           DCAL           DPSS           DRHO        GR_NORM            GRR            ILD            ILM           NPSS           RHOB           SFLU             SP        SP_NORM           TENR         VSH_GR         VSH_SP
# ...
      2821.0000        -999.25        -0.0612        -999.25        -999.25       104.4322       103.7879         0.9552          0.864        -999.25        -999.25         0.7782           -2.8     -0.3308642       1642.045              1              1
      2821.5000        -999.25        -0.0612        -999.25        -999.25       98.78831        98.4848         0.9379         0.8447        -999.25        -999.25         0.7854           -3.8      -1.330864       1651.741              1      0.9932477
      2822.0000        -999.25        -0.0204        -999.25        -999.25       93.78935        93.7879         0.9083         0.8258        -999.25        -999.25         0.7746             -5      -2.530864       1651.234              1      0.9687579
      2822.5000        -999.25         0.0408        -999.25        -999.25       90.56336        90.7576         0.8409         0.8109        -999.25        -999.25         0.7466             -7      -4.530864       1640.522              1      0.9279416
      2823.0000        -999.25          0.102        -999.25        -999.25       90.07748         90.303         0.7746         0.7927        -999.25        -999.25         0.7163           -9.8      -7.330864       1660.422              1      0.8707987
      2823.5000        -999.25         0.2857        -999.25        -999.25       88.15713           88.5         0.7097         0.7501        -999.25        -999.25         0.7065            -13      -10.53086       1659.915              1      0.8054926
      2824.0000        -999.25         0.3878        -999.25        -999.25       80.01656          80.85         0.6659         0.7065        -999.25        -999.25         0.7097          -15.4      -12.93086       1659.407              1       0.756513
      2824.5000        -999.25         0.4694        -999.25        -999.25       71.71643          73.05         0.6422         0.6659        -999.25        -999.25         0.7296          -15.8      -13.33086       1658.899      0.8237538      0.7483497
      2825.0000        -999.25         0.5102        -999.25        -999.25        69.0014           70.5          0.625          0.654        -999.25        -999.25         0.7501            -15      -12.53086       1648.188      0.7659872      0.7646762
      2825.5000        -999.25         0.4898        -999.25        -999.25       70.91403           72.3         0.6082         0.6422        -999.25        -999.25         0.7711          -15.6      -13.13087       1637.476      0.8066815      0.7524313
      2826.0000        -999.25         0.5102        -999.25        -999.25       75.69901           76.8         0.5477         0.6165        -999.25        -999.25          0.757            -19      -16.53086       1626.764      0.9084895      0.6830436
      2826.5000        -999.25          0.551        -999.25        -999.25       76.17546          77.25         0.4849         0.5527        -999.25        -999.25         0.7032       -26.4646      -23.99546       1616.052      0.9186268      0.5307048
      2827.0000        -999.25         0.6735        -999.25        -999.25       69.15192          70.65         0.4366         0.4913        -999.25        -999.25          0.654       -33.7374      -31.26826       1625.749      0.7691897      0.3822803
      2827.5000        -999.25         0.9796        -999.25        -999.25       60.37306           62.4         0.3874         0.4347        -999.25        -999.25         0.6629        -39.596      -37.12687       1635.445      0.5824055       0.262717
      2828.0000        -999.25          1.449        -999.25        -999.25       51.04781        53.6364         0.3425         0.3839        -999.25        -999.25         0.6812          -44.2      -41.73087       1634.938       0.383996      0.1687578
      2828.5000        -999.25          1.898        -999.25        -999.25       44.11449        47.1212         0.3028         0.3347        -999.25        -999.25          0.654          -46.6      -44.13086       1654.838      0.2364786      0.1197783
      2829.0000        -999.25          1.898        -999.25        -999.25       39.62159           42.9         0.2704          0.314        -999.25        -999.25         0.6193            -47      -44.53086       1644.126       0.140885       0.111615
      2829.5000        -999.25         1.6122        -999.25        -999.25       36.42784           39.9          0.258         0.2986        -999.25        -999.25            0.6            -46      -43.53086       1633.415     0.07293271      0.1320232
      2830.0000        -999.25          1.449        -999.25        -999.25       36.90429          40.35         0.2484         0.2944        -999.25        -999.25          0.611          -44.8      -42.33086       1632.907     0.08307006       0.156513
      2830.5000        -999.25         1.4898        -999.25        -999.25       41.05097          44.25         0.2449         0.2957        -999.25        -999.25         0.6336          -44.4      -41.93087       1632.349      0.1712972      0.1646762
      2831.0000        -999.25         1.7347        -999.25        -999.25       45.23147        48.1818         0.2507         0.3124        -999.25        -999.25         0.6662          -44.8      -42.33086       1631.841       0.260244       0.156513
      2831.5000        -999.25         2.2449        -999.25        -999.25       48.93654        51.6667         0.2591         0.3165        -999.25        -999.25         0.6694          -45.8      -43.33086       1631.333      0.3390754      0.1361048
      2832.0000        -999.25          2.898        -999.25        -999.25       49.74013        52.4242         0.2676         0.3164        -999.25        -999.25         0.6515          -46.4      -43.93087       1630.825      0.3561729      0.1238599
      2832.5000        -999.25          3.102        -999.25        -999.25       46.83659         49.697         0.2804         0.3134        -999.25        -999.25         0.6061          -45.8      -43.33086       1640.522      0.2943955      0.1361048
      2833.0000        -999.25         2.5102        -999.25        -999.25       44.09411        47.1212         0.2951         0.3219        -999.25        -999.25         0.5738            -44      -41.53086        1629.81      0.2360449      0.1728395
      2833.5000        -999.25         1.6939        -999.25        -999.25       44.41419        47.4242         0.3131         0.3353        -999.25        -999.25         0.5532          -42.2      -39.73087       1639.506      0.2428551      0.2095742
      2834.0000        -999.25         1.2041        -999.25        -999.25       48.60278        51.3636         0.3231         0.3508        -999.25        -999.25         0.5661          -42.2      -39.73087       1638.999      0.3319739      0.2095742
      2834.5000        -999.25         1.1633        -999.25        -999.25       53.59732        56.0606         0.3259         0.3637        -999.25        -999.25         0.6149          -43.2      -40.73087       1638.491      0.4382409       0.189166
      2835.0000        -999.25          1.551        -999.25        -999.25       50.85484        53.4848         0.3213         0.3736        -999.25        -999.25         0.6614          -45.6      -43.13086        1627.78      0.3798902      0.1401865
      2835.5000        -999.25         2.0612        -999.25        -999.25         46.823         49.697         0.3125         0.3786        -999.25        -999.25         0.7115          -48.8      -46.33086       1637.476      0.2941064     0.07488032
      2836.0000        -999.25         2.3878        -999.25        -999.25       42.62989        45.7576         0.3012         0.3566        -999.25        -999.25         0.7948            -51      -48.53086       1626.764      0.2048912     0.02998235
      2836.5000        -999.25         2.0612        -999.25        -999.25       40.22593           43.5         0.2928         0.3313        -999.25        -999.25         0.7987          -52.4      -49.93087       1626.256      0.1537432    0.001410893
