#------------------------------------------------------------------------------
# Created by    : vladimir.rabinovich
# Created on    : 09/19/2023 17:21:18
#------------------------------------------------------------------------------
~Version Information Section
VERS.           2.0     :   CWLS log ASCII Standard - VERSION 2.0
WRAP.           NO      :   One line per depth step
~Well Information Section
#MNEM       .UNIT                                         VALUE :DESCRIPTION
#------------------------------------------------------------------------------
STRT        .FT                                             949 :START DEPTH
STOP        .FT                                            6560 :STOP DEPTH
STEP        .FT                                             0.5 :STEP      
NULL        .                                           -999.25 :NULL      
COMP        .                                    VASCO SERVICES :COMPANY   
WELL        .                                       POOLE HEIRS :WELL      
FLD         .                                           WILDCAT :FIELD     
LOC         .                                                   :LOCATION  
CNTY        .                                          BRAZORIA :LOCATION  
STAT        .                                             TEXAS :STATE     
CTRY        .                                     UNITED STATES :COUNTRY   
SRVC        .                                                   :SERVICE COMPANY
DATE        .                             9/13/2023 11:18:59 AM :LOG DATE  
API         .                                    42039322130000 :API NUMBER
UWI         .                                    42039322130000 :UNIQUE WELL ID
XCOORD      .                                  814093.995322374 :SURFACE X 
YCOORD      .                                  10494122.2566385 :SURFACE Y 
LAT         .                                        28.8922368 :LATITUDE  
LON         .                                       -95.5826759 :LONGITUDE 
ELEV        .FT                                              23 :ELEVATION VALUE
ELEV_TYPE   .                                                KB :ELEVATION REFERENCE TYPE
~Curve Information Section
#MNEM       .UNIT                                      API CODE :CURVE DESCRIPTION
#------------------------------------------------------------------------------
DEPT        .FT                                                 :DEPTH     
CALD        .IN                                                 :          
DCAL        .IN                                                 :          
DPSS        .V/V                                                :          
DRHO        .G/CM3                                              :          
GR_NORM     .GAPI                                               :GammaRay Normalized
GRR         .GAPI                                               :          
ILD         .OHMM                                               :          
ILM         .OHMM                                               :          
NPSS        .V/V                                                :Neutron Porosity Sandstone
RHOB        .G/CM3                                              :          
SFLU        .OHMM                                               :          
SP          .MV                                                 :          
SP_NORM     .MV                                                 :SP Normalized
TENR        .LB                                                 :          
VSH_GR      .V/V                                                :Volume of Shale from GR
VSH_SP      .V/V                                                :Volume of Shale from SP
~A        DEPTH           CALD           DCAL           DPSS           DRHO        GR_NORM            GRR            ILD            ILM           NPSS           RHOB           SFLU             SP        SP_NORM           TENR         VSH_GR         VSH_SP
# ...
       981.0000        -999.25        -999.25        -999.25        -999.25       79.34215        58.4536        -999.25        -999.25        -999.25        -999.25        -999.25        -999.25        -999.25       1051.546      0.9860032        -999.25
       981.5000        -999.25        -999.25        -999.25        -999.25       73.75669        53.8144        -999.25        -999.25        -999.25        -999.25        -999.25        -999.25        -999.25       1051.546      0.8671637        -999.25
       982.0000        -999.25        -999.25        -999.25        -999.25       67.24043        48.4021        -999.25        -999.25        -999.25        -999.25        -999.25        -999.25        -999.25       1051.546      0.7285197        -999.25
       982.5000        -999.25        -999.25        -999.25        -999.25       64.82008        46.3918        -999.25        -999.25        -999.25        -999.25        -999.25        -999.25        -999.25       1051.546      0.6770229        -999.25
       983.0000        -999.25        -999.25        -999.25        -999.25        65.3786        46.8557        -999.25        -999.25        -999.25        -999.25        -999.25        -999.25        -999.25       1051.546      0.6889064        -999.25
       983.5000        -999.25        -999.25        -999.25        -999.25       65.56474        47.0103        -999.25        -999.25        -999.25        -999.25        -999.25        -999.25        -999.25       1051.546      0.6928667        -999.25
       984.0000        -999.25        -999.25        -999.25        -999.25       63.51677        45.3093        -999.25        -999.25        -999.25        -999.25        -999.25        -999.25        -999.25       1051.546      0.6492929        -999.25
       984.5000        -999.25        -999.25        -999.25        -999.25       63.33053        45.1546        -999.25        -999.25        -999.25        -999.25        -999.25        -999.25        -999.25       1051.546      0.6453304        -999.25
       985.0000        -999.25        -999.25        -999.25        -999.25       64.44769        46.0825        -999.25        -999.25        -999.25        -999.25        -999.25        -999.25        -999.25       1051.546      0.6690999        -999.25
       985.5000        -999.25        -999.25        -999.25        -999.25       65.00621        46.5464        -999.25        -999.25        -999.25        -999.25        -999.25        -999.25        -999.25       1051.546      0.6809832        -999.25
       986.0000        -999.25         0.3838        -999.25        -999.25       65.56474        47.0103        42.2972       1926.729        -999.25        -999.25        15.5593        59.1837       64.12197       1051.546      0.6928667              1
       986.5000        -999.25         0.3838        -999.25        -999.25       67.61269        48.7113         8.4247       1906.292        -999.25        -999.25        14.7334        56.3265       61.26477       1051.546      0.7364403              1
       987.0000        -999.25         0.3636        -999.25        -999.25       69.47452        50.2577         8.8638       1906.292        -999.25        -999.25        11.0438        53.2653       58.20357       1051.546      0.7760535              1
       987.5000        -999.25         0.3636        -999.25        -999.25       67.79894         48.866       155.1814       1906.292        -999.25        -999.25         4.9875        50.6122       55.55047       1051.546      0.7404031              1
       988.0000        -999.25          0.303        -999.25        -999.25       59.95736        42.3529       1077.503       1916.483        -999.25        -999.25         1.2269        44.6939       49.63217       1051.546      0.5735608              1
       988.5000        -999.25          0.101        -999.25        -999.25       52.87523        36.4706       1444.699       1916.483        -999.25        -999.25         0.2648        38.9899       43.92817       1051.546      0.4228772              1
       989.0000        -999.25         0.0606        -999.25        -999.25       51.98995        35.7353       986.3513       1916.483        -999.25        -999.25         0.2071        31.1111       36.04937       1051.546      0.4040414              1
       989.5000        -999.25         0.3838        -999.25        -999.25       57.65572        40.4412       1192.382       1916.483        -999.25        -999.25         0.2354         20.202       25.12433       1051.546      0.5245898              1
       990.0000        -999.25         0.6869        -999.25        -999.25       69.47452        50.2577       1856.143        1937.03        -999.25        -999.25         0.3276            7.2       12.00341       1051.546      0.7760535              1
       990.5000        -999.25         1.0099        -999.25        -999.25         75.321        55.2117       1106.615       1856.143        -999.25        -999.25         1.5538        -2.9711       1.713393       1061.839      0.9004468              1
       991.0000        -999.25         1.3131        -999.25        -999.25       75.95743        55.9945       608.2167        1130.47        -999.25        -999.25         3.1135        -7.9269      -3.361328       1061.807      0.9139878      0.7853339
       991.5000        -999.25          1.455        -999.25        -999.25       73.24622        53.9968             10       532.9463        -999.25        -999.25         3.6966        -9.5171      -5.070449       1061.774      0.8563024      0.6299592
       992.0000        -999.25         1.5161        -999.25        -999.25       70.16597        51.6926         1.6722        61.9348        -999.25        -999.25         3.6966        -9.3235      -4.995769       1061.741      0.7907653      0.6367483
       992.5000        -999.25         1.8419        -999.25        -999.25       68.20145        50.3151         5.1153         4.9322        -999.25        -999.25          3.529        -8.9312       -4.72239       1071.998      0.7489671      0.6616009
       993.0000        -999.25         1.9038        -999.25        -999.25       67.53964        50.0196         7.6049         4.4823        -999.25        -999.25         3.5454        -7.7442      -3.654311       1071.959       0.734886       0.758699
       993.5000        -999.25          2.148        -999.25        -999.25       67.24913        50.0325        10.8116         4.0735        -999.25        -999.25         4.1296        -7.1517      -3.180731       1071.922      0.7287049      0.8017517
       994.0000        -999.25         2.8561        -999.25        -999.25       66.95874        50.0455        11.4764         3.4964        -999.25        -999.25          4.244        -6.3603      -2.508252       1071.884      0.7225264      0.8628862
       994.5000        -999.25          3.847        -999.25        -999.25       65.55613        49.1347         9.5086         3.7138        -999.25        -999.25          3.801        -4.9714      -1.238272       1082.114      0.6926836      0.9783389
       995.0000        -999.25         5.0658        -999.25        -999.25       66.93348        50.5329         4.8652         3.8722        -999.25        -999.25         3.3534        -4.9739      -1.359693       1082.071      0.7219889      0.9673007
       995.5000        -999.25         6.6263        -999.25        -999.25       71.82716        54.8517         4.2055         3.4964        -999.25        -999.25         2.9458        -4.7774      -1.282114       1082.028      0.8261097      0.9743533
       996.0000        -999.25         6.8485        -999.25        -999.25       77.64439        59.9376         3.9631         3.2765        -999.25        -999.25         2.8146        -4.9789      -1.602534       1081.984      0.9498807      0.9452242
       996.5000        -999.25         4.8644        -999.25        -999.25       82.48256        64.2103         3.8364          3.369        -999.25        -999.25         2.9191        -5.1807      -1.923254       1092.189              1      0.9160678
