#------------------------------------------------------------------------------
# Created by    : vladimir.rabinovich
# Created on    : 09/19/2023 17:21:18
#------------------------------------------------------------------------------
~Version Information Section
VERS.           2.0     :   CWLS log ASCII Standard - VERSION 2.0
WRAP.           NO      :   One line per depth step
~Well Information Section
#MNEM       .UNIT                                         VALUE :DESCRIPTION
#------------------------------------------------------------------------------
STRT        .FT                                             949 :START DEPTH
STOP        .FT                                            6560 :STOP DEPTH
STEP        .FT                                             0.5 :STEP      
NULL        .                                           -999.25 :NULL      
COMP        .                                    VASCO SERVICES :COMPANY   
WELL        .                                       POOLE HEIRS :WELL      
FLD         .                                           WILDCAT :FIELD     
LOC         .                                                   :LOCATION  
CNTY        .                                          BRAZORIA :LOCATION  
STAT        .                                             TEXAS :STATE     
CTRY        .                                     UNITED STATES :COUNTRY   
SRVC        .                                                   :SERVICE COMPANY
DATE        .                             9/13/2023 11:18:59 AM :LOG DATE  
API         .                                    42039322130000 :API NUMBER
UWI         .                                    42039322130000 :UNIQUE WELL ID
XCOORD      .                                  814093.995322374 :SURFACE X 
YCOORD      .                                  10494122.2566385 :SURFACE Y 
LAT         .                                        28.8922368 :LATITUDE  
LON         .                                       -95.5826759 :LONGITUDE 
ELEV        .FT                                              23 :ELEVATION VALUE
ELEV_TYPE   .                                                KB :ELEVATION REFERENCE TYPE
~Curve Information Section
#MNEM       .UNIT                                      API CODE :CURVE DESCRIPTION
#------------------------------------------------------------------------------
DEPT        .FT                                                 :DEPTH     
CALD        .IN                                                 :          
DCAL        .IN                                                 :          
DPSS        .V/V                                                :          
DRHO        .G/CM3                                              :          
GR_NORM     .GAPI                                               :GammaRay Normalized
GRR         .GAPI                                               :          
ILD         .OHMM                                               :          
ILM         .OHMM                                               :          
NPSS        .V/V                                                :Neutron Porosity Sandstone
RHOB        .G/CM3                                              :          
SFLU        .OHMM                                               :          
SP          .MV                                                 :          
SP_NORM     .MV                                                 :SP Normalized
TENR        .LB                                                 :          
VSH_GR      .V/V                                                :Volume of Shale from GR
VSH_SP      .V/V                                                :Volume of Shale from SP
~A        DEPTH           CALD           DCAL           DPSS           DRHO        GR_NORM            GRR            ILD            ILM           NPSS           RHOB           SFLU             SP        SP_NORM           TENR         VSH_GR         VSH_SP
# ...
      3189.0000         8.5758         0.6869         0.2522          0.009       68.63474           71.1         0.9251         0.8879         0.4048          2.235         0.7818         1.6162       2.500586       1714.286      0.7581859              1
      3189.5000         8.6162         0.7273         0.2473          0.002       66.08281           68.7         0.9293         0.8879         0.4079         2.2445         0.7927         2.4242       3.304099       1714.286      0.7038895              1
      3190.0000         8.6566         0.7677         0.2424          0.001       65.12663           67.8         0.9293         0.8919         0.4121          2.253         0.8109         2.8283       3.703712       1714.286      0.6835454              1
      3190.5000         8.6968         0.8288         0.2418          0.002       65.44704           68.1         0.9552         0.8959         0.4012          2.251         0.8257         3.0303       3.901226       1714.078      0.6903625              1
      3191.0000         8.6964         0.8299         0.2461              0       66.24618          68.85         0.9818         0.8959         0.3873         2.2415         0.8331         3.4343       4.300739        1703.52      0.7073655              1
      3191.5000         8.6961         0.8309         0.2504              0       67.04531           69.6              1         0.8959         0.3733         2.2345          0.833         3.8384       4.700352       1692.972      0.7243683              1
      3192.0000          8.726         0.8319         0.2522              0       68.48275          70.95              1         0.9041         0.3715         2.2339         0.8329         4.2424       5.099866       1702.806      0.7549521              1
      3192.5000          8.776         0.9137         0.2486              0       69.60103             72         1.0092         0.9209         0.3891         2.2399         0.8404         4.6465       5.499479       1692.269      0.7787453              1
      3193.0000          8.826         0.9551         0.2443          0.001       68.64484           71.1         1.0185         0.9465         0.4024         2.2484         0.8637         4.8485       5.696992       1702.093      0.7584009              1
      3193.5000         8.9162         1.0369          0.237          0.003       66.25249          68.85         1.0422         0.9729         0.4097         2.2618         0.8836         4.8485       5.692505       1691.568      0.7074999              1
      3194.0000          8.966         1.0783          0.229          0.001       61.46653          64.35         1.0615              1         0.4073         2.2743         0.9083         5.0505       5.890019       1711.547      0.6056709              1
      3194.5000         8.9957         1.1197         0.2236          0.003       56.52099           59.7         1.1012         1.0279         0.3982         2.2818         0.9251         5.0505       5.885532       1741.666      0.5004466              1
      3195.0000         9.0354         1.1611         0.2205          0.001       53.80948          57.15         1.1582         1.0812         0.3752         2.2858         0.9552         5.0505       5.881045       1792.063       0.442755              1
      3195.5000         9.1254         1.2631         0.2156          0.001         52.215          55.65         1.2126         1.1319         0.3413         2.2927         0.9774         4.6465       5.472559       1811.961      0.4088299              1
      3196.0000         9.2255         1.3652         0.2077          0.005       50.93967          54.45         1.2522         1.1689         0.3087         2.3082         1.0615         3.8384       4.659972       1791.262      0.3816952              1
      3196.5000         9.2352         1.4066         0.1991          0.008       52.21754          55.65         1.2754         1.1797         0.3026         2.3212         1.2408         2.2222       3.039285       1770.584      0.4088838              1
      3197.0000          9.265         1.4076         0.1991           0.01       57.48475           60.6         1.2754         1.1582         0.3262         2.3237         1.3415         1.0101       1.822699       1729.659      0.5209521              1
      3197.5000         9.2647         1.4086         0.2089          0.009       64.98602          67.65         1.2754         1.1372         0.3661         2.3046         1.2872              0      0.8081121       1709.033      0.6805535              1
      3198.0000         9.2643         1.4096         0.2205           0.01       70.73196          73.05         1.2754         1.0911         0.3964         2.2871         1.0962           -1.2     -0.3963746       1728.923      0.8028077              1
      3198.5000         9.2841          1.451         0.2259          0.012       72.48855           74.7         1.2754         1.0518         0.4024         2.2761         0.8958             -2      -1.200861       1748.793      0.8401819      0.9959008
      3199.0000         9.3543         1.4722         0.2259           0.01       72.64938          74.85         1.2522         1.0327         0.3867         2.2761         0.8468             -3      -2.205348       1748.416      0.8436037       0.975401
      3199.5000          9.465         1.5944         0.2235          0.004        71.6932          73.95         1.1797         1.0185         0.3727          2.282         0.9083           -4.4      -3.609835       1768.257      0.8232595      0.9467381
      3200.0000         9.4648         1.6965         0.2241         -0.003       71.21574           73.5         1.1063         1.0046         0.3697         2.2825         0.9684           -4.8      -4.014321       1777.974      0.8131009      0.9384832
      3200.5000         9.4645          1.697         0.2271         -0.004       72.65797        74.8545         1.0374         0.9909         0.3715          2.271         1.0279         -4.594      -3.812808        1797.92      0.8437865      0.9425958
      3201.0000         9.3633         1.5152         0.2363        -0.0031       76.20892        78.1912         0.9909         0.9774         0.3818          2.257         0.9954        -3.9841      -3.207395       1777.601      0.9193386      0.9549511
      3201.5000         9.2825         1.4141         0.2424         0.0119       79.43591        81.2234         0.9596         0.9729         0.3939           2.25         0.8792        -4.1741      -3.401881       1747.148      0.9879981       0.950982
      3202.0000         9.2722         1.4141         0.2344         0.0408       80.88995         82.589         0.9293         0.9596         0.4035           2.26         0.7646        -5.9642      -5.196468       1726.784              1      0.9143578
      3202.5000          9.262         1.4141         0.2307         0.0638       78.16132        80.0229          0.863         0.9209         0.3993         2.2695         0.7543        -9.9542      -9.190954       1726.648      0.9608792      0.8328376
      3203.0000         9.2921         1.4141         0.2435         0.0637        73.0246        75.1932          0.772         0.8834          0.378         2.2272          0.765       -15.7443      -14.98554       1716.382      0.8515874      0.7145808
      3203.5000         9.3926         1.4747          0.323         0.0457        65.6914        68.2988         0.6915         0.8355         0.3429         2.0019         0.7866       -21.9406      -21.18633       1716.227      0.6955616      0.5880342
      3204.0000         9.5132         1.6364         0.3786         0.0356       57.40319        60.5067         0.6167         0.7377         0.3205         1.9896         0.8834       -27.7541      -27.00432       1705.946      0.5192169      0.4692997
      3204.5000         9.5733         1.6768          0.427         0.0556       50.04255        53.5865         0.5527         0.6607          0.329         1.9324         1.1961       -32.5683        -31.823       1695.654      0.3626074      0.3709592
