#------------------------------------------------------------------------------
# Created by    : vladimir.rabinovich
# Created on    : 09/19/2023 17:21:18
#------------------------------------------------------------------------------
~Version Information Section
VERS.           2.0     :   CWLS log ASCII Standard - VERSION 2.0
WRAP.           NO      :   One line per depth step
~Well Information Section
#MNEM       .UNIT                                         VALUE :DESCRIPTION
#------------------------------------------------------------------------------
STRT        .FT                                             949 :START DEPTH
STOP        .FT                                            6560 :STOP DEPTH
STEP        .FT                                             0.5 :STEP      
NULL        .                                           -999.25 :NULL      
COMP        .                                    VASCO SERVICES :COMPANY   
WELL        .                                       POOLE HEIRS :WELL      
FLD         .                                           WILDCAT :FIELD     
LOC         .                                                   :LOCATION  
CNTY        .                                          BRAZORIA :LOCATION  
STAT        .                                             TEXAS :STATE     
CTRY        .                                     UNITED STATES :COUNTRY   
SRVC        .                                                   :SERVICE COMPANY
DATE        .                             9/13/2023 11:18:59 AM :LOG DATE  
API         .                                    42039322130000 :API NUMBER
UWI         .                                    42039322130000 :UNIQUE WELL ID
XCOORD      .                                  814093.995322374 :SURFACE X 
YCOORD      .                                  10494122.2566385 :SURFACE Y 
LAT         .                                        28.8922368 :LATITUDE  
LON         .                                       -95.5826759 :LONGITUDE 
ELEV        .FT                                              23 :ELEVATION VALUE
ELEV_TYPE   .                                                KB :ELEVATION REFERENCE TYPE
~Curve Information Section
#MNEM       .UNIT                                      API CODE :CURVE DESCRIPTION
#------------------------------------------------------------------------------
DEPT        .FT                                                 :DEPTH     
CALD        .IN                                                 :          
DCAL        .IN                                                 :          
DPSS        .V/V                                                :          
DRHO        .G/CM3                                              :          
GR_NORM     .GAPI                                               :GammaRay Normalized
GRR         .GAPI                                               :          
ILD         .OHMM                                               :          
ILM         .OHMM                                               :          
NPSS        .V/V                                                :Neutron Porosity Sandstone
RHOB        .G/CM3                                              :          
SFLU        .OHMM                                               :          
SP          .MV                                                 :          
SP_NORM     .MV                                                 :SP Normalized
TENR        .LB                                                 :          
VSH_GR      .V/V                                                :Volume of Shale from GR
VSH_SP      .V/V                                                :Volume of Shale from SP
~A        DEPTH           CALD           DCAL           DPSS           DRHO        GR_NORM            GRR            ILD            ILM           NPSS           RHOB           SFLU             SP        SP_NORM           TENR         VSH_GR         VSH_SP
# ...
      5413.0000        10.1111          2.282          0.254           0.04       87.46944           81.6         0.6258         0.5973         0.4411         2.2272         0.6316            2.4      -4.175886       2399.671              1      0.9503768
      5413.5000        10.1212         2.2819         0.2497          0.048         88.488           82.5         0.6526         0.6171         0.4254         2.2356         0.6113            2.4      -4.196768         2389.8              1      0.9500505
      5414.0000        10.0505         2.2616         0.2455          0.057       88.65776          82.65         0.6807         0.6405          0.414          2.245         0.6228            2.6      -4.017651       2379.939              1      0.9528492
      5414.5000         9.9091         2.1006         0.2437          0.059       89.33681          83.25            0.7         0.6588         0.4176          2.247         0.6935            3.4      -3.238533       2370.088              1      0.9650229
      5415.0000          9.596         1.8182         0.2455          0.053       91.20416           84.9         0.7222         0.6838         0.4278         2.2421         0.7618            4.6      -2.059416       2350.092              1      0.9834466
      5415.5000         9.3131         1.4747         0.2558          0.045       94.76913          88.05         0.7483         0.7063         0.4363         2.2302         0.7929            5.4      -1.280299       2340.299              1      0.9956203
      5416.0000         9.1515         1.3131         0.2644          0.034       97.65504           90.6          0.772         0.7319         0.4333         2.2158         0.7929            6.4     -0.3011813       2350.771              1              1
      5416.5000         9.1212         1.3333         0.2687          0.025       96.46674          89.55         0.7964          0.745         0.4297         2.2059         0.7929            7.2      0.4779358       2371.372              1              1
      5417.0000         9.1414         1.3131         0.2638          0.023       95.78768          88.95         0.8229         0.7584         0.4321         2.2089         0.7929              8       1.257053       2391.952              1              1
      5417.5000         9.1717         1.3535         0.2534           0.03       95.61793           88.8         0.8505         0.7824         0.4279         2.2252         0.7929            8.6       1.836172       2392.254              1              1
      5418.0000         9.1919         1.3939         0.2333          0.038       95.61793           88.8            0.9         0.8386         0.4146          2.254         0.7929            9.4       2.615288       2362.215              1              1
      5418.5000          9.202         1.3737         0.2103          0.043       92.22272           85.8         0.9509         0.8916          0.393          2.289         0.7929             10       3.194406       2352.413              1              1
      5419.0000         9.2222         1.3939         0.1927          0.044       87.80896           81.9         1.0046         0.9465         0.3665          2.321         0.8114             10       3.173523       2352.734              1              1
      5419.5000         9.2525         1.4343         0.1793          0.042       84.07424           78.6         1.0611              1         0.3373         2.3475         0.8958            9.2       2.352641       2373.272              1              1
      5420.0000         9.2929         1.4747         0.1751          0.032       82.37664           77.1         1.1208         1.0514         0.3196         2.3595         0.9596            9.2       2.331758       2383.686              1              1
      5420.5000         9.3535         1.5152         0.1708          0.026       82.88094        77.5456         1.1623         1.1004         0.3067         2.3645         0.9999         9.1945       2.305376       2393.757              1              1
      5421.0000         9.3737         1.5556         0.1677          0.021       83.38184        77.9882         1.1674         1.1103         0.3024         2.3705         1.0902         9.3845       2.474493       2393.452              1              1
      5421.5000         9.3535         1.5354         0.1659          0.016       80.82684        75.7306         1.1305          1.085         0.3024          2.374         1.2161         9.5745       2.643611       2393.146              1              1
      5422.0000         9.2929         1.4747         0.1701          0.011       78.95099        74.0731         1.0947         1.0603         0.3104          2.374         1.2612        10.1646       3.212829       2392.841      0.9776806              1
      5422.5000         9.1818         1.3535         0.1841          0.006       78.94251        74.0656         1.0601         1.0081         0.3416         2.3575         1.0267        10.7546       3.781945       2392.535      0.9775003              1
      5423.0000         9.1313         1.2727         0.2023          0.004       80.46198        75.4082         1.0454         0.9453         0.3702         2.3245           0.85        11.1447       4.151163       2392.229              1              1
      5423.5000         9.1313         1.2727         0.2218          0.004       83.16988        77.8009         0.9759         0.8862          0.393           2.29         0.7149        11.5347       4.520281       2412.192              1              1
      5424.0000         9.1212         1.2727         0.2339          0.004       84.85911        79.2935         0.9026         0.8303          0.417           2.27          0.686        11.3247       4.289398       2442.314              1              1
      5424.5000         9.1111         1.2727         0.2357          0.007       85.69953        80.0361         0.8576            0.8         0.4327          2.259         0.6954        11.3148       4.258615       2431.888              1              1
      5425.0000          9.101         1.2727         0.2321          0.013       85.52128        79.8786         0.8112         0.7786         0.4485         2.2625         0.7145        11.5048       4.427732       2401.151              1              1
      5425.5000         9.1212         1.3131         0.2327          0.013       84.32446        78.8211         0.7856         0.7611         0.4527         2.2655          0.734        11.2948        4.19685       2390.694              1              1
      5426.0000         9.1515         1.3333         0.2357          0.011        82.9579        77.6136         0.7856          0.761         0.4455         2.2625         0.7473        11.0848       3.965968       2390.386              1              1
      5426.5000         9.2323         1.3939         0.2357          0.012       82.27038        77.0061         0.7928         0.7679         0.4309         2.2615         0.7473        11.2748       4.135086       2390.077              1              1
      5427.0000         9.2929         1.4747         0.2327          0.013       82.43164        77.1486         0.7964         0.7749         0.4164          2.264         0.7609        11.4649       4.304303        2410.11              1              1
      5427.5000         9.3636         1.5152         0.2308          0.013       81.74411        76.5411         0.8037          0.782         0.4098         2.2665         0.7749        11.6549        4.47342        2389.46              1              1
      5428.0000         9.4242          1.596          0.226          0.018       80.03802        75.0336          0.811         0.7891          0.414          2.271         0.7927        12.4449       5.242537        2378.97              1              1
      5428.5000         9.5051         1.6768         0.2192          0.027        77.9923         73.226         0.8222         0.8037         0.4352          2.281         0.8073        12.8349       5.611655       2368.469       0.957283              1
