#------------------------------------------------------------------------------
# Created by    : vladimir.rabinovich
# Created on    : 09/19/2023 17:21:18
#------------------------------------------------------------------------------
~Version Information Section
VERS.           2.0     :   CWLS log ASCII Standard - VERSION 2.0
WRAP.           NO      :   One line per depth step
~Well Information Section
#MNEM       .UNIT                                         VALUE :DESCRIPTION
#------------------------------------------------------------------------------
STRT        .FT                                             949 :START DEPTH
STOP        .FT                                            6560 :STOP DEPTH
STEP        .FT                                             0.5 :STEP      
NULL        .                                           -999.25 :NULL      
COMP        .                                    VASCO SERVICES :COMPANY   
WELL        .                                       POOLE HEIRS :WELL      
FLD         .                                           WILDCAT :FIELD     
LOC         .                                                   :LOCATION  
CNTY        .                                          BRAZORIA :LOCATION  
STAT        .                                             TEXAS :STATE     
CTRY        .                                     UNITED STATES :COUNTRY   
SRVC        .                                                   :SERVICE COMPANY
DATE        .                             9/13/2023 11:18:59 AM :LOG DATE  
API         .                                    42039322130000 :API NUMBER
UWI         .                                    42039322130000 :UNIQUE WELL ID
XCOORD      .                                  814093.995322374 :SURFACE X 
YCOORD      .                                  10494122.2566385 :SURFACE Y 
LAT         .                                        28.8922368 :LATITUDE  
LON         .                                       -95.5826759 :LONGITUDE 
ELEV        .FT                                              23 :ELEVATION VALUE
ELEV_TYPE   .                                                KB :ELEVATION REFERENCE TYPE
~Curve Information Section
#MNEM       .UNIT                                      API CODE :CURVE DESCRIPTION
#------------------------------------------------------------------------------
DEPT        .FT                                                 :DEPTH     
CALD        .IN                                                 :          
DCAL        .IN                                                 :          
DPSS        .V/V                                                :          
DRHO        .G/CM3                                              :          
GR_NORM     .GAPI                                               :GammaRay Normalized
GRR         .GAPI                                               :          
ILD         .OHMM                                               :          
ILM         .OHMM                                               :          
NPSS        .V/V                                                :Neutron Porosity Sandstone
RHOB        .G/CM3                                              :          
SFLU        .OHMM                                               :          
SP          .MV                                                 :          
SP_NORM     .MV                                                 :SP Normalized
TENR        .LB                                                 :          
VSH_GR      .V/V                                                :Volume of Shale from GR
VSH_SP      .V/V                                                :Volume of Shale from SP
~A        DEPTH           CALD           DCAL           DPSS           DRHO        GR_NORM            GRR            ILD            ILM           NPSS           RHOB           SFLU             SP        SP_NORM           TENR         VSH_GR         VSH_SP
# ...
      5781.0000        10.2245         2.3418          0.327         -0.002       62.28723          58.35         0.2037         0.2171         0.3319         2.1105         0.8073          -67.6      -63.74899       2449.792      0.6231326       0.034631
      5781.5000        10.2347         2.3408         0.3252         -0.005       63.24468          59.25         0.2037         0.2151          0.324          2.111          0.822          -67.6      -63.75069         2450.3      0.6435039      0.0346047
      5782.0000        10.2449         2.3398         0.3289         -0.005       65.31915           61.2         0.2037         0.2161         0.3173           2.11          0.822            -68      -64.15241       2450.807      0.6876414     0.02842443
      5782.5000        10.2551         2.3388         0.3283         -0.006       68.19149           63.9         0.2046         0.2181         0.3167          2.109         0.8183          -68.6      -64.75412       2451.315      0.7487551     0.01916739
      5783.0000        10.2653         2.3378         0.3277         -0.008       68.35107          64.05         0.2084         0.2231         0.3161          2.109         0.8258          -68.6      -64.75583       2441.618      0.7521504     0.01914109
      5783.5000        10.2755         2.3772         0.3308         -0.009        65.6383           61.5         0.2282         0.2252         0.3186         2.1035         0.8183          -68.4      -64.55755       2442.126      0.6944319     0.02219156
      5784.0000        10.2857         2.3964          0.337          -0.01       62.76596           58.8         0.2535         0.2346         0.3253         2.0921            0.8          -67.8      -63.95926       2452.838      0.6333182     0.03139596
      5784.5000        10.3163          2.456         0.3456         -0.006       59.89362           56.1         0.2815         0.2489         0.3394         2.0792         0.7605          -66.2      -62.36097       2453.345      0.5722046     0.05598509
      5785.0000        10.3469         2.4954         0.3493         -0.002       61.17021           57.3         0.3128         0.2689         0.3548         2.0752         0.6937          -63.4      -59.56268       2453.853      0.5993662     0.09903564
      5785.5000        10.3878         2.4944         0.3438          0.001       64.84042          60.75         0.3353         0.2919         0.3573         2.0851         0.6481          -59.8      -55.96439       2454.361      0.6774558      0.1543939
      5786.0000        10.4286          2.453         0.3316          0.001       68.82979           64.5         0.3513         0.3113         0.3518          2.103         0.6138          -55.8      -51.96611       2454.868      0.7623359      0.2159061
      5786.5000        10.4694         2.5126         0.3181         -0.003       72.02128           67.5         0.3545         0.3246         0.3408          2.126         0.5812          -51.8      -47.96782       2455.376        0.83024      0.2774182
      5787.0000        10.5102         2.5722         0.3016         -0.007       71.54256          67.05         0.3385         0.3246         0.3298         2.1415         0.5115            -52      -48.16953       2455.884      0.8200544      0.2743149
      5787.5000         10.551         2.6116         0.3078          -0.01       69.30851          64.95         0.3014         0.3216         0.3194          2.143         0.5023          -54.8      -50.97124       2446.188      0.7725215      0.2312116
      5788.0000        10.5816          2.651          0.317         -0.011       66.91489           62.7         0.2702         0.3099         0.3176         2.1275          0.672            -59      -55.17296       2456.899      0.7215935      0.1665699
      5788.5000        10.6122         2.7308         0.3256         -0.014       64.52127          60.45         0.2411         0.2827         0.3287         2.1115         0.9465          -61.6      -57.77467       2457.407      0.6706653      0.1265436
      5789.0000        10.6837         2.7904         0.3305         -0.014       64.20213          60.15         0.2151         0.2535         0.3416          2.103          0.964            -62      -58.17638       2457.915       0.663875      0.1203634
      5789.5000        10.7653         2.8904         0.3312          -0.01       67.71276          63.45         0.2018         0.2335         0.3459          2.104         0.9041          -60.8      -56.97809       2458.422      0.7385694      0.1387986
      5790.0000        10.8673           2.95         0.3263         -0.006       71.06383           66.6         0.2018         0.2272         0.3459          2.111         0.8409          -54.4      -50.57981        2458.93      0.8098687      0.2372337
      5790.5000        10.9684         3.0301         0.3172          0.001       74.25096        69.5959         0.2046         0.2251         0.3478          2.123         0.7889       -45.2014      -41.38292       2459.184        0.87768      0.3787243
      5791.0000         11.007         3.1509            0.3          0.012       76.79628        71.9885         0.2112         0.2303         0.3545         2.1663         0.7163          -30.6      -26.78323       2448.979      0.9318358      0.6033349
      5791.5000        11.1054         3.3123         0.2762          0.022       79.66064         74.681         0.2261         0.2557         0.3563          2.203         0.5626          -20.6      -16.78494       2448.979      0.9927795      0.7571547
      5792.0000         11.194         3.4738         0.2566          0.017       82.20979        77.0772         0.2432         0.2853         0.3423         2.2212         0.4126       -16.5718      -12.75846       2438.775              1      0.8191007
      5792.5000        11.2929         3.4735          0.264          0.005       83.00256        77.8224         0.2604         0.3171         0.3191         2.2216            0.3          -21.2      -17.38837       2438.775              1      0.7478713
      5793.0000        11.3619         3.4935         0.2745         -0.002       80.91575        75.8608         0.2788         0.3543         0.3099         2.2005          0.371            -30      -26.19008       2438.775              1      0.6124603
      5793.5000        11.4009         3.5135         0.2867         -0.003       76.91553        72.1006         0.2959         0.3592          0.302         2.1831          0.477          -38.2      -34.39179       2448.979      0.9343731      0.4862801
      5794.0000        11.4399         3.5741         0.2966          0.001       73.55702        68.9436         0.2892         0.3429         0.2959         2.1677         0.6271       -45.6211      -41.81461       2459.184      0.8629153       0.372083
      5794.5000        11.4993         3.6551         0.2966          0.005       69.39989        65.0359         0.2556         0.3141          0.288         2.1612         0.8516       -50.2437      -46.43892       2479.592      0.7744657      0.3009398
      5795.0000        11.5792         3.7158         0.2929          0.014       65.88096        61.7281         0.2408         0.2905         0.2783         2.1682         1.0092        -49.646      -45.84293       2479.592      0.6995949      0.3101088
      5795.5000        11.6593         3.8172         0.2813          0.026       63.95873        59.9212         0.2353           0.27         0.2697         2.1905         1.0468       -41.8095      -38.00814       2469.388      0.6586964       0.430644
      5796.0000          11.76         3.8984         0.2636           0.04       64.58904        60.5137         0.2353         0.2579         0.2697         2.2141         0.8958            -27      -23.20035       2448.979      0.6721073      0.6584561
      5796.5000        11.8917         3.9797         0.2508          0.047       69.52724        65.1556          0.259         0.2614           0.29         2.2277         0.6294       -11.3677      -7.569765       2459.184      0.7771752      0.8989267
