#------------------------------------------------------------------------------
# Created by    : vladimir.rabinovich
# Created on    : 09/19/2023 17:21:18
#------------------------------------------------------------------------------
~Version Information Section
VERS.           2.0     :   CWLS log ASCII Standard - VERSION 2.0
WRAP.           NO      :   One line per depth step
~Well Information Section
#MNEM       .UNIT                                         VALUE :DESCRIPTION
#------------------------------------------------------------------------------
STRT        .FT                                             949 :START DEPTH
STOP        .FT                                            6560 :STOP DEPTH
STEP        .FT                                             0.5 :STEP      
NULL        .                                           -999.25 :NULL      
COMP        .                                    VASCO SERVICES :COMPANY   
WELL        .                                       POOLE HEIRS :WELL      
FLD         .                                           WILDCAT :FIELD     
LOC         .                                                   :LOCATION  
CNTY        .                                          BRAZORIA :LOCATION  
STAT        .                                             TEXAS :STATE     
CTRY        .                                     UNITED STATES :COUNTRY   
SRVC        .                                                   :SERVICE COMPANY
DATE        .                             9/13/2023 11:18:59 AM :LOG DATE  
API         .                                    42039322130000 :API NUMBER
UWI         .                                    42039322130000 :UNIQUE WELL ID
XCOORD      .                                  814093.995322374 :SURFACE X 
YCOORD      .                                  10494122.2566385 :SURFACE Y 
LAT         .                                        28.8922368 :LATITUDE  
LON         .                                       -95.5826759 :LONGITUDE 
ELEV        .FT                                              23 :ELEVATION VALUE
ELEV_TYPE   .                                                KB :ELEVATION REFERENCE TYPE
~Curve Information Section
#MNEM       .UNIT                                      API CODE :CURVE DESCRIPTION
#------------------------------------------------------------------------------
DEPT        .FT                                                 :DEPTH     
CALD        .IN                                                 :          
DCAL        .IN                                                 :          
DPSS        .V/V                                                :          
DRHO        .G/CM3                                              :          
GR_NORM     .GAPI                                               :GammaRay Normalized
GRR         .GAPI                                               :          
ILD         .OHMM                                               :          
ILM         .OHMM                                               :          
NPSS        .V/V                                                :Neutron Porosity Sandstone
RHOB        .G/CM3                                              :          
SFLU        .OHMM                                               :          
SP          .MV                                                 :          
SP_NORM     .MV                                                 :SP Normalized
TENR        .LB                                                 :          
VSH_GR      .V/V                                                :Volume of Shale from GR
VSH_SP      .V/V                                                :Volume of Shale from SP
~A        DEPTH           CALD           DCAL           DPSS           DRHO        GR_NORM            GRR            ILD            ILM           NPSS           RHOB           SFLU             SP        SP_NORM           TENR         VSH_GR         VSH_SP
# ...
      2085.0000        -999.25         1.6768        -999.25        -999.25       75.53294           67.2         0.7675         0.7364        -999.25        -999.25         0.7364        -2.8283       2.767696       1367.347      0.9049562              1
      2085.5000        -999.25         1.7374        -999.25        -999.25       77.92542          69.45          0.757         0.7296        -999.25        -999.25         0.7711        -2.0202       3.568887       1367.347      0.9558601              1
      2086.0000        -999.25         1.6364        -999.25        -999.25       83.34982          74.55         0.7432         0.7466        -999.25        -999.25         0.8146        -1.6162       3.965977       1387.755              1              1
      2086.5000        -999.25         1.4747        -999.25        -999.25        83.8274             75         0.7398         0.7746        -999.25        -999.25         0.8371        -1.6162       3.959067       1387.755              1              1
      2087.0000        -999.25         1.3333        -999.25        -999.25       80.63477             72         0.7535         0.7854        -999.25        -999.25         0.8258        -1.0101       4.558257       1387.755              1              1
      2087.5000        -999.25         1.2727        -999.25        -999.25       76.48469           68.1          0.764          0.789        -999.25        -999.25         0.7963        -1.4141       4.147347       1377.551      0.9252061              1
      2088.0000        -999.25         1.2727        -999.25        -999.25       76.16441           67.8         0.7746          0.789        -999.25        -999.25         0.7675        -1.4141       4.140437       1377.551      0.9183918              1
      2088.5000        -999.25         1.2727        -999.25        -999.25       80.15263          71.55         0.7854          0.789        -999.25        -999.25         0.7398        -1.4141       4.133528       1377.551              1              1
      2089.0000        -999.25         1.2727        -999.25        -999.25       80.78979          72.15            0.8          0.789        -999.25        -999.25          0.733        -1.4141       4.126618       1387.755              1              1
      2089.5000        -999.25         1.2727        -999.25        -999.25       77.11843           68.7         0.8109          0.789        -999.25        -999.25         0.7398        -1.4141       4.119708       1387.755        0.93869              1
      2090.0000        -999.25         1.3535        -999.25        -999.25       72.96837           64.8          0.822         0.7854        -999.25        -999.25         0.7466        -1.8182       3.708698       1397.959      0.8503908              1
      2090.5000        -999.25         1.3535        -999.25        -999.25       71.53104          63.45         0.8408         0.7853        -999.25        -999.25         0.7534        -1.8182       3.701788       1397.959      0.8198094              1
      2091.0000        -999.25         1.3939        -999.25        -999.25       73.28523           65.1           0.86         0.7887        -999.25        -999.25         0.7602        -1.8182       3.694879       1387.755      0.8571326              1
      2091.5000        -999.25         1.3939        -999.25        -999.25       76.31601          67.95         0.8758         0.7959        -999.25        -999.25         0.7635        -2.0202       3.485969       1387.755      0.9216172              1
      2092.0000        -999.25         1.3939        -999.25        -999.25       77.43189             69         0.8878         0.7994        -999.25        -999.25          0.774        -2.0202       3.479059       1387.755      0.9453594              1
      2092.5000        -999.25         1.4141        -999.25        -999.25       77.43076             69         0.8877         0.8028        -999.25        -999.25         0.7846        -1.8182        3.67415       1387.755      0.9453352              1
      2093.0000        -999.25         1.3939        -999.25        -999.25       77.11047           68.7         0.8877         0.8137        -999.25        -999.25          0.788        -2.2222        3.26324       1387.755      0.9385206              1
      2093.5000        -999.25         1.3939        -999.25        -999.25       76.47102           68.1         0.8877         0.8136        -999.25        -999.25         0.7878        -2.8283        2.65023       1387.755      0.9249154              1
      2094.0000        -999.25         1.3939        -999.25        -999.25       74.07627          65.85         0.8755         0.8172        -999.25        -999.25         0.7949        -4.0404       1.431221       1387.755      0.8739632              1
      2094.5000        -999.25         1.4141        -999.25        -999.25       70.40492           62.4         0.8284         0.8208        -999.25        -999.25         0.8095        -6.0606     -0.5958891       1387.755      0.7958494              1
      2095.0000        -999.25         1.3939        -999.25        -999.25       67.69101          59.85         0.7765         0.8169        -999.25        -999.25         0.8244        -9.0909        -3.6331       1377.551      0.7381066      0.9401568
      2095.5000        -999.25         1.3939        -999.25        -999.25       65.13669          57.45         0.7278         0.7835        -999.25        -999.25         0.8436       -11.5152      -6.064309       1377.551      0.6837593      0.8849021
      2096.0000        -999.25         1.4141        -999.25        -999.25       62.58236          55.05         0.6856          0.731        -999.25        -999.25         0.7906       -13.5354      -8.091419       1367.347      0.6294118      0.8388314
      2096.5000        -999.25         1.4141        -999.25        -999.25       59.86845           52.5         0.6462         0.6855        -999.25        -999.25          0.741       -14.9495      -9.512428       1387.755      0.5716692      0.8065357
      2097.0000        -999.25         1.4949        -999.25        -999.25       57.15454          49.95         0.6036         0.6403        -999.25        -999.25         0.7108       -14.7475      -9.317339       1387.755      0.5139265      0.8109696
      2097.5000        -999.25         1.7172        -999.25        -999.25       56.99383           49.8         0.5686         0.5953        -999.25        -999.25         0.6945       -14.3434      -8.920148       1387.755       0.510507      0.8199967
      2098.0000        -999.25         1.9192        -999.25        -999.25       60.02461          52.65         0.5307         0.5556        -999.25        -999.25         0.6517       -14.3434      -8.927057       1377.551      0.5749918      0.8198396
      2098.5000        -999.25         2.1414        -999.25        -999.25       62.89581          55.35         0.5069         0.5258        -999.25        -999.25         0.5923       -15.3535      -9.944068       1377.551       0.636081      0.7967257
      2099.0000        -999.25          2.303        -999.25        -999.25       63.21382          55.65         0.4885         0.5234        -999.25        -999.25         0.5454       -18.1818      -12.77928       1387.755      0.6428472      0.7322891
      2099.5000        -999.25         2.5657        -999.25        -999.25       57.78715          50.55         0.4685         0.5234        -999.25        -999.25         0.5354          -21.8      -16.40439       1387.755      0.5273862      0.6499003
      2100.0000        -999.25         3.2727        -999.25        -999.25       47.45792        40.8416         0.4577         0.5233        -999.25        -999.25         0.5733          -26.4       -21.0113       1397.959      0.3076153      0.5451978
      2100.5000        -999.25           4.06        -999.25        -999.25       39.71508        33.5644         0.4493         0.5233        -999.25        -999.25          0.713            -30      -24.61821        1397.66      0.1428741      0.4632226
