#------------------------------------------------------------------------------
# Created by    : vladimir.rabinovich
# Created on    : 09/19/2023 17:21:18
#------------------------------------------------------------------------------
~Version Information Section
VERS.           2.0     :   CWLS log ASCII Standard - VERSION 2.0
WRAP.           NO      :   One line per depth step
~Well Information Section
#MNEM       .UNIT                                         VALUE :DESCRIPTION
#------------------------------------------------------------------------------
STRT        .FT                                             949 :START DEPTH
STOP        .FT                                            6560 :STOP DEPTH
STEP        .FT                                             0.5 :STEP      
NULL        .                                           -999.25 :NULL      
COMP        .                                    VASCO SERVICES :COMPANY   
WELL        .                                       POOLE HEIRS :WELL      
FLD         .                                           WILDCAT :FIELD     
LOC         .                                                   :LOCATION  
CNTY        .                                          BRAZORIA :LOCATION  
STAT        .                                             TEXAS :STATE     
CTRY        .                                     UNITED STATES :COUNTRY   
SRVC        .                                                   :SERVICE COMPANY
DATE        .                             9/13/2023 11:18:59 AM :LOG DATE  
API         .                                    42039322130000 :API NUMBER
UWI         .                                    42039322130000 :UNIQUE WELL ID
XCOORD      .                                  814093.995322374 :SURFACE X 
YCOORD      .                                  10494122.2566385 :SURFACE Y 
LAT         .                                        28.8922368 :LATITUDE  
LON         .                                       -95.5826759 :LONGITUDE 
ELEV        .FT                                              23 :ELEVATION VALUE
ELEV_TYPE   .                                                KB :ELEVATION REFERENCE TYPE
~Curve Information Section
#MNEM       .UNIT                                      API CODE :CURVE DESCRIPTION
#------------------------------------------------------------------------------
DEPT        .FT                                                 :DEPTH     
CALD        .IN                                                 :          
DCAL        .IN                                                 :          
DPSS        .V/V                                                :          
DRHO        .G/CM3                                              :          
GR_NORM     .GAPI                                               :GammaRay Normalized
GRR         .GAPI                                               :          
ILD         .OHMM                                               :          
ILM         .OHMM                                               :          
NPSS        .V/V                                                :Neutron Porosity Sandstone
RHOB        .G/CM3                                              :          
SFLU        .OHMM                                               :          
SP          .MV                                                 :          
SP_NORM     .MV                                                 :SP Normalized
TENR        .LB                                                 :          
VSH_GR      .V/V                                                :Volume of Shale from GR
VSH_SP      .V/V                                                :Volume of Shale from SP
~A        DEPTH           CALD           DCAL           DPSS           DRHO        GR_NORM            GRR            ILD            ILM           NPSS           RHOB           SFLU             SP        SP_NORM           TENR         VSH_GR         VSH_SP
# ...
      1349.0000        -999.25         3.1338        -999.25        -999.25        36.2634        22.8876         1.4272         1.5635        -999.25        -999.25         2.2649       -32.7451       -20.1137       1153.061     0.06943414     0.08982377
      1349.5000        -999.25         2.8701        -999.25        -999.25       34.16564        20.9157         1.4735         1.6364        -999.25        -999.25         2.5066       -33.5294      -20.90599       1153.061     0.02480089     0.05209569
      1350.0000        -999.25         2.5661        -999.25        -999.25       30.77649        17.7299         1.5213          1.705        -999.25        -999.25         2.7612       -34.1176      -21.50218       1153.061              0     0.02370571
      1350.5000        -999.25         2.3232        -999.25        -999.25        28.6783        15.7576         1.5707         1.7766        -999.25        -999.25         2.8785       -34.3137      -21.70627       1142.857              0     0.01398704
      1351.0000        -999.25          2.101        -999.25        -999.25       28.83947        15.9091          1.622         1.7932        -999.25        -999.25         2.9463       -34.7059      -22.10646       1142.857              0              0
      1351.5000        -999.25         2.0606        -999.25        -999.25       30.77373        17.7273         1.6597           1.81        -999.25        -999.25         2.9742       -34.7059      -22.11445       1153.061              0              0
      1352.0000        -999.25          2.101        -999.25        -999.25        31.4184        18.3333         1.6828         1.8021        -999.25        -999.25         2.8938       -34.3137      -21.73024       1153.061              0     0.01284563
      1352.5000        -999.25         2.1414        -999.25        -999.25        30.2901        17.2727          1.722         1.8024        -999.25        -999.25         2.7514       -34.1176      -21.54213       1142.857              0     0.02180336
      1353.0000        -999.25         2.2424        -999.25        -999.25       30.45128        17.4242         1.7621         1.8277        -999.25        -999.25         2.6403       -33.9216      -21.35412       1153.061              0     0.03075627
      1353.5000        -999.25         2.3434        -999.25        -999.25       32.22436        19.0909         1.7226         1.8448        -999.25        -999.25         2.7274       -33.7255      -21.16601       1173.469              0      0.0397139
      1354.0000        -999.25         2.3636        -999.25        -999.25         33.675        20.4545         1.5868         1.8707        -999.25        -999.25         3.0051       -33.9216       -21.3701       1183.673     0.01436169     0.02999533
      1354.5000        -999.25         2.3838        -999.25        -999.25       35.44809        22.1212         1.4886         1.8038        -999.25        -999.25         3.1716       -33.9216      -21.37809       1193.878     0.05208693     0.02961477
      1355.0000        -999.25         2.3838        -999.25        -999.25       38.02713        24.5455         1.3965         1.5946        -999.25        -999.25         3.0469       -33.9216      -21.38608       1173.469      0.1069602     0.02923439
      1355.5000        -999.25         2.4848        -999.25        -999.25       42.86266        29.0909          1.316         1.4224        -999.25        -999.25         2.2187       -33.9216      -21.39407       1163.265      0.2098438     0.02885382
      1356.0000        -999.25         2.6869        -999.25        -999.25       47.18085          33.15           1.24         1.2688        -999.25        -999.25         1.7006       -33.9216      -21.40206       1153.061      0.3017202     0.02847345
      1356.5000        -999.25         2.8485        -999.25        -999.25       49.41489          35.25         1.1631         1.1901        -999.25        -999.25         1.4962       -33.5294      -21.01785       1163.265      0.3492531     0.04676919
      1357.0000        -999.25         2.9293        -999.25        -999.25       48.29787           34.2         1.0909         1.1316        -999.25        -999.25         1.2806       -33.1373      -20.63374       1173.469      0.3254867     0.06506021
      1357.5000        -999.25         2.9495        -999.25        -999.25       45.42553           31.5         1.0232         1.0761        -999.25        -999.25          1.246       -32.7451      -20.24953       1183.673       0.264373     0.08335595
      1358.0000        -999.25         2.9697        -999.25        -999.25       42.54032        28.7879          0.964         1.0232        -999.25        -999.25         1.2867        -32.549      -20.06142       1183.673      0.2029856     0.09231349
      1358.5000        -999.25         2.9899        -999.25        -999.25       40.12255        26.5152         0.9379         1.0185        -999.25        -999.25         1.3534       -32.3529      -19.87331       1173.469      0.1515436      0.1012711
      1359.0000        -999.25         3.1313        -999.25        -999.25       39.47776        25.9091         0.9552         1.0469        -999.25        -999.25          1.366       -31.7647      -19.29309       1153.061      0.1378248      0.1289003
      1359.5000        -999.25         3.2929        -999.25        -999.25       41.73436        28.0303         0.9818         1.0811        -999.25        -999.25         1.3787       -31.1765      -18.71289       1153.061      0.1858375      0.1565292
      1360.0000        -999.25         3.4343        -999.25        -999.25       44.62766          30.75         1.0046         1.1062        -999.25        -999.25         1.3726       -31.1765      -18.72087       1153.061       0.247397      0.1561488
      1360.5000        -999.25         3.5758        -999.25        -999.25       47.02128             33         1.0374         1.1372        -999.25        -999.25         1.3726       -30.7843      -18.33667       1163.265      0.2983251      0.1744445
      1361.0000        -999.25         3.7172        -999.25        -999.25       47.97873           33.9         1.0664         1.1689        -999.25        -999.25          1.424       -30.7843      -18.34465       1163.265      0.3186963      0.1740641
      1361.5000        -999.25          3.798        -999.25        -999.25       47.02128             33         1.0962         1.2071        -999.25        -999.25         1.5826       -30.3922      -17.96054       1153.061      0.2983251       0.192355
      1362.0000        -999.25         3.8788        -999.25        -999.25       44.46808           30.6         1.1216         1.2408        -999.25        -999.25         1.8414       -30.5882      -18.16453       1153.061      0.2440018      0.1826413
      1362.5000        -999.25          3.899        -999.25        -999.25       42.86266        29.0909         1.1529          1.258        -999.25        -999.25         1.9191            -30      -17.58432       1163.265      0.2098438      0.2102703
      1363.0000        -999.25         3.8788        -999.25        -999.25        46.2234          32.25         1.1906         1.2696        -999.25        -999.25         1.8841       -28.4314      -16.02371       1173.469       0.281349      0.2845851
      1363.5000        -999.25          3.899        -999.25        -999.25       53.88298          39.45         1.2238         1.2872        -999.25        -999.25         1.8928       -25.8824       -13.4827       1173.469      0.4443187      0.4055855
      1364.0000        -999.25         3.8182        -999.25        -999.25       62.02127           47.1         1.2522         1.2931        -999.25        -999.25              2       -22.9412      -10.54949       1163.265      0.6174739      0.5452622
      1364.5000        -999.25         3.6768        -999.25        -999.25       71.43616          55.95         1.2522         1.2813        -999.25        -999.25         2.0092          -19.6      -7.216283       1153.061      0.8177907      0.7039865
