#------------------------------------------------------------------------------
# Created by    : vladimir.rabinovich
# Created on    : 09/19/2023 17:21:18
#------------------------------------------------------------------------------
~Version Information Section
VERS.           2.0     :   CWLS log ASCII Standard - VERSION 2.0
WRAP.           NO      :   One line per depth step
~Well Information Section
#MNEM       .UNIT                                         VALUE :DESCRIPTION
#------------------------------------------------------------------------------
STRT        .FT                                             949 :START DEPTH
STOP        .FT                                            6560 :STOP DEPTH
STEP        .FT                                             0.5 :STEP      
NULL        .                                           -999.25 :NULL      
COMP        .                                    VASCO SERVICES :COMPANY   
WELL        .                                       POOLE HEIRS :WELL      
FLD         .                                           WILDCAT :FIELD     
LOC         .                                                   :LOCATION  
CNTY        .                                          BRAZORIA :LOCATION  
STAT        .                                             TEXAS :STATE     
CTRY        .                                     UNITED STATES :COUNTRY   
SRVC        .                                                   :SERVICE COMPANY
DATE        .                             9/13/2023 11:18:59 AM :LOG DATE  
API         .                                    42039322130000 :API NUMBER
UWI         .                                    42039322130000 :UNIQUE WELL ID
XCOORD      .                                  814093.995322374 :SURFACE X 
YCOORD      .                                  10494122.2566385 :SURFACE Y 
LAT         .                                        28.8922368 :LATITUDE  
LON         .                                       -95.5826759 :LONGITUDE 
ELEV        .FT                                              23 :ELEVATION VALUE
ELEV_TYPE   .                                                KB :ELEVATION REFERENCE TYPE
~Curve Information Section
#MNEM       .UNIT                                      API CODE :CURVE DESCRIPTION
#------------------------------------------------------------------------------
DEPT        .FT                                                 :DEPTH     
CALD        .IN                                                 :          
DCAL        .IN                                                 :          
DPSS        .V/V                                                :          
DRHO        .G/CM3                                              :          
GR_NORM     .GAPI                                               :GammaRay Normalized
GRR         .GAPI                                               :          
ILD         .OHMM                                               :          
ILM         .OHMM                                               :          
NPSS        .V/V                                                :Neutron Porosity Sandstone
RHOB        .G/CM3                                              :          
SFLU        .OHMM                                               :          
SP          .MV                                                 :          
SP_NORM     .MV                                                 :SP Normalized
TENR        .LB                                                 :          
VSH_GR      .V/V                                                :Volume of Shale from GR
VSH_SP      .V/V                                                :Volume of Shale from SP
~A        DEPTH           CALD           DCAL           DPSS           DRHO        GR_NORM            GRR            ILD            ILM           NPSS           RHOB           SFLU             SP        SP_NORM           TENR         VSH_GR         VSH_SP
# ...
      6149.0000         7.6095        -0.2198         0.2981          0.071       71.56959        76.0513         0.2827         0.3229         0.3855         2.1541         0.4485        -8.0709      -5.480105       2621.687      0.8206295      0.9299983
      6149.5000         7.5897        -0.2612         0.2846          0.065       78.24493        79.0529         0.2712         0.3303         0.3848          2.182         0.4056        -7.6713      -5.082217       2621.977       0.962658      0.9362153
      6150.0000         7.5899        -0.2824         0.2749          0.067       84.57761        81.9014         0.2589         0.3302         0.3848         2.1925         0.3787       -12.7247      -10.13733       2612.098              1      0.8572292
      6150.5000         7.5897        -0.2828         0.3006          0.068       85.86974        82.4978         0.2589         0.3183         0.3849           2.16         0.4055       -15.9608      -13.37514       2591.947              1      0.8066384
      6151.0000         7.5692        -0.2828         0.3249         0.0599       84.13884        81.7435         0.2674         0.3097         0.3807         2.1237         0.4523       -16.7702      -14.18625       2581.954              1      0.7939647
      6151.5000         7.5887         -0.303         0.3243         0.0529        80.3896        80.0874         0.2761         0.3112         0.3813         2.1098         0.4756       -14.3507      -11.76847       2582.184              1      0.8317427
      6152.0000         7.5882         -0.303         0.2957         0.0678       78.65445        79.3312         0.2787         0.3155         0.3856         2.1724         0.4205       -11.5302      -8.949678       2602.763      0.9713713      0.8757863
      6152.5000         7.5577         -0.303         0.2633         0.0928       80.61895         80.228         0.2878         0.3198         0.3789         2.2197          0.344        -9.3173      -6.738491       2633.501              1      0.9103361
      6153.0000         7.5572         -0.303         0.2382         0.0977       84.94089        82.1781         0.3014         0.3347         0.3535         2.2465         0.3394        -9.1216      -6.544503       2643.859              1      0.9133672
      6153.5000         7.6267        -0.2222         0.2357         0.0927       89.60524        84.2812         0.3272         0.3684         0.3292          2.261         0.4565        -9.9324      -7.357015       2633.885              1      0.9006717
      6154.0000         7.6962        -0.1616         0.2449         0.0606       91.91533        85.3324         0.3668         0.4074         0.3128          2.248            0.6        -8.9311      -6.357428       2623.902              1      0.9162902
      6154.5000         7.7957        -0.0808         0.2547         0.0356       92.20457        85.4807         0.4167         0.4544         0.3116         2.2276         0.6228         -6.925       -4.35304        2603.77              1      0.9476088
      6155.0000         7.9152         0.0404         0.2559         0.0325       91.81967        85.3278         0.4799         0.5069         0.3231         2.2246         0.5865        -4.9209      -2.350652       2603.967              1      0.9788961
      6155.5000          8.025         0.1414         0.2431         0.0525       92.10869         85.476         0.5553         0.5865         0.3311         2.2405         0.5403        -2.5177     0.05083561       2614.313              1              1
      6156.0000         8.0346         0.1818         0.2254         0.0694        91.7234        85.3229         0.6171         0.6496         0.3256         2.2685         0.5378        -1.7229      0.8439232       2614.523              1              1
      6156.5000         7.9937         0.1414         0.2005         0.0584       87.28365        83.3583         0.6838         0.6775          0.303          2.301         0.6258        -1.9327      0.6324111       2604.575              1              1
      6157.0000         7.9932         0.0808         0.1987         0.0403       82.83965        81.3918         0.7063         0.6838         0.2822         2.3228         0.7728        -3.1455     -0.5821011       2594.637              1              1
      6157.5000         8.0028         0.0808         0.2023         0.0213       79.06759        79.7255         0.6807         0.6681         0.2731         2.3169         0.9729        -4.5576      -1.995914       2584.709      0.9801615      0.9844388
      6158.0000         8.0325         0.1212         0.2127         0.0142       81.71919        80.9293         0.6346         0.6838         0.2841          2.296         0.9465        -4.3655      -1.805526       2574.812              1      0.9874136
      6158.5000         8.0219         0.1212         0.2266         0.0132       89.45251        84.4036         0.5865         0.6681         0.3153          2.276         0.7288        -3.3715     -0.8132379       2575.023              1              1
      6159.0000         8.0315          0.101         0.2358         0.0151       93.46803        86.2168         0.5257         0.5919         0.3514         2.2625         0.5733        -3.9804       -1.42385       2585.346              1      0.9933773
      6159.5000         8.0209         0.0808         0.2498         0.0151        93.4211        86.2149         0.4586         0.5209         0.3697         2.2425         0.4503        -8.3915      -5.836663       2585.552              1      0.9244272
      6160.0000         8.0002         0.1212         0.2731          0.014       81.50823        80.9113         0.3821         0.4422         0.3836          2.212          0.391       -15.5989      -13.04577       2605.963              1      0.8117848
      6160.5000         8.0202          0.101         0.2902          0.011        66.5566          74.25         0.2958         0.3701         0.3855          2.177         0.3804            -25      -22.44859       2606.061      0.7139702      0.6648658
      6161.0000         8.0303         0.1616         0.3018          0.011       61.81385          72.15         0.2349         0.3096         0.3733          2.151         0.3717          -34.2       -31.6503       2606.061      0.6130607      0.5210891
      6161.5000         8.1009         0.1616          0.311          0.007       58.74966           70.8         0.2045          0.266         0.3582         2.1341         0.3802       -43.4343      -40.88631        2595.96      0.5478651      0.3767764
      6162.0000         8.2117         0.3838         0.3288          0.003       58.03554           70.5         0.1998         0.2425          0.352         2.1093         0.5523       -46.8687      -44.32242        2595.96       0.532671      0.3230872
      6162.5000         8.4233         0.5859         0.3447          0.002       57.32143           70.2         0.1998         0.2273         0.3514         2.0864         0.6369       -42.2222      -39.67764       2585.859      0.5174772       0.395662
      6163.0000         8.4936         0.5657         0.3404          0.002       59.62885          71.25         0.1997         0.2315         0.3557         2.0814         0.5778          -32.6      -30.05715       2585.859      0.5665714      0.5459821
      6163.5000         8.2618         0.2828         0.3214          0.005       66.97204          74.55         0.2015          0.248         0.3612         2.1142         0.4579          -23.4      -20.85886       2585.859      0.7228093      0.6897053
      6164.0000         7.9598         0.0606         0.2951          0.009       76.75349        78.9394           0.21         0.2681         0.3752           2.15         0.4198          -16.2      -13.66057       2606.061      0.9309254      0.8021785
      6164.5000         7.8393              0         0.2841         0.0179        84.8496        82.5758          0.226         0.2859         0.3927         2.1769         0.4453          -15.2      -12.66228       2606.061              1      0.8177768
