#------------------------------------------------------------------------------
# Created by    : vladimir.rabinovich
# Created on    : 09/19/2023 17:21:18
#------------------------------------------------------------------------------
~Version Information Section
VERS.           2.0     :   CWLS log ASCII Standard - VERSION 2.0
WRAP.           NO      :   One line per depth step
~Well Information Section
#MNEM       .UNIT                                         VALUE :DESCRIPTION
#------------------------------------------------------------------------------
STRT        .FT                                             949 :START DEPTH
STOP        .FT                                            6560 :STOP DEPTH
STEP        .FT                                             0.5 :STEP      
NULL        .                                           -999.25 :NULL      
COMP        .                                    VASCO SERVICES :COMPANY   
WELL        .                                       POOLE HEIRS :WELL      
FLD         .                                           WILDCAT :FIELD     
LOC         .                                                   :LOCATION  
CNTY        .                                          BRAZORIA :LOCATION  
STAT        .                                             TEXAS :STATE     
CTRY        .                                     UNITED STATES :COUNTRY   
SRVC        .                                                   :SERVICE COMPANY
DATE        .                             9/13/2023 11:18:59 AM :LOG DATE  
API         .                                    42039322130000 :API NUMBER
UWI         .                                    42039322130000 :UNIQUE WELL ID
XCOORD      .                                  814093.995322374 :SURFACE X 
YCOORD      .                                  10494122.2566385 :SURFACE Y 
LAT         .                                        28.8922368 :LATITUDE  
LON         .                                       -95.5826759 :LONGITUDE 
ELEV        .FT                                              23 :ELEVATION VALUE
ELEV_TYPE   .                                                KB :ELEVATION REFERENCE TYPE
~Curve Information Section
#MNEM       .UNIT                                      API CODE :CURVE DESCRIPTION
#------------------------------------------------------------------------------
DEPT        .FT                                                 :DEPTH     
CALD        .IN                                                 :          
DCAL        .IN                                                 :          
DPSS        .V/V                                                :          
DRHO        .G/CM3                                              :          
GR_NORM     .GAPI                                               :GammaRay Normalized
GRR         .GAPI                                               :          
ILD         .OHMM                                               :          
ILM         .OHMM                                               :          
NPSS        .V/V                                                :Neutron Porosity Sandstone
RHOB        .G/CM3                                              :          
SFLU        .OHMM                                               :          
SP          .MV                                                 :          
SP_NORM     .MV                                                 :SP Normalized
TENR        .LB                                                 :          
VSH_GR      .V/V                                                :Volume of Shale from GR
VSH_SP      .V/V                                                :Volume of Shale from SP
~A        DEPTH           CALD           DCAL           DPSS           DRHO        GR_NORM            GRR            ILD            ILM           NPSS           RHOB           SFLU             SP        SP_NORM           TENR         VSH_GR         VSH_SP
# ...
      3557.0000         10.303          2.404         0.2178          0.024       95.20568         95.202         1.0976         1.0341          0.385         2.2895         0.9523        -5.2169      -2.747764       1768.606              1       0.967634
      3557.5000        10.3434         2.4646         0.2221          0.019       94.25748        94.3095         1.0923         1.0245         0.3917          2.282         0.9434        -4.8132      -2.344064       1757.894              1      0.9751099
      3558.0000        10.3939         2.5051         0.2264          0.016       92.51066        92.6663         1.0921         1.0149         0.3917         2.2735          0.926        -4.4099      -1.940764       1777.795              1      0.9825785
      3558.5000         10.404         2.5051         0.2307          0.011       90.76458        91.0238         1.0969         1.0054         0.3862         2.2665         0.9132        -4.4077      -1.938564       1797.695              1      0.9826192
      3559.0000        10.4343         2.5253         0.2326          0.009       90.77383        91.0313         1.1017         1.0006         0.3831         2.2665         0.9046         -4.806      -2.336864       1817.596              1      0.9752433
      3559.5000        10.4545         2.5657         0.2283          0.009       91.90073        92.0894         1.1066         1.0003         0.3891         2.2745         0.9044        -4.8036      -2.334464       1817.088              1      0.9752877
      3560.0000        10.5354         2.6667         0.2208          0.012       93.18656        93.2969         1.1064         1.0047         0.3958         2.2865         0.9167        -4.8012      -2.332064       1806.376              1      0.9753321
      3560.5000        10.6768         2.8081          0.214          0.012        94.6273          94.65         1.1063         1.0232         0.3958         2.2995         0.9552             -5      -2.530864       1795.918              1      0.9716507
      3561.0000        10.7374         2.8687         0.2115           0.01       95.26685          95.25         1.1063          1.047         0.3879          2.299         0.9864           -5.6      -3.130864       1785.714              1      0.9605396
      3561.5000        10.7879         2.9293         0.2159          0.008        94.1511           94.2         1.1063         1.0615         0.3764          2.291              1           -6.4      -3.930864        1775.51              1      0.9457247
      3562.0000        10.8081         2.9495         0.2227          0.007       90.00343           90.3         1.1063         1.0615         0.3648         2.2775         1.0046           -6.8      -4.330864       1755.102              1      0.9383173
      3562.5000        10.8788         3.0101         0.2307          0.003       84.84991        85.4545         1.0962          1.047         0.3552          2.266         1.0092           -6.4      -3.930864       1765.306              1      0.9457247
      3563.0000          11.01         3.1313         0.2375          0.003       82.75574        83.4848         1.0713         1.0374         0.3648          2.256         0.9818           -5.8      -3.330864        1775.51              1      0.9568359
      3563.5000          11.11         3.2323         0.2437          0.004       85.17488        85.7576         1.0518         0.9954         0.3939          2.245         0.9125             -5      -2.530864        1775.51              1      0.9716507
      3564.0000        10.9798         3.0909          0.251          0.005       90.16806          90.45         1.0279         0.9509         0.4315         2.2316         0.8333             -4      -1.530864        1775.51              1      0.9901692
      3564.5000        10.1919         2.4646         0.2602          0.008        97.8289          97.65         1.0046         0.9041          0.457         2.2182         0.8036           -2.4     0.06913567       1755.102              1              1
      3565.0000         9.5354         1.8788         0.2657          0.012       104.3727          103.8         0.9818          0.864         0.4606         2.2107         0.8036             -1       1.469136       1755.102              1              1
      3565.5000         9.4242         1.5758         0.2669          0.016       108.3633         107.55          0.964         0.8485         0.4479         2.2092         0.8036           -0.2       2.269136       1755.102              1              1
      3566.0000         9.4141         1.5556         0.2694          0.017       107.7263         106.95         0.9465         0.8447         0.4473         2.2037         0.8036          0.202       2.671136       1755.102              1              1
      3566.5000          9.404         1.5556         0.2755          0.015       98.79141          98.55         0.9379         0.8447         0.4836         2.1937         0.7963         0.6061       3.075236        1775.51              1              1
      3567.0000          9.404         1.5354         0.2835          0.011       95.76076           95.7         0.9293         0.8333         0.5115         2.1803         0.7535         1.0101       3.479236       1785.714              1              1
      3567.5000          9.404         1.5354          0.289          0.007         94.645          94.65         0.9251         0.8258         0.5333         2.1718         0.7097         1.2121       3.681236       1785.714              1              1
      3568.0000         9.4141         1.5556         0.2902          0.007       94.64626          94.65         0.9083         0.8146         0.5352         2.1718         0.6659         0.8081       3.277236       1795.918              1              1
      3568.5000         9.4747         1.6162         0.2933          0.007       92.57306           92.7         0.8601         0.8036         0.5018         2.1664         0.6278           -0.8       1.669136       1795.918              1              1
      3569.0000         9.6465         1.9394          0.357          0.007       85.51113        86.0606         0.7466         0.7963         0.4739         1.9995         0.5973           -4.6      -2.130864       1795.918              1      0.9790581
      3569.5000         9.9697         2.4848         0.5976           0.01       73.58622          74.85         0.6451         0.7782         0.4333         1.8667            0.6          -15.2      -12.73086       1795.918      0.8635366      0.7827618
      3570.0000        10.4747         3.4747         0.6147          0.013       58.74706           60.9         0.5578         0.6937         0.4127          1.698         0.6451            -24      -21.53086       1795.918      0.5478098      0.6197988
      3570.5000          12.82         4.5455         0.6885           0.01       45.34503        48.3009         0.4585         0.5865         0.4588         1.5258         0.7398       -33.1981      -30.72897       1795.918      0.2626602      0.4494636
      3571.0000           14.1         5.8384         0.6909          0.001       42.95257        46.0508         0.3679         0.4977         0.4758         1.5076         0.7782       -41.0093      -38.54016       1795.918      0.2117569      0.3048117
      3571.5000          14.19         6.4848         0.6582         -0.003       42.15553        45.3004         0.3056         0.4242         0.4679         1.5247         0.7675         -43.43      -40.96087       1795.918      0.1947986       0.259984
      3572.0000        13.2277         5.0505         0.5879         -0.005       44.87457        47.8551         0.2653          0.356           0.46         1.6162         0.7163       -45.6466      -43.17746       1795.918      0.2526503      0.2189359
      3572.5000          11.52         3.5354         0.5418          0.002       45.99689        48.9089         0.2272         0.3142          0.437         1.7617         0.6905         -46.45      -43.98087       1795.918      0.2765297      0.2040581
