#------------------------------------------------------------------------------
# Created by    : vladimir.rabinovich
# Created on    : 09/19/2023 17:21:18
#------------------------------------------------------------------------------
~Version Information Section
VERS.           2.0     :   CWLS log ASCII Standard - VERSION 2.0
WRAP.           NO      :   One line per depth step
~Well Information Section
#MNEM       .UNIT                                         VALUE :DESCRIPTION
#------------------------------------------------------------------------------
STRT        .FT                                             949 :START DEPTH
STOP        .FT                                            6560 :STOP DEPTH
STEP        .FT                                             0.5 :STEP      
NULL        .                                           -999.25 :NULL      
COMP        .                                    VASCO SERVICES :COMPANY   
WELL        .                                       POOLE HEIRS :WELL      
FLD         .                                           WILDCAT :FIELD     
LOC         .                                                   :LOCATION  
CNTY        .                                          BRAZORIA :LOCATION  
STAT        .                                             TEXAS :STATE     
CTRY        .                                     UNITED STATES :COUNTRY   
SRVC        .                                                   :SERVICE COMPANY
DATE        .                             9/13/2023 11:18:59 AM :LOG DATE  
API         .                                    42039322130000 :API NUMBER
UWI         .                                    42039322130000 :UNIQUE WELL ID
XCOORD      .                                  814093.995322374 :SURFACE X 
YCOORD      .                                  10494122.2566385 :SURFACE Y 
LAT         .                                        28.8922368 :LATITUDE  
LON         .                                       -95.5826759 :LONGITUDE 
ELEV        .FT                                              23 :ELEVATION VALUE
ELEV_TYPE   .                                                KB :ELEVATION REFERENCE TYPE
~Curve Information Section
#MNEM       .UNIT                                      API CODE :CURVE DESCRIPTION
#------------------------------------------------------------------------------
DEPT        .FT                                                 :DEPTH     
CALD        .IN                                                 :          
DCAL        .IN                                                 :          
DPSS        .V/V                                                :          
DRHO        .G/CM3                                              :          
GR_NORM     .GAPI                                               :GammaRay Normalized
GRR         .GAPI                                               :          
ILD         .OHMM                                               :          
ILM         .OHMM                                               :          
NPSS        .V/V                                                :Neutron Porosity Sandstone
RHOB        .G/CM3                                              :          
SFLU        .OHMM                                               :          
SP          .MV                                                 :          
SP_NORM     .MV                                                 :SP Normalized
TENR        .LB                                                 :          
VSH_GR      .V/V                                                :Volume of Shale from GR
VSH_SP      .V/V                                                :Volume of Shale from SP
~A        DEPTH           CALD           DCAL           DPSS           DRHO        GR_NORM            GRR            ILD            ILM           NPSS           RHOB           SFLU             SP        SP_NORM           TENR         VSH_GR         VSH_SP
# ...
      2453.0000        -999.25         2.5455        -999.25        -999.25       73.54054        68.5915         1.1216         0.9596        -999.25        -999.25         0.8485        -6.9448      -4.475664       1479.592      0.8625647      0.9290681
      2453.5000        -999.25         2.6465        -999.25        -999.25       70.18123         65.449         1.1063          0.964        -999.25        -999.25          0.868        -7.3349      -4.865764       1479.592        0.79109      0.9211069
      2454.0000        -999.25         2.8283        -999.25        -999.25       66.98149        62.4565         1.0911         0.9684        -999.25        -999.25         0.8838        -7.7241      -5.254964       1489.796      0.7230104       0.913164
      2454.5000        -999.25         2.9899        -999.25        -999.25       68.40919        63.8138         1.0713         0.9729        -999.25        -999.25         0.9041        -8.1143      -5.645164       1489.796      0.7533872      0.9052007
      2455.0000        -999.25         3.0505        -999.25        -999.25       71.59287        66.8217         1.0518         0.9684        -999.25        -999.25         0.9293        -8.3045      -5.835364       1479.592       0.821125      0.9013191
      2455.5000        -999.25         3.0707        -999.25        -999.25       73.65887         68.779         1.0422          0.964        -999.25        -999.25         0.9209        -8.2947      -5.825564       1479.592      0.8650824      0.9015191
      2456.0000        -999.25         3.1111        -999.25        -999.25       75.72563         70.737         1.0327         0.9596        -999.25        -999.25         0.8798        -8.0849      -5.615764       1479.592       0.909056      0.9058008
      2456.5000        -999.25         3.1313        -999.25        -999.25       78.27026        73.1442         1.0279         0.9552        -999.25        -999.25         0.8409        -7.6741      -5.204964       1479.592      0.9631971      0.9141844
      2457.0000        -999.25         3.1313        -999.25        -999.25       78.42148        73.3016         1.0092         0.9552        -999.25        -999.25         0.8109        -7.2643      -4.795164       1469.388      0.9664145      0.9225477
      2457.5000        -999.25         3.2121        -999.25        -999.25       72.18993        67.4592         1.0092         0.9729        -999.25        -999.25         0.8371        -6.8546      -4.385464       1469.388      0.8338284      0.9309089
      2458.0000        -999.25         3.3737        -999.25        -999.25       63.55967         59.362         1.0518         0.9864        -999.25        -999.25         0.8719        -6.2448      -3.775664       1469.388      0.6502057      0.9433538
      2458.5000        -999.25         3.3737        -999.25        -999.25       57.27525        53.4699         1.1216         0.9954        -999.25        -999.25         0.9125         -5.634      -3.164864       1479.592      0.5164948      0.9558191
      2459.0000        -999.25         3.2525        -999.25        -999.25       52.75605        49.2371         1.1906         1.0713        -999.25        -999.25         0.9509        -4.4243      -1.955164       1479.592      0.4203415      0.9805068
      2459.5000        -999.25         3.0707        -999.25        -999.25       50.00397        46.6654          1.258         1.1476        -999.25        -999.25         0.9774        -3.0146     -0.5454643       1479.592      0.3617867              1
      2460.0000        -999.25         2.9293        -999.25        -999.25       48.86062        45.6059         1.3477         1.2295        -999.25        -999.25         1.0762        -3.4047     -0.9355643       1489.796        0.33746              1
      2460.5000        -999.25         2.8889        -999.25        -999.25       49.00578        45.7576         1.4504         1.3292        -999.25        -999.25         1.2813           -3.8      -1.330864       1489.796      0.3405485      0.9932477
      2461.0000        -999.25         2.8889        -999.25        -999.25       48.66711        45.4545         1.5753          1.424        -999.25        -999.25         1.3354           -4.8      -2.330864       1479.592      0.3333427      0.9728395
      2461.5000        -999.25         2.8889        -999.25        -999.25        46.7312          43.65         1.6569         1.5255        -999.25        -999.25         1.3664           -5.6      -3.130864       1479.592      0.2921533       0.956513
      2462.0000        -999.25         2.8889        -999.25        -999.25       44.64051           41.7         1.6645         1.5609        -999.25        -999.25         1.4437           -6.4      -3.930864       1469.388      0.2476704      0.9401864
      2462.5000        -999.25         2.9091        -999.25        -999.25       44.62429           41.7         1.6193         1.5255        -999.25        -999.25         1.5681           -7.4      -4.930864       1459.184      0.2473252      0.9197783
      2463.0000        -999.25         2.9091        -999.25        -999.25       47.00168          43.95         1.5325         1.4772        -999.25        -999.25         1.6493           -8.2      -5.730864       1459.184       0.297908      0.9034517
      2463.5000        -999.25         2.9293        -999.25        -999.25       50.19789        46.9697         1.4637         1.3981        -999.25        -999.25         1.6417           -9.8      -7.330864       1479.592      0.3659126      0.8707987
      2464.0000        -999.25         2.9697        -999.25        -999.25       50.98763        47.7273          1.379         1.3171        -999.25        -999.25         1.5325          -11.2      -8.730864       1479.592      0.3827154      0.8422273
      2464.5000        -999.25         3.0303        -999.25        -999.25       48.07002             45         1.3051         1.2408        -999.25        -999.25         1.3853          -12.4      -9.930864           1500      0.3206387      0.8177375
      2465.0000        -999.25         3.0505        -999.25        -999.25       46.29847          43.35         1.2408         1.1689        -999.25        -999.25         1.3111          -12.8      -10.33086           1500      0.2829462      0.8095742
      2465.5000        -999.25         3.0909        -999.25        -999.25        46.6014          43.65         1.2182         1.1424        -999.25        -999.25         1.3354          -11.4      -8.930864           1500      0.2893915      0.8381456
      2466.0000        -999.25         3.1313        -999.25        -999.25       47.54262          44.55         1.1797         1.1063        -999.25        -999.25         1.4045           -9.6      -7.130865           1500      0.3094175      0.8748803
      2466.5000        -999.25         3.1515        -999.25        -999.25       48.32746         45.303         1.1216         1.0812        -999.25        -999.25          1.424           -8.4      -5.930864       1489.796      0.3261162      0.8993701
      2467.0000        -999.25         3.1313        -999.25        -999.25       48.79485        45.7576         1.0566         1.0664        -999.25        -999.25         1.2638           -9.8      -7.330864       1479.592      0.3360606      0.8707987
      2467.5000        -999.25         3.0101        -999.25        -999.25       50.39044        47.2727         0.9909         1.0518        -999.25        -999.25         1.0861            -14      -11.53086           1500      0.3700093      0.7850844
      2468.0000        -999.25         2.8889        -999.25        -999.25       53.11442        49.8485         0.9166         1.0139        -999.25        -999.25         1.0139            -19      -16.53086           1500      0.4279664      0.6830436
      2468.5000        -999.25         2.8889        -999.25        -999.25       52.77586        49.5455         0.8371         0.9684        -999.25        -999.25         1.1012       -24.6465      -22.17736       1489.796       0.420763      0.5678089
