#------------------------------------------------------------------------------
# Created by    : vladimir.rabinovich
# Created on    : 09/19/2023 17:21:18
#------------------------------------------------------------------------------
~Version Information Section
VERS.           2.0     :   CWLS log ASCII Standard - VERSION 2.0
WRAP.           NO      :   One line per depth step
~Well Information Section
#MNEM       .UNIT                                         VALUE :DESCRIPTION
#------------------------------------------------------------------------------
STRT        .FT                                             949 :START DEPTH
STOP        .FT                                            6560 :STOP DEPTH
STEP        .FT                                             0.5 :STEP      
NULL        .                                           -999.25 :NULL      
COMP        .                                    VASCO SERVICES :COMPANY   
WELL        .                                       POOLE HEIRS :WELL      
FLD         .                                           WILDCAT :FIELD     
LOC         .                                                   :LOCATION  
CNTY        .                                          BRAZORIA :LOCATION  
STAT        .                                             TEXAS :STATE     
CTRY        .                                     UNITED STATES :COUNTRY   
SRVC        .                                                   :SERVICE COMPANY
DATE        .                             9/13/2023 11:18:59 AM :LOG DATE  
API         .                                    42039322130000 :API NUMBER
UWI         .                                    42039322130000 :UNIQUE WELL ID
XCOORD      .                                  814093.995322374 :SURFACE X 
YCOORD      .                                  10494122.2566385 :SURFACE Y 
LAT         .                                        28.8922368 :LATITUDE  
LON         .                                       -95.5826759 :LONGITUDE 
ELEV        .FT                                              23 :ELEVATION VALUE
ELEV_TYPE   .                                                KB :ELEVATION REFERENCE TYPE
~Curve Information Section
#MNEM       .UNIT                                      API CODE :CURVE DESCRIPTION
#------------------------------------------------------------------------------
DEPT        .FT                                                 :DEPTH     
CALD        .IN                                                 :          
DCAL        .IN                                                 :          
DPSS        .V/V                                                :          
DRHO        .G/CM3                                              :          
GR_NORM     .GAPI                                               :GammaRay Normalized
GRR         .GAPI                                               :          
ILD         .OHMM                                               :          
ILM         .OHMM                                               :          
NPSS        .V/V                                                :Neutron Porosity Sandstone
RHOB        .G/CM3                                              :          
SFLU        .OHMM                                               :          
SP          .MV                                                 :          
SP_NORM     .MV                                                 :SP Normalized
TENR        .LB                                                 :          
VSH_GR      .V/V                                                :Volume of Shale from GR
VSH_SP      .V/V                                                :Volume of Shale from SP
~A        DEPTH           CALD           DCAL           DPSS           DRHO        GR_NORM            GRR            ILD            ILM           NPSS           RHOB           SFLU             SP        SP_NORM           TENR         VSH_GR         VSH_SP
# ...
      4309.0000          11.37         3.4949         0.3576         0.0999       35.61362           44.1         0.2028         0.2037         0.3915          2.054         0.6807          -60.6      -58.92993       2030.612     0.05560887     0.05032905
      4309.5000          11.36         3.4747         0.3655         0.0939       40.66873           48.3         0.2028         0.2037          0.403         2.0455         0.6526        -59.596      -57.93884       2010.204      0.1631644     0.06657641
      4310.0000          11.31         3.4141         0.3624          0.082       42.47311           49.8         0.2028         0.2037         0.4224         2.0475         0.5655       -58.7879      -57.14365       2010.204      0.2015556     0.07961229
      4310.5000        11.2203         3.2929         0.3515          0.075       39.40141          47.25         0.2028         0.2047         0.4494         2.0705         0.4955       -57.9798      -56.34846           2000      0.1362001     0.09264812
      4311.0000        10.9208         3.0101         0.3467         0.0751       37.23269          45.45         0.2028         0.2047         0.4524         2.0695         0.4565       -57.5758      -55.95737       2010.204     0.09005713     0.09905943
      4311.5000        10.4913         2.6263         0.3539         0.0701       36.86993          45.15         0.2047         0.2056          0.439         2.0635         0.4442       -58.7879      -57.18238       2010.204     0.08233886      0.0789773
      4312.0000        10.0218          2.202         0.3497         0.0622       38.49371           46.5         0.2183         0.2193          0.377          2.074         0.4362       -59.1919       -57.5993       2030.612      0.1168874     0.07214268
      4312.5000         9.8085         1.9596           0.34         0.0542       42.64584          49.95         0.2328         0.2361         0.3448          2.094         0.4018       -58.9899      -57.41021       2030.612      0.2052306     0.07524253
      4313.0000         9.8294         1.8788         0.3297         0.0603       46.61737          53.25         0.2484          0.253         0.3206         2.1054         0.3752       -58.9899      -57.42312       2030.612      0.2897312     0.07503084
      4313.5000         9.9931         2.0808         0.3236         0.0793       47.69937          54.15         0.2649         0.2736         0.3127         2.1119         0.4055       -59.1919      -57.63803       2020.408      0.3127526     0.07150768
      4314.0000        10.3638         2.5253         0.3182         0.0964       45.35005           52.2           0.28            0.3          0.337         2.1183         0.5092        -59.596      -58.05504       2030.612       0.262767     0.06467144
      4314.5000        10.7943         2.9293         0.3158         0.1004       41.91715          49.35         0.2891         0.3083         0.3679         2.1292         0.6435        -59.596      -58.06796       2030.612      0.1897267     0.06445976
      4315.0000        11.0248         3.1919         0.3176         0.1015       41.73499           49.2         0.3014         0.3169          0.397         2.1252         0.7158       -58.3838      -56.86867       2030.612      0.1858508     0.08412021
      4315.5000        11.1753         3.2929         0.3273         0.0975       46.42891           53.1         0.3112         0.3257         0.4139         2.1089         0.5578       -54.3434      -52.84118       2020.408      0.2857214      0.1501447
      4316.0000        10.8958         3.0909         0.3345         0.0636       54.01236           59.4         0.3198         0.3347         0.4067          2.096         0.4565       -43.8384      -42.34909       2020.408      0.4470714      0.3221461
      4316.5000        10.0963         2.0606         0.3206         0.0286       58.88687          63.45         0.3302         0.3456         0.3994         2.1233         0.4148          -30.4       -28.9236       2071.429      0.5507844      0.5422361
      4317.0000         9.2824         1.4343         0.2951         0.0117       63.40019           67.2         0.3409         0.3668          0.397         2.1765         0.4225          -20.8      -19.33651       2102.041      0.6468126      0.6994015
      4317.5000         9.0074         1.1717         0.2718         0.0127       68.99709          71.85         0.3536          0.391         0.4018         2.2083         0.4865          -12.4      -10.94942       2081.633      0.7658954      0.8368948
      4318.0000         8.9372         1.0909         0.2584         0.0168       73.70016        75.7576         0.3892         0.4167         0.4127          2.225         0.5281             -6      -4.562334       2061.225      0.8659608      0.9416011
      4318.5000         8.9781         1.0909         0.2541         0.0218       77.52938        78.9394         0.4167         0.4422         0.4212         2.2299         0.5069           -3.2      -1.775245       2051.021      0.9474337       0.987291
      4319.0000         9.0498         1.1717         0.2578         0.0269       78.62234        79.8485         0.4342         0.4606         0.4396         2.2225         0.4887           -4.2      -2.788156       2040.816      0.9706882       0.970686
      4319.5000         9.1523         1.2929         0.2706         0.0239       77.89104        79.2424         0.4523         0.4713         0.4567          2.196         0.4799           -7.2      -5.801067       2030.612      0.9551284       0.921294
      4320.0000         9.2651         1.3939         0.2963          0.015       74.60599        76.5152         0.4544         0.4713         0.4684         2.1635         0.4865           -9.6       -8.21398       2020.408      0.8852338      0.8817381
      4320.5000         9.2961         1.4349         0.3145          0.005       68.44585           71.4         0.4362         0.4649         0.4524         2.1297         0.5186            -12      -10.62689       2020.408       0.754167      0.8421821
      4321.0000         9.3169         1.4157         0.3242          0.004       64.10999           67.8         0.4186         0.4586          0.442         2.1154         0.5069            -13       -11.6398       2010.204      0.6619148       0.825577
      4321.5000         9.2357         1.3561         0.3182          0.004       62.30246           66.3         0.4167         0.4544         0.4536         2.1193         0.4843          -13.2      -11.85271           2000      0.6234565      0.8220867
      4322.0000         9.1138         1.2359         0.2908          0.014       62.30088           66.3         0.4205         0.4482         0.4774         2.1621         0.4649          -14.2      -12.86562           2000      0.6234229      0.8054816
      4322.5000         8.9517         1.0955         0.2578          0.023         57.965           62.7         0.4092         0.4442         0.4469         2.2211         0.4821          -18.8      -17.47853           2000      0.5311702      0.7298601
      4323.0000         8.9522         1.0359         0.2314          0.023       49.83662          55.95         0.3718         0.4381         0.3412         2.2606         0.8114          -26.8      -25.49145       2020.408       0.358226      0.5985008
      4323.5000          9.044         1.1379         0.2327          0.017       43.51419           50.7         0.3198         0.3928            0.3         2.2557         1.1362          -39.8      -38.50436       2040.816      0.2237062      0.3851745
      4324.0000         9.2275         1.3612         0.2712          0.013       38.45593           46.5         0.2749         0.3363         0.2835          2.191         1.3087        -49.697      -48.41427       2061.225      0.1160837      0.2227169
      4324.5000         9.4514         1.5844         0.3103          0.024       34.30065          43.05          0.235         0.2959          0.303         2.1388         0.8958       -56.5657      -55.29588       2061.225     0.02767336      0.1099036
