#------------------------------------------------------------------------------
# Created by    : vladimir.rabinovich
# Created on    : 09/19/2023 17:21:18
#------------------------------------------------------------------------------
~Version Information Section
VERS.           2.0     :   CWLS log ASCII Standard - VERSION 2.0
WRAP.           NO      :   One line per depth step
~Well Information Section
#MNEM       .UNIT                                         VALUE :DESCRIPTION
#------------------------------------------------------------------------------
STRT        .FT                                             949 :START DEPTH
STOP        .FT                                            6560 :STOP DEPTH
STEP        .FT                                             0.5 :STEP      
NULL        .                                           -999.25 :NULL      
COMP        .                                    VASCO SERVICES :COMPANY   
WELL        .                                       POOLE HEIRS :WELL      
FLD         .                                           WILDCAT :FIELD     
LOC         .                                                   :LOCATION  
CNTY        .                                          BRAZORIA :LOCATION  
STAT        .                                             TEXAS :STATE     
CTRY        .                                     UNITED STATES :COUNTRY   
SRVC        .                                                   :SERVICE COMPANY
DATE        .                             9/13/2023 11:18:59 AM :LOG DATE  
API         .                                    42039322130000 :API NUMBER
UWI         .                                    42039322130000 :UNIQUE WELL ID
XCOORD      .                                  814093.995322374 :SURFACE X 
YCOORD      .                                  10494122.2566385 :SURFACE Y 
LAT         .                                        28.8922368 :LATITUDE  
LON         .                                       -95.5826759 :LONGITUDE 
ELEV        .FT                                              23 :ELEVATION VALUE
ELEV_TYPE   .                                                KB :ELEVATION REFERENCE TYPE
~Curve Information Section
#MNEM       .UNIT                                      API CODE :CURVE DESCRIPTION
#------------------------------------------------------------------------------
DEPT        .FT                                                 :DEPTH     
CALD        .IN                                                 :          
DCAL        .IN                                                 :          
DPSS        .V/V                                                :          
DRHO        .G/CM3                                              :          
GR_NORM     .GAPI                                               :GammaRay Normalized
GRR         .GAPI                                               :          
ILD         .OHMM                                               :          
ILM         .OHMM                                               :          
NPSS        .V/V                                                :Neutron Porosity Sandstone
RHOB        .G/CM3                                              :          
SFLU        .OHMM                                               :          
SP          .MV                                                 :          
SP_NORM     .MV                                                 :SP Normalized
TENR        .LB                                                 :          
VSH_GR      .V/V                                                :Volume of Shale from GR
VSH_SP      .V/V                                                :Volume of Shale from SP
~A        DEPTH           CALD           DCAL           DPSS           DRHO        GR_NORM            GRR            ILD            ILM           NPSS           RHOB           SFLU             SP        SP_NORM           TENR         VSH_GR         VSH_SP
# ...
      5045.0000         9.2424         1.4574         0.2195          0.089       54.72654           57.6         1.3887         1.4014         0.3051         2.2902         1.5352            4.2       3.592882       2285.714      0.4622667              1
      5045.5000         9.3939         1.5376         0.2164          0.069       56.48285          59.25         1.5143         1.4337         0.3088         2.2923         1.6895            3.4       2.794499       2285.714      0.4996352              1
      5046.0000         9.4747         1.6379         0.2153          0.069       59.51577           62.1         1.6364         1.4735          0.321         2.2923         1.5995              3       2.396116       2285.714      0.5641654              1
      5046.5000         9.5253          1.678         0.2049          0.087       61.43167           63.9         1.7845         1.5006         0.3264         2.3068         1.4402            2.8       2.197733       2285.714      0.6049291              1
      5047.0000         9.5455          1.698          0.189            0.1       62.23055          64.65         1.7845         1.5143         0.3071         2.3381          1.345            2.4       1.799351       2316.326      0.6219265              1
      5047.5000         9.5556         1.6978         0.1902            0.1       62.39113           64.8         1.7284         1.5493         0.2851         2.3421         1.2909            1.4      0.8009676       2346.939      0.6253431              1
      5048.0000         9.5657         1.7178         0.2258          0.095       62.07298           64.5         1.6364         1.5778         0.2693         2.2984         1.4078        -0.6061      -1.203515       2346.939       0.618574      0.9968201
      5048.5000          9.596         1.8185         0.2821          0.092       60.31866          62.85         1.5493         1.5778          0.276          2.202         1.5074        -3.6364      -4.232198       2346.939      0.5812481      0.9494969
      5049.0000         9.6465         1.8386         0.3399          0.096       58.08563          60.75         1.4735         1.5422         0.2883         2.1185         1.4938        -5.8586      -6.452781       2306.122      0.5337368      0.9148003
      5049.5000         9.6465         1.7981          0.346          0.099        57.6079           60.3          1.395         1.4938         0.2993         2.0732         1.4668        -7.2727      -7.865263        2275.51      0.5235724      0.8927302
      5050.0000         9.3232         1.5556         0.3012          0.098       58.40678          61.05         1.3389         1.4601         0.3048         2.1265         1.4534        -7.2727      -7.863647       2265.306      0.5405698      0.8927555
      5050.5000         8.9902         1.2525          0.251          0.098        60.8014           63.3         1.3573         1.4271         0.3048           2.23         1.4336        -6.4646      -7.053929       2265.306      0.5915192      0.9054074
      5051.0000         8.7076         0.8889         0.1947         0.0991       63.03645           65.4         1.3571         1.3947         0.2963            2.3           1.44        -5.2525      -5.840212       2285.714      0.6390733      0.9243717
      5051.5000         8.5259         0.7071         0.1522         0.0961       64.15447          66.45         1.3142         1.3569         0.2804          2.387         1.5071        -4.2424      -4.828495       2306.122      0.6628611      0.9401798
      5052.0000         8.5262         0.6869         0.1416         0.0912       64.15548          66.45         1.2727         1.3201         0.2688         2.4114         1.5846        -3.8384      -4.422878       2306.122      0.6628826      0.9465175
      5052.5000         8.6074         0.7677         0.1515         0.0692       64.79478          67.05         1.2381         1.2901         0.2737         2.3975         1.6063        -3.8384      -4.421261       2306.122      0.6764846      0.9465428
      5053.0000          8.709         0.8687         0.1707         0.0583       65.11493          67.35         1.2045         1.2665         0.2804         2.3681         1.5771        -4.2424      -4.823644       2285.714      0.6832964      0.9402556
      5053.5000         8.8716         1.0101         0.2088         0.0533       64.47764          66.75         1.1825         1.2491         0.2896         2.3323         1.4997        -5.0505      -5.630126       2285.714       0.669737      0.9276543
      5054.0000         9.0644         1.2323         0.2553         0.0534       62.88289          65.25         1.1715         1.2489         0.3127          2.244          1.413        -6.4646      -7.042609       2285.714      0.6358062      0.9055842
      5054.5000         9.2669         1.4141         0.3066         0.0744       62.08603           64.5         1.1606         1.2261         0.3483          2.142         1.3497        -8.2828      -8.859192       2255.102      0.6188517      0.8772001
      5055.0000          9.328         1.4747         0.3157         0.0955       62.56575          64.95         1.1446         1.1982         0.3639         2.1291         1.2892        -10.101      -10.67577       2255.102      0.6290586       0.848816
      5055.5000         9.2881         1.4141         0.2902         0.0995        64.1625          66.45          1.134         1.1709         0.3494         2.1624         1.2313       -10.5051      -11.07826       2306.122      0.6630319      0.8425272
      5056.0000         9.1775         1.3333          0.262         0.0996        66.7167          68.85          1.103         1.1442         0.3253         2.2142         1.1923         -9.697      -10.26854       2357.143      0.7173765      0.8551791
      5056.5000         9.1275         1.2929         0.2565         0.0996       69.11132           71.1         1.0729         1.1181         0.3163         2.2212         1.1705        -9.2929      -9.862823       2387.755       0.768326      0.8615184
      5057.0000          9.128         1.2727         0.2737         0.0997       70.06976             72         1.0436         1.0926         0.3578         2.1969         1.0727        -8.6869      -9.255206       2367.347      0.7887183      0.8710124
      5057.5000         9.1386         1.2929         0.2982         0.0997       70.07077             72         1.0151         1.0676         0.4115         2.1555         0.9564        -8.2828      -8.849489       2346.939      0.7887398      0.8773517
      5058.0000         9.0987         1.2727         0.2994         0.0998       71.34837           73.2         0.9828         1.0432         0.4459          2.155         0.8451        -8.0808      -8.645872       2306.122      0.8159227      0.8805332
      5058.5000          8.988         1.0909         0.2639         0.0998       74.56693        76.2245          0.956         1.0193         0.4356         2.1894         0.7572        -9.2929      -9.856355       2285.714      0.8844028      0.8616195
      5059.0000         8.7847         0.9091         0.2229         0.0999       77.82452        79.2857         0.9214          0.996         0.3928         2.2575         0.7299       -11.9192      -12.48104       2265.306      0.9537133      0.8206088
      5059.5000         8.6934         0.8283         0.1898         0.0999       78.31404        79.7449         0.8721         0.9688          0.351          2.328         0.7467       -15.7576      -16.31782       2265.306      0.9641286      0.7606591
      5060.0000         8.6529         0.7677         0.1873          0.099       70.76344          74.55         0.7927         0.8839         0.3396         2.3455         0.9001       -20.3922       -20.9508       2265.306      0.8034773      0.6882687
      5060.5000         8.4797         0.5657         0.1965          0.086       55.84451           63.6         0.7229            0.8         0.3384         2.3325         1.1582       -25.8824      -26.43939       2244.898      0.4860534      0.6025096
