#------------------------------------------------------------------------------
# Created by    : vladimir.rabinovich
# Created on    : 09/19/2023 17:21:18
#------------------------------------------------------------------------------
~Version Information Section
VERS.           2.0     :   CWLS log ASCII Standard - VERSION 2.0
WRAP.           NO      :   One line per depth step
~Well Information Section
#MNEM       .UNIT                                         VALUE :DESCRIPTION
#------------------------------------------------------------------------------
STRT        .FT                                             949 :START DEPTH
STOP        .FT                                            6560 :STOP DEPTH
STEP        .FT                                             0.5 :STEP      
NULL        .                                           -999.25 :NULL      
COMP        .                                    VASCO SERVICES :COMPANY   
WELL        .                                       POOLE HEIRS :WELL      
FLD         .                                           WILDCAT :FIELD     
LOC         .                                                   :LOCATION  
CNTY        .                                          BRAZORIA :LOCATION  
STAT        .                                             TEXAS :STATE     
CTRY        .                                     UNITED STATES :COUNTRY   
SRVC        .                                                   :SERVICE COMPANY
DATE        .                             9/13/2023 11:18:59 AM :LOG DATE  
API         .                                    42039322130000 :API NUMBER
UWI         .                                    42039322130000 :UNIQUE WELL ID
XCOORD      .                                  814093.995322374 :SURFACE X 
YCOORD      .                                  10494122.2566385 :SURFACE Y 
LAT         .                                        28.8922368 :LATITUDE  
LON         .                                       -95.5826759 :LONGITUDE 
ELEV        .FT                                              23 :ELEVATION VALUE
ELEV_TYPE   .                                                KB :ELEVATION REFERENCE TYPE
~Curve Information Section
#MNEM       .UNIT                                      API CODE :CURVE DESCRIPTION
#------------------------------------------------------------------------------
DEPT        .FT                                                 :DEPTH     
CALD        .IN                                                 :          
DCAL        .IN                                                 :          
DPSS        .V/V                                                :          
DRHO        .G/CM3                                              :          
GR_NORM     .GAPI                                               :GammaRay Normalized
GRR         .GAPI                                               :          
ILD         .OHMM                                               :          
ILM         .OHMM                                               :          
NPSS        .V/V                                                :Neutron Porosity Sandstone
RHOB        .G/CM3                                              :          
SFLU        .OHMM                                               :          
SP          .MV                                                 :          
SP_NORM     .MV                                                 :SP Normalized
TENR        .LB                                                 :          
VSH_GR      .V/V                                                :Volume of Shale from GR
VSH_SP      .V/V                                                :Volume of Shale from SP
~A        DEPTH           CALD           DCAL           DPSS           DRHO        GR_NORM            GRR            ILD            ILM           NPSS           RHOB           SFLU             SP        SP_NORM           TENR         VSH_GR         VSH_SP
# ...
      1717.0000        -999.25         3.6768        -999.25        -999.25       77.00945           67.8         0.3385         0.3963        -999.25        -999.25         0.3766            -26      -18.59259        1275.51      0.9363711      0.5601852
      1717.5000        -999.25         3.3939        -999.25        -999.25       79.72107          70.35         0.3513         0.4205        -999.25        -999.25         0.5707          -26.4      -18.99259        1275.51      0.9940653      0.5501852
      1718.0000        -999.25         3.4141        -999.25        -999.25       75.73058           66.6         0.3629         0.4362        -999.25        -999.25         0.7535          -27.8      -20.39259       1255.102      0.9091612      0.5151852
      1718.5000        -999.25         3.6768        -999.25        -999.25       69.82518          61.05         0.3926         0.4322        -999.25        -999.25         0.8719            -27      -19.59259       1244.898      0.7835144      0.5351852
      1719.0000        -999.25         3.6162        -999.25        -999.25       69.02617           60.3         0.4342         0.4606        -999.25        -999.25         0.7535          -24.2      -16.79259       1255.102      0.7665142      0.6051852
      1719.5000        -999.25         3.2727        -999.25        -999.25       71.89737             63         0.4713         0.5069        -999.25        -999.25         0.6629          -20.6      -13.19259        1275.51      0.8276036      0.6951852
      1720.0000        -999.25         2.9091        -999.25        -999.25       74.13027           65.1         0.5186         0.5553        -999.25        -999.25         0.6751       -17.9798      -10.57239       1285.714      0.8751122      0.7606902
      1720.5000        -999.25         2.8283        -999.25        -999.25       71.57595           62.7         0.5785         0.6055        -999.25        -999.25         0.8036       -15.5556      -8.148193        1275.51      0.8207649      0.8212951
      1721.0000        -999.25         2.8485        -999.25        -999.25       65.19183           56.7         0.6308         0.6482        -999.25        -999.25         0.8184       -14.9495      -7.542093       1255.102      0.6849326      0.8364477
      1721.5000        -999.25         2.8687        -999.25        -999.25       63.59495           55.2         0.6692         0.6972        -999.25        -999.25         0.7891       -14.5455      -7.138093       1234.694      0.6509564      0.8465477
      1722.0000        -999.25         2.8889        -999.25        -999.25       67.74274           59.1         0.7103         0.7469        -999.25        -999.25          0.811       -14.1414      -6.733993       1255.102      0.7392071      0.8566502
      1722.5000        -999.25         2.8687        -999.25        -999.25       69.17777          60.45         0.7643            0.8        -999.25        -999.25         0.8374       -14.1414      -6.733993        1275.51      0.7697399      0.8566502
      1723.0000        -999.25         2.8081        -999.25        -999.25       67.90004          59.25         0.8074         0.8185        -999.25        -999.25         0.8148       -15.1515      -7.744092        1275.51       0.742554      0.8313977
      1723.5000        -999.25         2.7071        -999.25        -999.25       64.70741          56.25         0.8223         0.8186        -999.25        -999.25         0.7714       -17.9798      -10.57239        1275.51      0.6746256      0.7606902
      1724.0000        -999.25         2.5455        -999.25        -999.25       61.67436           53.4         0.7785         0.7964        -999.25        -999.25         0.7372          -22.4      -14.99259        1275.51      0.6100928      0.6501852
      1724.5000        -999.25         2.3232        -999.25        -999.25       58.00301          49.95         0.7014          0.761        -999.25        -999.25         0.7892          -28.6      -21.19259        1275.51      0.5319788      0.4951852
      1725.0000        -999.25          2.303        -999.25        -999.25       54.17207          46.35          0.637         0.7241        -999.25        -999.25         1.0068          -34.6      -27.19259        1275.51      0.4504696      0.3451852
      1725.5000        -999.25         2.6061        -999.25        -999.25       51.76764        44.0909         0.5403         0.6794        -999.25        -999.25         1.2774            -40      -32.59259       1295.918      0.3993115      0.2101851
      1726.0000        -999.25         3.0909        -999.25        -999.25       51.60534        43.9394         0.4544         0.5973        -999.25        -999.25         1.4389          -43.2      -35.79259       1295.918      0.3958582      0.1301851
      1726.5000        -999.25         3.5152        -999.25        -999.25       50.31472        42.7273         0.4055         0.5209        -999.25        -999.25         1.3315          -45.6      -38.19259       1295.918      0.3683983     0.07018518
      1727.0000        -999.25         3.7172        -999.25        -999.25       47.73454         40.303         0.3734         0.4523        -999.25        -999.25         1.0548            -46      -38.59259       1295.918      0.3135009     0.06018515
      1727.5000        -999.25         3.7778        -999.25        -999.25       46.76628        39.3939         0.3454         0.3927        -999.25        -999.25         0.8227          -44.4       -36.9926       1285.714      0.2928996      0.1001851
      1728.0000        -999.25         3.8384        -999.25        -999.25       49.34418        41.8182          0.327         0.3683        -999.25        -999.25         0.6403          -42.4       -34.9926        1275.51      0.3477485      0.1501851
      1728.5000        -999.25         3.8788        -999.25        -999.25       53.36623           45.6         0.3124         0.3752        -999.25        -999.25         0.5892            -41      -33.59259       1255.102       0.433324      0.1851851
      1729.0000        -999.25         3.8384        -999.25        -999.25       54.80127          46.95         0.2985         0.3856        -999.25        -999.25         0.6315          -40.6      -33.19259       1255.102      0.4638567      0.1951852
      1729.5000        -999.25         3.7576        -999.25        -999.25       50.63023        43.0303         0.2904         0.3964        -999.25        -999.25         0.7156            -41      -33.59259        1275.51      0.3751112      0.1851851
      1730.0000        -999.25         3.7172        -999.25        -999.25        47.2442        39.8485         0.2918         0.3982        -999.25        -999.25          0.819          -41.8      -34.39259       1265.306       0.303068      0.1651852
      1730.5000        -999.25          3.697        -999.25        -999.25       45.46998        38.1818         0.3083         0.3928        -999.25        -999.25         0.8586          -41.8      -34.39259       1255.102      0.2653187      0.1651852
      1731.0000        -999.25         3.6162        -999.25        -999.25       45.79117        38.4848         0.3155         0.3892        -999.25        -999.25         0.7517            -42      -34.59259       1234.694      0.2721526      0.1601851
      1731.5000        -999.25          3.596        -999.25        -999.25       46.11248        38.7879         0.3112         0.3804        -999.25        -999.25         0.6743          -41.4       -33.9926       1244.898      0.2789889      0.1751851
      1732.0000        -999.25         3.8384        -999.25        -999.25       46.43369        39.0909         0.3055         0.3735        -999.25        -999.25         0.6712            -40      -32.59259        1275.51      0.2858232      0.2101851
      1732.5000        -999.25           4.32        -999.25        -999.25       47.72202         40.303         0.3055         0.3684        -999.25        -999.25         0.6807          -37.2      -29.79259       1285.714      0.3132344      0.2801852
