#------------------------------------------------------------------------------
# Created by    : vladimir.rabinovich
# Created on    : 09/19/2023 17:21:18
#------------------------------------------------------------------------------
~Version Information Section
VERS.           2.0     :   CWLS log ASCII Standard - VERSION 2.0
WRAP.           NO      :   One line per depth step
~Well Information Section
#MNEM       .UNIT                                         VALUE :DESCRIPTION
#------------------------------------------------------------------------------
STRT        .FT                                             949 :START DEPTH
STOP        .FT                                            6560 :STOP DEPTH
STEP        .FT                                             0.5 :STEP      
NULL        .                                           -999.25 :NULL      
COMP        .                                    VASCO SERVICES :COMPANY   
WELL        .                                       POOLE HEIRS :WELL      
FLD         .                                           WILDCAT :FIELD     
LOC         .                                                   :LOCATION  
CNTY        .                                          BRAZORIA :LOCATION  
STAT        .                                             TEXAS :STATE     
CTRY        .                                     UNITED STATES :COUNTRY   
SRVC        .                                                   :SERVICE COMPANY
DATE        .                             9/13/2023 11:18:59 AM :LOG DATE  
API         .                                    42039322130000 :API NUMBER
UWI         .                                    42039322130000 :UNIQUE WELL ID
XCOORD      .                                  814093.995322374 :SURFACE X 
YCOORD      .                                  10494122.2566385 :SURFACE Y 
LAT         .                                        28.8922368 :LATITUDE  
LON         .                                       -95.5826759 :LONGITUDE 
ELEV        .FT                                              23 :ELEVATION VALUE
ELEV_TYPE   .                                                KB :ELEVATION REFERENCE TYPE
~Curve Information Section
#MNEM       .UNIT                                      API CODE :CURVE DESCRIPTION
#------------------------------------------------------------------------------
DEPT        .FT                                                 :DEPTH     
CALD        .IN                                                 :          
DCAL        .IN                                                 :          
DPSS        .V/V                                                :          
DRHO        .G/CM3                                              :          
GR_NORM     .GAPI                                               :GammaRay Normalized
GRR         .GAPI                                               :          
ILD         .OHMM                                               :          
ILM         .OHMM                                               :          
NPSS        .V/V                                                :Neutron Porosity Sandstone
RHOB        .G/CM3                                              :          
SFLU        .OHMM                                               :          
SP          .MV                                                 :          
SP_NORM     .MV                                                 :SP Normalized
TENR        .LB                                                 :          
VSH_GR      .V/V                                                :Volume of Shale from GR
VSH_SP      .V/V                                                :Volume of Shale from SP
~A        DEPTH           CALD           DCAL           DPSS           DRHO        GR_NORM            GRR            ILD            ILM           NPSS           RHOB           SFLU             SP        SP_NORM           TENR         VSH_GR         VSH_SP
# ...
      6517.0000        -999.25        -999.25         0.3328         0.0153        -999.25        -999.25         0.2416         0.2427        -999.25         2.0997         0.3155            -26      -24.09298       2608.935        -999.25      0.6085936
      6517.5000        -999.25        -999.25         0.3358         0.0093        -999.25        -999.25         0.2461         0.2286        -999.25         2.0947         0.3028          -28.2      -26.32271       2609.444        -999.25      0.5708015
      6518.0000        -999.25        -999.25          0.337         0.0062        -999.25        -999.25         0.2438         0.2153        -999.25         2.0922         0.2905            -35      -33.15244       2609.953        -999.25      0.4550434
      6518.5000        -999.25        -999.25         0.3358         0.0052        -999.25        -999.25         0.2296         0.2047        -999.25         2.0961         0.3028       -41.6162      -39.79837       2610.463        -999.25      0.3424005
      6519.0000        -999.25        -999.25         0.3315         0.0081        -999.25        -999.25         0.2143         0.2047        -999.25         2.1016         0.3821       -46.6667       -44.8786        2631.38        -999.25       0.256295
      6519.5000        -999.25        -999.25         0.3249         0.0121        -999.25        -999.25         0.2143         0.2153        -999.25         2.1105          0.491       -45.4545      -43.69613       2652.297        -999.25      0.2763368
      6520.0000        -999.25        -999.25         0.3194          0.019        -999.25        -999.25         0.2224         0.2394        -999.25         2.1195         0.4606          -34.4      -32.67136       2652.807        -999.25      0.4631973
      6520.5000        -999.25        -999.25         0.3139          0.031        -999.25        -999.25          0.246         0.2686        -999.25           2.13         0.3838       -18.0053      -16.30639       2642.857        -999.25      0.7405697
      6521.0000        -999.25        -999.25         0.3091         0.0389        -999.25        -999.25          0.276         0.3026        -999.25         2.1365         0.3519        -9.4072       -7.73802       2632.653        -999.25      0.8857962
      6521.5000        -999.25        -999.25         0.3048         0.0459        -999.25        -999.25         0.3124         0.3407        -999.25         2.1424         0.3716        -0.4005        1.23895       2632.653        -999.25              1
      6522.0000        -999.25        -999.25         0.3018         0.0558        -999.25        -999.25         0.3533         0.3853        -999.25         2.1519         0.4318         5.2431       6.852819       2653.061        -999.25              1
      6522.5000        -999.25        -999.25         0.2957         0.0688        -999.25        -999.25         0.4014         0.4397        -999.25         2.1613         0.5018         5.8451       7.425089       2653.061        -999.25              1
      6523.0000        -999.25        -999.25         0.2951         0.0747        -999.25        -999.25         0.4477         0.4793        -999.25         2.1648         0.5601         1.8131       3.363359       2632.653        -999.25              1
      6523.5000        -999.25        -999.25         0.3012         0.0667        -999.25        -999.25         0.4579         0.4836        -999.25         2.1558           0.56        -5.8192      -4.298671       2612.245        -999.25      0.9440903
      6524.0000        -999.25        -999.25         0.3115         0.0466        -999.25        -999.25         0.4454         0.4769        -999.25         2.1319         0.5397       -11.2423      -9.751501       2612.245        -999.25      0.8516695
      6524.5000        -999.25        -999.25          0.323         0.0256        -999.25        -999.25         0.4122         0.4453        -999.25         2.1134         0.4923       -17.8764      -16.41533       2612.245        -999.25      0.7387232
      6525.0000        -999.25        -999.25         0.3303         0.0145        -999.25        -999.25         0.3761         0.4083        -999.25          2.103         0.4412       -21.6956      -20.26426       2632.653        -999.25      0.6734871
      6525.5000        -999.25        -999.25         0.3303         0.0145        -999.25        -999.25         0.3448         0.3676        -999.25         2.1025           0.39       -21.1055      -19.70389       2632.653        -999.25      0.6829849
      6526.0000        -999.25        -999.25         0.3279         0.0174        -999.25        -999.25         0.3103         0.3369        -999.25          2.106         0.3989       -19.3114      -17.93952       2612.245        -999.25      0.7128894
      6526.5000        -999.25        -999.25         0.3255         0.0204        -999.25        -999.25         0.2728         0.3189        -999.25         2.1114         0.4409       -19.5224      -18.18025       2612.245        -999.25      0.7088093
      6527.0000        -999.25        -999.25         0.3212         0.0253        -999.25        -999.25         0.2569         0.3046        -999.25         2.1174         0.4231       -21.3354      -20.02298       2612.245        -999.25      0.6775766
      6527.5000        -999.25        -999.25         0.3164         0.0293        -999.25        -999.25         0.2408         0.2908        -999.25         2.1263         0.3969       -23.7455      -22.46281       2622.449        -999.25      0.6362235
      6528.0000        -999.25        -999.25         0.3115         0.0302        -999.25        -999.25         0.2246         0.2726        -999.25         2.1288         0.3722       -26.5556      -25.30264       2632.653        -999.25      0.5880908
      6528.5000        -999.25        -999.25         0.3176         0.0272        -999.25        -999.25         0.2165         0.2579        -999.25         2.1208         0.3621       -29.1656      -27.94237       2632.653        -999.25      0.5433496
      6529.0000        -999.25        -999.25         0.3261         0.0171        -999.25        -999.25         0.2174         0.2531        -999.25         2.1089         0.3984       -30.1756       -28.9821       2622.449        -999.25       0.525727
      6529.5000        -999.25        -999.25         0.3309         0.0061        -999.25        -999.25         0.2362         0.2566        -999.25         2.0985         0.4323       -26.1854      -25.02163       2622.449        -999.25      0.5928537
      6530.0000        -999.25        -999.25         0.3358          0.002        -999.25        -999.25         0.2637         0.2852        -999.25         2.0915         0.4244       -14.9463      -13.81226       2612.245        -999.25       0.782843
      6530.5000        -999.25        -999.25          0.337          0.001        -999.25        -999.25         0.2918         0.3227        -999.25        -999.25          0.391        -1.2121     -0.1077932       2632.927        -999.25              1
      6531.0000        -999.25        -999.25         0.3378        -0.0001        -999.25        -999.25         0.3394         0.3821        -999.25        -999.25         0.4205            6.8       7.874577       2633.436        -999.25              1
      6531.5000        -999.25        -999.25         0.3379        -0.0001        -999.25        -999.25         0.4342         0.4442        -999.25        -999.25          0.491           10.2       11.24485       2613.538        -999.25              1
      6532.0000        -999.25        -999.25          0.338        -0.0002        -999.25        -999.25         0.5699         0.5094        -999.25        -999.25          0.578           10.6       11.61512       2614.047        -999.25              1
      6532.5000        -999.25        -999.25        -999.25        -999.25        -999.25        -999.25         0.7501         0.5646        -999.25        -999.25         0.6193           10.6       11.58539       2614.556        -999.25              1
