#------------------------------------------------------------------------------
# Created by    : vladimir.rabinovich
# Created on    : 09/19/2023 17:20:53
#------------------------------------------------------------------------------
~Version Information Section
VERS.           2.0     :   CWLS log ASCII Standard - VERSION 2.0
WRAP.           NO      :   One line per depth step
~Well Information Section
#MNEM       .UNIT                                         VALUE :DESCRIPTION
#------------------------------------------------------------------------------
STRT        .FT                                             875 :START DEPTH
STOP        .FT                                            6380 :STOP DEPTH
STEP        .FT                                             0.5 :STEP      
NULL        .                                           -999.25 :NULL      
COMP        .                       ENERGY DEVELOPMENT CORP N J :COMPANY   
WELL        .                                   STATE TRACT 241 :WELL      
FLD         .                                           WILDCAT :FIELD     
LOC         .                                                   :LOCATION  
CNTY        .                                           CALHOUN :LOCATION  
STAT        .                                             TEXAS :STATE     
CTRY        .                                     UNITED STATES :COUNTRY   
SRVC        .                                                   :SERVICE COMPANY
DATE        .                             9/13/2023 11:19:11 AM :LOG DATE  
API         .                                    42057314130000 :API NUMBER
UWI         .                                    42057314130000 :UNIQUE WELL ID
XCOORD      .                                  544841.599058466 :SURFACE X 
YCOORD      .                                   10330281.839261 :SURFACE Y 
LAT         .                                        28.4235103 :LATITUDE  
LON         .                                       -96.4085418 :LONGITUDE 
ELEV        .FT                                              34 :ELEVATION VALUE
ELEV_TYPE   .                                                KB :ELEVATION REFERENCE TYPE
~Curve Information Section
#MNEM       .UNIT                                      API CODE :CURVE DESCRIPTION
#------------------------------------------------------------------------------
DEPT        .FT                                                 :DEPTH     
ASN         .OHMM                                               :          
DCAL        .IN                                                 :          
DPHI        .V/V                                                :          
DRHO        .G/CC                                               :          
GR          .GAPI                                               :          
GR_NORM     .GAPI                                               :GammaRay Normalized
ILD         .OHMM                                               :          
ILD_LNR     .OHMM                                               :          
ILM         .OHMM                                               :          
NPHI        .V/V                                                :          
SFLU        .OHMM                                               :          
SP          .MV                                                 :          
SP_NORM     .MV                                                 :SP Normalized
TENS        .LB                                                 :          
VSH_GR      .V/V                                                :Volume of Shale from GR
VSH_SP      .V/V                                                :Volume of Shale from SP
~A        DEPTH            ASN           DCAL           DPHI           DRHO             GR        GR_NORM            ILD        ILD_LNR            ILM           NPHI           SFLU             SP        SP_NORM           TENS         VSH_GR         VSH_SP
# ...
      1963.0000         0.9529         6.1176         0.2608        -0.0218        60.1471       80.33574         1.0046         0.8855         0.9818         0.3924              1          -19.4      -1.435926        990.099              1              1
      1963.5000         0.9548         6.0784          0.259        -0.0208         59.703       79.70296         1.0139         0.9008         0.9909         0.3835         0.9209          -18.8     -0.8359261        990.099      0.9936799              1
      1964.0000         0.9608         5.7624         0.2608        -0.0208         59.703       79.63897         1.0232         0.9306              1         0.3718         0.8959          -18.2     -0.2359276        990.099      0.9923185              1
      1964.5000         0.9608         5.0087          0.265        -0.0267        58.6634       78.24345         1.0279         0.9305         1.0046         0.3677         0.9864          -18.4     -0.4359264        990.099      0.9626265              1
      1965.0000         0.9667         4.3551         0.2673        -0.0327        57.4752       76.65758         1.0374         0.9304         1.0139         0.3694         1.1063          -19.8      -1.835926        990.099      0.9288846              1
      1965.5000         0.9787          3.901         0.2673        -0.0307        56.1386       74.88166         1.0518         0.9304         1.0279         0.3624         1.2351       -21.3861      -3.422028        990.099      0.8910992      0.9731693
      1966.0000         1.0668         3.5842          0.265        -0.0238        55.6931       74.24706         1.0518         0.9303         1.0279           0.35         1.3051       -22.9703      -5.006227        990.099      0.8775971      0.9432787
      1966.5000         1.1555         3.8195         0.2626        -0.0149        55.9901       74.56349         1.0518         0.9302         1.0279         0.3376         1.2465       -21.5842      -3.620127        990.099      0.8843296      0.9694316
      1967.0000         1.1574         3.6572         0.2638        -0.0119        55.8416       74.30929         1.0518         0.9301         1.0279         0.3471         1.1636          -19.2      -1.235928        990.099       0.878921              1
      1967.5000           1.13          3.417         0.2685        -0.0129        55.2475       73.48437         1.0279         0.9002         1.0046         0.3796         1.0861          -18.2     -0.2359276        990.099      0.8613695              1
      1968.0000         1.0571         3.5706         0.2733        -0.0129        55.2475       73.42039              1         0.8864         0.9774         0.4034         1.0139          -17.6      0.3640728        990.099      0.8600082              1
      1968.5000         0.9487          3.784          0.281        -0.0129        56.7367        75.2638         0.9729         0.8702         0.9509         0.4188         0.9465       -16.7784       1.185673        990.099      0.8992298              1
      1969.0000         0.8615              4         0.2881        -0.0109        58.6683       77.67385         0.9509         0.8403         0.9293         0.4349         0.8838       -16.7366       1.227472        990.099      0.9505075              1
      1969.5000         0.8413         4.0594         0.2935        -0.0129        59.8524       79.12649         0.9251         0.8297         0.9041         0.4592         0.8258       -16.2974       1.666674        990.099      0.9814146              1
      1970.0000         0.8295         4.1584         0.2947        -0.0149        60.1483        79.4415            0.9         0.8103         0.8798         0.4693         0.8073        -16.257       1.707073        990.099       0.988117              1
      1970.5000         0.8235          4.297         0.2923        -0.0167        60.1485       79.37777         0.8759         0.8102         0.8563         0.4616         0.8073       -16.2328       1.731274       991.3366       0.986761              1
      1971.0000         0.8235         4.3564         0.2911        -0.0184         60.297       79.50397          0.868         0.8028         0.8485         0.4533         0.8073       -16.2235       1.740574       993.8119      0.9894463              1
      1971.5000         0.8235         4.2772         0.2911        -0.0182        62.2277       81.91289         0.8601         0.7802         0.8409         0.4461         0.8073       -16.4134       1.550673       996.2871              1              1
      1972.0000         0.8234         4.3168         0.2893         -0.016        64.0099       84.13157         0.8601         0.7801         0.8409         0.4455         0.8073       -17.0037      0.9603729       998.7624              1              1
      1972.5000         0.8234          4.396         0.2881        -0.0168        65.7921       86.35026         0.8524         0.7801         0.8333         0.4521         0.8109            -18    -0.03592682           1000              1              1
      1973.0000         0.8234         4.3564         0.2875        -0.0208        65.6436       86.09607         0.8524           0.78         0.8333          0.455         0.8109          -17.2      0.7640724           1000              1              1
      1973.5000         0.8294          4.297         0.2887        -0.0257        64.3069       84.32002         0.8524         0.7799         0.8333          0.455         0.8109          -16.6       1.364073           1000              1              1
      1974.0000         0.8293          4.297         0.2875        -0.0257        63.2673       82.92449         0.8524         0.8097         0.8333         0.4574         0.8109          -15.6       2.364073           1000              1              1
      1974.5000         0.8293         4.3192         0.2851        -0.0198        61.4851       80.57783         0.8601         0.8096         0.8409         0.4657         0.8109          -14.6       3.364073           1000              1              1
      1975.0000         0.8293         4.3627         0.2869        -0.0158        60.4455        79.1823         0.8601         0.8095         0.8409         0.4756         0.8109            -14       3.964073           1000      0.9826022              1
      1975.5000         0.8353         4.2289         0.2929        -0.0149        58.9706       77.22923         0.8601         0.8094         0.8409         0.4725         0.8109          -13.4       4.564074           1000      0.9410475              1
      1976.0000         0.8373         3.9383         0.2952        -0.0168        56.7647       74.33988         0.8759         0.8094         0.8563         0.4659         0.8109            -13       4.964073           1000       0.879572              1
      1976.5000         0.8488         3.6634         0.2892        -0.0188        56.1765       73.52253         0.8919         0.8248         0.8719         0.4635         0.8109          -12.4       5.564074           1000      0.8621815              1
      1977.0000          0.865         3.3861         0.2808        -0.0198        55.7353       72.89343         0.9125         0.8391         0.8919         0.4635         0.8109          -12.2       5.764073           1000      0.8487964              1
      1977.5000         0.8856         3.0891         0.2681        -0.0218        55.5882       72.64104         0.9251         0.8689         0.9041         0.4451         0.8109            -12       5.964073           1000      0.8434263              1
      1978.0000          0.901         3.0297         0.2549        -0.0238        54.5588       71.25858         0.9465         0.8688         0.9251         0.4028         0.8183          -12.4       5.564074           1000      0.8140124              1
      1978.5000         0.9186         3.1287         0.2371        -0.0277        53.2353       69.49942         1.0007         0.8898          0.978         0.3565         0.9257          -12.2       5.764073       998.7639      0.7765834              1
