#------------------------------------------------------------------------------
# Created by    : vladimir.rabinovich
# Created on    : 09/19/2023 17:22:37
#------------------------------------------------------------------------------
~Version Information Section
VERS.           2.0     :   CWLS log ASCII Standard - VERSION 2.0
WRAP.           NO      :   One line per depth step
~Well Information Section
#MNEM       .UNIT                                         VALUE :DESCRIPTION
#------------------------------------------------------------------------------
STRT        .FT                                           554.5 :START DEPTH
STOP        .FT                                            5893 :STOP DEPTH
STEP        .FT                                             0.5 :STEP      
NULL        .                                           -999.25 :NULL      
COMP        .                              NEUMIN PRODUCTION CO :COMPANY   
WELL        .                                         ST TR 186 :WELL      
FLD         .                                           WILDCAT :FIELD     
LOC         .                                                   :LOCATION  
CNTY        .                                           CALHOUN :LOCATION  
STAT        .                                             TEXAS :STATE     
CTRY        .                                     UNITED STATES :COUNTRY   
SRVC        .                                                   :SERVICE COMPANY
DATE        .                             9/13/2023 11:18:59 AM :LOG DATE  
API         .                                    42057313020000 :API NUMBER
UWI         .                                    42057313020000 :UNIQUE WELL ID
XCOORD      .                                  487252.476079587 :SURFACE X 
YCOORD      .                                  10287942.6245796 :SURFACE Y 
LAT         .                                         28.302642 :LATITUDE  
LON         .                                       -96.5835194 :LONGITUDE 
ELEV        .FT                                              22 :ELEVATION VALUE
ELEV_TYPE   .                                                KB :ELEVATION REFERENCE TYPE
~Curve Information Section
#MNEM       .UNIT                                      API CODE :CURVE DESCRIPTION
#------------------------------------------------------------------------------
DEPT        .FT                                                 :DEPTH     
DCAL        .INCHES                                             :          
DPHI        .NONE                                               :          
GR          .GAPI                                               :          
GR_NORM     .GAPI                                               :GammaRay Normalized
ILD         .OHMM                                               :          
NPHI        .NONE                                               :          
VSH_GR      .V/V                                                :Volume of Shale from GR
~A        DEPTH           DCAL           DPHI             GR        GR_NORM            ILD           NPHI         VSH_GR
# ...
      4775.5000        -0.4446         0.2389         76.091       72.74378         1.0497         0.3837      0.8456124
      4776.0000        -0.4449         0.2205        70.0041       66.67062         1.1554         0.3603      0.7163963
      4776.5000        -0.4532          0.211         63.488       60.16827         1.2388         0.3323      0.5780482
      4777.0000        -0.5374         0.1997        61.7278       58.42181         1.3435         0.3121      0.5408897
      4777.5000         -0.638         0.1856        64.0593       60.76706          1.439         0.2981      0.5907885
      4778.0000        -0.7524         0.1765        69.7709        66.4924         1.4992         0.3089      0.7126043
      4778.5000        -0.7996         0.1681        73.9438       70.67905         1.5219         0.3603      0.8016818
      4779.0000        -0.8449         0.2098        76.7539       73.50289         1.4589         0.4045      0.8617637
      4779.5000        -0.8452         0.2461        76.1001       72.86283          1.308         0.4414      0.8481454
      4780.0000        -0.8455         0.2427        74.9388       71.71528          1.109         0.4707      0.8237293
      4780.5000        -0.8152         0.2367        75.0283       71.81853         0.9907         0.4743      0.8259261
      4781.0000        -0.8156         0.2429         76.333       73.13697         0.9406         0.4707      0.8539781
      4781.5000        -0.7852         0.2675        78.1332       74.95092         0.9104         0.4643      0.8925728
      4782.0000        -0.7855         0.2828         80.262       77.09346         0.8865         0.4681      0.9381588
      4782.5000        -0.7552         0.2979        81.3033       78.14851         0.8614         0.4753      0.9606065
      4783.0000        -0.7201         0.3007        81.3833       78.24225         0.8306         0.4759       0.962601
      4783.5000        -0.6639          0.293        81.3846       78.25729         0.8247          0.474      0.9629211
      4784.0000        -0.5978         0.2758        81.8578       78.74424         0.8451         0.4625      0.9732817
      4784.5000        -0.5106         0.2514        83.1333       80.03349         0.9162         0.4476              1
      4785.0000        -0.3318          0.227        84.1404       81.05433         0.9758         0.4001              1
      4785.5000        -0.1603         0.2129        84.4159       81.34357         1.0617         0.3332              1
      4786.0000        -0.0529         0.2018        81.2737       78.21511         1.1814         0.3054      0.9620236
      4786.5000        -0.0532         0.1931        75.4587       72.41386         1.2833         0.2972      0.8385928
      4787.0000        -0.0841          0.189        73.1116       70.08051         1.3575         0.3028      0.7889469
      4787.5000        -0.1457         0.1865        71.9901       68.97275          1.418         0.3129      0.7653776
      4788.0000         -0.146         0.1885        71.8821       68.87849          1.467         0.3186      0.7633722
      4788.5000        -0.1463         0.1955         72.129       69.13914          1.487         0.3203      0.7689178
      4789.0000        -0.1466         0.1986        74.0578       71.08169         1.4868         0.3194      0.8102487
      4789.5000        -0.1108         0.1928        75.0199       72.05753         1.4867         0.3194      0.8310112
      4790.0000        -0.0554         0.1821        74.9469       71.99828         1.4591         0.3193      0.8297505
      4790.5000        -0.1039         0.1756        72.5635       69.62862         1.3967         0.3176      0.7793323
      4791.0000        -0.1785         0.1853        71.2477       68.32657         1.2912         0.3179      0.7516291
      4791.5000        -0.1787         0.2061        71.0818       68.17441         1.2321         0.3222      0.7483917
      4792.0000        -0.1748         0.2225        71.0829       68.18925         1.1773         0.3327      0.7487075
      4792.5000        -0.0875         0.2391        71.9375       69.05759         1.1428         0.3465      0.7671829
      4793.0000        -0.0457         0.2277         74.067       71.20084         1.1169         0.3498      0.8127839
      4793.5000        -0.0268         0.2112        75.5263       72.67388         1.0902         0.3524      0.8441252
      4794.0000        -0.5251         0.2005        77.9882       75.14953         1.0982         0.3583      0.8967985
      4794.5000        -0.7457         0.2284        79.7054       76.88047         1.1132         0.3693       0.933627
      4795.0000        -0.8854          0.232        80.7381       77.92692         1.1131         0.3773      0.9558918
      4795.5000        -0.9163         0.2367        83.0176       80.22016         1.1208         0.3812              1
      4796.0000        -0.9142         0.2342        84.9855       82.20181         1.1207          0.383              1
      4796.5000        -0.8251         0.2282        86.2629       83.49295         1.1257         0.3821              1
      4797.0000        -0.7471         0.2286        86.4615        83.7053         1.1363          0.384              1
      4797.5000        -0.6725         0.2291        86.1954       83.45294         1.1362         0.3871              1
      4798.0000        -0.6254         0.2245        83.9146       81.18588         1.1361         0.3886              1
      4798.5000        -0.5505         0.2205        81.0017       78.28674          1.144         0.3881      0.9635476
      4799.0000        -0.6122         0.2218        80.0438       77.34258         1.1438         0.3887       0.943459
      4799.5000        -0.7287         0.2417        80.2745       77.58702         1.1437         0.3999        0.94866
      4800.0000        -1.0033         0.2532        80.4223       77.74857         1.1436         0.4132      0.9520971
      4800.5000        -1.3487         0.2558        81.7247       79.06471         1.0218         0.4291      0.9801003
      4801.0000        -1.1045         0.2565        83.5054       80.85915         0.9959         0.4243              1
      4801.5000        -0.9046         0.2613        85.5726        82.9401         0.9931         0.4145              1
      4802.0000        -0.7062         0.2589        86.9612       84.34244         0.9999         0.4026              1
      4802.5000         -0.497         0.2473        85.8237       83.21869         1.0137         0.3909              1
      4803.0000        -0.3565         0.2378        82.5526       79.96133         1.0304         0.3785      0.9991772
      4803.5000        -0.2503         0.2309         77.811       75.23347         1.0797          0.366      0.8985845
      4804.0000         -0.251         0.2236         72.455       69.89122         1.1158         0.3492      0.7849196
      4804.5000        -0.3205          0.219        68.0507       65.50066         1.1499         0.3245      0.6915035
      4805.0000         -0.375         0.2128        64.5329        61.9966         1.1742         0.3022       0.616949
      4805.5000        -0.3642         0.2015        63.8706       61.34806          1.184         0.2818      0.6031501
      4806.0000        -0.2537         0.1984        65.0301        62.5213         1.1988          0.263      0.6281128
      4806.5000        -0.1672          0.196        75.5668       73.07175         1.2109         0.2519      0.8525904
      4807.0000        -0.0634          0.196        78.0072       75.52589         1.2153         0.2521      0.9048063
      4807.5000         0.0198         0.1969        79.7101       77.24253         1.2151         0.2634      0.9413304
      4808.0000         0.0952         0.1988        80.1765       77.72268         1.2009         0.2838      0.9515464
      4808.5000         0.1104         0.2062        80.4981       78.05802         1.1563         0.3247      0.9586813
