#------------------------------------------------------------------------------
# Created by    : vladimir.rabinovich
# Created on    : 09/19/2023 17:20:53
#------------------------------------------------------------------------------
~Version Information Section
VERS.           2.0     :   CWLS log ASCII Standard - VERSION 2.0
WRAP.           NO      :   One line per depth step
~Well Information Section
#MNEM       .UNIT                                         VALUE :DESCRIPTION
#------------------------------------------------------------------------------
STRT        .FT                                             875 :START DEPTH
STOP        .FT                                            6380 :STOP DEPTH
STEP        .FT                                             0.5 :STEP      
NULL        .                                           -999.25 :NULL      
COMP        .                       ENERGY DEVELOPMENT CORP N J :COMPANY   
WELL        .                                   STATE TRACT 241 :WELL      
FLD         .                                           WILDCAT :FIELD     
LOC         .                                                   :LOCATION  
CNTY        .                                           CALHOUN :LOCATION  
STAT        .                                             TEXAS :STATE     
CTRY        .                                     UNITED STATES :COUNTRY   
SRVC        .                                                   :SERVICE COMPANY
DATE        .                             9/13/2023 11:19:11 AM :LOG DATE  
API         .                                    42057314130000 :API NUMBER
UWI         .                                    42057314130000 :UNIQUE WELL ID
XCOORD      .                                  544841.599058466 :SURFACE X 
YCOORD      .                                   10330281.839261 :SURFACE Y 
LAT         .                                        28.4235103 :LATITUDE  
LON         .                                       -96.4085418 :LONGITUDE 
ELEV        .FT                                              34 :ELEVATION VALUE
ELEV_TYPE   .                                                KB :ELEVATION REFERENCE TYPE
~Curve Information Section
#MNEM       .UNIT                                      API CODE :CURVE DESCRIPTION
#------------------------------------------------------------------------------
DEPT        .FT                                                 :DEPTH     
ASN         .OHMM                                               :          
DCAL        .IN                                                 :          
DPHI        .V/V                                                :          
DRHO        .G/CC                                               :          
GR          .GAPI                                               :          
GR_NORM     .GAPI                                               :GammaRay Normalized
ILD         .OHMM                                               :          
ILD_LNR     .OHMM                                               :          
ILM         .OHMM                                               :          
NPHI        .V/V                                                :          
SFLU        .OHMM                                               :          
SP          .MV                                                 :          
SP_NORM     .MV                                                 :SP Normalized
TENS        .LB                                                 :          
VSH_GR      .V/V                                                :Volume of Shale from GR
VSH_SP      .V/V                                                :Volume of Shale from SP
~A        DEPTH            ASN           DCAL           DPHI           DRHO             GR        GR_NORM            ILD        ILD_LNR            ILM           NPHI           SFLU             SP        SP_NORM           TENS         VSH_GR         VSH_SP
# ...
      2331.0000         1.1413         5.0891         0.3404        -0.0307        27.7857       32.47247         0.4167         0.4133         0.5118         0.3844         1.0467       -73.6634      -53.20926       1088.235              0     0.03378757
      2331.5000         1.1225         5.0891          0.338        -0.0188        28.2243       32.96369         0.4074         0.4132         0.4977         0.3659         1.0277       -74.0594      -53.61956       1098.039              0      0.0260461
      2332.0000         1.1114         5.0891          0.335        -0.0069         28.665       33.45728            0.4         0.4132          0.491         0.3683         1.0514       -74.6535      -54.22795       1107.843    0.009729426     0.01456696
      2332.5000         1.1371         5.1089         0.3327         -0.005        28.2178       32.94601         0.4037         0.4131         0.4955         0.3826         1.1157       -74.8515      -54.44025       1117.647              0     0.01056139
      2333.0000         1.1842         5.0297         0.3208        -0.0069        26.8812       31.42818         0.4148          0.413         0.5142         0.3594         1.2278       -75.0495      -54.65254       1127.451              0    0.006555809
      2333.5000         1.2335         4.7525         0.3113        -0.0069        25.6931        30.0784         0.4381         0.4428         0.5363         0.3303         1.3698       -75.2475      -54.86484       1137.255              0    0.002550233
      2334.0000         1.3126         4.2574         0.3024         -0.001         25.099       29.40087          0.467         0.4553         0.5726         0.3065         1.4802       -75.8416      -55.47324       1127.451              0              0
      2334.5000         1.3854          3.901         0.3119         0.0188         25.396       29.73183         0.4977         0.4725         0.5916         0.3154         1.5706       -76.2376      -55.88353       1127.451              0              0
      2335.0000         1.4267         4.5941         0.3374         0.0287        26.5842       31.07141         0.5289         0.4724         0.6027         0.3451         1.5422       -76.8317      -56.49193       1127.451              0              0
      2335.5000         1.4427         5.6634         0.3624         0.0327        27.1782       31.73849         0.5542         0.4832         0.6082         0.3873         1.4468       -77.0297      -56.70422       1127.451              0              0
      2336.0000         1.4449         6.7921         0.3879         0.0297        27.6238       32.23763          0.562         0.5021         0.6082         0.4354         1.3573       -77.2277      -56.91652       1127.451              0              0
      2336.5000         1.4324         8.0792         0.4152         0.0208        28.3663       33.07278          0.562         0.5021            0.6         0.4877         1.3512       -77.4257      -57.12881       1127.451    0.001548605              0
      2337.0000          1.401         8.9307         0.4319         0.0149        28.8119       33.57193         0.5023          0.502         0.5834          0.515         1.3823       -77.8218      -57.53922       1127.451     0.01216864              0
      2337.5000         1.3672         8.9307         0.4271         0.0099        29.8515       34.74331         0.4756         0.4832         0.5542         0.5139          1.376       -78.0198      -57.75151       1127.451     0.03709176              0
      2338.0000         1.3101         8.5743         0.4135          0.005        30.8824       35.90485         0.4523          0.472         0.5313         0.4883         1.2676       -77.8218       -57.5678       1127.451      0.0618054              0
      2338.5000         1.2517         8.2178         0.4004          0.003        31.8954       37.04615         0.4263         0.4643         0.4977         0.4646         1.1055       -77.2531       -57.0134       1127.451     0.08608822              0
      2339.0000         1.1942         7.8614         0.3873         -0.003        32.0108       37.17158         0.4037          0.442         0.4713         0.4403         0.9864       -76.7084      -56.48299       1117.647     0.08875705              0
      2339.5000         1.1129         7.0495         0.3743        -0.0109        30.3514       35.28843         0.3857          0.412         0.4523         0.4135         0.9422       -76.1637      -55.95259       1107.843      0.0486899              0
      2340.0000         1.0451         6.0396         0.3665        -0.0208         29.426       34.23595         0.3735          0.412         0.4342         0.3808         0.9166       -75.4209      -55.22409       1107.843      0.0262969              0
      2340.5000         0.9973         4.9987         0.3589        -0.0287             30       34.88041         0.3618         0.3965         0.4167         0.3607         0.9336       -74.8515      -54.66899         1109.1     0.04000871    0.006245523
      2341.0000         0.9734         4.6575         0.3572        -0.0317        31.3366       36.38792          0.344          0.382         0.4148         0.3685         0.9125       -74.2574      -54.08918       1111.614      0.0720835     0.01718528
      2341.5000         0.9788         4.6558         0.3574        -0.0267        32.5248       37.72749         0.3347         0.3521         0.4111          0.377         0.9125       -73.6634      -53.50948       1114.128      0.1005848      0.0281231
      2342.0000         1.0448         4.8128         0.3557        -0.0228        33.1188       38.39457         0.3272          0.352         0.4092         0.3742         0.9552       -74.4554      -54.31577       1136.249      0.1147782     0.01290994
      2342.5000         1.1034         4.9703          0.348        -0.0178        31.0396       36.03632         0.3242         0.3519         0.4092         0.3671         1.0514       -76.0396      -55.91427       1156.863     0.06460246              0
      2343.0000         1.1692         5.1089         0.3402        -0.0119        28.6765       33.35675         0.3242         0.3518         0.4092         0.3689         1.2278       -77.4257      -57.31467       1147.059    0.007590436              0
      2343.5000         1.2155         5.0297         0.3324        -0.0089        27.0588       31.52079         0.3242         0.3518         0.4092          0.385         1.3698       -78.6139      -58.51716       1117.647              0              0
      2344.0000          1.267         4.9307         0.3294        -0.0119        27.7941       32.34779         0.3257         0.3517         0.4092         0.4004         1.4668       -77.4257      -57.34325       1117.647              0              0
      2344.5000         1.3141         4.7921          0.327        -0.0139             30       34.83912         0.3287         0.3516         0.4092         0.4123         1.5422       -76.4356      -56.36745       1117.647     0.03913027              0
      2345.0000         1.3694         4.6139         0.3246        -0.0208        32.5248       37.69136         0.3317         0.3515         0.4092         0.3956         1.5422       -75.6436      -55.58975       1117.647     0.09981618              0
      2345.5000         1.3902         4.4752          0.324        -0.0248        35.0495       40.54349         0.3363         0.3515         0.4092         0.3766         1.4802       -74.8515      -54.81195       1117.647      0.1604997      0.0035481
      2346.0000         1.3745          4.297          0.324        -0.0218         34.901       40.37027         0.3378         0.3514         0.4092         0.3582         1.3636       -74.2574      -54.23215       1117.647      0.1568142     0.01448779
      2346.5000         1.3467         4.1584          0.324        -0.0149        33.7129       39.02049         0.3425           0.39         0.4148         0.3558         1.2734       -74.4554      -54.44444       1117.647      0.1280955     0.01048228
