#------------------------------------------------------------------------------
# Created by    : vladimir.rabinovich
# Created on    : 09/19/2023 17:22:27
#------------------------------------------------------------------------------
~Version Information Section
VERS.           2.0     :   CWLS log ASCII Standard - VERSION 2.0
WRAP.           NO      :   One line per depth step
~Well Information Section
#MNEM       .UNIT                                         VALUE :DESCRIPTION
#------------------------------------------------------------------------------
STRT        .FT                                          1344.5 :START DEPTH
STOP        .FT                                            6047 :STOP DEPTH
STEP        .FT                                             0.5 :STEP      
NULL        .                                           -999.25 :NULL      
COMP        .                      HIGHLAND RESOURCES-G R BROWN :COMPANY   
WELL        .                                         ST TR 234 :WELL      
FLD         .                                           WILDCAT :FIELD     
LOC         .                                                   :LOCATION  
CNTY        .                                           CALHOUN :LOCATION  
STAT        .                                             TEXAS :STATE     
CTRY        .                                     UNITED STATES :COUNTRY   
SRVC        .                                                   :SERVICE COMPANY
DATE        .                             9/13/2023 11:18:59 AM :LOG DATE  
API         .                                    42057308440000 :API NUMBER
UWI         .                                    42057308440000 :UNIQUE WELL ID
XCOORD      .                                  538656.561995839 :SURFACE X 
YCOORD      .                                  10324779.5220427 :SURFACE Y 
LAT         .                                        28.4079151 :LATITUDE  
LON         .                                       -96.4272693 :LONGITUDE 
ELEV        .FT                                              14 :ELEVATION VALUE
ELEV_TYPE   .                                                KB :ELEVATION REFERENCE TYPE
~Curve Information Section
#MNEM       .UNIT                                      API CODE :CURVE DESCRIPTION
#------------------------------------------------------------------------------
DEPT        .FT                                                 :DEPTH     
CILD        .MMHO                                               :          
DT          .US/F                                               :          
RILD        .OHMM                                               :          
SFL         .OHMM                                               :          
SP          .MV                                                 :          
SP_NORM     .MV                                                 :SP Normalized
VSH_SP      .V/V                                                :Volume of Shale from SP
~A        DEPTH           CILD             DT           RILD            SFL             SP        SP_NORM         VSH_SP
# ...
      3522.0000       2849.003       125.0961          0.351         0.8777        79.4845      -54.51546      0.1226974
      3522.5000       2920.561        126.659         0.3424         0.8703        80.5854      -53.41255      0.1407778
      3523.0000       2971.768       126.4758         0.3365         0.8593        80.7098      -53.28616      0.1428499
      3523.5000       2942.907       125.4444         0.3398         0.8781        81.2101      -52.78384      0.1510845
      3524.0000       2763.194       125.2441         0.3619         0.9083        82.0365      -51.95544      0.1646648
      3524.5000       2502.502       128.0072         0.3996         0.9512        83.4986      -50.49135      0.1886664
      3525.0000       2227.667       131.7807         0.4489         1.0119        85.5084      -48.47953       0.221647
      3525.5000       2012.882        134.456         0.4968         1.0694        86.5295      -47.45643      0.2384192
      3526.0000       1884.659       131.9897         0.5306         1.1468        87.3545      -46.62943      0.2519765
      3526.5000        1784.44        125.492         0.5604         1.1938        87.6669      -46.31502      0.2571309
      3527.0000       1720.874       122.6646         0.5811         1.2405        87.6218      -46.35812      0.2564243
      3527.5000       1697.793       122.3153          0.589         1.3136        86.4542      -47.52372      0.2373161
      3528.0000       1721.763       123.0814         0.5808         1.3823         84.702       -49.2739      0.2086245
      3528.5000       1741.554       124.1837         0.5742          1.402        83.1172       -50.8567       0.182677
      3529.0000       1770.852       125.5721         0.5647         1.4148        81.8088      -52.16311      0.1612605
      3529.5000       1789.549       128.3837         0.5588          1.418        80.3619      -53.60799      0.1375739
      3530.0000       1835.199       130.5399         0.5449         1.3976        79.1016      -54.86629       0.116946
      3530.5000       1855.632       130.9083         0.5389         1.3653        77.8347       -56.1312     0.09620991
      3531.0000       1863.238       128.8626         0.5367         1.3256        76.4371      -57.52678     0.07333149
      3531.5000        1873.01       125.2217         0.5339         1.2674         75.719      -58.24288      0.0615921
      3532.0000       1878.287       124.9884         0.5324         1.2171        75.2298      -58.73009     0.05360513
      3532.5000       1899.696       126.4639         0.5264         1.1749        75.4044      -58.55347     0.05650054
      3533.0000       1942.502       130.4399         0.5148         1.1187        75.8552      -58.10067     0.06392345
      3533.5000         2000.4       134.0216         0.4999          1.082        76.1693      -57.78458      0.0691053
      3534.0000        2066.97       140.6251         0.4838          1.052        76.4808      -57.47106     0.07424489
      3534.5000       2157.963       143.8634         0.4634         1.0311        76.4887      -57.46116     0.07440723
      3535.0000       2314.279       141.7739         0.4321         1.0158        76.1903      -57.75756     0.06954818
      3535.5000        2450.38       135.3479         0.4081          1.007        75.5425      -58.40334     0.05896159
      3536.0000        2564.76       131.3939         0.3899         1.0214        74.5808      -59.36304     0.04322878
      3536.5000       2683.843       128.2791         0.3726         1.0408        73.6185      -60.32335     0.02748608
      3537.0000        2757.86       127.3445         0.3626         1.0638        72.5567      -61.38313     0.01011258
      3537.5000       2840.102       127.9881         0.3521         1.0912        71.6944      -62.24344              0
      3538.0000       2898.551         127.66          0.345         1.1193        70.7357      -63.20013              0
      3538.5000       2962.963       126.1092         0.3375         1.1254        70.4408      -63.49302              0
      3539.0000       3022.975       124.7386         0.3308         1.0889        70.6179      -63.31393              0
      3539.5000       3099.814        124.801         0.3226         1.0536        71.9835      -61.94633   0.0008798818
      3540.0000       3155.569       125.8562         0.3169         1.0153        72.2952      -61.63261    0.006022719
      3540.5000       3209.243       127.1727         0.3116         0.9877        71.9976      -61.92822    0.001176803
      3541.0000       3222.688       127.9121         0.3103         0.9739        71.0674      -62.85641              0
      3541.5000       3222.688       128.8786         0.3103         0.9572        70.7902       -63.1316              0
      3542.0000       3218.539       129.1845         0.3107         0.9448        71.7156       -62.2042              0
      3542.5000        3176.62       129.0294         0.3148         0.9333        72.4231       -61.4947    0.008283647
      3543.0000           3125        128.518           0.32         0.9234        72.6457      -61.27009     0.01196577
      3543.5000       3065.604       127.5416         0.3262         0.9229        72.3473      -61.56649    0.007106719
      3544.0000        3033.06       127.0278         0.3297         0.9329        72.3547      -61.55709    0.007260807
      3544.5000       2977.963        129.239         0.3358         0.9424        72.1647      -61.74507    0.004179157
      3545.0000       2943.774       131.0189         0.3397          0.956        72.0632      -61.84457    0.002547968
      3545.5000       2916.302       130.4691         0.3429         0.9694        72.0725      -61.83327    0.002733199
      3546.0000       3021.148       128.3725          0.331         0.9789        71.9542      -61.94958   0.0008266011
      3546.5000       3104.626       124.8698         0.3221         0.9866        71.7813      -62.12046              0
      3547.0000       3174.603       121.9472          0.315         0.9908        71.4833      -62.41647              0
      3547.5000       3210.273       119.4907         0.3115         0.9786        71.1846      -62.71317              0
      3548.0000       3269.042       118.9438         0.3059         0.9649         71.194      -62.70175              0
      3548.5000       3310.162       119.3503         0.3021         0.9371        71.5057      -62.38805              0
      3549.0000       3310.162       120.0802         0.3021         0.9117        71.8188      -62.07295              0
      3549.5000       3333.333       120.9637            0.3          0.896        72.2904      -61.59934    0.006568158
      3550.0000       3333.333       121.9409            0.3         0.8894        72.7494      -61.13834     0.01412551
      3550.5000       3332.223       122.5541         0.3001         0.8828        72.7582      -61.12754     0.01430261
      3551.0000       3309.067       122.2454         0.3022         0.8753        72.7642      -61.11953     0.01443394
      3551.5000       3307.972       122.1756         0.3023         0.8838        73.0776      -60.80413     0.01960442
      3552.0000       3307.972       122.5498         0.3023            0.9        73.9754      -59.90433     0.03435529
      3552.5000       3273.323       122.3943         0.3055         0.9126        74.6186      -59.25912     0.04493251
      3553.0000       3238.342       121.8837         0.3088         0.9279        74.4324      -59.44331     0.04191289
      3553.5000       3222.688       121.6235         0.3103         0.9419        73.8878      -59.98592     0.03301777
      3554.0000         3214.4       120.3272         0.3111         0.9521        72.8098       -61.0619     0.01537861
      3554.5000       3237.294        118.277         0.3089         0.9648        71.9637      -61.90601    0.001540888
      3555.0000       3259.452       116.1437         0.3068         0.9801        71.2971      -62.57061              0
