#------------------------------------------------------------------------------
# Created by    : vladimir.rabinovich
# Created on    : 09/19/2023 17:22:27
#------------------------------------------------------------------------------
~Version Information Section
VERS.           2.0     :   CWLS log ASCII Standard - VERSION 2.0
WRAP.           NO      :   One line per depth step
~Well Information Section
#MNEM       .UNIT                                         VALUE :DESCRIPTION
#------------------------------------------------------------------------------
STRT        .FT                                          1344.5 :START DEPTH
STOP        .FT                                            6047 :STOP DEPTH
STEP        .FT                                             0.5 :STEP      
NULL        .                                           -999.25 :NULL      
COMP        .                      HIGHLAND RESOURCES-G R BROWN :COMPANY   
WELL        .                                         ST TR 234 :WELL      
FLD         .                                           WILDCAT :FIELD     
LOC         .                                                   :LOCATION  
CNTY        .                                           CALHOUN :LOCATION  
STAT        .                                             TEXAS :STATE     
CTRY        .                                     UNITED STATES :COUNTRY   
SRVC        .                                                   :SERVICE COMPANY
DATE        .                             9/13/2023 11:18:59 AM :LOG DATE  
API         .                                    42057308440000 :API NUMBER
UWI         .                                    42057308440000 :UNIQUE WELL ID
XCOORD      .                                  538656.561995839 :SURFACE X 
YCOORD      .                                  10324779.5220427 :SURFACE Y 
LAT         .                                        28.4079151 :LATITUDE  
LON         .                                       -96.4272693 :LONGITUDE 
ELEV        .FT                                              14 :ELEVATION VALUE
ELEV_TYPE   .                                                KB :ELEVATION REFERENCE TYPE
~Curve Information Section
#MNEM       .UNIT                                      API CODE :CURVE DESCRIPTION
#------------------------------------------------------------------------------
DEPT        .FT                                                 :DEPTH     
CILD        .MMHO                                               :          
DT          .US/F                                               :          
RILD        .OHMM                                               :          
SFL         .OHMM                                               :          
SP          .MV                                                 :          
SP_NORM     .MV                                                 :SP Normalized
VSH_SP      .V/V                                                :Volume of Shale from SP
~A        DEPTH           CILD             DT           RILD            SFL             SP        SP_NORM         VSH_SP
# ...
      2584.0000       1114.579       151.2389         0.8972          0.841       149.6403        1.54361              1
      2584.5000       1073.999       150.2837         0.9311         0.8541       148.4338       0.333252              1
      2585.0000       1039.177       148.3383         0.9623         0.8724       147.2115     -0.8929138              1
      2585.5000       953.6525        144.512         1.0486         0.9206       145.8475      -2.260757      0.9778814
      2586.0000       880.8244       138.1692         1.1353         0.9786       144.1217      -3.990417      0.9475365
      2586.5000       793.2731       129.7422         1.2606         1.0335        143.569      -4.546982      0.9377723
      2587.0000       734.0527       124.6457         1.3623         1.1344       143.6544      -4.465424      0.9392031
      2587.5000       685.9181       120.8273         1.4579         1.2676       143.8898      -4.233887      0.9432651
      2588.0000        639.959       119.4524         1.5626         1.4709       143.5911      -4.536453       0.937957
      2588.5000       611.4712       117.5133         1.6354         1.5735       142.6697        -5.4617      0.9217246
      2589.0000       589.0669       115.9064         1.6976         1.7164       141.2239      -6.911346      0.8962922
      2589.5000       575.3078       113.9014         1.7382         1.8239       137.7587      -10.38042      0.8354313
      2590.0000       591.0864       109.5988         1.6918         2.0031       128.0491      -20.09386        0.66502
      2590.5000       650.1951       108.3019          1.538         2.0685       122.2691      -25.87772      0.5635487
      2591.0000        728.067       108.2108         1.3735         2.1008       116.7654      -31.38528       0.466925
      2591.5000       828.0202        109.776         1.2077           2.12       111.3224      -36.83212      0.3713663
      2592.0000       1009.387       113.1998         0.9907         2.0948       107.0985      -41.05988       0.297195
      2592.5000       1234.263       118.8005         0.8102         2.0568       103.3535      -44.80875      0.2314255
      2593.0000       1540.357        118.254         0.6492         1.9883       100.1191      -48.04699      0.1746142
      2593.5000       1755.926       117.1052         0.5695          1.898        95.7338      -52.43615     0.09761141
      2594.0000        2014.91       120.7628         0.4963         1.8078         92.756      -55.41782     0.04530147
      2594.5000       2157.032        127.295         0.4636         1.6735        91.4278      -56.74986     0.02193237
      2595.0000       2259.887       133.8394         0.4425         1.3828        90.3706      -57.81092     0.00331718
      2595.5000       2304.147        138.645          0.434         1.2651        89.5884      -58.59698              0
      2596.0000       2299.379       140.2854         0.4349         1.0948        89.0535      -59.13573              0
      2596.5000       2287.283       136.5262         0.4372         1.0086        89.0599      -59.13319              0
      2597.0000       2279.982       132.8683         0.4386         0.9503        89.0674      -59.12955              0
      2597.5000       2254.791        132.289         0.4435          0.919        88.4233      -59.77749              0
      2598.0000       2244.669       132.2495         0.4455          0.896        87.5546      -60.65005              0
      2598.5000       2238.639       131.5147         0.4467          0.905        87.5639      -60.64461              0
      2599.0000       2254.283       130.1744         0.4436         0.9263        87.6694      -60.54295              0
      2599.5000       2266.546       127.6689         0.4412          0.957        88.4939      -59.72232              0
      2600.0000       2318.572       124.6775         0.4313         0.9878        89.2635      -58.95658              0
      2600.5000       2379.253       122.4406         0.4203         1.0416        89.0167      -59.20722              0
      2601.0000        2458.21       123.8272         0.4068         1.1154        87.2911      -60.93668              0
      2601.5000       2523.341       124.7382         0.3963         1.1927         86.079      -62.15264              0
      2602.0000        2540.65       124.3138         0.3936         1.2171        87.0043       -61.2312              0
      2602.5000        2540.65       123.1743         0.3936         1.1794        88.4507      -59.78865              0
      2603.0000       2531.005       121.8021         0.3951         1.0989        90.0765      -58.16671              0
      2603.5000       2520.797       120.7949         0.3967         0.9939        90.3846      -57.86247    0.002412762
      2604.0000       2491.901       120.4222         0.4013         0.9559          89.48      -58.77091              0
      2604.5000       2468.526       121.0142         0.4051          0.925        89.7463      -58.50848              0
      2605.0000       2468.526       122.8744         0.4051         0.9195        91.6347      -56.62394     0.02414141
      2605.5000       2493.144       125.7565         0.4011         0.9419        93.5709      -54.69158     0.05804243
      2606.0000       2556.891       130.3121         0.3911         0.9543        95.3161      -52.95024     0.08859226
      2606.5000       2615.063       136.5222         0.3824         0.9562        94.3222      -53.94801     0.07108762
      2607.0000       2673.797       138.3769          0.374         0.9257        95.0787      -53.19535     0.08429209
      2607.5000       2743.484       136.1337         0.3645         0.8379        98.0929      -50.18501      0.1371052
      2608.0000       2803.476       134.0702         0.3567         0.7747        99.7008      -48.58097      0.1652461
      2608.5000        2861.23       132.8586         0.3495         0.7109       100.2476      -48.03802      0.1747716
      2609.0000       2912.904       132.2213         0.3433         0.6647        97.7685      -50.52097       0.131211
      2609.5000       2942.907       135.1362         0.3398         0.7339        96.2954      -51.99793      0.1052994
      2610.0000       2840.102       140.6206         0.3521         0.7928        96.9176      -51.37958      0.1161478
      2610.5000       2658.161       144.5008         0.3762         0.9565        98.1736      -50.12744      0.1381151
      2611.0000       2396.358        143.424         0.4173         0.9855        99.6829        -48.622      0.1645263
      2611.5000       2258.866       138.9615         0.4427         1.0175       100.6339      -47.67484      0.1811431
      2612.0000       2183.883       135.3635         0.4579         1.0402       100.4144      -47.89821      0.1772244
      2612.5000       2147.766       133.7536         0.4656         1.0604        97.8796      -50.43687      0.1326866
      2613.0000       2154.244       133.1267         0.4642         1.0507        96.5703      -51.75002      0.1096489
      2613.5000       2182.929       134.0466         0.4581         1.0262        95.7595      -52.56467     0.09535659
      2614.0000       2249.213       135.0317         0.4446         1.0014        94.5514      -53.77663     0.07409414
      2614.5000       2346.316       134.8002         0.4262         0.9104          94.25      -54.08188     0.06873897
      2615.0000       2506.894       133.1818         0.3989         0.8345        94.9704      -53.36534      0.0813098
      2615.5000       2738.976       131.6578         0.3651         0.7809        94.0284       -54.3112     0.06471574
      2616.0000       2905.288       129.8919         0.3442         0.7462         92.752      -55.59145     0.04225533
      2616.5000       3067.485       129.2197          0.326         0.7268        92.8955      -55.45181     0.04470517
      2617.0000       3192.848       129.4283         0.3132         0.7161        94.0008      -54.35036     0.06402869
