#------------------------------------------------------------------------------
# Created by    : vladimir.rabinovich
# Created on    : 09/19/2023 17:20:53
#------------------------------------------------------------------------------
~Version Information Section
VERS.           2.0     :   CWLS log ASCII Standard - VERSION 2.0
WRAP.           NO      :   One line per depth step
~Well Information Section
#MNEM       .UNIT                                         VALUE :DESCRIPTION
#------------------------------------------------------------------------------
STRT        .FT                                             875 :START DEPTH
STOP        .FT                                            6380 :STOP DEPTH
STEP        .FT                                             0.5 :STEP      
NULL        .                                           -999.25 :NULL      
COMP        .                       ENERGY DEVELOPMENT CORP N J :COMPANY   
WELL        .                                   STATE TRACT 241 :WELL      
FLD         .                                           WILDCAT :FIELD     
LOC         .                                                   :LOCATION  
CNTY        .                                           CALHOUN :LOCATION  
STAT        .                                             TEXAS :STATE     
CTRY        .                                     UNITED STATES :COUNTRY   
SRVC        .                                                   :SERVICE COMPANY
DATE        .                             9/13/2023 11:19:11 AM :LOG DATE  
API         .                                    42057314130000 :API NUMBER
UWI         .                                    42057314130000 :UNIQUE WELL ID
XCOORD      .                                  544841.599058466 :SURFACE X 
YCOORD      .                                   10330281.839261 :SURFACE Y 
LAT         .                                        28.4235103 :LATITUDE  
LON         .                                       -96.4085418 :LONGITUDE 
ELEV        .FT                                              34 :ELEVATION VALUE
ELEV_TYPE   .                                                KB :ELEVATION REFERENCE TYPE
~Curve Information Section
#MNEM       .UNIT                                      API CODE :CURVE DESCRIPTION
#------------------------------------------------------------------------------
DEPT        .FT                                                 :DEPTH     
ASN         .OHMM                                               :          
DCAL        .IN                                                 :          
DPHI        .V/V                                                :          
DRHO        .G/CC                                               :          
GR          .GAPI                                               :          
GR_NORM     .GAPI                                               :GammaRay Normalized
ILD         .OHMM                                               :          
ILD_LNR     .OHMM                                               :          
ILM         .OHMM                                               :          
NPHI        .V/V                                                :          
SFLU        .OHMM                                               :          
SP          .MV                                                 :          
SP_NORM     .MV                                                 :SP Normalized
TENS        .LB                                                 :          
VSH_GR      .V/V                                                :Volume of Shale from GR
VSH_SP      .V/V                                                :Volume of Shale from SP
~A        DEPTH            ASN           DCAL           DPHI           DRHO             GR        GR_NORM            ILD        ILD_LNR            ILM           NPHI           SFLU             SP        SP_NORM           TENS         VSH_GR         VSH_SP
# ...
      1611.0000         0.6191         7.8097         0.3794        -0.0065        66.9802       75.73712         0.6905         0.8313         0.6629         0.4782         0.6193       -26.9307      -2.766008       921.5686      0.9093004       0.985547
      1611.5000          0.619         7.7354         0.3858        -0.0152         65.495       73.78246         0.6905          0.831         0.6629         0.4978         0.6165       -27.5248      -3.369589       921.5686       0.867712      0.9741587
      1612.0000          0.619         7.7006         0.3916        -0.0249        63.7129       71.44753         0.6905         0.8308         0.6629         0.5038         0.6165       -27.5248       -3.37907       921.5686      0.8180324      0.9739798
      1612.5000          0.619         7.6832          0.398        -0.0287        59.2647        65.6978         0.6905         0.8306         0.6629         0.4889          0.625       -27.5248      -3.388552       921.5686      0.6956978      0.9738009
      1613.0000         0.6189         7.6634         0.3986        -0.0297        56.7647       62.44336         0.6905         0.8304         0.6629         0.4681         0.6307       -27.7228      -3.596033       931.3725      0.6264545      0.9698862
      1613.5000         0.6248         7.6634         0.3915        -0.0277        59.2647       65.59304         0.6905         0.8301         0.6629         0.4592         0.6422       -27.3267      -3.209415       931.3725      0.6934689      0.9771808
      1614.0000         0.6248         7.6436         0.3814        -0.0208        61.0396         67.814         0.6905         0.8001         0.6629         0.4628         0.6278       -25.9406      -1.832796       931.3725      0.7407233              1
      1614.5000         0.6307         7.6238         0.3743        -0.0198        63.4158       70.80509         0.6905         0.7998          0.672         0.4788         0.6193       -24.7525     -0.6541767       931.3725      0.8043637              1
      1615.0000         0.6307          7.604         0.3719        -0.0208        65.7921       73.79634         0.6905         0.7996         0.6751         0.4871         0.6278       -24.1584    -0.06955719       931.3725      0.8680072              1
      1615.5000         0.6306          7.604         0.3743        -0.0228        66.0891       74.12438         0.6905         0.7695         0.6751         0.4889          0.651       -24.1584    -0.07903862       931.3725      0.8749868              1
      1616.0000         0.6306         7.5842         0.3772        -0.0248        65.9406       73.88177         0.6905         0.7556         0.6751         0.4949         0.6659       -24.1584    -0.08852005       931.3725       0.869825              1
      1616.5000         0.6306         7.5644         0.3784        -0.0228        67.1287       75.35116         0.6937         0.7392         0.6751         0.4913         0.6629       -23.7624      0.2979984       931.3725      0.9010885              1
      1617.0000         0.6305         7.5446          0.379        -0.0238         69.802       78.72279         0.6968          0.739         0.6781         0.4711          0.651       -23.9604     0.09051704       931.3725      0.9728254              1
      1617.5000         0.6305         7.5446          0.382        -0.0228        70.6931       79.81175         0.7032         0.7388         0.6781         0.4574         0.6393       -24.5545     -0.5130653       931.3725      0.9959947              1
      1618.0000         0.6304         7.5248          0.385        -0.0218        68.9109        77.4767         0.7032         0.7175         0.6781         0.4598         0.6278       -25.5446      -1.512646       931.3725      0.9463128              1
      1618.5000         0.6304         7.4653         0.3879        -0.0188        66.9802       74.95145         0.7065         0.7085         0.6781         0.4819         0.6165       -24.5545     -0.5320282       931.3725       0.892584              1
      1619.0000         0.6304         7.4653         0.3903        -0.0188        66.5347       74.32845         0.7097         0.7083         0.6781         0.5087          0.611       -23.7624      0.2505913       931.3725      0.8793288              1
      1619.5000         0.6303         7.4455         0.3915        -0.0178        66.3861       74.08574          0.713         0.7081         0.6812         0.5327         0.6055       -24.1584     -0.1548901       931.3725      0.8741646              1
      1620.0000         0.6315         7.4059         0.3915        -0.0188         65.495       72.89204          0.713          0.678         0.6812         0.5453         0.6055       -24.5545     -0.5604725       931.3725      0.8487667              1
      1620.5000         0.6362         7.3861         0.3915        -0.0228        63.4327       70.19821          0.713         0.6778         0.6812         0.5388         0.6082       -22.3762       1.608347       930.1471      0.7914513              1
      1621.0000         0.6421         7.3663         0.3909        -0.0257        62.2771       68.66572          0.713         0.6775         0.6812         0.5204         0.6165       -21.7822       2.192865       927.6961      0.7588451              1
      1621.5000         0.6421         7.3267         0.3844        -0.0267        61.1269       67.14014          0.713         0.6773         0.6843          0.502         0.6278       -21.7822       2.183386       925.2451      0.7263859              1
      1622.0000         0.6445         7.3069         0.3796        -0.0287         62.191       68.45068          0.713         0.6771         0.6843         0.5014         0.6393       -21.5842       2.371904       922.7941      0.7542697              1
      1622.5000          0.648         7.2673         0.3867        -0.0317        63.8235       70.48924         0.7097         0.6769         0.6843         0.5055          0.651       -21.3861       2.560522       921.5686      0.7976435              1
      1623.0000          0.642         7.2475         0.3945        -0.0356        64.2647       71.00196         0.7097         0.6766         0.6843          0.499         0.6599       -21.1881       2.749041       921.5686      0.8085524              1
      1623.5000         0.6419         7.2277         0.4022        -0.0366        64.5588       71.32627         0.7097         0.6764         0.6843         0.4883         0.6629       -20.5941       3.333559       921.5686      0.8154526              1
      1624.0000         0.6381         7.1881         0.3986        -0.0327        64.8529       71.65059         0.7032         0.6762         0.6751         0.4722         0.6481            -20       3.918179       921.5686      0.8223529              1
      1624.5000         0.6299         7.1683          0.395        -0.0238        66.3235       73.48177         0.6968         0.6759         0.6599          0.468         0.6307          -19.6       4.308697       921.5686      0.8613144              1
      1625.0000          0.618         7.1485         0.3956        -0.0228        69.4118       77.38495         0.6843         0.6758         0.6451           0.48         0.6138          -19.2       4.699215       921.5686      0.9443606              1
      1625.5000         0.6146         7.1089         0.4022        -0.0218        73.9706       83.17159          0.672         0.6755         0.6307         0.4966            0.6            -19       4.889734       921.5686              1              1
      1626.0000          0.606         7.0891         0.4057        -0.0228        75.4455        85.0083         0.6599         0.6753         0.6193         0.5228         0.5838          -18.8       5.080254       921.5686              1              1
      1626.5000          0.599         7.0495         0.4046        -0.0228        75.1485       84.57551         0.6481         0.6751         0.6082          0.537         0.5707          -18.8       5.070772       921.5686              1              1
