#------------------------------------------------------------------------------
# Created by    : vladimir.rabinovich
# Created on    : 09/19/2023 17:22:27
#------------------------------------------------------------------------------
~Version Information Section
VERS.           2.0     :   CWLS log ASCII Standard - VERSION 2.0
WRAP.           NO      :   One line per depth step
~Well Information Section
#MNEM       .UNIT                                         VALUE :DESCRIPTION
#------------------------------------------------------------------------------
STRT        .FT                                          1344.5 :START DEPTH
STOP        .FT                                            6047 :STOP DEPTH
STEP        .FT                                             0.5 :STEP      
NULL        .                                           -999.25 :NULL      
COMP        .                      HIGHLAND RESOURCES-G R BROWN :COMPANY   
WELL        .                                         ST TR 234 :WELL      
FLD         .                                           WILDCAT :FIELD     
LOC         .                                                   :LOCATION  
CNTY        .                                           CALHOUN :LOCATION  
STAT        .                                             TEXAS :STATE     
CTRY        .                                     UNITED STATES :COUNTRY   
SRVC        .                                                   :SERVICE COMPANY
DATE        .                             9/13/2023 11:18:59 AM :LOG DATE  
API         .                                    42057308440000 :API NUMBER
UWI         .                                    42057308440000 :UNIQUE WELL ID
XCOORD      .                                  538656.561995839 :SURFACE X 
YCOORD      .                                  10324779.5220427 :SURFACE Y 
LAT         .                                        28.4079151 :LATITUDE  
LON         .                                       -96.4272693 :LONGITUDE 
ELEV        .FT                                              14 :ELEVATION VALUE
ELEV_TYPE   .                                                KB :ELEVATION REFERENCE TYPE
~Curve Information Section
#MNEM       .UNIT                                      API CODE :CURVE DESCRIPTION
#------------------------------------------------------------------------------
DEPT        .FT                                                 :DEPTH     
CILD        .MMHO                                               :          
DT          .US/F                                               :          
RILD        .OHMM                                               :          
SFL         .OHMM                                               :          
SP          .MV                                                 :          
SP_NORM     .MV                                                 :SP Normalized
VSH_SP      .V/V                                                :Volume of Shale from SP
~A        DEPTH           CILD             DT           RILD            SFL             SP        SP_NORM         VSH_SP
# ...
      5063.0000        984.155       134.3441         1.0161         1.1146       163.9213       1.378708              1
      5063.5000       984.0583        142.169         1.0162         1.0854       164.2363       1.536362              1
      5064.0000       981.6432       147.5491         1.0187         1.0577        164.247       1.389725              1
      5064.5000       976.9442       147.0025         1.0236         1.0239       164.0706       1.055984              1
      5065.0000       956.1144       146.0074         1.0459         1.0011       163.6564      0.4844513              1
      5065.5000       927.5577       146.4646         1.0781         1.0059       163.6699      0.3406219              1
      5066.0000       890.7892       146.2583         1.1226         1.0278       163.6792      0.1925659              1
      5066.5000       868.5834       145.2302         1.1513          1.047       163.6901     0.04612732              1
      5067.0000       841.6091       144.6106         1.1882         1.0662       163.5276     -0.2737122              1
      5067.5000       827.5405       143.9366         1.2084         1.0884       163.0528     -0.9058533              1
      5068.0000       805.9966        142.456         1.2407         1.1083       162.5025      -1.569351      0.9923061
      5068.5000       784.4368       140.1796         1.2748         1.1409       162.5115      -1.560349      0.9924277
      5069.0000       764.9939       136.3061         1.3072         1.1776       162.5227      -1.549149      0.9925791
      5069.5000        745.879       133.1241         1.3407         1.2077       162.5329      -1.538956      0.9927168
      5070.0000       738.4979       129.7912         1.3541         1.2346       162.5773      -1.494553      0.9933168
      5070.5000       730.0869       127.2946         1.3697         1.2671       162.8618      -1.210052      0.9971614
      5071.0000       721.9174        125.752         1.3852         1.2903       163.2649     -0.8069611              1
      5071.5000       713.7759       124.4634          1.401         1.3086       163.4927     -0.5791473              1
      5072.0000       709.4714       122.8748         1.4095         1.3216       163.5026     -0.5692596              1
      5072.5000       709.4211       121.0785         1.4096         1.3259       163.5129       -0.55896              1
      5073.0000       709.3204       119.3952         1.4098         1.3201       163.0188      -1.053055       0.999283
      5073.5000       711.8451        118.308         1.4048         1.3148       162.6171      -1.454758      0.9938546
      5074.0000       720.3573       119.0724         1.3882         1.3078       163.2413     -0.8305511              1
      5074.5000       734.6459        120.039         1.3612         1.3013       163.9915    -0.08035278              1
      5075.0000       745.0454       120.6029         1.3422         1.2955       164.7978      0.7259521              1
      5075.5000       744.9344       120.4466         1.3424         1.2842       165.4097       1.337845              1
      5076.0000       747.3283       120.6535         1.3381         1.2765       165.1138       1.041946              1
      5076.5000       755.4011       122.8804         1.3238         1.2637       165.1273        1.05545              1
      5077.0000       758.7253       126.2673          1.318         1.2463       165.1366       1.064743              1
      5077.5000       768.4623        129.344         1.3013         1.2292       165.1475       1.075653              1
      5078.0000       787.8979        131.406         1.2692         1.2109        165.158       1.086151              1
      5078.5000       797.9572       133.3513         1.2532         1.1889       165.1687       1.096848              1
      5079.0000       816.1267       134.2289         1.2253         1.1663       165.1812       1.109344              1
      5079.5000       825.2187       134.9894         1.2118         1.1589        165.597       1.525146              1
      5080.0000       841.3967       136.3953         1.1885          1.164       166.1175       2.045639              1
      5080.5000       863.3342       138.7655         1.1583         1.1726         166.59       2.518143              1
      5081.0000       881.9897       140.6909         1.1338         1.1742       167.0862       3.014343              1
      5081.5000       907.0295          141.8         1.1025         1.1742       167.6779       3.606049              1
      5082.0000       936.6804       142.9035         1.0676         1.1711       167.6866       3.614746              1
      5082.5000       976.3718       143.1806         1.0242         1.1479       167.6981       3.626251              1
      5083.0000       1022.599       143.0872         0.9779         1.1008        167.708       3.655243              1
      5083.5000       1050.862       143.2875         0.9516         1.0632       167.7184       3.862961              1
      5084.0000       1089.562       143.8987         0.9178         1.0188       167.4241       3.765976              1
      5084.5000       1135.589       145.2066         0.8806          0.982       167.0568       3.595978              1
      5085.0000       1179.384       146.5631         0.8479         0.9418       166.5307       3.267197              1
      5085.5000       1222.195       147.2377         0.8182         0.9009       165.9785       2.912323              1
      5086.0000        1228.35       147.7275         0.8141         0.8759       165.0176       2.148727              1
      5086.5000       1193.887       147.3683         0.8376         0.8688       164.2405       1.568939              1
      5087.0000        1158.48       146.3266         0.8632          0.902       163.4014      0.9271545              1
      5087.5000         1112.1       145.6863         0.8992         0.9498       162.3098     0.03286743              1
      5088.0000       1058.537       145.2271         0.9447         0.9806       161.3656     -0.7140198              1
      5088.5000       1007.861       144.9478         0.9922         1.0294       160.1926      -1.689713      0.9906796
      5089.0000       951.5654       144.1934         1.0509         1.0825       159.1178        -2.5672      0.9788216
      5089.5000       926.7841       142.9454          1.079         1.1028        158.643      -2.844681      0.9750719
      5090.0000        905.387       141.6798         1.1045         1.1236       158.3925      -2.897858      0.9743533
      5090.5000       901.8759       140.3721         1.1088         1.1409       158.4032       -2.68985      0.9771642
      5091.0000       898.8765       139.2495         1.1125         1.1681       158.4145      -2.481232      0.9799833
      5091.5000       905.1412       138.7436         1.1048          1.182       158.8851      -1.813324      0.9890091
      5092.0000       928.3326       137.8615         1.0772         1.1926       159.3515      -1.149612      0.9979782
      5092.5000       964.4131       137.0943         1.0369         1.1827       159.3643     -0.9394989              1
      5093.0000       1015.847       135.9611         0.9844         1.1529       159.3729     -0.7335968              1
      5093.5000       1067.464       135.0858         0.9368          1.124       159.3845     -0.5246735              1
      5094.0000       1136.493       134.4711         0.8799         1.0868       158.8079     -0.9039459              1
      5094.5000       1212.562       136.3107         0.8247         1.0383       157.4791      -2.035446      0.9860075
      5095.0000       1288.328       135.8396         0.7762         0.9847       154.5749      -4.742325       0.949428
      5095.5000       1344.628         132.88         0.7437         0.9439       151.6716      -7.448318      0.9128606
      5096.0000       1412.429       129.9506          0.708         0.9184       144.7819       -14.1407       0.822423
