#------------------------------------------------------------------------------
# Created by    : vladimir.rabinovich
# Created on    : 09/19/2023 17:22:27
#------------------------------------------------------------------------------
~Version Information Section
VERS.           2.0     :   CWLS log ASCII Standard - VERSION 2.0
WRAP.           NO      :   One line per depth step
~Well Information Section
#MNEM       .UNIT                                         VALUE :DESCRIPTION
#------------------------------------------------------------------------------
STRT        .FT                                          1344.5 :START DEPTH
STOP        .FT                                            6047 :STOP DEPTH
STEP        .FT                                             0.5 :STEP      
NULL        .                                           -999.25 :NULL      
COMP        .                      HIGHLAND RESOURCES-G R BROWN :COMPANY   
WELL        .                                         ST TR 234 :WELL      
FLD         .                                           WILDCAT :FIELD     
LOC         .                                                   :LOCATION  
CNTY        .                                           CALHOUN :LOCATION  
STAT        .                                             TEXAS :STATE     
CTRY        .                                     UNITED STATES :COUNTRY   
SRVC        .                                                   :SERVICE COMPANY
DATE        .                             9/13/2023 11:18:59 AM :LOG DATE  
API         .                                    42057308440000 :API NUMBER
UWI         .                                    42057308440000 :UNIQUE WELL ID
XCOORD      .                                  538656.561995839 :SURFACE X 
YCOORD      .                                  10324779.5220427 :SURFACE Y 
LAT         .                                        28.4079151 :LATITUDE  
LON         .                                       -96.4272693 :LONGITUDE 
ELEV        .FT                                              14 :ELEVATION VALUE
ELEV_TYPE   .                                                KB :ELEVATION REFERENCE TYPE
~Curve Information Section
#MNEM       .UNIT                                      API CODE :CURVE DESCRIPTION
#------------------------------------------------------------------------------
DEPT        .FT                                                 :DEPTH     
CILD        .MMHO                                               :          
DT          .US/F                                               :          
RILD        .OHMM                                               :          
SFL         .OHMM                                               :          
SP          .MV                                                 :          
SP_NORM     .MV                                                 :SP Normalized
VSH_SP      .V/V                                                :Volume of Shale from SP
~A        DEPTH           CILD             DT           RILD            SFL             SP        SP_NORM         VSH_SP
# ...
      5364.5000       4140.787       118.4928         0.2415         0.8473        80.2266      -78.51453              0
      5365.0000       4187.604       118.4889         0.2388         0.8665        80.0881      -78.62524              0
      5365.5000       4215.852       118.5456         0.2372         0.8856        80.0955      -78.59005              0
      5366.0000       4214.075       119.2512         0.2373         0.9083        80.8912      -77.76655              0
      5366.5000       4184.101       119.8819          0.239         0.9074        81.6334      -76.99656              0
      5367.0000        4116.92        119.283         0.2429         0.8674        82.3937      -76.20846              0
      5367.5000       3979.307       117.7054         0.2513         0.8263        83.2084      -75.36597              0
      5368.0000       3770.739       117.0884         0.2652         0.7951        83.9867      -74.55987    0.005947731
      5368.5000       3580.379       116.7779         0.2793         0.8051        85.1611      -73.35768      0.0221935
      5369.0000       3312.355       116.8536         0.3019         0.8293        86.8539      -71.63708      0.0454448
      5369.5000       3078.818       118.7136         0.3248         0.8446        88.2827       -70.1805     0.06512843
      5370.0000       2895.194       120.0004         0.3454         0.8563        89.9204      -68.51499     0.08763525
      5370.5000       2662.407       119.5814         0.3756         0.8654        90.8977      -67.50991      0.1012174
      5371.0000       2522.068       116.7625         0.3965         0.8614        91.5679       -66.8119      0.1106499
      5371.5000       2584.647       114.5251         0.3869         0.8576        92.3797      -65.97232      0.1219957
      5372.0000       2560.164       114.1453         0.3906         0.8532        92.3848      -65.93941      0.1224403
      5372.5000        2548.42       116.8643         0.3924         0.8469        92.3909      -65.90553      0.1228982
      5373.0000       2575.328       116.0024         0.3883         0.8431        92.3966      -65.87203      0.1233509
      5373.5000       2583.979        113.982          0.387         0.8375        92.8228      -65.41805      0.1294859
      5374.0000       2511.932       114.3573         0.3981         0.8287        95.4629      -62.75014      0.1655386
      5374.5000       2443.196       117.3556         0.4093         0.8191        99.0466      -59.13866      0.2143425
      5375.0000        2323.42       119.7118         0.4304         0.8104       104.6343      -53.52316      0.2902276
      5375.5000       2189.142       120.2684         0.4568         0.7971       109.1583      -48.97135      0.3517385
      5376.0000       2119.093       117.9604         0.4719         0.7798       111.9739      -46.12797      0.3901626
      5376.5000        2153.78       114.2883         0.4643         0.7628       111.3781      -46.69597      0.3824869
      5377.0000       2261.932        112.271         0.4421         0.7409       106.8943      -51.15198      0.3222706
      5377.5000       2423.068       113.4984         0.4127          0.718        99.1678      -58.85068      0.2182341
      5378.0000       2564.103       115.3779           0.39         0.6911        94.0405       -63.9502      0.1493217
      5378.5000       2774.695        116.107         0.3604         0.6715        90.3174      -67.64549     0.09938524
      5379.0000         3001.2       117.0394         0.3332         0.6572        89.3528      -68.58231     0.08672559
      5379.5000       3242.542       118.5535         0.3084         0.6476        89.4197       -68.4876     0.08800538
      5380.0000       3449.465       117.6835         0.2899          0.633        89.4265      -68.45302     0.08847272
      5380.5000       3479.471       116.5462         0.2874          0.644        89.5434      -68.30831     0.09042823
      5381.0000       3377.238       116.5841         0.2961         0.6689        89.7429      -68.08103     0.09349957
      5381.5000       3252.032         117.72         0.3075         0.7187         90.054      -67.74213     0.09807937
      5382.0000        3061.85       120.3814         0.3266         0.7737        90.0197      -67.74864     0.09799132
      5382.5000       2910.361       120.8755         0.3436         0.8157        89.4561      -68.28444     0.09075082
      5383.0000       2881.844       120.3756          0.347         0.8667        88.2609      -69.45185     0.07497499
      5383.5000       2848.191       119.8074         0.3511         0.9165        86.4138      -71.27115     0.05038988
      5384.0000        2869.44       119.0953         0.3485         0.9786        83.5468      -74.11037     0.01202207
      5384.5000       2957.705       118.2153         0.3381         1.0465        79.8994      -77.72997              0
      5385.0000        3077.87       117.2456         0.3249         1.1444        77.8839      -79.71767              0
      5385.5000       3164.557        116.059          0.316         1.2569        76.2802      -81.29358              0
      5386.0000       3279.764       115.5953         0.3049         1.3364        73.6191      -83.92689              0
      5386.5000       3408.316       116.5953         0.2934         1.3744        72.1407      -85.37749              0
      5387.0000       3548.616       117.9516         0.2818         1.4165        72.1035       -85.3869              0
      5387.5000       3629.764          119.2         0.2755         1.4618        72.1095       -85.3531              0
      5388.0000       3679.176       119.8838         0.2718         1.4587        72.4207      -85.01411              0
      5388.5000       3724.395       120.4771         0.2685         1.3772        72.4274      -84.97961              0
      5389.0000       3800.836       121.1154         0.2631          1.288        72.3187      -85.06052              0
      5389.5000       3913.895       121.6003         0.2555         1.2329        71.8278      -85.52363              0
      5390.0000       4003.203       121.7155         0.2498         1.1835        71.5282      -85.79544              0
      5390.5000       4093.328       121.0972         0.2443          1.138        71.9247      -85.37114              0
      5391.0000       4168.404        120.824         0.2399          1.097        73.0678      -84.20023              0
      5391.5000       4251.701       120.6305         0.2352         1.0616        73.5711      -83.66915              0
      5392.0000       4380.201       121.0376         0.2283         1.0306        74.3003      -82.91215              0
      5392.5000        4446.42       121.5464         0.2249          1.008        74.7622      -82.42246              0
      5393.0000       4585.053       120.9281         0.2181         0.9797        75.5582      -81.59866              0
      5393.5000       4766.444       120.4647         0.2098         0.9491        75.8443      -81.28477              0
      5394.0000        4847.31       120.7687         0.2063         0.9113        76.5399      -80.56137              0
      5394.5000       4833.253       121.6088         0.2069         0.8755         77.078      -79.99548              0
      5395.0000       4657.662       122.4526         0.2147         0.8477        78.3999      -78.64578              0
      5395.5000       4288.165        121.209         0.2332         0.8269        79.8695       -77.1484              0
      5396.0000       3853.565       114.3552         0.2595         0.8104        82.0019       -74.9882   0.0001594956
      5396.5000       3404.835       102.9344         0.2937         0.7951        85.1115      -71.85081     0.04255666
      5397.0000       2763.194        99.1786         0.3619         0.8187         96.039      -60.89551      0.1906012
      5397.5000       2154.708        94.7387         0.4641         0.8881       110.2426      -46.66412      0.3829173
