#------------------------------------------------------------------------------
# Created by    : vladimir.rabinovich
# Created on    : 09/19/2023 17:20:53
#------------------------------------------------------------------------------
~Version Information Section
VERS.           2.0     :   CWLS log ASCII Standard - VERSION 2.0
WRAP.           NO      :   One line per depth step
~Well Information Section
#MNEM       .UNIT                                         VALUE :DESCRIPTION
#------------------------------------------------------------------------------
STRT        .FT                                             875 :START DEPTH
STOP        .FT                                            6380 :STOP DEPTH
STEP        .FT                                             0.5 :STEP      
NULL        .                                           -999.25 :NULL      
COMP        .                       ENERGY DEVELOPMENT CORP N J :COMPANY   
WELL        .                                   STATE TRACT 241 :WELL      
FLD         .                                           WILDCAT :FIELD     
LOC         .                                                   :LOCATION  
CNTY        .                                           CALHOUN :LOCATION  
STAT        .                                             TEXAS :STATE     
CTRY        .                                     UNITED STATES :COUNTRY   
SRVC        .                                                   :SERVICE COMPANY
DATE        .                             9/13/2023 11:19:11 AM :LOG DATE  
API         .                                    42057314130000 :API NUMBER
UWI         .                                    42057314130000 :UNIQUE WELL ID
XCOORD      .                                  544841.599058466 :SURFACE X 
YCOORD      .                                   10330281.839261 :SURFACE Y 
LAT         .                                        28.4235103 :LATITUDE  
LON         .                                       -96.4085418 :LONGITUDE 
ELEV        .FT                                              34 :ELEVATION VALUE
ELEV_TYPE   .                                                KB :ELEVATION REFERENCE TYPE
~Curve Information Section
#MNEM       .UNIT                                      API CODE :CURVE DESCRIPTION
#------------------------------------------------------------------------------
DEPT        .FT                                                 :DEPTH     
ASN         .OHMM                                               :          
DCAL        .IN                                                 :          
DPHI        .V/V                                                :          
DRHO        .G/CC                                               :          
GR          .GAPI                                               :          
GR_NORM     .GAPI                                               :GammaRay Normalized
ILD         .OHMM                                               :          
ILD_LNR     .OHMM                                               :          
ILM         .OHMM                                               :          
NPHI        .V/V                                                :          
SFLU        .OHMM                                               :          
SP          .MV                                                 :          
SP_NORM     .MV                                                 :SP Normalized
TENS        .LB                                                 :          
VSH_GR      .V/V                                                :Volume of Shale from GR
VSH_SP      .V/V                                                :Volume of Shale from SP
~A        DEPTH            ASN           DCAL           DPHI           DRHO             GR        GR_NORM            ILD        ILD_LNR            ILM           NPHI           SFLU             SP        SP_NORM           TENS         VSH_GR         VSH_SP
# ...
      5979.0000          1.381        -0.0594         0.3291        -0.0327        50.3137        39.4113         0.4977         0.5257         0.5452         0.3796          2.378       -74.2041      -67.63153       1931.373      0.1364107     0.07456207
      5979.5000         1.2378        -0.0792         0.3321        -0.0347        51.2145       40.49815         0.4074         0.3754          0.467         0.3754         1.2931       -78.3024      -71.72378       1901.961       0.159535     0.01772531
      5980.0000         1.1152        -0.0594         0.3345        -0.0366        51.3782       40.69755         0.3307         0.2894         0.4018         0.3665         1.0374       -81.2114      -74.62673       1901.961      0.1637776              0
      5980.5000         1.0609        -0.0594         0.3386        -0.0386        51.5347       40.88828         0.2702         0.1907         0.3529         0.3642         1.0092       -81.5842      -74.99348       1901.961      0.1678356              0
      5981.0000         1.0587        -0.0594         0.3392        -0.0386        51.8317       41.24817         0.2433         0.1516         0.3338         0.3618         1.0422       -81.5842      -74.98743       1901.961       0.175493              0
      5981.5000         1.0659        -0.0594         0.3398        -0.0376        52.4257       41.96564         0.2282         0.1084         0.3142         0.3719         1.0812       -81.5842      -74.98139       1901.961      0.1907582              0
      5982.0000         1.0734        -0.0396         0.3362        -0.0327        53.1683       42.86202         0.2132         0.1079         0.2986         0.3766         1.1165       -81.9802      -75.37135       1901.961      0.2098303              0
      5982.5000         1.0762        -0.0198         0.3321        -0.0257        54.2079       44.11598         0.2074         0.1073         0.2893         0.3855         1.1529       -82.3762      -75.76129       1901.961      0.2365102              0
      5983.0000         1.0679              0         0.3285        -0.0248         55.396       45.54873         0.1991         0.1283         0.2866         0.3743         1.1476       -82.7723      -76.15135       1901.961      0.2669942              0
      5983.5000         1.0138         0.0196         0.3214        -0.0257        56.1386       46.44511         0.2028         0.1661         0.2866          0.338         1.1268       -81.1881       -74.5611       1901.961      0.2860661              0
      5984.0000         0.9018         0.0588         0.3036        -0.0218             60       51.09644         0.2151         0.2039         0.2893         0.3107         1.0861       -76.8627      -70.22966       1901.961      0.3850305     0.03847694
      5984.5000         0.8672         0.0784           0.25        -0.0109        64.8529        56.9415         0.2523         0.2418         0.2986         0.2906         1.0327       -70.7843      -64.14521       1901.961      0.5093936      0.1229832
      5985.0000         0.8975         0.1765         0.1782              0        69.8529       62.96367         0.3056         0.2833         0.3246         0.2782         0.8563       -61.1765      -54.53136       1901.961       0.637525      0.2565089
      5985.5000         0.9721         0.3529         0.1455          0.003        70.1471       63.32019         0.3714         0.3522         0.3963         0.2741         0.6905       -48.5149      -41.86372       1901.961      0.6451104      0.4324484
      5986.0000         1.0516         0.6078         0.1485        -0.0158        68.9706       61.90603         0.4462          0.415         0.5046         0.2741         0.5946       -35.4455      -28.78827       1901.961      0.6150219      0.6140518
      5986.5000         1.1431         0.6667         0.1741        -0.0317        67.9412       60.66897         0.5354         0.4748         0.6335           0.28         0.8447       -26.7327      -20.06942       1901.961      0.5887014      0.7351469
      5987.0000         1.2073         0.4706         0.2265        -0.0396        67.6471        60.3172         0.6422         0.5212         0.7432         0.2953         1.2408       -28.3168      -21.64747       1901.961      0.5812169      0.7132295
      5987.5000         1.2713         0.1373         0.2712        -0.0327        71.3235       64.74579         0.7711         0.5975         0.8759         0.3048         1.7268       -33.6634      -26.98803       1901.961      0.6754423      0.6390552
      5988.0000         1.3759          0.098         0.2947        -0.0149        75.4455       69.71088         0.9293         0.6737         0.8879         0.3214         2.3245        -40.396      -33.71458       1901.961      0.7810825      0.5456308
      5988.5000         1.6276         0.1373         0.2794         0.0149        79.0099       74.00462         0.9041         0.7567         0.8371         0.3327         2.7891       -47.3267      -40.63923       1901.961      0.8724386      0.4494551
      5989.0000          1.511         0.2745           0.25         0.0436        79.7525       74.90101         0.8719         0.8315          0.789         0.3463         2.3672       -48.5149      -41.82139       1911.765      0.8915108      0.4330363
      5989.5000          1.337         0.6471         0.2124         0.0832        78.2673       73.11518         0.8409           0.96         0.7432         0.3558         1.7032       -37.2277      -30.52814       1911.765      0.8535145      0.5898869
      5990.0000         1.3744         0.9216         0.1906         0.0861        77.8218       72.58111         0.8183          1.113         0.7364         0.3689         1.2238       -27.5248      -20.81919       1911.765      0.8421512      0.7247334
      5990.5000         1.4743         1.0392         0.1865         0.0277        78.5644        73.4775         0.8447         1.2043         0.8073         0.3642         0.8601          -19.4      -12.68835       1911.765      0.8612234      0.8376619
      5991.0000         1.5871              1         0.1829          0.001        79.0099       74.01617         0.9552         1.2806         0.9336          0.344         0.9774          -14.6      -7.882301       1911.765      0.8726845      0.9044125
      5991.5000         1.6466         0.9608         0.1812        -0.0129        80.0495       75.27014         1.0812         1.3385         1.0762         0.3119         1.4977          -12.4      -5.676253       1911.765      0.8993647       0.935052
      5992.0000         1.6404         0.9216         0.1871        -0.0139        81.2376       76.70288         1.2182         1.3793         1.1689         0.3053         1.9636          -11.6      -4.870207       1911.765      0.9298486      0.9462471
      5992.5000         1.6022         0.9791         0.2065        -0.0119        82.7228       78.49333         1.3415         1.3787         1.2408         0.3184         2.4439          -11.6       -4.86416       1911.765      0.9679433      0.9463311
      5993.0000         1.4913         0.9963         0.2106        -0.0099        83.4653        79.3896          1.379         1.3781         1.3111         0.3364         2.1808          -12.2      -5.458113       1911.765      0.9870127      0.9380817
      5993.5000         1.3385         0.9938         0.2118        -0.0089        83.7624        79.7496          1.411         1.3774         1.3477         0.3496         1.7914            -13      -6.252066       1911.765      0.9946724      0.9270546
      5994.0000         1.2496         1.0902         0.2118        -0.0089        83.9109       79.93069         1.3726         1.3755         1.3171         0.3563         1.5046          -13.6      -6.846019       1911.765      0.9985254      0.9188053
      5994.5000         1.2406         1.2079         0.2124        -0.0149        83.1683       79.03894         1.3292         1.3364         1.2991         0.3564         1.2295          -12.4      -5.639972       1911.765      0.9795519      0.9355559
