#------------------------------------------------------------------------------
# Created by    : vladimir.rabinovich
# Created on    : 09/19/2023 17:22:27
#------------------------------------------------------------------------------
~Version Information Section
VERS.           2.0     :   CWLS log ASCII Standard - VERSION 2.0
WRAP.           NO      :   One line per depth step
~Well Information Section
#MNEM       .UNIT                                         VALUE :DESCRIPTION
#------------------------------------------------------------------------------
STRT        .FT                                          1344.5 :START DEPTH
STOP        .FT                                            6047 :STOP DEPTH
STEP        .FT                                             0.5 :STEP      
NULL        .                                           -999.25 :NULL      
COMP        .                      HIGHLAND RESOURCES-G R BROWN :COMPANY   
WELL        .                                         ST TR 234 :WELL      
FLD         .                                           WILDCAT :FIELD     
LOC         .                                                   :LOCATION  
CNTY        .                                           CALHOUN :LOCATION  
STAT        .                                             TEXAS :STATE     
CTRY        .                                     UNITED STATES :COUNTRY   
SRVC        .                                                   :SERVICE COMPANY
DATE        .                             9/13/2023 11:18:59 AM :LOG DATE  
API         .                                    42057308440000 :API NUMBER
UWI         .                                    42057308440000 :UNIQUE WELL ID
XCOORD      .                                  538656.561995839 :SURFACE X 
YCOORD      .                                  10324779.5220427 :SURFACE Y 
LAT         .                                        28.4079151 :LATITUDE  
LON         .                                       -96.4272693 :LONGITUDE 
ELEV        .FT                                              14 :ELEVATION VALUE
ELEV_TYPE   .                                                KB :ELEVATION REFERENCE TYPE
~Curve Information Section
#MNEM       .UNIT                                      API CODE :CURVE DESCRIPTION
#------------------------------------------------------------------------------
DEPT        .FT                                                 :DEPTH     
CILD        .MMHO                                               :          
DT          .US/F                                               :          
RILD        .OHMM                                               :          
SFL         .OHMM                                               :          
SP          .MV                                                 :          
SP_NORM     .MV                                                 :SP Normalized
VSH_SP      .V/V                                                :Volume of Shale from SP
~A        DEPTH           CILD             DT           RILD            SFL             SP        SP_NORM         VSH_SP
# ...
      4761.5000       1013.582       146.7266         0.9866         0.9285       159.5705      0.2890472              1
      4762.0000       1013.479       146.6092         0.9867         0.9488       159.0436      -0.237854              1
      4762.5000       1013.377       145.8659         0.9868         0.9682       159.1793     -0.1021423              1
      4763.0000       1013.274       144.5169         0.9869          0.976       159.9767      0.6952515              1
      4763.5000       1013.171       143.5588          0.987         0.9821       160.2868       1.005356              1
      4764.0000       1012.966       143.2389         0.9872         0.9798       159.5146      0.2331543              1
      4764.5000       1012.863       142.7877         0.9873         0.9702       158.4709     -0.8105469              1
      4765.0000       1012.761       142.9395         0.9874         0.9577       158.2818      -0.999649              1
      4765.5000       1008.369       143.1873         0.9917         0.9516       159.0959     -0.1855469              1
      4766.0000        990.001        143.551         1.0101         0.9866       160.0405      0.7590485              1
      4766.5000        977.326       142.4106         1.0232         1.0076       160.3321       1.050659              1
      4767.0000       960.9841       137.4661         1.0406         1.0372        160.341       1.059555              1
      4767.5000        949.848       131.8922         1.0528          1.066       159.5556      0.2741547              1
      4768.0000       939.4082       125.8199         1.0645         1.0915       158.5232      -0.758255              1
      4768.5000       927.9881       125.0663         1.0776         1.1047       157.4877      -1.793747      0.9884964
      4769.0000       910.0838       127.5216         1.0988         1.1229       156.6688      -2.612656      0.9766282
      4769.5000       903.5873       130.7265         1.1067         1.1394       156.1025      -3.178955      0.9684209
      4770.0000        903.424       133.8105         1.1069         1.1414       156.1819      -3.099548      0.9695718
      4770.5000       922.4241       135.0889         1.0841         1.1294       156.7291      -2.552353      0.9775021
      4771.0000       949.9382       134.9333         1.0527         1.0953       157.1662       -2.11525      0.9838369
      4771.5000       971.4397       134.4387         1.0294         1.0732       157.9648       -1.31665      0.9954109
      4772.0000       995.0249       134.1624          1.005         1.0739       158.4561     -0.8253479              1
      4772.5000       1032.844       134.8794         0.9682         1.0839       158.5905     -0.6909485              1
      4773.0000       1067.122        136.265         0.9371         1.0954       158.2939     -0.9875488              1
      4773.5000       1132.118       137.3833         0.8833         1.0984       158.3003     -0.9811554              1
      4774.0000       1251.564       140.4891          0.799         1.0968       158.3081     -0.9733429              1
      4774.5000       1347.709        147.365          0.742         1.0831         158.78     -0.5014496              1
      4775.0000       1429.388       152.3496         0.6996         1.0605       159.5443      0.2628479              1
      4775.5000       1466.921       145.8819         0.6817         0.9982       159.8586      0.5771484              1
      4776.0000       1470.805         132.46         0.6799         0.9094        159.778      0.4965515              1
      4776.5000       1382.361       121.2724         0.7234          0.811       158.9568      -0.324646              1
      4777.0000       1267.106       121.3972         0.7892         0.7638       158.3531     -0.9283447              1
      4777.5000       1099.626       118.7138         0.9094         0.7727       158.0411      -1.240341      0.9965168
      4778.0000       983.5743        112.231         1.0167         1.0904       157.5639      -1.717545      0.9896008
      4778.5000       822.5714        77.3162         1.2157          1.285       157.1533      -2.128143      0.9836501
      4779.0000       654.0222        69.6246          1.529         2.9097       156.8575       -2.42395       0.979363
      4779.5000       428.7061        92.5106         2.3326         3.5914       156.4375      -2.843948      0.9732761
      4780.0000       335.1431       105.7332         2.9838         4.0612       155.6503      -3.631149      0.9618674
      4780.5000       293.9275       114.3457         3.4022         4.1206       154.6982      -4.583252      0.9480688
      4781.0000       272.7025       112.3856          3.667         3.9969       153.3332      -5.948242      0.9282864
      4781.5000       315.0301       110.6308         3.1743         3.6326       150.7886      -8.492844      0.8914081
      4782.0000       391.0986       119.5382         2.5569         2.8928       148.7577      -10.52374      0.8619747
      4782.5000       478.4689       131.0954           2.09         2.3273       147.1387      -12.14275      0.8385109
      4783.0000       718.5457       149.7964         1.3917         2.0203       147.3012      -11.98026      0.8408659
      4783.5000       815.9269       140.8308         1.2256         1.6822       147.4881      -11.79335      0.8435746
      4784.0000       890.8687       132.4972         1.1225         1.3441       148.3839      -10.89755      0.8565572
      4784.5000       1001.502       131.0963         0.9985         0.9823       149.1663      -10.11514      0.8678965
      4785.0000       1070.664       135.3782          0.934         0.9292       149.9249      -9.356552      0.8788906
      4785.5000       1114.082       143.6442         0.8976         0.9219       150.6787      -8.602753      0.8898152
      4786.0000       1121.202       144.8073         0.8919         0.9646       151.1711      -8.110352      0.8969514
      4786.5000       1109.139        144.563         0.9016         0.9976       151.6631      -7.618347      0.9040819
      4787.0000       1089.681       144.8388         0.9177         1.0196       152.2196      -7.061844      0.9121472
      4787.5000       1078.632       145.0209         0.9271         1.0385       153.0163      -6.265152      0.9236935
      4788.0000       1074.114       144.0973          0.931         1.0435       153.6336      -5.647842        0.93264
      4788.5000       1069.404       144.2687         0.9351         1.0313       154.2519      -5.029541      0.9416009
      4789.0000        1063.49       145.3233         0.9403         1.0044       154.4303      -4.851151      0.9441862
      4789.5000       1051.193       145.8681         0.9513         0.9736       154.5715      -4.709946      0.9462327
      4790.0000       1043.732       146.0884         0.9581         0.9226        153.665      -5.616455      0.9330949
      4790.5000       1036.269       145.9328          0.965          0.912        153.268      -6.013443      0.9273414
      4791.0000       1024.905       145.3711         0.9757         0.9388       152.7632       -6.51825      0.9200253
      4791.5000       1012.453       143.7794         0.9877         0.9811       153.0757       -6.20575      0.9245543
      4792.0000       978.9525       142.4627         1.0215         1.0191       153.3886      -5.892853      0.9290891
      4792.5000       945.4476       141.0389         1.0577         1.0439       153.6011      -5.680344       0.932169
      4793.0000       911.9095        138.859         1.0966         1.0687       154.7824      -4.499054      0.9492891
      4793.5000       895.9771       137.6508         1.1161         1.0929       155.8547      -3.426743      0.9648298
      4794.0000       885.8965       137.0128         1.1288         1.1108       156.7368      -2.544647      0.9776138
      4794.5000       879.8944       137.0114         1.1365          1.114        157.409      -1.872452      0.9873558
