#------------------------------------------------------------------------------
# Created by    : vladimir.rabinovich
# Created on    : 09/19/2023 17:22:37
#------------------------------------------------------------------------------
~Version Information Section
VERS.           2.0     :   CWLS log ASCII Standard - VERSION 2.0
WRAP.           NO      :   One line per depth step
~Well Information Section
#MNEM       .UNIT                                         VALUE :DESCRIPTION
#------------------------------------------------------------------------------
STRT        .FT                                           554.5 :START DEPTH
STOP        .FT                                            5893 :STOP DEPTH
STEP        .FT                                             0.5 :STEP      
NULL        .                                           -999.25 :NULL      
COMP        .                              NEUMIN PRODUCTION CO :COMPANY   
WELL        .                                         ST TR 186 :WELL      
FLD         .                                           WILDCAT :FIELD     
LOC         .                                                   :LOCATION  
CNTY        .                                           CALHOUN :LOCATION  
STAT        .                                             TEXAS :STATE     
CTRY        .                                     UNITED STATES :COUNTRY   
SRVC        .                                                   :SERVICE COMPANY
DATE        .                             9/13/2023 11:18:59 AM :LOG DATE  
API         .                                    42057313020000 :API NUMBER
UWI         .                                    42057313020000 :UNIQUE WELL ID
XCOORD      .                                  487252.476079587 :SURFACE X 
YCOORD      .                                  10287942.6245796 :SURFACE Y 
LAT         .                                         28.302642 :LATITUDE  
LON         .                                       -96.5835194 :LONGITUDE 
ELEV        .FT                                              22 :ELEVATION VALUE
ELEV_TYPE   .                                                KB :ELEVATION REFERENCE TYPE
~Curve Information Section
#MNEM       .UNIT                                      API CODE :CURVE DESCRIPTION
#------------------------------------------------------------------------------
DEPT        .FT                                                 :DEPTH     
DCAL        .INCHES                                             :          
DPHI        .NONE                                               :          
GR          .GAPI                                               :          
GR_NORM     .GAPI                                               :GammaRay Normalized
ILD         .OHMM                                               :          
NPHI        .NONE                                               :          
VSH_GR      .V/V                                                :Volume of Shale from GR
~A        DEPTH           DCAL           DPHI             GR        GR_NORM            ILD           NPHI         VSH_GR
# ...
      3368.5000         0.7111         0.3885         46.173       42.85437         0.2754         0.3789      0.2096674
      3369.0000         0.8152         0.3894        47.3815       44.63918         0.2685         0.3613      0.2476421
      3369.5000         0.8321         0.3886        49.2709        47.4307         0.2632         0.3525      0.3070362
      3370.0000         0.7226         0.3865        49.8393       48.26914         0.2565         0.3498      0.3248754
      3370.5000         0.4792          0.384        49.7509       48.13651         0.2539         0.3498      0.3220533
      3371.0000         0.1863         0.3822        48.6902       46.56633         0.2528         0.3548      0.2886454
      3371.5000         0.0796         0.3845        47.7315       45.14697         0.2527         0.3615      0.2584462
      3372.0000         0.0988         0.3869         47.268       44.45975         0.2544         0.3738      0.2438246
      3372.5000         0.2456         0.3869        46.8518       43.84246         0.2562         0.3813      0.2306907
      3373.0000         0.3447          0.387        45.9799       42.55144         0.2605         0.3894      0.2032221
      3373.5000         0.3659         0.3855        45.2431       41.46014         0.2674          0.395      0.1800031
      3374.0000         0.3193         0.3843        44.3667       40.16246         0.2869         0.4008      0.1523928
      3374.5000          0.168         0.3779        44.0951       46.57645          0.323         0.4033      0.2888606
      3375.0000        -0.0962         0.3615        43.4057       45.72825         0.3846         0.3857      0.2708138
      3375.5000        -0.2388         0.3248         41.875       43.84693          0.459         0.3344      0.2307858
      3376.0000        -0.3122         0.2795        40.4122       42.04899         0.5262         0.2925      0.1925317
      3376.5000        -0.2967         0.2354         40.392       42.02257         0.5984         0.2558      0.1919696
      3377.0000        -0.2135         0.2234        42.0056       44.00248         0.6479         0.2426      0.2340954
      3377.5000        -0.0698         0.2615        43.1707       45.43163         0.6932         0.2492      0.2645027
      3378.0000        -0.0291         0.3108        41.3518        43.1964         0.6882          0.284      0.2169446
      3378.5000        -0.0407         0.3229        37.8383       38.88017         0.6512         0.3113        0.12511
      3379.0000        -0.1069         0.3227        35.9254        36.5295         0.5892         0.3267      0.0750958
      3379.5000        -0.2062         0.3147        35.5976       36.12535         0.5715         0.3327     0.06649691
      3380.0000         -0.319         0.3023        36.0549       36.68531         0.5685         0.3224     0.07841094
      3380.5000        -0.3435         0.2858        38.3675        39.5236         0.5792         0.2996         0.1388
      3381.0000        -0.4125         0.2412        39.9518       41.46754         0.6041         0.2612      0.1801604
      3381.5000        -0.3827         0.2102        36.5189       37.25029         0.6538         0.2395      0.0904317
      3382.0000        -0.3835         0.1833        32.8096       32.69362         0.7073         0.2272              0
      3382.5000        -0.3845         0.1764        30.5446       29.91058         0.7845         0.2217              0
      3383.0000        -0.3722         0.1805        29.9887       29.22631         0.8439         0.2293              0
      3383.5000        -0.3554         0.2092        29.6249       28.77796         0.8796         0.2575              0
      3384.0000        -0.3563         0.2366        29.8529       29.05633         0.9022         0.2621              0
      3384.5000        -0.3265         0.2469        30.6012       29.97364         0.8799         0.2603              0
      3385.0000        -0.3274          0.255        33.0618       32.99368         0.8405         0.2622              0
      3385.5000        -0.3282         0.2652        35.2302       35.65489         0.8403         0.2759     0.05648706
      3386.0000        -0.3269         0.2719        37.3195       38.21896         0.8484         0.2981      0.1110416
      3386.5000        -0.2992         0.2706        39.4802       40.87072         0.8577         0.3126      0.1674621
      3387.0000        -0.2914         0.2499        39.7089       41.14996         0.8635         0.3157      0.1734033
      3387.5000        -0.2703         0.2386        37.8726       38.89335         0.8571         0.3026      0.1253904
      3388.0000        -0.2253         0.2352        36.4853       37.18813         0.8435          0.287     0.08910906
      3388.5000        -0.2012           0.25        35.2163       35.62817         0.8244          0.278     0.05591843
      3389.0000         0.0333         0.2497        33.2819        33.2511         0.7927         0.2758    0.005342605
      3389.5000         0.2052         0.2455        32.3714       32.13139         0.7533         0.2762              0
      3390.0000         0.2767         0.2424        31.6742       31.27361         0.7116         0.2767              0
      3390.5000         0.2759         0.2627        32.0238       31.70132         0.6663         0.2816              0
      3391.0000         0.3577         0.3063        33.9183       34.02618         0.6014          0.302     0.02183354
      3391.5000         0.7642         0.3215        36.0284       36.61578         0.5048         0.3291     0.07693157
      3392.0000         1.4687         0.3341        36.7937       37.55398          0.435         0.3529     0.09689315
      3392.5000         1.9877         0.3465        36.9438       37.73669          0.379         0.3662      0.1007807
      3393.0000         1.6861         0.3551        36.5875       37.29754         0.3499         0.3673     0.09143708
      3393.5000         1.0171         0.3608        35.9201       36.47636         0.3373         0.3572     0.07396519
      3394.0000         0.3312         0.3613        34.4172       34.62917         0.3237         0.3469     0.03466326
      3394.5000         0.0563         0.3598        33.7108       33.76011         0.3168         0.3354     0.01617253
      3395.0000        -0.0686         0.3557        33.0389        32.9334         0.3099         0.3187              0
      3395.5000        -0.0694         0.3503        33.6573       33.69118         0.3095         0.3122     0.01470606
      3396.0000        -0.0638         0.3498        35.1454       35.51699         0.3129         0.3481     0.05355291
      3396.5000        -0.0099         0.3553        37.8519       38.83898         0.3187         0.3606      0.1242336
      3397.0000         0.0199         0.3612        38.9415       40.17542         0.3352         0.3619      0.1526684
      3397.5000         0.0181         0.3656        39.4552       40.80464         0.3473         0.3583      0.1660561
      3398.0000        -0.0124         0.3666        38.1342       39.18083         0.3614         0.3497       0.131507
      3398.5000         0.0175          0.362        37.0728        37.8758         0.3739         0.3317      0.1037405
      3399.0000         0.0778         0.3543        36.2407       36.85238         0.3903           0.32     0.08196542
      3399.5000         0.1949          0.345        36.0103       36.56783         0.4029         0.3223     0.07591126
      3400.0000         0.3867         0.3364        36.2385       36.84645         0.4137         0.3297     0.08183946
      3400.5000         0.4636         0.3315        39.9674       41.42397         0.4163         0.3371      0.1792335
      3401.0000         0.4246         0.3328        40.1472       41.64316         0.4078         0.3444       0.183897
      3401.5000         0.2573         0.3499        39.8155       41.23422         0.3923         0.3527      0.1751962
