#------------------------------------------------------------------------------
# Created by    : vladimir.rabinovich
# Created on    : 09/19/2023 17:22:27
#------------------------------------------------------------------------------
~Version Information Section
VERS.           2.0     :   CWLS log ASCII Standard - VERSION 2.0
WRAP.           NO      :   One line per depth step
~Well Information Section
#MNEM       .UNIT                                         VALUE :DESCRIPTION
#------------------------------------------------------------------------------
STRT        .FT                                          1344.5 :START DEPTH
STOP        .FT                                            6047 :STOP DEPTH
STEP        .FT                                             0.5 :STEP      
NULL        .                                           -999.25 :NULL      
COMP        .                      HIGHLAND RESOURCES-G R BROWN :COMPANY   
WELL        .                                         ST TR 234 :WELL      
FLD         .                                           WILDCAT :FIELD     
LOC         .                                                   :LOCATION  
CNTY        .                                           CALHOUN :LOCATION  
STAT        .                                             TEXAS :STATE     
CTRY        .                                     UNITED STATES :COUNTRY   
SRVC        .                                                   :SERVICE COMPANY
DATE        .                             9/13/2023 11:18:59 AM :LOG DATE  
API         .                                    42057308440000 :API NUMBER
UWI         .                                    42057308440000 :UNIQUE WELL ID
XCOORD      .                                  538656.561995839 :SURFACE X 
YCOORD      .                                  10324779.5220427 :SURFACE Y 
LAT         .                                        28.4079151 :LATITUDE  
LON         .                                       -96.4272693 :LONGITUDE 
ELEV        .FT                                              14 :ELEVATION VALUE
ELEV_TYPE   .                                                KB :ELEVATION REFERENCE TYPE
~Curve Information Section
#MNEM       .UNIT                                      API CODE :CURVE DESCRIPTION
#------------------------------------------------------------------------------
DEPT        .FT                                                 :DEPTH     
CILD        .MMHO                                               :          
DT          .US/F                                               :          
RILD        .OHMM                                               :          
SFL         .OHMM                                               :          
SP          .MV                                                 :          
SP_NORM     .MV                                                 :SP Normalized
VSH_SP      .V/V                                                :Volume of Shale from SP
~A        DEPTH           CILD             DT           RILD            SFL             SP        SP_NORM         VSH_SP
# ...
      6001.0000        1126.38        121.053         0.8878         1.0702       164.0963      -0.903183              1
      6001.5000       1134.301       121.1421         0.8816         1.0617       163.3327      -1.764557      0.9896681
      6002.0000       1136.622       121.2939         0.8798         1.0502        164.673     -0.5220337              1
      6002.5000       1142.074       121.2923         0.8756         1.0336       166.4122       1.119385              1
      6003.0000       1158.078       121.4441         0.8635         1.0208       166.7176       1.327011              1
      6003.5000       1167.679       121.4428         0.8564         1.0064       166.1069      0.6185303              1
      6004.0000       1188.495       121.4412         0.8414         0.9931       166.2402      0.6540527              1
      6004.5000       1212.562       121.5238         0.8247         0.9786       166.7176       1.033691              1
      6005.0000       1242.699       121.6131         0.8047         0.9654        166.346      0.5643005              1
      6005.5000       1259.287       121.7437         0.7941          0.949       165.4962     -0.3832703              1
      6006.0000       1278.119       121.7421         0.7824         0.9316       166.4122      0.4349518              1
      6006.5000       1268.875       121.7404         0.7881         0.9418       167.0229       0.947876              1
      6007.0000       1245.175       121.7389         0.8031         0.9797       166.7176      0.5447998              1
      6007.5000       1182.033       121.7373          0.846         1.0285       166.0837     -0.1868744              1
      6008.0000       1124.733       121.7354         0.8891         1.0709       164.5423       -1.82605      0.9888372
      6008.5000       1070.435       121.7342         0.9342         1.1222       165.1908       -1.27533      0.9962794
      6009.0000       1027.538       121.7324         0.9732         1.1527       166.5928     0.02890015              1
      6009.5000       994.6291        121.731         1.0054         1.1784       167.0229      0.3612213              1
      6010.0000       962.2787       121.7215         1.0392         1.2094       165.6786      -1.080856      0.9989073
      6010.5000       953.0164       121.5742         1.0493         1.2445       164.2426      -2.614624      0.9781808
      6011.0000       941.9744       121.5726         1.0616         1.2838       163.6641      -3.290909      0.9690418
      6011.5000       945.4476       121.5709         1.0577         1.2875        164.618      -2.434784       0.980611
      6012.0000       964.5992       121.5694         1.0367         1.2564       166.7176     -0.4329529              1
      6012.5000       1010.612       121.5679         0.9895         1.1987       166.7176     -0.5307312              1
      6013.0000       1063.604       121.5663         0.9402          1.134       166.1069      -1.239212      0.9967674
      6013.5000       1107.788       121.5647         0.9027         1.0598       164.8439      -2.599976      0.9783787
      6014.0000        1131.35       121.5629         0.8839         1.0073        166.554     -0.9876556              1
      6014.5000       1157.006       121.5615         0.8643         1.0151       168.2443      0.6048584              1
      6015.0000       1171.921       121.5599         0.8533         1.0196       167.4341     -0.3031158              1
      6015.5000       1180.219       121.5583         0.8473         1.0258       167.9389      0.1039124              1
      6016.0000       1171.783       121.5568         0.8534         1.0319       168.5506      0.6178284              1
      6016.5000       1159.689       121.5549         0.8623         1.0365       166.9974      -1.033127      0.9995524
      6017.0000       1146.526       121.5536         0.8722         1.0404       166.7176      -1.410706      0.9944499
      6017.5000       1133.658       121.5519         0.8821         1.0442       167.4842     -0.7418823              1
      6018.0000       1122.586       121.5504         0.8908         1.0457       168.2443    -0.07957458              1
      6018.5000       1114.579       121.5488         0.8972         1.0488       167.4171      -1.004547      0.9999385
      6019.0000       1106.562        121.547         0.9037         1.0544        164.877      -3.642426      0.9642916
      6019.5000        1098.66       121.5457         0.9102          1.066       164.4577      -4.159485      0.9573042
      6020.0000       1090.869        121.544         0.9167         1.0793       165.3598      -3.355164      0.9681734
      6020.5000        1090.75       121.5425         0.9168         1.0957       167.0229      -1.789841      0.9893265
      6021.0000       1098.298       121.5409         0.9105         1.1207       168.0478     -0.8144684              1
      6021.5000       1101.079       121.5393         0.9082         1.1304       168.2443      -0.617981              1
      6022.0000        1105.95       121.5377         0.9042         1.0457       167.1493      -1.712967      0.9903653
      6022.5000       1117.943        121.536         0.8945         1.0212       165.3913      -3.470978      0.9666084
      6023.0000       1131.606       121.5346         0.8837         1.0201       168.2443      -0.617981              1
      6023.5000       1153.536        121.533         0.8669         1.0181        170.687       1.824722              1
      6024.0000       1161.575       121.5314         0.8609         1.0181       169.4657      0.6034241              1
      6024.5000        1153.27       121.5298         0.8671         1.0181       168.2443      -0.617981              1
      6025.0000       1149.029       121.4936         0.8703         1.0181       168.2443      -0.617981              1
      6025.5000       1128.159       121.4222         0.8864           1.02       167.8595      -1.002777      0.9999624
      6026.0000       1112.842        121.383         0.8986         1.0242       167.0229      -1.839371      0.9886572
      6026.5000       1102.779       121.4206         0.9068         1.0247       167.0229      -1.839371      0.9886572
      6027.0000       1089.325       121.4581          0.918         1.0285       167.3282      -1.534073      0.9927828
      6027.5000       1089.206       121.4956         0.9181         1.0364       167.3282      -1.534073      0.9927828
      6028.0000       1089.443       121.5331         0.9179         1.0639       167.3282      -1.534073      0.9927828
      6028.5000       1101.686       121.5706         0.9077         1.0875        166.934      -1.928268      0.9874558
      6029.0000       1114.082       121.6082         0.8976         1.1069       165.8015      -3.060776      0.9721517
      6029.5000       1127.904       121.6457         0.8866         1.1041       166.0912      -2.771072      0.9760666
      6030.0000       1127.904        121.666         0.8866        -999.25        -999.25        -999.25        -999.25
      6030.5000       1127.777       121.6644         0.8867        -999.25        -999.25        -999.25        -999.25
      6031.0000        1127.65       121.6627         0.8868        -999.25        -999.25        -999.25        -999.25
      6031.5000       1127.523       121.6612         0.8869        -999.25        -999.25        -999.25        -999.25
      6032.0000       1127.396       121.6597          0.887        -999.25        -999.25        -999.25        -999.25
      6032.5000       1127.269       121.6581         0.8871        -999.25        -999.25        -999.25        -999.25
      6033.0000       1127.142       121.6565         0.8872        -999.25        -999.25        -999.25        -999.25
      6033.5000       1127.015       121.6547         0.8873        -999.25        -999.25        -999.25        -999.25
      6034.0000       1126.888       121.6533         0.8874        -999.25        -999.25        -999.25        -999.25
