#------------------------------------------------------------------------------
# Created by    : vladimir.rabinovich
# Created on    : 09/19/2023 17:20:53
#------------------------------------------------------------------------------
~Version Information Section
VERS.           2.0     :   CWLS log ASCII Standard - VERSION 2.0
WRAP.           NO      :   One line per depth step
~Well Information Section
#MNEM       .UNIT                                         VALUE :DESCRIPTION
#------------------------------------------------------------------------------
STRT        .FT                                             875 :START DEPTH
STOP        .FT                                            6380 :STOP DEPTH
STEP        .FT                                             0.5 :STEP      
NULL        .                                           -999.25 :NULL      
COMP        .                       ENERGY DEVELOPMENT CORP N J :COMPANY   
WELL        .                                   STATE TRACT 241 :WELL      
FLD         .                                           WILDCAT :FIELD     
LOC         .                                                   :LOCATION  
CNTY        .                                           CALHOUN :LOCATION  
STAT        .                                             TEXAS :STATE     
CTRY        .                                     UNITED STATES :COUNTRY   
SRVC        .                                                   :SERVICE COMPANY
DATE        .                             9/13/2023 11:19:11 AM :LOG DATE  
API         .                                    42057314130000 :API NUMBER
UWI         .                                    42057314130000 :UNIQUE WELL ID
XCOORD      .                                  544841.599058466 :SURFACE X 
YCOORD      .                                   10330281.839261 :SURFACE Y 
LAT         .                                        28.4235103 :LATITUDE  
LON         .                                       -96.4085418 :LONGITUDE 
ELEV        .FT                                              34 :ELEVATION VALUE
ELEV_TYPE   .                                                KB :ELEVATION REFERENCE TYPE
~Curve Information Section
#MNEM       .UNIT                                      API CODE :CURVE DESCRIPTION
#------------------------------------------------------------------------------
DEPT        .FT                                                 :DEPTH     
ASN         .OHMM                                               :          
DCAL        .IN                                                 :          
DPHI        .V/V                                                :          
DRHO        .G/CC                                               :          
GR          .GAPI                                               :          
GR_NORM     .GAPI                                               :GammaRay Normalized
ILD         .OHMM                                               :          
ILD_LNR     .OHMM                                               :          
ILM         .OHMM                                               :          
NPHI        .V/V                                                :          
SFLU        .OHMM                                               :          
SP          .MV                                                 :          
SP_NORM     .MV                                                 :SP Normalized
TENS        .LB                                                 :          
VSH_GR      .V/V                                                :Volume of Shale from GR
VSH_SP      .V/V                                                :Volume of Shale from SP
~A        DEPTH            ASN           DCAL           DPHI           DRHO             GR        GR_NORM            ILD        ILD_LNR            ILM           NPHI           SFLU             SP        SP_NORM           TENS         VSH_GR         VSH_SP
# ...
      2699.0000          0.887        13.5068         0.3564        -0.0436         34.604        38.6353          0.389         0.4681         0.4482         0.3267         1.1165       -76.6337      -63.30483       1167.694      0.1199001              0
      2699.5000         0.8561         13.331         0.3629        -0.0446        32.9703       36.78639         0.3783          0.468         0.4362         0.3244         1.0812       -76.4356      -63.11499       1167.282     0.08056145              0
      2700.0000         0.8326        13.1951         0.3653        -0.0465        31.9307       35.60984         0.3697         0.4679         0.4263         0.3226         1.0422       -76.4356      -63.12324       1166.871     0.05552852              0
      2700.5000         0.8266        13.5686         0.3682        -0.0436        30.8911       34.43329         0.3594         0.4678         0.4146         0.3196         1.0092       -76.4356      -63.13149       1176.471      0.0304955              0
      2701.0000         0.8266        13.8627         0.3712        -0.0416        29.7059       33.09196         0.3509         0.4677          0.403         0.3279         0.9774       -76.2376      -62.94174       1215.686    0.001956534              0
      2701.5000         0.8266        13.3725         0.3724        -0.0426        34.0099       37.96294         0.3412         0.4676         0.3934         0.3309         0.9379       -75.8416      -62.55399       1215.686      0.1055944              0
      2702.0000         0.8456        12.6667         0.3725        -0.0436        36.8317       41.15646         0.3318         0.4675         0.3841          0.335         0.8919       -75.4455      -62.16614        1225.49      0.1735418              0
      2702.5000         0.8813        11.8812         0.3725        -0.0416        39.3564       44.01375         0.3272         0.4674         0.3735         0.3404         0.8524       -75.4455      -62.17439       1205.882      0.2343352              0
      2703.0000         0.9099        11.1881         0.3725        -0.0396        40.2475       45.02224         0.3272         0.4673         0.3684         0.3529          0.789       -75.6436      -62.38074       1186.275      0.2557924              0
      2703.5000         0.9378         10.495         0.3737        -0.0386        41.7327       46.70309         0.3242         0.4672         0.3684         0.3642         0.7501       -75.8416      -62.58699       1205.882      0.2915552              0
      2704.0000         0.9661         9.9604         0.3749        -0.0376        42.4752       47.54341         0.3227         0.4671         0.3718         0.3743          0.757       -76.0396      -62.79324       1215.686      0.3094342              0
      2704.5000         0.9933         9.5241         0.3731        -0.0366        43.2178       48.38383         0.3198          0.467         0.3787         0.3767          0.789       -75.8416      -62.60349       1215.996      0.3273155              0
      2705.0000         1.0135         9.1056         0.3632        -0.0297        41.2871        46.1988         0.3257         0.4669         0.3874         0.3673         0.8146       -75.4455      -62.21564       1226.356      0.2808254              0
      2705.5000         1.0472         9.1231         0.3532        -0.0158        39.6535       44.34999         0.3332          0.437         0.3928         0.3544         0.8183       -75.0495      -61.82789       1217.036      0.2414892      0.0028215
      2706.0000         1.0733         9.4006         0.3432          0.001        38.7624       43.34151         0.3409         0.4369         0.3982         0.3414          0.822       -74.8515      -61.63814        1207.67      0.2200321    0.005932104
      2706.5000          1.095           9.76         0.3324         0.0109        38.4653       43.00527         0.3488         0.4666         0.4037         0.3282         0.8601       -75.0495      -61.84439       1207.921       0.212878    0.002550969
      2707.0000         1.1143        10.1176         0.3204         0.0139        38.0198       42.50108         0.3585         0.4665         0.4111         0.3198         0.9209       -75.6436      -62.44674       1217.822      0.2021506              0
      2707.5000         1.1182        10.2353          0.306         0.0149        36.8317       41.15646         0.3668         0.4664         0.4186         0.3162         0.9729       -75.8416      -62.65299       1227.723      0.1735418              0
      2708.0000         1.1182        10.3922         0.3048         0.0238         34.901       38.97143         0.3752         0.4663         0.4263         0.3132         1.0422       -75.8416      -62.66124       1227.723      0.1270517              0
      2708.5000         1.1198        10.6451         0.3049         0.0337        33.5644       37.45875         0.3839         0.4662         0.4342         0.3091         1.1215       -77.4257      -64.25359       1228.677     0.09486706              0
      2709.0000         1.1241        10.9765         0.2996         0.0297        30.7426       34.26522         0.3874         0.4661         0.4422          0.305         1.2288       -76.8317      -63.66785       1220.715     0.02691967              0
      2709.5000         1.1241        11.3686         0.2945         0.0109         30.297       33.76093         0.3892          0.466         0.4462         0.3022         1.2683       -77.0297      -63.87409       1202.952      0.0161899              0
      2710.0000          1.124        11.7824         0.2976         -0.002         30.297       33.76093         0.3928         0.4659         0.4462         0.3088         1.2224       -77.2277      -64.08035       1234.356      0.0161899              0
      2710.5000          1.124        12.1767         0.3012        -0.0168        29.8528       33.25821         0.3876         0.4658         0.4465         0.3178         1.1414       -77.0297      -63.89059       1234.195    0.005493732              0
      2711.0000          1.124        12.2362         0.3006        -0.0208        29.5572       32.92366         0.3863         0.4657         0.4409         0.3261         1.0905       -76.8317      -63.70085       1222.516              0              0
      2711.5000         1.1239        12.1578         0.2982        -0.0188        29.7041       33.08992         0.3831         0.4656         0.4315         0.3238         1.0372       -76.6337      -63.51109       1200.914    0.001913192              0
      2712.0000         1.1239        12.0791         0.2976        -0.0109        28.9617       32.24972         0.3678         0.4655         0.4222         0.3119         1.0562       -76.4356      -63.32124       1198.987              0              0
      2712.5000         1.1239         11.802         0.3042         -0.004        28.9604       32.24825         0.3595         0.4654         0.4148         0.3065         1.1259       -76.4356      -63.32949       1188.119              0              0
      2713.0000         1.1238        11.0099         0.3101        -0.0109         29.703       33.08868         0.3496         0.4653         0.4055         0.3137         1.1624       -76.6337      -63.53584       1178.218    0.001886733              0
      2713.5000         1.1238        10.2178          0.316        -0.0178        29.5545       32.92061           0.34         0.4652         0.3981         0.3226         1.1677       -76.2376        -63.148       1168.317              0              0
      2714.0000         1.1238         9.3465          0.322        -0.0218             30        33.4248         0.3276         0.4651         0.3908         0.3309         1.1466       -76.2376      -63.15625       1178.218    0.009038235              0
      2714.5000         1.1237         9.1089         0.3244        -0.0228        30.8824       34.42344         0.3201          0.465         0.3819         0.3398         1.1362       -76.0396      -62.96649       1168.317     0.03028602              0
