#------------------------------------------------------------------------------
# Created by    : vladimir.rabinovich
# Created on    : 09/19/2023 17:22:27
#------------------------------------------------------------------------------
~Version Information Section
VERS.           2.0     :   CWLS log ASCII Standard - VERSION 2.0
WRAP.           NO      :   One line per depth step
~Well Information Section
#MNEM       .UNIT                                         VALUE :DESCRIPTION
#------------------------------------------------------------------------------
STRT        .FT                                          1344.5 :START DEPTH
STOP        .FT                                            6047 :STOP DEPTH
STEP        .FT                                             0.5 :STEP      
NULL        .                                           -999.25 :NULL      
COMP        .                      HIGHLAND RESOURCES-G R BROWN :COMPANY   
WELL        .                                         ST TR 234 :WELL      
FLD         .                                           WILDCAT :FIELD     
LOC         .                                                   :LOCATION  
CNTY        .                                           CALHOUN :LOCATION  
STAT        .                                             TEXAS :STATE     
CTRY        .                                     UNITED STATES :COUNTRY   
SRVC        .                                                   :SERVICE COMPANY
DATE        .                             9/13/2023 11:18:59 AM :LOG DATE  
API         .                                    42057308440000 :API NUMBER
UWI         .                                    42057308440000 :UNIQUE WELL ID
XCOORD      .                                  538656.561995839 :SURFACE X 
YCOORD      .                                  10324779.5220427 :SURFACE Y 
LAT         .                                        28.4079151 :LATITUDE  
LON         .                                       -96.4272693 :LONGITUDE 
ELEV        .FT                                              14 :ELEVATION VALUE
ELEV_TYPE   .                                                KB :ELEVATION REFERENCE TYPE
~Curve Information Section
#MNEM       .UNIT                                      API CODE :CURVE DESCRIPTION
#------------------------------------------------------------------------------
DEPT        .FT                                                 :DEPTH     
CILD        .MMHO                                               :          
DT          .US/F                                               :          
RILD        .OHMM                                               :          
SFL         .OHMM                                               :          
SP          .MV                                                 :          
SP_NORM     .MV                                                 :SP Normalized
VSH_SP      .V/V                                                :Volume of Shale from SP
~A        DEPTH           CILD             DT           RILD            SFL             SP        SP_NORM         VSH_SP
# ...
      4125.0000       1210.947       124.2781         0.8258         0.9675       140.0594      -3.619736      0.9620328
      4125.5000       1273.723       132.5402         0.7851         0.8696       140.5441      -3.128799      0.9691479
      4126.0000       1301.236       146.4061         0.7685         0.8309       140.6945      -2.972153      0.9714181
      4126.5000       1328.551       149.9856         0.7527         0.8168        140.709      -2.951416      0.9717186
      4127.0000       1293.326       151.9319         0.7732         0.8053       141.6125      -2.041672      0.9849033
      4127.5000       1237.471        149.042         0.8081         0.7993       143.4805     -0.1674347              1
      4128.0000       1170.412       143.1165         0.8544         0.8377       144.7025       1.060806              1
      4128.5000       1089.325       136.4119          0.918         0.9557        145.336       1.700546              1
      4129.0000       1008.471       130.4183         0.9916         1.0951       144.2425      0.6132813              1
      4129.5000       933.1841       138.5569         1.0716         1.2274       141.9362      -1.686768      0.9900469
      4130.0000       844.1668       140.8948         1.1846         1.3055       139.2681      -4.348618      0.9514693
      4130.5000       790.5764       140.2425         1.2649         1.3544       137.8031      -5.807373       0.930328
      4131.0000       743.0524       137.4174         1.3458         1.4104       137.1541      -6.450134      0.9210125
      4131.5000        735.132       131.0015         1.3603         1.4414       137.9577      -5.640289      0.9327495
      4132.0000       726.8499       119.9591         1.3758          1.474       139.0648      -4.526947      0.9488848
      4132.5000       722.0738       114.2677         1.3849         1.4933       140.2465      -3.339005      0.9661014
      4133.0000       724.6377       111.3528           1.38         1.4942       141.1896      -2.389664      0.9798599
      4133.5000       737.4088        113.955         1.3561         1.4688       142.4072      -1.165833      0.9975966
      4134.0000       757.0596       118.0635         1.3209         1.3848       143.3503     -0.2164917              1
      4134.5000       786.3489       124.4028         1.2717         1.2597       143.9927      0.4321594              1
      4135.0000       822.3008       127.8028         1.2161         1.1631       144.2783       0.723999              1
      4135.5000       846.7401       140.9886          1.181         1.1225       143.8087      0.2606354              1
      4136.0000       873.3625       145.4245          1.145         1.0845       143.3846     -0.1572266              1
      4136.5000       899.1997       145.5927         1.1121         1.0664       143.5374    0.001831055              1
      4137.0000       930.4922       143.5016         1.0747         1.0621        143.409     -0.1203308              1
      4137.5000       957.9462       143.1309         1.0439          1.062       143.7271        0.20401              1
      4138.0000       979.6238        144.357         1.0208         1.0581       143.6722      0.1553497              1
      4138.5000       1005.429       144.2274         0.9946         1.0543       143.7533       0.242691              1
      4139.0000       1014.919       144.1993         0.9853         1.0437       143.8844      0.3800354              1
      4139.5000       1026.799       144.6865         0.9739         1.0246       144.6927        1.19458              1
      4140.0000       1034.019       145.9675         0.9671         0.9724       145.9679       2.476013              1
      4140.5000       1034.554       148.8007         0.9666         0.9686       146.5482       3.062561              1
      4141.0000       1041.124       149.5669         0.9605         0.9642       146.2564       2.776993              1
      4141.5000       1041.016       150.0255         0.9606         0.9611       146.2688       2.795639              1
      4142.0000       1040.799       150.9669         0.9608         0.9601       146.5872       3.120285              1
      4142.5000       1040.691       151.8647         0.9609         0.9581       147.3627       3.902023              1
      4143.0000       1032.631       151.7083         0.9684         0.9703         147.86       4.405563              1
      4143.5000       1014.096       151.4604         0.9861         0.9805       148.1503       4.702118              1
      4144.0000       994.0358       150.7825          1.006         0.9977        148.002       4.560059              1
      4144.5000       955.5662       149.6509         1.0465         1.0437       146.9549       3.519196              1
      4145.0000        918.358       147.5933         1.0889         1.0926       147.5379       4.108444              1
      4145.5000       890.1549       145.4098         1.1234         1.1369       148.1998       4.776581              1
      4146.0000       880.1268       143.9806         1.1362          1.172       148.0257       4.608719              1
      4146.5000       870.2463       143.0911         1.1491         1.1931       146.8829       3.472168              1
      4147.0000       858.8852       143.0891         1.1643         1.2149       146.1012       2.696701              1
      4147.5000        844.666       143.0836         1.1839          1.224       146.4172       3.018951              1
      4148.0000       828.8438       142.5937         1.2065          1.221       146.4299       3.037888              1
      4148.5000       813.8021       141.9209         1.2288         1.2189       145.9703       2.584534              1
      4149.0000        786.782       140.4687          1.271          1.224       145.5373       2.157761              1
      4149.5000       761.1509       138.6223         1.3138         1.2471       145.8582       2.484909              1
      4150.0000       740.5214       136.0099         1.3504         1.3703       145.3765        2.00946              1
      4150.5000       714.0307        133.223         1.4005         1.5051       144.0495      0.6887054              1
      4151.0000       687.1436       127.9586         1.4553          1.542       142.7062     -0.6483459              1
      4151.5000       664.3194       120.1812         1.5053         1.5691         141.59      -1.758316      0.9890099
      4152.0000       642.1783       115.0049         1.5572         1.6008       141.0324      -2.309677      0.9810192
      4152.5000       620.8481        109.578         1.6107         1.6255        140.666       -2.66983      0.9757996
      4153.0000        602.192       107.2957         1.6606         1.6337       140.1425      -3.187088      0.9683031
      4153.5000       593.6479       105.0631         1.6845         1.6143       139.7217      -3.601654      0.9622949
      4154.0000       593.6127       104.4506         1.6846         1.5912       139.2498      -4.067307      0.9555463
      4154.5000       593.5422       104.9996         1.6848         1.5682        138.598       -4.71286      0.9461904
      4155.0000        592.698       107.1093         1.6872         1.5481       137.5876      -5.717026      0.9316373
      4155.5000       585.0348       111.1426         1.7093         1.5297       135.6246      -7.673782      0.9032785
      4156.0000       579.4078       112.7887         1.7259         1.5726       136.2596      -7.032547      0.9125718
      4156.5000       576.7013       104.3737          1.734         1.6276       137.7854      -5.500488      0.9347755
      4157.0000       587.3025        99.1524         1.7027         1.6522       139.3373      -3.942352      0.9573572
      4157.5000       603.1363        97.2673          1.658         1.6676       139.9471      -3.326309      0.9662853
      4158.0000       627.5494        96.2697         1.5935         1.6845       139.9618      -3.305359       0.966589
