#------------------------------------------------------------------------------
# Created by    : vladimir.rabinovich
# Created on    : 09/19/2023 17:20:53
#------------------------------------------------------------------------------
~Version Information Section
VERS.           2.0     :   CWLS log ASCII Standard - VERSION 2.0
WRAP.           NO      :   One line per depth step
~Well Information Section
#MNEM       .UNIT                                         VALUE :DESCRIPTION
#------------------------------------------------------------------------------
STRT        .FT                                             875 :START DEPTH
STOP        .FT                                            6380 :STOP DEPTH
STEP        .FT                                             0.5 :STEP      
NULL        .                                           -999.25 :NULL      
COMP        .                       ENERGY DEVELOPMENT CORP N J :COMPANY   
WELL        .                                   STATE TRACT 241 :WELL      
FLD         .                                           WILDCAT :FIELD     
LOC         .                                                   :LOCATION  
CNTY        .                                           CALHOUN :LOCATION  
STAT        .                                             TEXAS :STATE     
CTRY        .                                     UNITED STATES :COUNTRY   
SRVC        .                                                   :SERVICE COMPANY
DATE        .                             9/13/2023 11:19:11 AM :LOG DATE  
API         .                                    42057314130000 :API NUMBER
UWI         .                                    42057314130000 :UNIQUE WELL ID
XCOORD      .                                  544841.599058466 :SURFACE X 
YCOORD      .                                   10330281.839261 :SURFACE Y 
LAT         .                                        28.4235103 :LATITUDE  
LON         .                                       -96.4085418 :LONGITUDE 
ELEV        .FT                                              34 :ELEVATION VALUE
ELEV_TYPE   .                                                KB :ELEVATION REFERENCE TYPE
~Curve Information Section
#MNEM       .UNIT                                      API CODE :CURVE DESCRIPTION
#------------------------------------------------------------------------------
DEPT        .FT                                                 :DEPTH     
ASN         .OHMM                                               :          
DCAL        .IN                                                 :          
DPHI        .V/V                                                :          
DRHO        .G/CC                                               :          
GR          .GAPI                                               :          
GR_NORM     .GAPI                                               :GammaRay Normalized
ILD         .OHMM                                               :          
ILD_LNR     .OHMM                                               :          
ILM         .OHMM                                               :          
NPHI        .V/V                                                :          
SFLU        .OHMM                                               :          
SP          .MV                                                 :          
SP_NORM     .MV                                                 :SP Normalized
TENS        .LB                                                 :          
VSH_GR      .V/V                                                :Volume of Shale from GR
VSH_SP      .V/V                                                :Volume of Shale from SP
~A        DEPTH            ASN           DCAL           DPHI           DRHO             GR        GR_NORM            ILD        ILD_LNR            ILM           NPHI           SFLU             SP        SP_NORM           TENS         VSH_GR         VSH_SP
# ...
      3067.0000         1.1359         3.6634         0.1616        -0.0079        69.2079       65.55698         1.3726         1.2946         1.3354         0.3303         1.3539        -9.3069     -0.6322384       1303.922      0.6927016              1
      3067.5000         1.1805         3.6436         0.1663        -0.0109        65.7921       60.90269          1.457         1.3334         1.4371         0.3154         1.5466        -8.9109     -0.2411671       1303.922      0.5936742              1
      3068.0000         1.2231         3.4851         0.1865        -0.0139        63.2673       57.46245         1.5466         1.3776         1.5466         0.3166         1.7669        -9.1089     -0.4440956       1303.922      0.5204777              1
      3068.5000         1.2718         3.3267         0.2276        -0.0168        61.4851       55.03407         1.5609         1.3774         1.5971         0.3487         1.9817         -9.505     -0.8451242       1303.922      0.4688101              1
      3069.0000         1.3371         3.8614         0.2524        -0.0208        63.2673       57.46245         1.5396         1.3773         1.5971         0.3808         1.7832         -9.901      -1.246052       1294.118      0.5204777      0.9959664
      3069.5000          1.427         5.0891         0.2571        -0.0238        62.9703       57.05777         1.4977          1.377         1.5753         0.3867         1.4637        -10.099       -1.44898        1274.51      0.5118675      0.9926397
      3070.0000         1.5222         6.2178         0.2388        -0.0238        61.4851       55.03407         1.4504         1.3769         1.5538         0.3612         1.2238       -10.6931      -2.048009       1284.314      0.4688101      0.9828195
      3070.5000         1.5282         6.4723         0.2165        -0.0199         60.297        53.4152         1.3853          1.366         1.5325         0.3339         1.2238       -14.4635      -5.823338       1294.118      0.4343659      0.9209289
      3071.0000         1.4637         4.9469         0.2018        -0.0133        60.4455       53.61754         1.3231         1.3268         1.5046         0.3161         1.3539       -18.8165      -10.18127       1294.118       0.438671      0.8494874
      3071.5000         1.4448         3.2475         0.1965        -0.0155         59.704       52.60718         1.2408         1.2868          1.484         0.3287         1.5396       -24.7525      -16.12219       1294.118      0.4171741      0.7520952
      3072.0000         1.4451         2.4158           0.21        -0.0217          58.22       50.58512         1.1851         1.2567         1.4437         0.3372         1.7996        -29.703      -21.07762       1313.725      0.3741516      0.6708587
      3072.5000         1.4594         2.2373         0.2212        -0.0287        56.7327       48.55856         1.1216          1.239          1.411         0.3181         2.0648       -35.8416      -27.22115       1333.742      0.3310333      0.5701451
      3073.0000         1.5539         1.9802         0.2107        -0.0327        56.5842       48.35622         1.0911         1.1967         1.3981         0.2985         2.4107       -39.0099      -30.39438       1334.563      0.3267282      0.5181249
      3073.5000         1.7369         1.8614         0.1966        -0.0327        55.8416       47.34437         1.0664         1.1606         1.3726         0.2768         2.8146       -41.5842      -32.97361       1305.795      0.3051994      0.4758424
      3074.0000         2.0279         1.7228         0.1895        -0.0277        53.4653       44.10649         1.0232         1.1214         1.3539         0.2705         2.9191       -44.5545      -35.94884       1286.774      0.2363082      0.4270682
      3074.5000         2.3623         1.6436         0.2079        -0.0218        49.7525       39.04752         0.9954         1.0468         1.3354         0.2812         2.7764       -48.1188      -39.51807       1287.129      0.1286706      0.3685563
      3075.0000         2.6192          1.604          0.218        -0.0168        47.3762       35.80963          0.964         1.0131         1.3231           0.29          2.593       -51.6832      -43.08739       1316.832     0.05977939      0.3100427
      3075.5000         2.6691          1.604         0.2156        -0.0208        45.5941       33.38138         0.9293         0.9739         1.2638         0.2841         2.5231       -55.0495      -46.45862       1346.535     0.00811451      0.2547767
      3076.0000         2.6817          1.604         0.2127        -0.0218        45.5941       33.38138         0.8959          0.897         1.2465           0.27         2.6528       -58.0198      -49.43385       1336.634     0.00811451      0.2060025
      3076.5000         2.6908         1.5822         0.2275        -0.0228        46.9307        35.2026          0.864          0.894         1.2295         0.2729         2.8534       -58.8119      -50.23088       1327.565     0.04686388      0.1929364
      3077.0000         2.7073         1.5586         0.2441        -0.0238        48.2673       37.02381         0.8371         0.8264         1.2126         0.2929         3.0407        -59.604      -51.02791        1299.63       0.085613      0.1798704
      3077.5000         2.7772         1.5351         0.2629        -0.0257        47.2277       35.60728         0.8073         0.7872         1.1851         0.3131          3.082       -60.7921      -52.22093       1291.513     0.05547406      0.1603126
      3078.0000         2.8348         1.5313         0.2788        -0.0267        46.1881       34.19075         0.7782         0.7172         1.1114         0.3333         3.0271       -61.5842      -53.01797       1303.068     0.02533511      0.1472464
      3078.5000         2.8399          1.568          0.293        -0.0287         46.483       34.59257         0.7501         0.6789          1.047         0.3583         2.9191       -63.1966      -54.63529       1363.971      0.0338845      0.1207329
      3079.0000         2.7901          1.567         0.2979        -0.0307        47.2191       35.59557          0.713         0.6396         0.9909          0.359         2.7512       -64.2351      -55.67872       1346.814      0.0552248      0.1036276
      3079.5000         2.7102         1.5462         0.3033        -0.0307         46.771       34.98499          0.672         0.5972         0.9465         0.3521         2.5695       -64.6796      -56.12815       1319.853     0.04223389     0.09625982
      3080.0000          2.518         1.5649         0.3082        -0.0317        45.1472       32.77245         0.6364         0.5911         0.8719         0.3427         2.3889       -65.1242      -56.57767       1302.696              0     0.08889057
      3080.5000         2.4333          1.604         0.3095        -0.0287        44.4059       31.76237         0.6027          0.567         0.8073         0.3333         2.1611       -65.7426        -57.201       1303.922              0     0.07867207
      3081.0000         2.3509         1.5644         0.3083        -0.0248             45       32.57187         0.5678         0.5668          0.764         0.3291         2.0461       -66.1386      -57.60194       1313.725              0      0.0720994
      3081.5000         2.1604         1.5446         0.3071        -0.0248        45.5882       33.37334         0.5369         0.5666         0.7196         0.3392         1.9368       -66.3366      -57.80486       1313.725    0.007943336     0.06877274
      3082.0000         2.0016          1.505         0.3083        -0.0248        45.2941       32.97261         0.5073         0.5664         0.6781         0.3493         1.8584       -65.9406      -57.41379       1323.529              0     0.07518381
      3082.5000         1.8423          1.505         0.3089        -0.0287        46.0294       33.97451         0.4821         0.5883         0.6393         0.3582         1.7914       -65.5446      -57.02272       1313.725     0.02073426     0.08159475
