#------------------------------------------------------------------------------
# Created by    : vladimir.rabinovich
# Created on    : 09/19/2023 17:22:37
#------------------------------------------------------------------------------
~Version Information Section
VERS.           2.0     :   CWLS log ASCII Standard - VERSION 2.0
WRAP.           NO      :   One line per depth step
~Well Information Section
#MNEM       .UNIT                                         VALUE :DESCRIPTION
#------------------------------------------------------------------------------
STRT        .FT                                           554.5 :START DEPTH
STOP        .FT                                            5893 :STOP DEPTH
STEP        .FT                                             0.5 :STEP      
NULL        .                                           -999.25 :NULL      
COMP        .                              NEUMIN PRODUCTION CO :COMPANY   
WELL        .                                         ST TR 186 :WELL      
FLD         .                                           WILDCAT :FIELD     
LOC         .                                                   :LOCATION  
CNTY        .                                           CALHOUN :LOCATION  
STAT        .                                             TEXAS :STATE     
CTRY        .                                     UNITED STATES :COUNTRY   
SRVC        .                                                   :SERVICE COMPANY
DATE        .                             9/13/2023 11:18:59 AM :LOG DATE  
API         .                                    42057313020000 :API NUMBER
UWI         .                                    42057313020000 :UNIQUE WELL ID
XCOORD      .                                  487252.476079587 :SURFACE X 
YCOORD      .                                  10287942.6245796 :SURFACE Y 
LAT         .                                         28.302642 :LATITUDE  
LON         .                                       -96.5835194 :LONGITUDE 
ELEV        .FT                                              22 :ELEVATION VALUE
ELEV_TYPE   .                                                KB :ELEVATION REFERENCE TYPE
~Curve Information Section
#MNEM       .UNIT                                      API CODE :CURVE DESCRIPTION
#------------------------------------------------------------------------------
DEPT        .FT                                                 :DEPTH     
DCAL        .INCHES                                             :          
DPHI        .NONE                                               :          
GR          .GAPI                                               :          
GR_NORM     .GAPI                                               :GammaRay Normalized
ILD         .OHMM                                               :          
NPHI        .NONE                                               :          
VSH_GR      .V/V                                                :Volume of Shale from GR
~A        DEPTH           DCAL           DPHI             GR        GR_NORM            ILD           NPHI         VSH_GR
# ...
      1258.0000         0.5107         0.3901        39.2681       46.47183         0.5324         0.3938      0.2866347
      1258.5000         0.5222         0.3874        44.6547       54.25686         0.5505         0.3938      0.4522736
      1259.0000         0.5394         0.3825          53.33       73.40326         0.5915         0.3901      0.8596438
      1259.5000         0.4515         0.3731        70.4889       76.44123         0.6174         0.3842      0.9242815
      1260.0000         0.3337         0.3651        87.1144       79.47919         0.6389         0.3925       0.988919
      1260.5000         0.1688         0.3562        92.1783       82.51718         0.6784         0.4104              1
      1261.0000         0.0937         0.3513         95.159       85.12115         0.7425         0.4153              1
      1261.5000          0.075         0.3478        96.6621       85.12116         0.8581         0.4159              1
      1262.0000         0.0547         0.3395        91.2596       85.77216          0.948         0.4135              1
      1262.5000         0.0352         0.3279         81.426       86.42316         1.0531         0.3997              1
      1263.0000        -0.0199         0.3186        73.0157       80.56419         1.1479           0.37              1
      1263.5000         -0.065          0.311        58.7367       74.70524         1.2061         0.3472      0.8873455
      1264.0000        -0.0831         0.3048        52.7129       70.79928          1.219         0.3269        0.80424
      1264.5000        -0.0841         0.3019        52.5611       65.44019         1.2189         0.3205      0.6902169
      1265.0000        -0.0851         0.3051        52.5726       65.43375         1.2187          0.323      0.6900799
      1265.5000        -0.0861          0.317        52.4862       65.28539         1.2186          0.337      0.6869231
      1266.0000        -0.0871         0.3188        52.3551       65.07224         1.2053         0.3602      0.6823881
      1266.5000         -0.088         0.3175        51.7032       64.10418          1.168         0.3747       0.661791
      1267.0000         -0.089         0.3072        50.7192       62.65471         1.1126         0.3702      0.6309512
      1267.5000        -0.0817         0.3024         48.031       58.73491         1.0241         0.3635      0.5475512
      1268.0000        -0.0604          0.307        45.9069        55.6328          0.939         0.3509      0.4815491
      1268.5000         0.0146         0.3184          42.87       51.20756         0.9153         0.3452      0.3873948
      1269.0000         0.0679         0.3266        40.2613       47.40301         0.8874         0.3418       0.306447
      1269.5000         0.1814         0.3301         39.579       46.39087         0.8717         0.3408       0.284912
      1270.0000         0.2598         0.3319        39.8197       46.71666         0.8688         0.3424      0.2918437
      1270.5000         0.3633         0.3348        43.9751       52.71701         0.8976         0.3583      0.4195108
      1271.0000         0.4695         0.3339        48.6506       59.47125         0.9509          0.384      0.5632181
      1271.5000         0.5821         0.3179        53.3803       66.30406         1.0427          0.397      0.7085971
      1272.0000         0.6746         0.2935         55.184       68.89551         1.1426         0.3985      0.7637342
      1272.5000         0.7365         0.2856        56.6084       70.93712          1.216         0.3952      0.8071727
      1273.0000         0.7566         0.2834        56.6289       70.94373         1.2781         0.3786      0.8073135
      1273.5000         0.5844         0.2825        54.9749       68.52306         1.3292         0.3838      0.7558098
      1274.0000          0.414         0.2857        55.0314       68.58184         1.3806         0.3879      0.7570604
      1274.5000         0.3859         0.2909        56.1183       70.13425         1.3961         0.3873      0.7900905
      1275.0000         0.3545         0.2928        57.1128        71.5527         1.3998         0.3892      0.8202703
      1275.5000         0.3533           0.29        56.3655       70.44636         1.3898         0.3925       0.796731
      1276.0000         0.3218         0.2868        55.6352       69.36462         1.3855         0.3908      0.7737154
      1276.5000         0.2902         0.2854        54.6183       67.86748         1.3694         0.3828      0.7418612
      1277.0000         0.2584         0.2837        54.2861        67.3628         1.3386         0.3678      0.7311234
      1277.5000         0.2469         0.2825         53.674       66.45243         1.3085         0.3636      0.7117538
      1278.0000         0.1953         0.2792         52.812        65.1798         1.2767          0.363      0.6846766
      1278.5000         0.1944         0.2755        52.8195       65.16756         1.2634         0.3765      0.6844162
      1279.0000         0.1934         0.2746        53.0584       65.49075         1.2491          0.388      0.6912925
      1279.5000         0.1922         0.3004        54.1508       67.05111         1.2409         0.3862      0.7244917
      1280.0000         0.1914         0.3051        56.7328       70.77074         1.2382         0.3778      0.8036329
      1280.5000         0.1904         0.3051        58.5915       73.44191          1.232         0.3623      0.8604662
      1281.0000         0.1718         0.3047        58.9383        73.9215         1.1975         0.3451      0.8706703
      1281.5000         0.1578         0.3002        56.0857        69.7634         1.1432         0.3376      0.7821999
      1282.0000          0.126         0.2942        51.7267        63.4217         1.0776         0.3357      0.6472702
      1282.5000         0.1251         0.2927        49.1737       59.69788         1.0725         0.3293        0.56804
      1283.0000         0.1241         0.2906        49.0031       59.42746          1.085         0.3238      0.5622864
      1283.5000          0.105         0.2902        47.9204       57.83493         1.0925         0.3357      0.5284027
      1284.0000         0.0609         0.2915        46.4866       55.73346         1.0911         0.3472      0.4836906
      1284.5000         0.0292         0.2907        45.8216        54.7464          1.077         0.3492      0.4626893
      1285.0000         0.0283         0.2889        45.3686       54.06663          1.074         0.3451      0.4482262
      1285.5000         0.0273         0.2898        45.6093       54.39243         1.0693          0.344       0.455158
      1286.0000         0.0263         0.2932        45.9618       54.88027         1.0455         0.3552      0.4655377
      1286.5000         0.0253         0.3061        46.0852       55.03604         1.0292         0.3682      0.4688519
      1287.0000         0.0242         0.3194        45.4085       54.03201         0.9963         0.3708      0.4474895
      1287.5000         0.0233         0.3154        44.8805       53.24353         0.9794         0.3708      0.4307135
      1288.0000         0.0223         0.3084        44.7372        53.0127         0.9683          0.369      0.4258021
      1288.5000         0.0213         0.3032        44.6453       52.85638         0.9616         0.3564      0.4224762
      1289.0000        -0.0103         0.2991        44.7948       53.04996         0.9615         0.3391       0.426595
      1289.5000        -0.0114         0.2984        45.4541       53.98254         0.9614         0.3185       0.446437
      1290.0000        -0.0123         0.2984        46.5606       55.56335         0.9582         0.3081      0.4800714
      1290.5000        -0.0133         0.2966        47.5387       56.95804         0.9263         0.3057      0.5097455
      1291.0000        -0.0143         0.2909        48.1452       57.81407         0.8895         0.3057      0.5279589
