#------------------------------------------------------------------------------
# Created by    : vladimir.rabinovich
# Created on    : 09/19/2023 17:22:37
#------------------------------------------------------------------------------
~Version Information Section
VERS.           2.0     :   CWLS log ASCII Standard - VERSION 2.0
WRAP.           NO      :   One line per depth step
~Well Information Section
#MNEM       .UNIT                                         VALUE :DESCRIPTION
#------------------------------------------------------------------------------
STRT        .FT                                           554.5 :START DEPTH
STOP        .FT                                            5893 :STOP DEPTH
STEP        .FT                                             0.5 :STEP      
NULL        .                                           -999.25 :NULL      
COMP        .                              NEUMIN PRODUCTION CO :COMPANY   
WELL        .                                         ST TR 186 :WELL      
FLD         .                                           WILDCAT :FIELD     
LOC         .                                                   :LOCATION  
CNTY        .                                           CALHOUN :LOCATION  
STAT        .                                             TEXAS :STATE     
CTRY        .                                     UNITED STATES :COUNTRY   
SRVC        .                                                   :SERVICE COMPANY
DATE        .                             9/13/2023 11:18:59 AM :LOG DATE  
API         .                                    42057313020000 :API NUMBER
UWI         .                                    42057313020000 :UNIQUE WELL ID
XCOORD      .                                  487252.476079587 :SURFACE X 
YCOORD      .                                  10287942.6245796 :SURFACE Y 
LAT         .                                         28.302642 :LATITUDE  
LON         .                                       -96.5835194 :LONGITUDE 
ELEV        .FT                                              22 :ELEVATION VALUE
ELEV_TYPE   .                                                KB :ELEVATION REFERENCE TYPE
~Curve Information Section
#MNEM       .UNIT                                      API CODE :CURVE DESCRIPTION
#------------------------------------------------------------------------------
DEPT        .FT                                                 :DEPTH     
DCAL        .INCHES                                             :          
DPHI        .NONE                                               :          
GR          .GAPI                                               :          
GR_NORM     .GAPI                                               :GammaRay Normalized
ILD         .OHMM                                               :          
NPHI        .NONE                                               :          
VSH_GR      .V/V                                                :Volume of Shale from GR
~A        DEPTH           DCAL           DPHI             GR        GR_NORM            ILD           NPHI         VSH_GR
# ...
      5479.0000           -0.4         0.2048        73.4196       74.90035         1.2176          0.394      0.8914968
      5479.5000        -0.3308         0.2067        73.7545       75.32364         1.2254         0.4018       0.900503
      5480.0000        -0.2197         0.2021        71.4709       72.59432         1.2006         0.4086      0.8424324
      5480.5000        -0.1929          0.185        69.2898       69.98842         1.0421         0.4129      0.7869876
      5481.0000        -0.1157         0.1684        67.2599       67.56455         0.8173         0.3678       0.735416
      5481.5000        -0.1006         0.1726        62.0454        61.3065         0.5365         0.3155       0.602266
      5482.0000        -0.0506         0.2442        53.7201       51.30316         0.4089         0.2914      0.3894289
      5482.5000        -0.0232         0.3015        46.5106        42.6432         0.4019         0.2977      0.2051746
      5483.0000         0.0077          0.316        42.9387       38.36281         0.4035         0.3246      0.1141023
      5483.5000         0.0385         0.3199        40.7329       35.72716         0.4215          0.334     0.05802471
      5484.0000         0.1184         0.2942        40.8015       35.82983         0.4659         0.2249     0.06020923
      5484.5000         0.1308         0.2254        42.8733       38.34429         0.5338         0.1865      0.1137083
      5485.0000        -0.0833         0.1379        46.5504        42.7915         0.5776         0.1628      0.2083298
      5485.5000        -0.2792         0.1267        49.9062       46.85187         0.6077         0.1556      0.2947206
      5486.0000        -0.3585         0.1536        53.1873        50.8223         0.6228         0.1526      0.3791979
      5486.5000        -0.3582         0.2224        54.1441       51.99433         0.5772         0.1779      0.4041347
      5487.0000        -0.3068         0.2639        53.5295       51.27445         0.4961         0.2363      0.3888181
      5487.5000        -0.2353         0.2912        50.0689       47.12807         0.4067         0.3016      0.3005972
      5488.0000        -0.2044         0.3034        44.7652       40.76263         0.3152          0.329      0.1651624
      5488.5000        -0.2042         0.3053        41.8292       37.24785         0.2566         0.3232     0.09037975
      5489.0000        -0.2039         0.3062        39.5049       34.46954         0.2342         0.3214      0.0312668
      5489.5000        -0.2037         0.3175        38.4712       33.24506         0.2309         0.3369    0.005213961
      5490.0000        -0.2035          0.329         38.711       33.55384         0.2374         0.3559     0.01178392
      5490.5000        -0.2033         0.3283        39.5298       34.55974         0.2397         0.3473       0.033186
      5491.0000         -0.203         0.3242        42.4525       38.09866         0.2441         0.3401      0.1084821
      5491.5000        -0.2028         0.3237        45.7461       42.08414          0.242         0.3457      0.1932797
      5492.0000        -0.2026         0.3228        46.6629       43.20803         0.2361         0.3518      0.2171921
      5492.5000        -0.2024         0.3259        45.5277       41.86135         0.2307         0.3559      0.1885393
      5493.0000        -0.2021          0.333        43.9273       39.95459         0.2283         0.3574        0.14797
      5493.5000        -0.2019         0.3415        43.0263       38.88989         0.2274         0.3616      0.1253168
      5494.0000        -0.2017         0.3488        42.2923       38.02625         0.2274         0.3641      0.1069414
      5494.5000         -0.222         0.3496        41.1999       36.73111         0.2328         0.3646     0.07938523
      5495.0000        -0.2409         0.3404        39.9833       35.28643         0.2388          0.349     0.04864746
      5495.5000        -0.2929         0.3265        38.6919       33.75169         0.2397         0.3246      0.0159934
      5496.0000        -0.3398         0.3182        39.1215       34.28899         0.2407         0.3178      0.0274254
      5496.5000        -0.3537         0.3135        42.1749       37.98529         0.2438         0.3126        0.10607
      5497.0000        -0.3534          0.311        44.4507       40.74537         0.2437         0.3175       0.164795
      5497.5000        -0.3838         0.3109        43.6867        39.8456         0.2417          0.331      0.1456511
      5498.0000        -0.3836         0.3139        38.6362       33.78502         0.2386         0.3274     0.01670253
      5498.5000        -0.3834         0.3174        35.7658       30.34922         0.2391         0.3225              0
      5499.0000        -0.3525         0.3171        35.3062       29.81594         0.2419         0.3199              0
      5499.5000        -0.3216         0.3147        36.0042        30.6764         0.2462          0.317              0
      5500.0000        -0.3055         0.3118         36.492       31.28377         0.2506         0.3145              0
      5500.5000        -0.2599         0.3098         37.168       32.11773         0.2576         0.3141              0
      5501.0000        -0.2291         0.3064        37.6364       32.70175         0.2654         0.3136              0
      5501.5000        -0.2289         0.3047        39.5138       34.98217         0.2744         0.3136     0.04217383
      5502.0000        -0.2286         0.3018        41.5524       37.45665         0.2775         0.3183     0.09482241
      5502.5000        -0.2284         0.3028        40.6461       36.38557         0.2781         0.3292     0.07203341
      5503.0000        -0.2282         0.3031        40.9782       36.80549         0.2761         0.3374     0.08096793
      5503.5000        -0.2279         0.3074        41.8395       37.86255         0.2761         0.3421      0.1034584
      5504.0000        -0.2277         0.3152        42.8147       39.05674         0.2758         0.3348      0.1288668
      5504.5000        -0.2275         0.3233        44.1672       40.70519         0.2741         0.3262      0.1639402
      5505.0000        -0.2272         0.3295        45.2782       42.06287         0.2676          0.327      0.1928271
      5505.5000         -0.227         0.3277        45.3883       42.21551         0.2626         0.3311      0.1960747
      5506.0000        -0.2268         0.3217         45.253       42.07269         0.2555         0.3321       0.193036
      5506.5000        -0.2266         0.3176        44.6182       41.32848         0.2486         0.3321      0.1772018
      5507.0000        -0.2263         0.3208        42.9916       39.39018          0.238         0.3273      0.1359613
      5507.5000        -0.2261         0.3332        40.6489       36.58971         0.2297         0.3247     0.07637681
      5508.0000        -0.2712         0.3417        38.4536       33.96671         0.2214         0.3275      0.0205682
      5508.5000        -0.2869         0.3424        38.0024       33.44355         0.2171         0.3382    0.009437318
      5509.0000        -0.2866         0.3424        38.4705       34.02721          0.215         0.3432     0.02185562
      5509.5000        -0.2864         0.3424        39.5755       35.37769         0.2125         0.3367     0.05058905
      5510.0000        -0.2862         0.3434        40.3234        36.2982         0.2125         0.3293     0.07017444
      5510.5000         -0.286         0.3443        40.3334       36.33032         0.2124         0.3266     0.07085784
      5511.0000        -0.2857         0.3449        39.4425       35.27778         0.2169         0.3291     0.04846346
      5511.5000        -0.2855         0.3471        38.2363       33.84562         0.2334         0.3259      0.0179919
      5512.0000        -0.2853         0.3466        37.6092       33.11069         0.2449         0.3156    0.002355129
