#------------------------------------------------------------------------------
# Created by    : vladimir.rabinovich
# Created on    : 09/19/2023 17:20:53
#------------------------------------------------------------------------------
~Version Information Section
VERS.           2.0     :   CWLS log ASCII Standard - VERSION 2.0
WRAP.           NO      :   One line per depth step
~Well Information Section
#MNEM       .UNIT                                         VALUE :DESCRIPTION
#------------------------------------------------------------------------------
STRT        .FT                                             875 :START DEPTH
STOP        .FT                                            6380 :STOP DEPTH
STEP        .FT                                             0.5 :STEP      
NULL        .                                           -999.25 :NULL      
COMP        .                       ENERGY DEVELOPMENT CORP N J :COMPANY   
WELL        .                                   STATE TRACT 241 :WELL      
FLD         .                                           WILDCAT :FIELD     
LOC         .                                                   :LOCATION  
CNTY        .                                           CALHOUN :LOCATION  
STAT        .                                             TEXAS :STATE     
CTRY        .                                     UNITED STATES :COUNTRY   
SRVC        .                                                   :SERVICE COMPANY
DATE        .                             9/13/2023 11:19:11 AM :LOG DATE  
API         .                                    42057314130000 :API NUMBER
UWI         .                                    42057314130000 :UNIQUE WELL ID
XCOORD      .                                  544841.599058466 :SURFACE X 
YCOORD      .                                   10330281.839261 :SURFACE Y 
LAT         .                                        28.4235103 :LATITUDE  
LON         .                                       -96.4085418 :LONGITUDE 
ELEV        .FT                                              34 :ELEVATION VALUE
ELEV_TYPE   .                                                KB :ELEVATION REFERENCE TYPE
~Curve Information Section
#MNEM       .UNIT                                      API CODE :CURVE DESCRIPTION
#------------------------------------------------------------------------------
DEPT        .FT                                                 :DEPTH     
ASN         .OHMM                                               :          
DCAL        .IN                                                 :          
DPHI        .V/V                                                :          
DRHO        .G/CC                                               :          
GR          .GAPI                                               :          
GR_NORM     .GAPI                                               :GammaRay Normalized
ILD         .OHMM                                               :          
ILD_LNR     .OHMM                                               :          
ILM         .OHMM                                               :          
NPHI        .V/V                                                :          
SFLU        .OHMM                                               :          
SP          .MV                                                 :          
SP_NORM     .MV                                                 :SP Normalized
TENS        .LB                                                 :          
VSH_GR      .V/V                                                :Volume of Shale from GR
VSH_SP      .V/V                                                :Volume of Shale from SP
~A        DEPTH            ASN           DCAL           DPHI           DRHO             GR        GR_NORM            ILD        ILD_LNR            ILM           NPHI           SFLU             SP        SP_NORM           TENS         VSH_GR         VSH_SP
# ...
      3787.0000         1.0323            8.9         0.3522        -0.0455        32.5248       38.65106         0.4074         0.3622         0.4887         0.3612         1.0279          -69.2      -54.27084       1490.196      0.1202354     0.09710435
      3787.5000         1.0311           9.18         0.3546        -0.0475        33.1188       39.40057         0.4092         0.3621         0.4887         0.3659         1.0327          -68.8      -53.88231       1480.392      0.1361823      0.1036897
      3788.0000         1.0262           9.14         0.3552        -0.0495        34.1584       40.72081         0.4092         0.3619         0.4887         0.3642         1.0327          -68.2      -53.29375       1480.392      0.1642725      0.1136652
      3788.5000         1.0202         8.2397          0.357        -0.0446        34.4554        41.0899         0.4092         0.3916          0.491         0.3624         1.0327       -68.2165      -53.32171       1480.982      0.1721255      0.1131914
      3789.0000         1.0138         6.9505         0.3594        -0.0446        35.6436       42.60046         0.4092         0.3915          0.491          0.363         1.0232       -68.2458      -53.36246       1482.165      0.2042651      0.1125007
      3789.5000         1.0039         6.9505         0.3713        -0.0426        36.2376       43.34996         0.4092         0.3913          0.491         0.3677         0.9954        -68.275      -53.40312       1483.354      0.2202118      0.1118115
      3790.0000         0.9807         7.1485         0.3861        -0.0337        38.4653       46.19194         0.4074         0.3911         0.4887         0.3665         0.9596       -68.5023      -53.64187       1484.549      0.2806795      0.1077649
      3790.5000         0.9664         7.4089         0.4027        -0.0178        39.2079       47.13177         0.3963          0.391         0.4843         0.3552         0.9251       -68.9109      -54.06193       1485.149       0.300676      0.1006453
      3791.0000         0.9705         7.6711          0.418         -0.002        39.6535        47.6912         0.3926         0.3909         0.4734         0.3782         0.9083       -69.3069      -54.46938        1495.05      0.3125786     0.09373926
      3791.5000         0.9905          7.874         0.4208         0.0119         39.505       47.48969         0.3783         0.3702         0.4628          0.406         0.9465        -69.901      -55.07494        1495.05      0.3082913     0.08347553
      3792.0000          1.002         8.1743         0.4183          0.002        38.4653       46.14672         0.3679         0.3607         0.4523         0.4309         0.9909        -69.703       -54.8884        1504.95      0.2797174     0.08663733
      3792.5000         1.0006         8.3333         0.4117        -0.0079        37.8713        45.3746         0.3578         0.3606         0.4442         0.4542         1.0566        -70.297      -55.49385        1495.05      0.2632894     0.07637548
      3793.0000         0.9828         8.6471         0.3956        -0.0139        36.8317       44.03175         0.3464         0.3604         0.4342         0.4596         1.0566       -70.6931      -55.90141        1504.95      0.2347181     0.06946771
      3793.5000         0.9554         8.7647         0.3754         -0.005        35.3465       42.11817         0.3338         0.3304         0.4244         0.4506         1.0518       -70.6931      -55.91286        1495.05      0.1940036     0.06927355
      3794.0000         0.9303         8.3725         0.3642         0.0079         34.604       41.15585         0.3231         0.3303         0.4148         0.4296         1.0139        -70.495      -55.72622       1485.149      0.1735288     0.07243697
      3794.5000         0.9303         8.2745         0.3547          0.005        35.9406       42.85649         0.3128         0.3133         0.4074         0.4087         0.9465       -70.6931      -55.93577       1475.248      0.2097127     0.06888529
      3795.0000         0.9371          8.549         0.3494          0.001        37.4257       44.74734         0.3014         0.3001         0.4018         0.4117         0.8798       -70.8911      -56.14522       1475.248      0.2499434     0.06533522
      3795.5000         0.9421         8.5882         0.3488         -0.004        39.0594        46.8285         0.2946         0.2701         0.3963         0.4164          0.822       -71.2871      -56.55268        1495.05      0.2942235     0.05842914
      3796.0000          0.948         8.5882         0.3447        -0.0079        38.7624        46.4368         0.2866           0.27         0.3908         0.4182         0.8447       -71.6832      -56.96023        1495.05      0.2858894     0.05152149
      3796.5000          0.948          8.902         0.3312         -0.004        37.1287       44.33301         0.2802         0.2698         0.3908         0.3962         0.9041       -71.8812      -57.16969       1475.248      0.2411279      0.0479713
      3797.0000         0.9539         9.2941         0.3171         0.0059         35.495       42.22923         0.2739         0.2697         0.3872         0.3743         0.9774       -71.6832      -56.98314       1485.149      0.1963665     0.05113324
      3797.5000         0.9602         9.7059         0.3024         0.0119        35.7921       42.59846         0.2714         0.2695         0.3872         0.3766         1.0139       -71.0891      -56.40051       1475.248      0.2042225     0.06100839
      3798.0000         0.9776        10.1373         0.2853          0.003        37.7228       45.06003         0.2739         0.2992         0.3872          0.382         0.9729        -69.901      -55.22385       1465.347      0.2565964     0.08095162
      3798.5000         1.0081         9.3942         0.2752        -0.0119        39.8093       47.72116         0.2739          0.301         0.3872         0.3796         0.9729        -68.503      -53.83731       1474.552      0.3132162      0.1044524
      3799.0000          1.061         8.3346         0.2821        -0.0277        41.1537       49.43178         0.2751         0.3288          0.389         0.3707         1.0185       -66.7064      -52.05216       1473.397      0.3496123      0.1347091
      3799.5000          1.128         7.3861         0.2926        -0.0257        40.7205       48.86563         0.2919         0.3286         0.3926         0.3624         1.0185       -65.9028      -51.26002       1472.248      0.3375665      0.1481352
      3800.0000         1.1861         6.7723         0.2865        -0.0188        39.7006       47.54801         0.3201         0.3882          0.413         0.3725         1.0185       -66.2807      -51.64938       1480.918      0.3095321       0.141536
      3800.5000         1.3947         6.3366         0.2718        -0.0058        36.7745       43.78889         0.3514         0.4272         0.4401          0.382         1.0239       -67.2549      -52.63503       1480.392      0.2295509      0.1248301
      3801.0000          1.425         6.2574         0.2565         0.0053        33.8383       40.01683         0.3909         0.4849         0.4799         0.3695          1.078       -68.8235      -54.21508       1480.392      0.1492943     0.09804942
      3801.5000         1.4349         6.5743         0.2412         0.0135        31.0359       36.41615         0.4381          0.537         0.5257         0.3345         1.2662            -70      -55.40304       1480.392      0.0726841     0.07791461
      3802.0000         1.4462         6.8911         0.2265         -0.006        28.0859       32.62642         0.4887          0.604         0.5812         0.2982         1.4934       -70.7843       -56.1988       1480.392              0      0.0644272
      3802.5000         1.4541         5.1089         0.2171        -0.0238        27.7941       32.24137         0.5477          0.643         0.6435         0.2806         1.7523       -71.3725      -56.79845           1500              0     0.05426362
