#------------------------------------------------------------------------------
# Created by    : vladimir.rabinovich
# Created on    : 09/19/2023 17:20:53
#------------------------------------------------------------------------------
~Version Information Section
VERS.           2.0     :   CWLS log ASCII Standard - VERSION 2.0
WRAP.           NO      :   One line per depth step
~Well Information Section
#MNEM       .UNIT                                         VALUE :DESCRIPTION
#------------------------------------------------------------------------------
STRT        .FT                                             875 :START DEPTH
STOP        .FT                                            6380 :STOP DEPTH
STEP        .FT                                             0.5 :STEP      
NULL        .                                           -999.25 :NULL      
COMP        .                       ENERGY DEVELOPMENT CORP N J :COMPANY   
WELL        .                                   STATE TRACT 241 :WELL      
FLD         .                                           WILDCAT :FIELD     
LOC         .                                                   :LOCATION  
CNTY        .                                           CALHOUN :LOCATION  
STAT        .                                             TEXAS :STATE     
CTRY        .                                     UNITED STATES :COUNTRY   
SRVC        .                                                   :SERVICE COMPANY
DATE        .                             9/13/2023 11:19:11 AM :LOG DATE  
API         .                                    42057314130000 :API NUMBER
UWI         .                                    42057314130000 :UNIQUE WELL ID
XCOORD      .                                  544841.599058466 :SURFACE X 
YCOORD      .                                   10330281.839261 :SURFACE Y 
LAT         .                                        28.4235103 :LATITUDE  
LON         .                                       -96.4085418 :LONGITUDE 
ELEV        .FT                                              34 :ELEVATION VALUE
ELEV_TYPE   .                                                KB :ELEVATION REFERENCE TYPE
~Curve Information Section
#MNEM       .UNIT                                      API CODE :CURVE DESCRIPTION
#------------------------------------------------------------------------------
DEPT        .FT                                                 :DEPTH     
ASN         .OHMM                                               :          
DCAL        .IN                                                 :          
DPHI        .V/V                                                :          
DRHO        .G/CC                                               :          
GR          .GAPI                                               :          
GR_NORM     .GAPI                                               :GammaRay Normalized
ILD         .OHMM                                               :          
ILD_LNR     .OHMM                                               :          
ILM         .OHMM                                               :          
NPHI        .V/V                                                :          
SFLU        .OHMM                                               :          
SP          .MV                                                 :          
SP_NORM     .MV                                                 :SP Normalized
TENS        .LB                                                 :          
VSH_GR      .V/V                                                :Volume of Shale from GR
VSH_SP      .V/V                                                :Volume of Shale from SP
~A        DEPTH            ASN           DCAL           DPHI           DRHO             GR        GR_NORM            ILD        ILD_LNR            ILM           NPHI           SFLU             SP        SP_NORM           TENS         VSH_GR         VSH_SP
# ...
      6347.0000         1.0465         -2.297         0.5162         0.0416       103.9604       82.03732         0.9552         0.9533         0.9818         0.3677         0.9684           -8.8      -1.849795       2068.627              1      0.9881973
      6347.5000         1.0726        -2.2772         0.5198         0.0356       103.9604       82.03732          0.964         0.9529         1.0046         0.3713         0.9864           -8.8      -1.774272       2117.647              1      0.9892462
      6348.0000         1.0904        -2.4752         0.5228         0.0307       103.9604       82.03732         0.9729         0.9525         1.0231         0.3766         1.0419           -8.6      -1.498749       2166.667              1      0.9930729
      6348.5000         1.0963        -3.3069         0.5257         0.0228       103.9824       82.05932         0.9864         0.9521         1.0467         0.3867         1.0955        -8.5893      -1.412525       2156.863              1      0.9942705
      6349.0000         1.0989        -4.3762         0.5287         0.0168       104.0196       82.09652         0.9954         0.9517         1.0562         0.3956         1.1259        -8.3686      -1.116301       2127.451              1      0.9983847
      6349.5000          1.102        -4.7327         0.5317         0.0109       104.0567       82.13362         0.9954         0.9513         1.0562         0.3986          1.131        -7.9503      -0.622478       2098.039              1              1
      6350.0000         1.1019        -4.8119         0.5317         0.0059       104.0938       82.17072         0.9774         0.9508         1.0562         0.3992          1.131        -6.9393      0.4640455       2058.823              1              1
      6350.5000         1.1078        -4.8515         0.5317         0.0099        -999.25        -999.25         0.9684         0.9504         1.0562         0.3992         1.1362        -5.7426       1.736269       2029.412        -999.25              1
      6351.0000         1.1108        -4.8911         0.5317         0.0099        -999.25        -999.25         0.9684           0.95         1.0514         0.3992         1.1414        -4.5545       2.999892       2068.627        -999.25              1
      6351.5000         1.1135        -4.8911         0.5317         0.0099        -999.25        -999.25         0.9684         0.9495         1.0467         0.3992         1.1466        -3.7624       3.867516       2058.823        -999.25              1
      6352.0000         1.1194        -4.8911         0.5317         0.0099        -999.25        -999.25         0.9684         0.9492         1.0467         0.3992         1.1466        -3.5644       4.141039       2088.235        -999.25              1
      6352.5000         1.1193        -4.8911         0.5317         0.0099        -999.25        -999.25         0.9684         0.9488         1.0467         0.3992         1.1414        -2.5743       5.206662       2117.647        -999.25              1
      6353.0000         1.1192        -4.8911         0.5317         0.0099        -999.25        -999.25         0.9684         0.9484         1.0467         0.3992          1.131        -0.9901       6.866386       2186.274        -999.25              1
      6353.5000         1.1191        -4.8911         0.5311         0.0099        -999.25        -999.25         0.9684         0.9479         1.0467         0.3992         1.1362          0.396        8.32801       2176.471        -999.25              1
      6354.0000          1.119        -4.8911         0.5311         0.0099        -999.25        -999.25         0.9729         0.9475         1.0467         0.3992          1.131         1.7822       9.789733       2098.039        -999.25              1
      6354.5000         1.1189        -4.8911         0.5311         0.0099        -999.25        -999.25         0.9729         0.9471         1.0467         0.3992         1.1259         3.1683       11.25136       2068.627        -999.25              1
      6355.0000         1.1188        -4.8911         0.5311         0.0099        -999.25        -999.25         0.9729         0.9467         1.0514          0.398         1.1259         2.9703       11.12888       2009.804        -999.25              1
      6355.5000         1.1187        -4.8911         0.5311         0.0099        -999.25        -999.25         0.9774         0.9463         1.0514          0.398         1.1259         1.9802        10.2143       1950.495        -999.25              1
      6356.0000         1.1186        -4.8911         0.5311         0.0099        -999.25        -999.25         0.9774         0.9459         1.0514          0.398         1.1259         0.9901       9.299726       1910.891        -999.25              1
      6356.5000         1.1185        -4.8713         0.5311         0.0099        -999.25        -999.25         0.9774         0.9455         1.0562          0.398         1.1259         0.9901        9.37525       1821.782        -999.25              1
      6357.0000         1.1227        -4.8713         0.5305         0.0099        -999.25        -999.25         0.9818         0.9451         1.0562          0.398         1.1259         1.3861       9.846773       1742.574        -999.25              1
      6357.5000         1.1242        -4.8713         0.5305         0.0099        -999.25        -999.25         0.9818         0.9446         1.0562          0.398         1.1259         0.5941       9.130297       1683.168        -999.25              1
      6358.0000         1.1225        -4.8713         0.5305         0.0099        -999.25        -999.25         0.9818         0.9442         1.0611          0.398         1.1259        -0.7921        7.81962       1623.762        -999.25              1
      6358.5000         1.1212        -4.8701         0.5305         0.0099        -999.25        -999.25         0.9864         0.9438         1.0611          0.398          1.126        -2.5779       6.109344       1564.356        -999.25              1
      6359.0000         1.1239         -4.868         0.5305         0.0089        -999.25        -999.25         0.9864         0.9637         1.0612          0.398         1.1262         -8.547      0.2157669        1504.95        -999.25              1
      6359.5000         1.1178        -4.8659         0.5305         0.0089        -999.25        -999.25         0.9864         0.9729         1.0613          0.398         1.1264       -11.9574       -3.11911       1435.644        -999.25      0.9705679
      6360.0000        -999.25        -4.8638         0.5305         0.0089        -999.25        -999.25         0.9864        -999.25         1.0614          0.398         1.1267       -13.3848      -4.470985       1386.139        -999.25      0.9517919
      6360.5000        -999.25        -999.25        -999.25        -999.25        -999.25        -999.25        -999.25        -999.25        -999.25        -999.25        -999.25          -13.4      -4.410662       1326.733        -999.25      0.9526297
      6361.0000        -999.25        -999.25        -999.25        -999.25        -999.25        -999.25        -999.25        -999.25        -999.25        -999.25        -999.25          -13.2      -4.135139        1297.03        -999.25      0.9564564
      6361.5000        -999.25        -999.25        -999.25        -999.25        -999.25        -999.25        -999.25        -999.25        -999.25        -999.25        -999.25          -13.4      -4.259615       1306.931        -999.25      0.9547276
      6362.0000        -999.25        -999.25        -999.25        -999.25        -999.25        -999.25        -999.25        -999.25        -999.25        -999.25        -999.25          -13.8      -4.584092        1297.03        -999.25      0.9502209
      6362.5000        -999.25        -999.25        -999.25        -999.25        -999.25        -999.25        -999.25        -999.25        -999.25        -999.25        -999.25            -14      -4.708569        1297.03        -999.25      0.9484921
