#------------------------------------------------------------------------------
# Created by    : vladimir.rabinovich
# Created on    : 09/19/2023 17:22:37
#------------------------------------------------------------------------------
~Version Information Section
VERS.           2.0     :   CWLS log ASCII Standard - VERSION 2.0
WRAP.           NO      :   One line per depth step
~Well Information Section
#MNEM       .UNIT                                         VALUE :DESCRIPTION
#------------------------------------------------------------------------------
STRT        .FT                                           554.5 :START DEPTH
STOP        .FT                                            5893 :STOP DEPTH
STEP        .FT                                             0.5 :STEP      
NULL        .                                           -999.25 :NULL      
COMP        .                              NEUMIN PRODUCTION CO :COMPANY   
WELL        .                                         ST TR 186 :WELL      
FLD         .                                           WILDCAT :FIELD     
LOC         .                                                   :LOCATION  
CNTY        .                                           CALHOUN :LOCATION  
STAT        .                                             TEXAS :STATE     
CTRY        .                                     UNITED STATES :COUNTRY   
SRVC        .                                                   :SERVICE COMPANY
DATE        .                             9/13/2023 11:18:59 AM :LOG DATE  
API         .                                    42057313020000 :API NUMBER
UWI         .                                    42057313020000 :UNIQUE WELL ID
XCOORD      .                                  487252.476079587 :SURFACE X 
YCOORD      .                                  10287942.6245796 :SURFACE Y 
LAT         .                                         28.302642 :LATITUDE  
LON         .                                       -96.5835194 :LONGITUDE 
ELEV        .FT                                              22 :ELEVATION VALUE
ELEV_TYPE   .                                                KB :ELEVATION REFERENCE TYPE
~Curve Information Section
#MNEM       .UNIT                                      API CODE :CURVE DESCRIPTION
#------------------------------------------------------------------------------
DEPT        .FT                                                 :DEPTH     
DCAL        .INCHES                                             :          
DPHI        .NONE                                               :          
GR          .GAPI                                               :          
GR_NORM     .GAPI                                               :GammaRay Normalized
ILD         .OHMM                                               :          
NPHI        .NONE                                               :          
VSH_GR      .V/V                                                :Volume of Shale from GR
~A        DEPTH           DCAL           DPHI             GR        GR_NORM            ILD           NPHI         VSH_GR
# ...
      3033.5000         0.3371         0.2414        41.7541       38.90383         1.0646         0.2287      0.1256134
      3034.0000         0.3362         0.2168         43.413       41.16336         1.1487         0.2212      0.1736885
      3034.5000          0.366         0.1826        44.8199       43.07939         1.2046         0.2378      0.2144551
      3035.0000         0.3649         0.1693        45.5899       44.12723         1.2503         0.2445      0.2367495
      3035.5000         0.3334         0.1613        45.4195       43.89315         1.2846         0.2517      0.2317692
      3036.0000         0.3019         0.1624        41.5057        38.5563          1.303         0.2587      0.1182192
      3036.5000         0.2814         0.1763        37.3135       32.83994         1.2936         0.2611              0
      3037.0000         0.2695         0.1992        35.6855       30.61896         1.2767         0.2637              0
      3037.5000         0.2991         0.2437        35.2341       30.00186         1.1518         0.2736              0
      3038.0000         0.3432         0.2972        35.5544       30.43669         0.7794          0.295              0
      3038.5000         0.4222         0.3401        38.4627       34.39933         0.5866         0.3097      0.0297729
      3039.0000           0.48         0.3443        43.2446       40.91597         0.5004         0.3186      0.1684248
      3039.5000         0.4883         0.3355         50.863       51.29915         0.4797         0.3292      0.3893436
      3040.0000         0.5396         0.3099        56.5472       59.04574         0.4803         0.3371      0.5541647
      3040.5000         0.5693         0.2722        59.4852       63.04887         0.5108         0.3403      0.6393377
      3041.0000         0.5304         0.2371        60.9796       65.08417         0.5502         0.3362      0.6826419
      3041.5000         0.4448         0.2232        59.0432       62.44281         0.6088         0.3274      0.6264428
      3042.0000         0.2801         0.2187        54.5726       56.34694         0.6778         0.3137      0.4967434
      3042.5000         0.0756         0.2348        48.9729       48.71196         0.7219          0.308      0.3342971
      3043.0000        -0.0342         0.2621        44.0646       42.01946         0.7358         0.3009      0.1919035
      3043.5000        -0.0486         0.2896        39.9186       36.36608         0.6775         0.3124     0.07161867
      3044.0000         0.0115         0.2976        38.3713        34.2551         0.6214         0.3242     0.02670426
      3044.5000         0.0837         0.3016        39.2455       35.44498         0.5819         0.3231     0.05202078
      3045.0000         0.1629         0.2945         40.448       37.08238         0.5475         0.3213     0.08685911
      3045.5000         0.2786         0.2801        40.6862       37.40529         0.5101         0.3234     0.09372955
      3046.0000          0.382         0.2741        40.6465       37.34938         0.4933         0.3278     0.09254009
      3046.5000         0.4052         0.2725        39.5731        35.8844         0.4855         0.3287     0.06137028
      3047.0000         0.3737         0.2779        38.1056        33.8822         0.4956         0.3279     0.01877026
      3047.5000         0.4034         0.2835        36.7857       32.08121         0.5516         0.3241              0
      3048.0000         0.4223         0.2863         36.548        31.7554          0.652         0.3168              0
      3048.5000          0.463         0.2852         37.246        32.7051         0.7495         0.2986              0
      3049.0000         0.4618         0.2628        41.4029       38.36976         0.9023         0.2731      0.1142502
      3049.5000         0.5351         0.2008        45.0242       43.30432         1.1384         0.2454      0.2192409
      3050.0000         0.5851         0.1613        48.5095        48.0535         1.3104         0.2371      0.3202873
      3050.5000         0.6428         0.1452        49.9034       49.95181         1.3631         0.2623      0.3606767
      3051.0000         0.6728         0.1427         54.029       55.57381         1.3726         0.3107      0.4802939
      3051.5000         0.6717          0.151        59.3463       62.82027          1.382         0.3467      0.6344737
      3052.0000         0.6708         0.1795        64.3253       69.60558         1.2854         0.3804       0.778842
      3052.5000         0.6699         0.2226        65.4171       71.09207         1.0713         0.4035      0.8104696
      3053.0000         0.6688         0.2421        63.6169       68.63636         0.9188         0.3912      0.7582204
      3053.5000         0.6987         0.2311        61.8671       66.24934         0.8605         0.3862      0.7074329
      3054.0000         0.7284         0.2327        60.7053       64.66386         0.8129         0.3898      0.6736993
      3054.5000         0.7754         0.2459        60.5059       64.39027         0.7666         0.4045       0.667878
      3055.0000         0.7931         0.2775        62.5801        67.2159         0.7356         0.4222      0.7279978
      3055.5000         0.8176         0.2949        64.5634       69.91763         0.7179         0.4348      0.7854816
      3056.0000         0.8872         0.3011        67.6409       74.11093         0.7203         0.4489      0.8747007
      3056.5000         0.9382         0.3056        70.5253       80.05463         0.7233         0.4406              1
      3057.0000         1.0172         0.3076        72.3802       82.28629         0.7278         0.4214              1
      3057.5000         1.0722         0.3055        73.3997       83.51215         0.7344         0.4233              1
      3058.0000         1.1498         0.2995        73.9605       84.18578         0.7483         0.4263              1
      3058.5000         1.1797         0.2856        74.1081       84.36189         0.7895         0.4279              1
      3059.0000         1.1787         0.2757        71.4467       81.15607         0.8286         0.4256              1
      3059.5000         1.1978         0.2409        63.6301       71.74352         0.8549         0.3992      0.8243301
      3060.0000         1.2383         0.1989        54.6323       60.90885         0.8626         0.3003      0.5938054
      3060.5000         1.2678         0.1763        51.4492       57.07491         0.8667         0.2746      0.5122322
      3061.0000         1.2669         0.1754        51.1928       56.76463         0.8473         0.2931      0.5056305
      3061.5000          1.266          0.188        50.6779       56.14313         0.7755         0.3372       0.492407
      3062.0000         1.2649         0.2257        47.2532       52.01831         0.6726         0.3707       0.404645
      3062.5000         1.2642         0.2793        39.5345       42.72364         0.6228          0.408       0.206886
      3063.0000         1.2632         0.3198        36.6804        39.2858         0.5721         0.4194      0.1337404
      3063.5000         1.2463         0.3769        35.3265       37.65417         0.5298         0.4166     0.09902491
      3064.0000         1.1267         0.4063        34.0549       36.12162         0.5019         0.3848     0.06641753
      3064.5000         0.8928          0.392        33.6855        35.6753         0.4864         0.3407     0.05692121
      3065.0000         0.6652         0.3383        33.1524       35.03189         0.4796         0.2851     0.04323164
      3065.5000          0.493         0.2808        32.9307       34.76338         0.4899         0.2568     0.03751868
      3066.0000         0.3828         0.2233        32.8393       34.65177         0.5161         0.2397     0.03514399
      3066.5000         0.3019         0.1943        32.0305       33.67641          0.551         0.2362      0.0143918
