#------------------------------------------------------------------------------
# Created by    : vladimir.rabinovich
# Created on    : 09/19/2023 17:22:37
#------------------------------------------------------------------------------
~Version Information Section
VERS.           2.0     :   CWLS log ASCII Standard - VERSION 2.0
WRAP.           NO      :   One line per depth step
~Well Information Section
#MNEM       .UNIT                                         VALUE :DESCRIPTION
#------------------------------------------------------------------------------
STRT        .FT                                           554.5 :START DEPTH
STOP        .FT                                            5893 :STOP DEPTH
STEP        .FT                                             0.5 :STEP      
NULL        .                                           -999.25 :NULL      
COMP        .                              NEUMIN PRODUCTION CO :COMPANY   
WELL        .                                         ST TR 186 :WELL      
FLD         .                                           WILDCAT :FIELD     
LOC         .                                                   :LOCATION  
CNTY        .                                           CALHOUN :LOCATION  
STAT        .                                             TEXAS :STATE     
CTRY        .                                     UNITED STATES :COUNTRY   
SRVC        .                                                   :SERVICE COMPANY
DATE        .                             9/13/2023 11:18:59 AM :LOG DATE  
API         .                                    42057313020000 :API NUMBER
UWI         .                                    42057313020000 :UNIQUE WELL ID
XCOORD      .                                  487252.476079587 :SURFACE X 
YCOORD      .                                  10287942.6245796 :SURFACE Y 
LAT         .                                         28.302642 :LATITUDE  
LON         .                                       -96.5835194 :LONGITUDE 
ELEV        .FT                                              22 :ELEVATION VALUE
ELEV_TYPE   .                                                KB :ELEVATION REFERENCE TYPE
~Curve Information Section
#MNEM       .UNIT                                      API CODE :CURVE DESCRIPTION
#------------------------------------------------------------------------------
DEPT        .FT                                                 :DEPTH     
DCAL        .INCHES                                             :          
DPHI        .NONE                                               :          
GR          .GAPI                                               :          
GR_NORM     .GAPI                                               :GammaRay Normalized
ILD         .OHMM                                               :          
NPHI        .NONE                                               :          
VSH_GR      .V/V                                                :Volume of Shale from GR
~A        DEPTH           DCAL           DPHI             GR        GR_NORM            ILD           NPHI         VSH_GR
# ...
       923.0000         8.0116         0.3969        33.6949       40.28133         1.0129         0.3545      0.1549218
       923.5000         7.9241         0.3946        33.6995       40.26788         1.0169         0.3592      0.1546357
       924.0000         7.8688         0.3942         34.341       41.17762         1.0168         0.3606       0.173992
       924.5000         7.7691         0.3951        36.7783       44.69048         1.0167         0.3629      0.2487337
       925.0000         7.7192         0.3979        42.6588       53.19443         1.0238          0.363      0.4296687
       925.5000         7.6751         0.3943        44.3219       55.58504          1.028         0.3612      0.4805329
       926.0000         7.7046         0.3811        44.2329       55.43591         1.0308          0.352      0.4773598
       926.5000         7.7161         0.3679        40.5534       50.08216         1.0379         0.3242      0.3634503
       927.0000         7.7336         0.3603        36.8211       44.65189         1.0408         0.3172      0.2479126
       927.5000         7.7629         0.3575        33.7367       40.16077         1.0451         0.3411      0.1523568
       928.0000         7.7619         0.3613        33.0264       39.11103         1.0523         0.3576       0.130022
       928.5000         7.7608         0.3708        34.2602       40.87936         1.0522         0.3706       0.167646
       929.0000         7.7905         0.3788        36.7082       44.40773         1.0521         0.3743      0.2427177
       929.5000         7.8209         0.3751        39.3297        48.1876          1.052           0.37      0.3231404
       930.0000         7.8882         0.3655        41.0991        50.7323         1.0593         0.3615       0.377283
       930.5000         8.0303         0.3568        42.0088       52.03083         1.0638         0.3584      0.4049112
       931.0000         8.2151         0.3594        42.2544       52.36671         1.0666         0.3588      0.4120576
       931.5000         8.3158         0.3702        42.0299       52.02116         1.0739         0.3623      0.4047055
       932.0000         8.4301         0.3845        40.2044       49.35489         1.0738         0.3635      0.3479763
       932.5000         8.5075         0.3863        37.6582       45.64392          1.074         0.3608      0.2690195
       933.0000         8.5175         0.3854        38.0287       46.16085          1.086         0.3597       0.280018
       933.5000         8.4856         0.3815        37.6649       45.61337         1.0905         0.3535      0.2683696
       934.0000         8.3203         0.3747        36.7785       44.30836         1.0963         0.3302      0.2406034
       934.5000          8.235         0.3699        35.5673       42.53254         1.0961         0.2963      0.2028201
       935.0000         8.1561          0.369        33.8054       39.95846          1.096         0.2985      0.1480524
       935.5000         8.1755         0.3727        37.0546       44.64821         1.0909         0.3188      0.2478342
       936.0000         8.2355         0.3786        38.2379       46.34333         1.0729         0.3382      0.2839006
       936.5000          8.249         0.3832        39.5537       48.23052         1.0653         0.3518      0.3240536
       937.0000         8.3277         0.3866        40.4088        49.4499         1.0652         0.3647      0.3499978
       937.5000         8.3758          0.387        41.1678       50.52998         1.0651         0.3668      0.3729784
       938.0000         8.5285         0.3875        41.6623       51.22665           1.06         0.3599      0.3878011
       938.5000         8.8736         0.3881        42.1343       51.89072         1.0649         0.3263      0.4019303
       939.0000         9.2219         0.3905        42.5582       52.48505         1.0647          0.302      0.4145756
       939.5000         9.7156         0.3913        41.5189       50.95841         1.0646         0.2933      0.3820939
       940.0000         9.8813         0.3926        40.0439        48.8002          1.064         0.2832      0.3361745
       940.5000         9.9239         0.3941        39.4979       47.98861         1.0569          0.255      0.3189067
       941.0000         9.9074         0.3929        40.6605       49.65374         1.0643         0.2371       0.354335
       941.5000          9.759         0.3884         45.104       56.07468         1.0642         0.2331      0.4909507
       942.0000         9.6106         0.3785        47.8444       60.02689         1.0781         0.2724      0.5750403
       942.5000         9.3554         0.3655        50.4279       63.75167         1.0943         0.3303      0.6542909
       943.0000         9.1473         0.3592        52.7219       67.05682         1.1019         0.3622      0.7246131
       943.5000         8.9498         0.3614        53.7171       68.47929         1.1118         0.3801      0.7548784
       944.0000         8.8318         0.3725        54.0719       68.97347         1.1251         0.3781       0.765393
       944.5000          8.984         0.3833        49.9017       62.90842          1.129         0.3626      0.6363494
       945.0000         9.0748         0.3829        46.9704       58.63924         1.1328         0.3387      0.5455157
       945.5000         8.8951          0.376        49.0309       61.60591         1.1327         0.3361      0.6086363
       946.0000         8.7033         0.3548        52.7482       66.97419         1.1326           0.36      0.7228551
       946.5000         8.6939         0.3456         55.471       70.90089         1.1325         0.3894       0.806402
       947.0000         8.7584         0.3374        56.1633       71.88428         1.1324         0.4067      0.8273252
       947.5000         8.8552         0.3406        56.1477       71.84155         1.1322         0.4234       0.826416
       948.0000         8.9606         0.3584        55.0265        70.1962         1.1321         0.4186      0.7914085
       948.5000         9.0417         0.3706        53.6995       68.25252          1.132         0.3702      0.7500536
       949.0000         9.1889         0.3736        51.1361       64.51661         1.1319           0.35      0.6705661
       949.5000         9.2189         0.3734        46.8587       58.29618         1.1197         0.3473      0.5382166
       950.0000          9.187         0.3646        45.6401       56.50963         1.1061         0.3639      0.5002049
       950.5000         9.1554         0.3577          47.71       59.48993         1.0848         0.3743      0.5636156
       951.0000         9.1966         0.3587        47.8694       59.70085         1.0596         0.3483      0.5681032
       951.5000         9.5207         0.3654        44.2782        54.4751         1.0397         0.3208       0.456917
       952.0000            9.9         0.3763        39.8029       47.96781         1.0213         0.3254      0.3184641
       952.5000         10.162         0.3795        36.8096       43.60876         1.0107          0.342      0.2257182
       953.0000         10.053         0.3779         36.035       42.46581         1.0106         0.3506      0.2014002
       953.5000         9.8638         0.3754        36.3522       42.90548         1.0201         0.3531      0.2107549
       954.0000         9.5462         0.3761         37.191       44.10123         1.0247          0.344      0.2361965
       954.5000         9.3129         0.3782        39.4961       47.42246         1.0207         0.3412      0.3068609
       955.0000         9.0849          0.382        41.7666       50.69354         1.0102         0.3477      0.3764583
       955.5000         8.9277         0.3852         43.398       53.03821          1.003          0.354      0.4263448
       956.0000         8.7915         0.3884        43.0401       52.49929         1.0029         0.3551      0.4148784
