#------------------------------------------------------------------------------
# Created by    : vladimir.rabinovich
# Created on    : 09/19/2023 17:22:37
#------------------------------------------------------------------------------
~Version Information Section
VERS.           2.0     :   CWLS log ASCII Standard - VERSION 2.0
WRAP.           NO      :   One line per depth step
~Well Information Section
#MNEM       .UNIT                                         VALUE :DESCRIPTION
#------------------------------------------------------------------------------
STRT        .FT                                           554.5 :START DEPTH
STOP        .FT                                            5893 :STOP DEPTH
STEP        .FT                                             0.5 :STEP      
NULL        .                                           -999.25 :NULL      
COMP        .                              NEUMIN PRODUCTION CO :COMPANY   
WELL        .                                         ST TR 186 :WELL      
FLD         .                                           WILDCAT :FIELD     
LOC         .                                                   :LOCATION  
CNTY        .                                           CALHOUN :LOCATION  
STAT        .                                             TEXAS :STATE     
CTRY        .                                     UNITED STATES :COUNTRY   
SRVC        .                                                   :SERVICE COMPANY
DATE        .                             9/13/2023 11:18:59 AM :LOG DATE  
API         .                                    42057313020000 :API NUMBER
UWI         .                                    42057313020000 :UNIQUE WELL ID
XCOORD      .                                  487252.476079587 :SURFACE X 
YCOORD      .                                  10287942.6245796 :SURFACE Y 
LAT         .                                         28.302642 :LATITUDE  
LON         .                                       -96.5835194 :LONGITUDE 
ELEV        .FT                                              22 :ELEVATION VALUE
ELEV_TYPE   .                                                KB :ELEVATION REFERENCE TYPE
~Curve Information Section
#MNEM       .UNIT                                      API CODE :CURVE DESCRIPTION
#------------------------------------------------------------------------------
DEPT        .FT                                                 :DEPTH     
DCAL        .INCHES                                             :          
DPHI        .NONE                                               :          
GR          .GAPI                                               :          
GR_NORM     .GAPI                                               :GammaRay Normalized
ILD         .OHMM                                               :          
NPHI        .NONE                                               :          
VSH_GR      .V/V                                                :Volume of Shale from GR
~A        DEPTH           DCAL           DPHI             GR        GR_NORM            ILD           NPHI         VSH_GR
# ...
      1626.5000         0.8356         0.3184        60.8997        72.5262          0.869         0.4119       0.840983
      1627.0000         0.6791          0.334        60.0565       71.44453         0.8404          0.446      0.8179688
      1627.5000         0.6351         0.3442        59.6557       70.92951         0.8248         0.4692      0.8070109
      1628.0000          0.617         0.3538        59.6598       70.93309          0.817          0.456       0.807087
      1628.5000         0.6472          0.358        59.8938       71.23112         0.8169         0.4365       0.813428
      1629.0000         0.6912         0.3561        59.8984       71.23532         0.8168          0.458      0.8135175
      1629.5000         0.7687         0.3498        60.1323       71.53324         0.8167         0.4786      0.8198562
      1630.0000          0.838          0.348        60.5962       72.12572         0.8109          0.504      0.8324623
      1630.5000         0.9531         0.3499        61.1527       72.83684         0.8051         0.4873      0.8475923
      1631.0000         1.0889         0.3499        61.7529        73.6039          0.805         0.4642      0.8639129
      1631.5000         1.3869         0.3497        62.1237       74.07716          0.805         0.4629      0.8739822
      1632.0000         1.9303         0.3472        62.4489         74.492         0.8105         0.4621      0.8828084
      1632.5000          2.222         0.3454        62.2247       74.20316         0.8214         0.4551       0.876663
      1633.0000         2.5184         0.3433          61.09       72.74814         0.8453         0.4375      0.8457051
      1633.5000          3.046         0.3381        59.9398       71.27327         0.8723         0.4184      0.8143249
      1634.0000         3.4395         0.3316        59.3511       70.51756         0.9077         0.4098       0.798246
      1634.5000         3.7657         0.3297        59.5324       70.74811         0.9324         0.4118      0.8031512
      1635.0000         4.0361         0.3303        59.9542       71.28668         0.9323         0.4314      0.8146102
      1635.5000         3.7564         0.3288        60.1875       71.58382         0.9322         0.4406      0.8209323
      1636.0000         3.0238         0.3206        60.1922       71.58817         0.9321         0.4186      0.8210248
      1636.5000         2.1446         0.3097        59.6725       70.92085          0.932         0.3768      0.8068265
      1637.0000         1.6194         0.3023        57.5239       68.16718         0.9363         0.3334      0.7482378
      1637.5000         1.4886          0.297        56.0782       66.31384         0.9384          0.325       0.708805
      1638.0000         1.3717         0.2959        55.7697       65.91702         0.9383         0.3334       0.700362
      1638.5000         1.2433         0.3069        55.3987       65.44016         0.9316         0.3526      0.6902161
      1639.0000         1.1515         0.3135        54.9445       64.85674          0.911         0.3677       0.677803
      1639.5000         1.1271         0.3126        55.4428       65.49327         0.8728         0.3799      0.6913462
      1640.0000         1.1573         0.3139        55.8718       66.04109         0.8192         0.3894       0.703002
      1640.5000         1.1262         0.3182        55.7962       65.94257         0.7866         0.3833      0.7009057
      1641.0000         1.1753         0.3176        55.1924       65.16755         0.7786         0.3528      0.6844159
      1641.5000         1.2172         0.3132         55.339       65.35363         0.7755         0.3422      0.6883751
      1642.0000         1.2167         0.2998        56.5371        66.8865         0.7754         0.3528      0.7209893
      1642.5000         1.2163         0.2903        60.2527       71.64384         0.7741         0.3703      0.8222093
      1643.0000         1.2158         0.2852        63.4638       75.75501         0.7698         0.3767      0.9096811
      1643.5000          1.246         0.2857        65.0779       77.82071         0.7575         0.3823      0.9536321
      1644.0000         1.2894         0.2974        66.2517       79.32246         0.7375         0.3924      0.9855842
      1644.5000         1.3675          0.311        66.9775        80.2504         0.7068         0.3998              1
      1645.0000         1.4232         0.3129        67.6152        81.0655         0.6635         0.3797              1
      1645.5000         1.4901          0.311        66.3777       79.47881         0.6275         0.3558      0.9889109
      1646.0000         1.5876         0.3111         56.844       67.26617         0.6065         0.3127      0.7290676
      1646.5000         1.7223         0.3174        48.7956       56.95592         0.5931         0.2998      0.5097005
      1647.0000         1.8859         0.3212        46.2298       53.66792         0.5981         0.2979       0.439743
      1647.5000         1.6183         0.3172        49.0602       57.29148         0.6168         0.2978      0.5168399
      1648.0000         1.0218         0.3112        53.7882       63.34551         0.6316         0.3142      0.6456492
      1648.5000         0.4667         0.3051        59.8487       71.10626         0.6569         0.3643      0.8107715
      1649.0000         0.3528         0.3025        65.4525       78.28204          0.687         0.3822      0.9634477
      1649.5000         0.4747         0.2965        68.8026       82.57124         0.7384           0.39              1
      1650.0000         0.7591         0.2888        68.5787       82.28281         0.7926         0.4057              1
      1650.5000         1.0864         0.2708        67.9934       81.53146         0.8662         0.4094              1
      1651.0000         0.9685         0.2539        67.2112       80.52792         0.9158         0.3819              1
      1651.5000          0.771          0.244        66.5375       79.66336         0.9623         0.3654      0.9928375
      1652.0000         0.4418         0.2414        66.3024       81.07375         1.0018         0.3596              1
      1652.5000         0.2631         0.2561          66.92       81.80585         1.0262         0.3572              1
      1653.0000         0.1653          0.282        69.6082       82.53794         1.0321         0.3869              1
      1653.5000         0.1648         0.3049        82.6012       83.27004          1.032          0.439              1
      1654.0000         0.1644         0.3194        83.9816       84.00214         1.0319         0.4432              1
      1654.5000         0.1638         0.3253        84.2292       84.73424         1.0205         0.4488              1
      1655.0000         0.1634          0.325         84.901       85.46633         0.9997         0.4593              1
      1655.5000          0.163         0.3244        85.8883       86.19842         0.9615         0.4662              1
      1656.0000         0.1625         0.3226        85.1472       86.93053         0.9246         0.4824              1
      1656.5000         0.1557         0.3198         82.267       87.66262         0.8835         0.5004              1
      1657.0000         0.1309          0.319        78.8632       88.39471         0.8584         0.5101              1
      1657.5000         0.1305         0.3196        75.6459       89.12681         0.8392         0.5109              1
      1658.0000         0.1301         0.3246        74.3308       88.35986         0.8118         0.4977              1
      1658.5000         0.1482         0.3323        74.3904        87.5929         0.7966          0.454              1
      1659.0000         0.1598         0.3446        74.2956       86.82594         0.7781           0.45              1
      1659.5000         0.1593          0.356        73.2008       86.05898         0.7643         0.4689              1
