#------------------------------------------------------------------------------
# Created by    : vladimir.rabinovich
# Created on    : 09/19/2023 17:22:27
#------------------------------------------------------------------------------
~Version Information Section
VERS.           2.0     :   CWLS log ASCII Standard - VERSION 2.0
WRAP.           NO      :   One line per depth step
~Well Information Section
#MNEM       .UNIT                                         VALUE :DESCRIPTION
#------------------------------------------------------------------------------
STRT        .FT                                          1344.5 :START DEPTH
STOP        .FT                                            6047 :STOP DEPTH
STEP        .FT                                             0.5 :STEP      
NULL        .                                           -999.25 :NULL      
COMP        .                      HIGHLAND RESOURCES-G R BROWN :COMPANY   
WELL        .                                         ST TR 234 :WELL      
FLD         .                                           WILDCAT :FIELD     
LOC         .                                                   :LOCATION  
CNTY        .                                           CALHOUN :LOCATION  
STAT        .                                             TEXAS :STATE     
CTRY        .                                     UNITED STATES :COUNTRY   
SRVC        .                                                   :SERVICE COMPANY
DATE        .                             9/13/2023 11:18:59 AM :LOG DATE  
API         .                                    42057308440000 :API NUMBER
UWI         .                                    42057308440000 :UNIQUE WELL ID
XCOORD      .                                  538656.561995839 :SURFACE X 
YCOORD      .                                  10324779.5220427 :SURFACE Y 
LAT         .                                        28.4079151 :LATITUDE  
LON         .                                       -96.4272693 :LONGITUDE 
ELEV        .FT                                              14 :ELEVATION VALUE
ELEV_TYPE   .                                                KB :ELEVATION REFERENCE TYPE
~Curve Information Section
#MNEM       .UNIT                                      API CODE :CURVE DESCRIPTION
#------------------------------------------------------------------------------
DEPT        .FT                                                 :DEPTH     
CILD        .MMHO                                               :          
DT          .US/F                                               :          
RILD        .OHMM                                               :          
SFL         .OHMM                                               :          
SP          .MV                                                 :          
SP_NORM     .MV                                                 :SP Normalized
VSH_SP      .V/V                                                :Volume of Shale from SP
~A        DEPTH           CILD             DT           RILD            SFL             SP        SP_NORM         VSH_SP
# ...
      5699.5000       2781.641       114.8383         0.3595         1.0782        82.3608      -69.47091     0.07471745
      5700.0000       2772.387       113.6782         0.3607         1.1254        82.3698      -69.48593     0.07451444
      5700.5000       2741.228       112.9913         0.3648         1.1609         81.971      -69.90873     0.06880095
      5701.0000       2698.327       112.9896         0.3706         1.1942        81.7733      -70.13045     0.06580476
      5701.5000       2629.503       114.0363         0.3803         1.1651         81.781      -70.14677     0.06558423
      5702.0000       2483.855       116.0579         0.4026         1.1311        82.1737      -69.77808     0.07056644
      5702.5000       2205.072        114.984         0.4535         1.1184        83.8421       -68.1337     0.09278787
      5703.0000       1897.893       112.2142         0.5269         1.1145        86.6381      -65.36172      0.1302471
      5703.5000       1350.804       108.3461         0.7403         1.1162        90.3622      -61.66164      0.1802482
      5704.0000       920.1325       103.0499         1.0868         1.1394        92.6928      -59.35503      0.2114185
      5704.5000        629.485        90.2424         1.5886         1.1875        94.3464      -57.72546      0.2334398
      5705.0000       564.4933        82.7031         1.7715         1.2821        93.7685      -58.32737      0.2253058
      5705.5000       520.0208        79.1791          1.923         1.3853        90.8073      -61.31259       0.184965
      5706.0000       507.3309        87.3716         1.9711         1.4533        86.9241       -65.2198      0.1321648
      5706.5000       546.1795        93.3344         1.8309         1.5346        83.8116      -68.35632     0.08977941
      5707.0000       647.4587        94.0175         1.5445         1.5787        81.8591      -70.33284     0.06306973
      5707.5000       777.0612         94.804         1.2869         1.5718        81.8646      -70.35134     0.06281971
      5708.0000       1156.337        98.0641         0.8648         1.3868        82.2625      -69.97746     0.06787212
      5708.5000        1472.32       110.6892         0.6792         1.3071        86.0604      -66.20358      0.1188706
      5709.0000        1722.06       125.8641         0.5807         1.2341         90.915      -61.37299      0.1841487
      5709.5000       1909.126       126.8116         0.5238         1.1345        93.4925      -58.81951      0.2186553
      5710.0000       2068.252       120.6606         0.4835         1.0627        92.9971      -59.33893      0.2116361
      5710.5000       2232.143       116.0274          0.448         1.0724        90.7501      -61.60993      0.1809469
      5711.0000        2263.98       115.8775         0.4417         1.1323        88.2034      -64.18065      0.1462075
      5711.5000       2258.356       116.7921         0.4428         1.1742        86.6834      -65.72466      0.1253424
      5712.0000       2231.645       116.7832         0.4481         1.2195        85.8892      -66.54288      0.1142853
      5712.5000       2207.505       116.1053          0.453         1.2499        86.0084       -66.4477      0.1155716
      5713.0000       2184.837       114.3287         0.4577         1.2631        86.8166      -65.66352      0.1261686
      5713.5000        2184.36       111.3986         0.4578         1.2812        88.5547      -63.94943       0.149332
      5714.0000       2164.034       107.4128         0.4621         1.3003        89.7134      -62.81474      0.1646657
      5714.5000       2138.123       104.5204         0.4677         1.3163         90.805      -61.74715      0.1790925
      5715.0000       2138.123       104.6496         0.4677         1.3135        91.5229      -61.05327      0.1884694
      5715.5000       2138.123        108.545         0.4677         1.2873        92.0378      -60.56239      0.1951029
      5716.0000       2152.853       111.8083         0.4645         1.2326        91.8849       -60.7393      0.1927121
      5716.5000       2192.502       112.6267         0.4561         1.1865        91.3363      -61.31192       0.184974
      5717.0000       2246.181       112.4713         0.4452         1.1374         89.614      -63.05824      0.1613751
      5717.5000       2261.932       112.7817         0.4421         1.1096        88.1254      -64.57085      0.1409345
      5718.0000       2244.669       114.3969         0.4455         1.0774        86.8773      -65.84296      0.1237437
      5718.5000       2198.769       115.4124         0.4548         1.0544        87.3245      -65.41978      0.1294625
      5719.0000       2121.341       115.5363         0.4714         1.0212        91.2231       -61.5452      0.1818217
      5719.5000       2033.347       115.1596         0.4918         0.9985         98.801      -53.99131      0.2839012
      5720.0000       1964.251       113.3821         0.5091         0.9536       106.9408      -45.87553       0.393574
      5720.5000       1892.147       111.1822         0.5285         0.9445       112.5565      -40.28384      0.4691373
      5721.0000       1795.977       109.7863         0.5568         0.9998       113.6136      -39.25075       0.483098
      5721.5000       1749.475       109.3826         0.5716         1.0442       113.7892      -39.09917      0.4851464
      5722.0000       1739.735       110.8197         0.5748         1.1139       109.9298      -42.98258      0.4326678
      5722.5000       1739.735       113.5267         0.5748         1.1469       106.9846      -45.95181      0.3925432
      5723.0000       1764.291       114.8236         0.5668         1.1649       104.3425      -48.61792      0.3565146
      5723.5000       1811.922       115.3666         0.5519         1.1612       102.8786      -50.10583      0.3364076
      5724.0000       1858.391       115.3648         0.5381         1.1513       101.9111      -51.09735      0.3230088
      5724.5000       1906.578       114.7476         0.5245          1.134       101.7923      -51.24016       0.321079
      5725.0000       1933.488       113.5177         0.5172         1.1098       102.0353      -51.02117      0.3240382
      5725.5000       1947.041       113.0552         0.5136         1.0829       102.8461      -50.23439      0.3346704
      5726.0000       1939.488       113.0592         0.5156          1.061       104.2163      -48.88821      0.3528621
      5726.5000       1915.342       113.5456         0.5221         1.0458       105.9109      -47.21763      0.3754374
      5727.0000        1866.02       113.8181         0.5359         1.0395       106.6964      -46.45614      0.3857279
      5727.5000       1830.496       113.2014         0.5463         1.0771       107.1443      -46.03226       0.391456
      5728.0000       1787.949       112.3549         0.5593         1.1079       106.5406      -46.65996      0.3829736
      5728.5000       1787.949       111.6619         0.5593         1.1469       105.4276      -47.79698      0.3676084
      5729.0000       1787.949       110.9439         0.5593         1.1954       104.1092       -49.1394      0.3494676
      5729.5000       1774.938       110.4295         0.5634         1.2259       102.8846      -50.38802      0.3325944
      5730.0000       1770.852       110.2738         0.5647         1.2437       102.5615      -50.73513      0.3279037
      5730.5000       1762.425       110.4753         0.5674         1.2526        102.295      -51.02565      0.3239777
      5731.0000       1743.375       110.8849         0.5736         1.2535       102.8742      -50.47047      0.3314802
      5731.5000       1723.841       111.4208         0.5801         1.2572       104.7502      -48.61847      0.3565072
      5732.0000       1688.619       112.1646         0.5922         1.2626       106.1228      -47.26988      0.3747313
      5732.5000       1670.007        112.827         0.5988         1.2725         106.31       -47.1067      0.3769364
