#------------------------------------------------------------------------------
# Created by    : vladimir.rabinovich
# Created on    : 09/19/2023 17:22:37
#------------------------------------------------------------------------------
~Version Information Section
VERS.           2.0     :   CWLS log ASCII Standard - VERSION 2.0
WRAP.           NO      :   One line per depth step
~Well Information Section
#MNEM       .UNIT                                         VALUE :DESCRIPTION
#------------------------------------------------------------------------------
STRT        .FT                                           554.5 :START DEPTH
STOP        .FT                                            5893 :STOP DEPTH
STEP        .FT                                             0.5 :STEP      
NULL        .                                           -999.25 :NULL      
COMP        .                              NEUMIN PRODUCTION CO :COMPANY   
WELL        .                                         ST TR 186 :WELL      
FLD         .                                           WILDCAT :FIELD     
LOC         .                                                   :LOCATION  
CNTY        .                                           CALHOUN :LOCATION  
STAT        .                                             TEXAS :STATE     
CTRY        .                                     UNITED STATES :COUNTRY   
SRVC        .                                                   :SERVICE COMPANY
DATE        .                             9/13/2023 11:18:59 AM :LOG DATE  
API         .                                    42057313020000 :API NUMBER
UWI         .                                    42057313020000 :UNIQUE WELL ID
XCOORD      .                                  487252.476079587 :SURFACE X 
YCOORD      .                                  10287942.6245796 :SURFACE Y 
LAT         .                                         28.302642 :LATITUDE  
LON         .                                       -96.5835194 :LONGITUDE 
ELEV        .FT                                              22 :ELEVATION VALUE
ELEV_TYPE   .                                                KB :ELEVATION REFERENCE TYPE
~Curve Information Section
#MNEM       .UNIT                                      API CODE :CURVE DESCRIPTION
#------------------------------------------------------------------------------
DEPT        .FT                                                 :DEPTH     
DCAL        .INCHES                                             :          
DPHI        .NONE                                               :          
GR          .GAPI                                               :          
GR_NORM     .GAPI                                               :GammaRay Normalized
ILD         .OHMM                                               :          
NPHI        .NONE                                               :          
VSH_GR      .V/V                                                :Volume of Shale from GR
~A        DEPTH           DCAL           DPHI             GR        GR_NORM            ILD           NPHI         VSH_GR
# ...
      1961.5000         1.6563         0.2288        51.3567       60.42883         1.2251         0.2812      0.5835921
      1962.0000         1.6255         0.2228        53.8623       63.44393         1.1553         0.2883      0.6477432
      1962.5000         1.6252         0.2249         55.305       65.17931         1.1162          0.312      0.6846663
      1963.0000         1.6692         0.2457        56.6386       66.78337         1.0767         0.3366      0.7187951
      1963.5000         1.7779         0.2645        56.3963       66.49007         1.0497         0.3561      0.7125546
      1964.0000         1.7361         0.2683        52.8231       62.18644         1.0157         0.3614      0.6209881
      1964.5000         1.6379         0.2692        50.9254        59.9001         0.9755         0.3467      0.5723426
      1965.0000         1.5322         0.2609        50.3816        59.2438         0.9462         0.3277      0.5583786
      1965.5000         1.5013         0.2582        49.5644       58.25833         0.9091         0.3236      0.5374113
      1966.0000         1.5011         0.2757        48.1992        56.6131         0.8707         0.3222      0.5024064
      1966.5000         1.5009          0.297        46.7412       54.85613         0.8323         0.3196       0.465024
      1967.0000          1.509         0.3098        46.3818       54.42184         0.7896         0.3083      0.4557838
      1967.5000          1.531          0.308          46.84       54.97193         0.7606          0.291      0.4674878
      1968.0000         1.5308         0.3027        50.9869        59.9631         0.7256         0.2936      0.5736831
      1968.5000         1.5349         0.2915        56.1292       66.15273         0.7025         0.3085      0.7053772
      1969.0000         1.6121         0.2828        61.1433       72.18798         0.6907         0.3501      0.8337868
      1969.5000         1.7692         0.2765        65.0057       76.83662         0.7004          0.399       0.932694
      1970.0000         1.8974         0.2732        65.1805       77.04549         0.7003           0.44      0.9371382
      1970.5000         2.0034          0.279        62.2702       73.54001         0.6954         0.4361      0.8625534
      1971.0000         2.1114         0.2898        56.6381       66.75753         0.6708         0.3849      0.7182453
      1971.5000         2.0704         0.3015        51.5316       60.60788         0.6305         0.3403      0.5874016
      1972.0000         1.8011          0.312        42.8027       50.09694         0.5709         0.3254      0.3637647
      1972.5000         1.5287         0.3071        34.0039       39.50185         0.5299         0.3114      0.1383372
      1973.0000         1.6039         0.3026        29.9754       34.65008         0.4822         0.2996     0.03510812
      1973.5000         1.7215          0.302         29.397       33.95213         0.4778         0.2866     0.02025799
      1974.0000         2.0088          0.305        28.3155       32.64845         0.4249         0.2814              0
      1974.5000         2.3107         0.3123        27.7098       31.91763         0.3904         0.2793              0
      1975.0000         2.6302         0.3162        26.3428       30.27022         0.3723         0.2894              0
      1975.5000         2.9441         0.3168        25.5134       29.27007         0.3574         0.2968              0
      1976.0000         3.3123         0.3169        25.6715       29.45885         0.3463         0.3023              0
      1976.5000         3.5569         0.3147        28.0256       32.29153         0.3406         0.3038              0
      1977.0000         3.6784         0.3085        30.9908       35.85998         0.3367         0.2963     0.06085067
      1977.5000         3.6704         0.3041         31.204       36.11509         0.3366         0.2831     0.06627849
      1978.0000         3.5811         0.3054        30.3094       35.03644         0.3366         0.2823     0.04332855
      1978.5000         3.4121         0.3161        29.6153       34.19918         0.3366         0.2923     0.02551456
      1979.0000         3.0599          0.321        30.5461       35.31826         0.3484         0.3029     0.04932477
      1979.5000         2.9574         0.3226        33.0555       38.33794         0.3873         0.3094      0.1135732
      1980.0000         2.9035         0.3138        36.7533       42.78841          0.458         0.3135      0.2082641
      1980.5000         2.2471         0.2853        40.4002       47.17759         0.5541         0.3141      0.3016509
      1981.0000         1.8617         0.2334        45.7151       53.57502         0.6607         0.3108      0.4377663
      1981.5000         1.9912         0.2202        48.8072       57.29624         0.7573         0.3014      0.5169413
      1982.0000         2.2358         0.2197        50.5694       56.70473         0.8813          0.285      0.5043559
      1982.5000         2.4736         0.2197        50.7889       57.00203         0.9838         0.2668      0.5106816
      1983.0000          2.606         0.2174        49.8811        55.7633         1.0707         0.2566      0.4843256
      1983.5000         2.7541         0.2143         47.136       52.02111         1.1269         0.2475      0.4047046
      1984.0000         2.9301         0.2167        44.9991       49.10764          1.159         0.2502      0.3427157
      1984.5000         3.0926         0.2327        43.2536       46.72747         1.1589         0.2614      0.2920738
      1985.0000         3.1156         0.2444        43.9558        47.6825         1.1588         0.2705      0.3123936
      1985.5000         3.0713         0.2448        45.3555       49.58791         1.1545          0.272      0.3529342
      1986.0000         2.9927         0.2402        46.2633       50.82307         1.1185         0.2687      0.3792143
      1986.5000         2.9729         0.2298        46.6076       51.29042          1.079         0.2635      0.3891579
      1987.0000         2.9616         0.2237        46.7536       51.48757         1.0351         0.2605      0.3933526
      1987.5000         2.9613         0.2244        46.9774       51.79073         0.9834         0.2651      0.3998027
      1988.0000         2.9611         0.2315        47.2157       52.11365         0.9258         0.2723      0.4066733
      1988.5000         2.9609         0.2477        46.9961       51.81264         0.8803         0.2789       0.400269
      1989.0000         2.9607         0.2596        46.9004       51.68047         0.8574         0.2799      0.3974567
      1989.5000         2.9604         0.2634        46.5541       51.20681          0.832         0.2786       0.387379
      1990.0000         2.9602         0.2659        46.7117       51.41977         0.8228         0.2762      0.3919101
      1990.5000           2.96         0.2734         47.031       51.85307         0.8203         0.2776      0.4011291
      1991.0000         2.9597          0.281        47.0408       51.86463         0.8318         0.2827      0.4013751
      1991.5000         2.9595          0.282        46.3217       50.88301         0.8539         0.2836      0.3804897
      1992.0000         2.9593          0.282         45.198       49.35011         0.8736          0.279      0.3478747
      1992.5000          2.959         0.2625        44.3984        48.2588         0.8994         0.2616      0.3246553
      1993.0000         2.9894         0.2205        45.2233       49.38101          0.924         0.2452      0.3485322
      1993.5000         2.9907         0.1974        46.8562       51.60418         0.9239         0.2432      0.3958336
      1994.0000         3.0693         0.1975        47.3229        52.2383         0.8868          0.254      0.4093255
      1994.5000         3.1317         0.2085        47.0866       51.91455         0.8313         0.2718      0.4024372
