#------------------------------------------------------------------------------
# Created by    : vladimir.rabinovich
# Created on    : 09/19/2023 17:22:27
#------------------------------------------------------------------------------
~Version Information Section
VERS.           2.0     :   CWLS log ASCII Standard - VERSION 2.0
WRAP.           NO      :   One line per depth step
~Well Information Section
#MNEM       .UNIT                                         VALUE :DESCRIPTION
#------------------------------------------------------------------------------
STRT        .FT                                          1344.5 :START DEPTH
STOP        .FT                                            6047 :STOP DEPTH
STEP        .FT                                             0.5 :STEP      
NULL        .                                           -999.25 :NULL      
COMP        .                      HIGHLAND RESOURCES-G R BROWN :COMPANY   
WELL        .                                         ST TR 234 :WELL      
FLD         .                                           WILDCAT :FIELD     
LOC         .                                                   :LOCATION  
CNTY        .                                           CALHOUN :LOCATION  
STAT        .                                             TEXAS :STATE     
CTRY        .                                     UNITED STATES :COUNTRY   
SRVC        .                                                   :SERVICE COMPANY
DATE        .                             9/13/2023 11:18:59 AM :LOG DATE  
API         .                                    42057308440000 :API NUMBER
UWI         .                                    42057308440000 :UNIQUE WELL ID
XCOORD      .                                  538656.561995839 :SURFACE X 
YCOORD      .                                  10324779.5220427 :SURFACE Y 
LAT         .                                        28.4079151 :LATITUDE  
LON         .                                       -96.4272693 :LONGITUDE 
ELEV        .FT                                              14 :ELEVATION VALUE
ELEV_TYPE   .                                                KB :ELEVATION REFERENCE TYPE
~Curve Information Section
#MNEM       .UNIT                                      API CODE :CURVE DESCRIPTION
#------------------------------------------------------------------------------
DEPT        .FT                                                 :DEPTH     
CILD        .MMHO                                               :          
DT          .US/F                                               :          
RILD        .OHMM                                               :          
SFL         .OHMM                                               :          
SP          .MV                                                 :          
SP_NORM     .MV                                                 :SP Normalized
VSH_SP      .V/V                                                :Volume of Shale from SP
~A        DEPTH           CILD             DT           RILD            SFL             SP        SP_NORM         VSH_SP
# ...
      3220.5000       2207.993       109.4657         0.4529          1.152        69.1998      -66.00851              0
      3221.0000       2165.439       108.9342         0.4618         1.1896        68.9548      -66.25151              0
      3221.5000       2145.923       115.2597          0.466         1.1577        69.1787       -66.0256              0
      3222.0000       2161.695       123.6871         0.4626         1.1002        70.1912       -65.0111     0.01521383
      3222.5000       2264.493        130.879         0.4416         1.0463        70.0348       -65.1655     0.01283839
      3223.0000       2470.966        132.253         0.4047              1         68.946      -66.25229              0
      3223.5000       2653.928        129.791         0.3768         0.9751        68.6865      -66.50979              0
      3224.0000       2866.151       129.7895         0.3489         0.9413        69.1866      -66.00769              0
      3224.5000       2936.858       131.4678         0.3405         0.9183        70.2285      -64.96378     0.01594191
      3225.0000        2968.24       130.5376         0.3369         0.9266        70.8386      -64.35168     0.02535882
      3225.5000       2982.404        131.251         0.3353         0.9435        71.1589      -64.02938     0.03031722
      3226.0000       3021.148       128.3743          0.331         0.9588        71.1663      -64.01997     0.03046206
      3226.5000       3117.207        123.731         0.3208         0.9742        71.1738      -64.01047     0.03060819
      3227.0000       3193.868       118.2497         0.3131         0.9939        71.1819      -64.00037      0.0307636
      3227.5000       3206.156       114.1371         0.3119         1.0004        71.1886      -63.99165     0.03089764
      3228.0000        3110.42       113.1413         0.3215         1.0055        71.5014      -63.67685     0.03574078
      3228.5000        3094.06       120.8133         0.3232         1.0132        71.5088      -63.66746     0.03588527
      3229.0000       3250.975       116.8576         0.3076         1.0092        71.9506      -63.22364     0.04271322
      3229.5000       3448.276       109.2312           0.29         0.9081        73.0512      -62.12104      0.0596763
      3230.0000       3665.689       111.5541         0.2728          0.802        73.9083      -61.26194     0.07289323
      3230.5000       3742.515       129.0901         0.2672         0.6939        75.2026      -59.96563     0.09283647
      3231.0000       3641.661       134.4504         0.2746         0.6391         77.002      -58.16423      0.1205503
      3231.5000       3412.969       129.0865          0.293         0.6462        79.1318      -56.03243      0.1533472
      3232.0000       3173.595       120.7663         0.3151         0.8177        81.3328      -53.82941      0.1872398
      3232.5000       2378.687       108.6442         0.4204         1.0495        82.8767      -52.28352      0.2110228
      3233.0000       1858.045        86.2329         0.5382         1.1498        84.0949      -51.06332      0.2297951
      3233.5000       1453.488        69.7122          0.688         1.3508        83.1538       -52.0024      0.2153476
      3234.0000       1266.945        69.6275         0.7893         1.7598        80.1964       -54.9578        0.16988
      3234.5000       1209.775       101.0696         0.8266         1.9197        76.1793      -58.97291      0.1081091
      3235.0000        1180.08       110.2433         0.8474         2.6453        73.4112      -61.73899     0.06555399
      3235.5000       1208.021       116.2642         0.8278         2.7403        70.3918      -64.75639     0.01913241
      3236.0000       1319.435       114.1691         0.7579         2.6952        69.5087       -65.6375     0.00557697
      3236.5000        1516.07       109.2708         0.6596         2.3874           67.9      -67.24418              0
      3237.0000        1776.83       100.8818         0.5628         1.2355        67.2561      -67.88608              0
      3237.5000       2151.463        94.8166         0.4648         1.1835        68.1308      -67.00938              0
      3238.0000       2541.942       103.3268         0.3934          1.188        68.9024      -66.23577              0
      3238.5000        2641.31       114.9256         0.3786         1.1896        69.5197      -65.61647    0.005900457
      3239.0000        2670.94       115.1419         0.3744         1.1927         69.527      -65.60717    0.006043537
      3239.5000       2696.872        112.971         0.3708         1.1957        68.8553      -66.27686              0
      3240.0000       2677.376       111.3903         0.3735         1.1972        67.8915      -67.23866              0
      3240.5000       2677.376        110.791         0.3735         1.1835        67.1076      -68.02056              0
      3241.0000       2676.659       114.3146         0.3736         1.1556        67.2313      -67.89486              0
      3241.5000       2735.978       114.4934         0.3655         1.1059        67.7323      -67.39185              0
      3242.0000       2775.465        114.574         0.3603         1.0635        67.9119      -67.21024              0
      3242.5000       2831.257       114.8588         0.3532         1.0061        67.6522      -67.46795              0
      3243.0000        2885.17       115.8545         0.3466          0.972        66.8396      -68.27853              0
      3243.5000       2953.337        115.952         0.3386         0.9516        67.2538      -67.86234              0
      3244.0000       2994.909       115.5345         0.3339          0.945        67.4642      -67.64993              0
      3244.5000       2994.909       116.1434         0.3339         0.9572        67.6292      -67.48292              0
      3245.0000       2994.012       116.5969          0.334         0.9665        68.5265      -66.58363              0
      3245.5000       3021.148       115.5605          0.331         0.9721        70.2357      -64.87242     0.01734737
      3246.0000       3079.766       118.5148         0.3247         0.9752        70.5457      -64.56041     0.02214755
      3246.5000       3143.666       124.4097         0.3181         0.9572        69.9443      -65.15981     0.01292595
      3247.0000       3213.368         124.31         0.3112         0.9331        70.2378      -64.86431     0.01747213
      3247.5000       3234.153       121.5836         0.3092         0.8488        71.2169      -63.88319     0.03256625
      3248.0000        3286.23       118.3868         0.3043         0.7289        72.1952       -62.9029     0.04764768
      3248.5000       3072.197       116.9502         0.3255         0.7034        73.1004       -61.9957     0.06160466
      3249.0000        2757.86       117.0023         0.3626         0.7934        73.9511      -61.14298     0.07472335
      3249.5000       2428.953       115.5748         0.4117         0.9935        74.3919      -60.70019     0.08153558
      3250.0000       1955.034        107.312         0.5115          1.129        74.5758      -60.51429     0.08439554
      3250.5000       1473.622        92.5413         0.6786          1.318        74.5832      -60.50488     0.08454038
      3251.0000       1299.714        84.9433         0.7694         1.5247        73.8027      -61.28338     0.07256341
      3251.5000       1217.137        83.3276         0.8216         1.6921         71.851      -63.23308     0.04256803
      3252.0000       1223.541        89.0408         0.8173         1.7572        70.1789      -64.90316     0.01687446
      3252.5000       1322.227       110.1965         0.7563         1.7737        68.5062      -66.57386              0
      3253.0000       1569.612       113.9746         0.6371          1.669        67.5638      -67.51427              0
      3253.5000       1789.229       116.8814         0.5589         1.1834        66.6442      -68.43185              0
