#------------------------------------------------------------------------------
# Created by    : vladimir.rabinovich
# Created on    : 09/19/2023 17:22:37
#------------------------------------------------------------------------------
~Version Information Section
VERS.           2.0     :   CWLS log ASCII Standard - VERSION 2.0
WRAP.           NO      :   One line per depth step
~Well Information Section
#MNEM       .UNIT                                         VALUE :DESCRIPTION
#------------------------------------------------------------------------------
STRT        .FT                                           554.5 :START DEPTH
STOP        .FT                                            5893 :STOP DEPTH
STEP        .FT                                             0.5 :STEP      
NULL        .                                           -999.25 :NULL      
COMP        .                              NEUMIN PRODUCTION CO :COMPANY   
WELL        .                                         ST TR 186 :WELL      
FLD         .                                           WILDCAT :FIELD     
LOC         .                                                   :LOCATION  
CNTY        .                                           CALHOUN :LOCATION  
STAT        .                                             TEXAS :STATE     
CTRY        .                                     UNITED STATES :COUNTRY   
SRVC        .                                                   :SERVICE COMPANY
DATE        .                             9/13/2023 11:18:59 AM :LOG DATE  
API         .                                    42057313020000 :API NUMBER
UWI         .                                    42057313020000 :UNIQUE WELL ID
XCOORD      .                                  487252.476079587 :SURFACE X 
YCOORD      .                                  10287942.6245796 :SURFACE Y 
LAT         .                                         28.302642 :LATITUDE  
LON         .                                       -96.5835194 :LONGITUDE 
ELEV        .FT                                              22 :ELEVATION VALUE
ELEV_TYPE   .                                                KB :ELEVATION REFERENCE TYPE
~Curve Information Section
#MNEM       .UNIT                                      API CODE :CURVE DESCRIPTION
#------------------------------------------------------------------------------
DEPT        .FT                                                 :DEPTH     
DCAL        .INCHES                                             :          
DPHI        .NONE                                               :          
GR          .GAPI                                               :          
GR_NORM     .GAPI                                               :GammaRay Normalized
ILD         .OHMM                                               :          
NPHI        .NONE                                               :          
VSH_GR      .V/V                                                :Volume of Shale from GR
~A        DEPTH           DCAL           DPHI             GR        GR_NORM            ILD           NPHI         VSH_GR
       554.5000        -999.25         0.4933        49.7122       79.63139        -999.25        -999.25      0.9921572
       555.0000         3.0628         0.4804        50.6955       80.89081         1.8111         0.4603              1
       555.5000         3.0932         0.4555        48.8498       78.52679         2.1066         0.4366      0.9686552
       556.0000         3.1769         0.4344        45.8863       74.73109         2.5672         0.4318      0.8878956
       556.5000         3.2772         0.4481        45.7881       74.60531         2.8525         0.4381      0.8852193
       557.0000         3.3746         0.5023        46.1231       75.03439         2.9684         0.4543      0.8943486
       557.5000          3.478         0.4684        44.9812       73.57182         2.8923         0.4715      0.8632301
       558.0000         3.5822         0.4198        44.0671       72.40102         2.7075         0.4853      0.8383195
       558.5000          3.655         0.4028        44.0712       72.40627         2.7122         0.5093      0.8384312
       559.0000         3.7349         0.3878        44.7723       73.30426         2.8437         0.5189      0.8575374
       559.5000          3.831          0.381        44.4855       72.93691          2.973         0.5104      0.8497216
       560.0000         3.9233         0.4077        43.6247       71.83437         3.0552         0.4569      0.8262632
       560.5000         3.9487         0.4225        43.3978       71.54375         3.1095          0.443      0.8200799
       561.0000         3.8854         0.4271        44.5496         73.019         3.1524         0.4394      0.8514682
       561.5000         3.7645         0.4043        46.2566       75.20538          3.151         0.4356      0.8979869
       562.0000         3.7337         0.3608        47.8399        77.2333         3.1497         0.4284       0.941134
       562.5000         3.7335         0.3204        49.3055       79.11047         3.1405          0.411      0.9810737
       563.0000         3.7638         0.3143        50.0221       80.02831         3.1028         0.3954              1
       563.5000         3.7943         0.3259        50.7619       80.97585         3.1017         0.3862              1
       564.0000         3.8247         0.3367        50.3295       80.42204         3.1442         0.3933              1
       564.5000         3.9169         0.3419        49.5928       79.47845         3.1529         0.4062      0.9889031
       565.0000         4.0512          0.348        48.9384       78.64027         3.0946          0.435      0.9710696
       565.5000         4.2835         0.3556        48.9424        78.6454         3.0103         0.4624      0.9711788
       566.0000         4.4718         0.3673        48.9467       78.65091         2.9467         0.4856       0.971296
       566.5000         4.6813         0.3761        48.9502       78.65539         2.8234         0.5001      0.9713913
       567.0000         4.9071         0.3841        48.9541       78.66039         2.7183          0.499      0.9714977
       567.5000         5.1488         0.3876         49.096       78.84214          2.642         0.4882      0.9753647
       568.0000         5.3438          0.389        49.2359       79.02132         2.5196         0.4762      0.9791769
       568.5000         5.4925         0.3922        49.4251       79.26365         2.4733          0.471       0.984333
       569.0000         5.6603         0.3976        49.3413       79.14317         2.4306         0.4772      0.9817696
       569.5000         5.7656         0.4074        49.2031       78.94292         2.3957         0.5042      0.9775088
       570.0000         5.8778         0.4221         49.207       78.92468         2.3779         0.5079      0.9771209
       570.5000         6.0433          0.429        49.2109       78.90644         2.3769         0.4917      0.9767328
       571.0000         6.3953          0.407        48.9861       78.59528         2.4356         0.4481      0.9701123
       571.5000         6.7006         0.3929        48.7595       78.28179         2.5121         0.4504      0.9634424
       572.0000         6.6626         0.3839        48.5348       77.97076          2.581         0.4601      0.9568248
       572.5000         6.5165         0.3786        48.5385       77.95226         2.6578         0.4686       0.956431
       573.0000         6.5162         0.3761         47.998       77.23674         2.7475         0.4714      0.9412072
       573.5000         6.5832         0.3729        46.4829       75.27293         2.8544          0.473       0.899424
       574.0000         6.6077         0.3668        44.6826       72.94382         3.0095         0.4711      0.8498685
       574.5000          6.542         0.3546        42.3618       69.94806         3.0998          0.462      0.7861289
       575.0000         6.3623         0.3402        39.9627       66.85201         3.2266         0.4457      0.7202554
       575.5000         6.1353         0.3203        38.0114        64.3295         3.2983         0.4369      0.6665851
       576.0000         5.8368         0.3021         38.475       64.90004         3.3954         0.4408      0.6787242
       576.5000         5.4734            0.3        39.0001       65.54937         3.5054         0.4247      0.6925398
       577.0000         5.1735         0.2975        38.9411       65.45057         3.5041         0.3932      0.6904376
       577.5000         4.8911         0.3032        37.9566       64.16635         3.5025         0.3768      0.6631138
       578.0000         4.7826         0.3163        36.1462       61.82432         3.5258         0.3738      0.6132835
       578.5000         4.7682         0.3224        35.1343       60.50501         3.5493         0.3725       0.585213
       579.0000         4.8292         0.3242        36.8111       62.62947         3.5225         0.3667      0.6304142
       579.5000            4.9         0.3068        41.2544       68.29729         3.5212         0.3565      0.7510062
       580.0000         4.9819         0.3035        44.2367       72.09386          3.495         0.3588      0.8317842
       580.5000         4.9663         0.3091        46.5551       75.04008         3.4804         0.3795      0.8944699
       581.0000         4.9479         0.3178         48.161       77.07372          3.383         0.4139      0.9377386
       581.5000           4.92         0.3234        48.6086       77.62378         3.1854         0.4418      0.9494421
       582.0000         4.8892         0.3326        44.4851       72.31906         3.0621         0.4488      0.8365757
       582.5000         4.8584         0.3488          39.93       66.46155         2.9048          0.433      0.7119478
       583.0000         4.8582         0.3706        35.0888        60.2376         2.8132         0.4099      0.5795234
       583.5000           4.86         0.3853        32.2333       56.55698         2.7244         0.4116      0.5012124
       584.0000         4.8884         0.3924        30.3137       54.07508          2.723         0.4164       0.448406
       584.5000         4.9265         0.3777        28.6791       51.95821          2.733         0.4147      0.4033662
       585.0000         4.9799         0.3597        28.6006       51.83443         2.7788         0.4036      0.4007325
       585.5000         5.0103         0.3492         28.457       51.62726         2.9156         0.3843      0.3963247
       586.0000         5.0407         0.3435        29.7911       53.31276         3.0264         0.3727      0.4321865
       586.5000         5.0597         0.3437        32.8423       57.19757         3.1639         0.3604       0.514842
       587.0000         5.0777         0.3418        36.0382       61.26772         3.2157         0.3515      0.6014407
       587.5000          5.132          0.339        37.8605       63.57851         3.1915         0.3504      0.6506065
