#------------------------------------------------------------------------------
# Created by    : vladimir.rabinovich
# Created on    : 09/19/2023 17:20:53
#------------------------------------------------------------------------------
~Version Information Section
VERS.           2.0     :   CWLS log ASCII Standard - VERSION 2.0
WRAP.           NO      :   One line per depth step
~Well Information Section
#MNEM       .UNIT                                         VALUE :DESCRIPTION
#------------------------------------------------------------------------------
STRT        .FT                                             875 :START DEPTH
STOP        .FT                                            6380 :STOP DEPTH
STEP        .FT                                             0.5 :STEP      
NULL        .                                           -999.25 :NULL      
COMP        .                       ENERGY DEVELOPMENT CORP N J :COMPANY   
WELL        .                                   STATE TRACT 241 :WELL      
FLD         .                                           WILDCAT :FIELD     
LOC         .                                                   :LOCATION  
CNTY        .                                           CALHOUN :LOCATION  
STAT        .                                             TEXAS :STATE     
CTRY        .                                     UNITED STATES :COUNTRY   
SRVC        .                                                   :SERVICE COMPANY
DATE        .                             9/13/2023 11:19:11 AM :LOG DATE  
API         .                                    42057314130000 :API NUMBER
UWI         .                                    42057314130000 :UNIQUE WELL ID
XCOORD      .                                  544841.599058466 :SURFACE X 
YCOORD      .                                   10330281.839261 :SURFACE Y 
LAT         .                                        28.4235103 :LATITUDE  
LON         .                                       -96.4085418 :LONGITUDE 
ELEV        .FT                                              34 :ELEVATION VALUE
ELEV_TYPE   .                                                KB :ELEVATION REFERENCE TYPE
~Curve Information Section
#MNEM       .UNIT                                      API CODE :CURVE DESCRIPTION
#------------------------------------------------------------------------------
DEPT        .FT                                                 :DEPTH     
ASN         .OHMM                                               :          
DCAL        .IN                                                 :          
DPHI        .V/V                                                :          
DRHO        .G/CC                                               :          
GR          .GAPI                                               :          
GR_NORM     .GAPI                                               :GammaRay Normalized
ILD         .OHMM                                               :          
ILD_LNR     .OHMM                                               :          
ILM         .OHMM                                               :          
NPHI        .V/V                                                :          
SFLU        .OHMM                                               :          
SP          .MV                                                 :          
SP_NORM     .MV                                                 :SP Normalized
TENS        .LB                                                 :          
VSH_GR      .V/V                                                :Volume of Shale from GR
VSH_SP      .V/V                                                :Volume of Shale from SP
~A        DEPTH            ASN           DCAL           DPHI           DRHO             GR        GR_NORM            ILD        ILD_LNR            ILM           NPHI           SFLU             SP        SP_NORM           TENS         VSH_GR         VSH_SP
# ...
      3435.0000         1.1115          3.901         0.3271        -0.0287        43.6634       51.71336         0.4018         0.5318         0.4342         0.3212         0.9379       -75.8416      -61.75916       1415.842      0.3981566     0.05063814
      3435.5000         1.1267         3.8614         0.2941        -0.0257        41.8812       49.28497         0.4322         0.5312         0.4734         0.2835         0.9166       -75.0495      -60.95822        1396.04      0.3464888     0.06315279
      3436.0000         1.1557         3.6238         0.2488        -0.0178        38.4653       44.63056         0.4649         0.5607         0.5329         0.2412         1.1636       -74.2574      -60.15728        1396.04      0.2474587      0.0756675
      3436.5000         1.2187         3.4455         0.1889        -0.0079        35.6436       40.78577            0.5         0.5601          0.611         0.1949         1.7669       -73.6634      -59.55444       1405.941      0.1656548     0.08508694
      3437.0000         1.3134         3.1881         0.2121        -0.0069         35.198       40.17861         0.5209         0.5791         0.6843         0.1883          2.593       -73.2673       -59.1495       1405.941      0.1527364     0.09141403
      3437.5000         1.4049         3.1089         0.2506        -0.0188        37.4257       43.21402         0.5403          0.589         0.6968         0.2476         3.7012       -74.0594      -59.93276       1405.941      0.2173197     0.07917565
      3438.0000         1.5373         3.2673         0.2888        -0.0267        40.6931        47.6661         0.5428         0.5818         0.6659         0.2988         2.9191       -75.2475      -61.11201        1396.04      0.3120447     0.06074977
      3438.5000         1.7133         3.5475          0.327        -0.0297        41.7327       49.08263         0.5302         0.5429         0.6362         0.3306         2.0368       -76.0396      -61.89527       1385.575      0.3421837     0.04851139
      3439.0000         1.8336         3.8097         0.3423        -0.0297        42.6238       50.29682         0.4923         0.5277         0.5749         0.3393         1.4977       -76.4356      -62.28243       1374.776      0.3680174     0.04246199
      3439.5000         1.8575         3.8145         0.3387        -0.0327        43.6634       51.71336         0.4329         0.4974         0.5266         0.3351         1.2872       -77.2277      -63.06569       1364.031      0.3981566     0.03022355
      3440.0000         1.8682         3.6808         0.3363        -0.0347        45.5882       54.33604         0.3948         0.4969         0.4824         0.3321         1.2408       -77.4257      -63.25485       1343.523      0.4539584     0.02726799
      3440.5000         1.6769         3.6436         0.3362        -0.0366        48.2353       57.94291         0.3601         0.4964         0.4401         0.3291         1.2408       -77.6238      -63.44411       1343.137      0.5307003     0.02431071
      3441.0000          1.364         3.5446         0.3374        -0.0386        48.6765       58.54409         0.3504          0.466         0.4244         0.3267         1.2408       -77.2277      -63.03917       1352.941      0.5434912     0.03063798
      3441.5000         1.2779         3.5248         0.3374        -0.0406        49.5588       59.74628         0.3488         0.4655         0.4225         0.3184         1.2522       -76.8317      -62.63433       1343.137      0.5690699     0.03696358
      3442.0000         1.2719         3.5842         0.3273        -0.0396        50.7353       61.34936          0.352         0.4802         0.4244         0.3089         1.2931       -75.2475      -61.04129       1343.137      0.6031778      0.0618549
      3442.5000         1.2754          3.604         0.3166        -0.0396        51.7647       62.75199         0.3752         0.4944         0.4381         0.2918         1.3726       -72.4752      -58.26014       1343.137      0.6330211      0.1053103
      3443.0000         1.2548         3.6238         0.3089        -0.0356        52.6471       63.95433          0.413         0.4963         0.4606         0.2771         1.4175       -67.3267      -53.10281       1343.137      0.6586027      0.1858937
      3443.5000          1.205         3.6832         0.3101        -0.0297        54.5588       66.55917         0.4586         0.5342         0.4955         0.3018         1.2238        -59.604      -45.37127       1362.745      0.7140248       0.306699
      3444.0000         1.0866         3.8218         0.2971        -0.0158        58.2353       71.56867         0.4932          0.572         0.5281         0.3309         0.9379       -51.8812      -37.63963       1362.745        0.82061      0.4275059
      3444.5000         0.9772         3.9208         0.2829          0.002        58.9706       72.57058         0.5329         0.5819         0.5838         0.3594         0.7229       -44.9505      -30.70008       1352.941      0.8419272      0.5359362
      3445.0000         0.8901         3.9604         0.2841        -0.0059        59.1176       72.77089         0.5759         0.6113         0.6466         0.3707         0.6171       -40.9901      -26.73084       1343.137      0.8461891      0.5979556
      3445.5000         0.8417         3.9406         0.2971        -0.0149        58.9706       72.57058         0.6142         0.6107         0.6838         0.3576         0.7782       -42.1782       -27.9101       1362.745      0.8419272      0.5795296
      3446.0000         0.8091          4.099         0.3113        -0.0188        60.4455       74.58024         0.6316         0.6101         0.6903         0.3541         0.9954       -43.7624      -29.48546       1372.549      0.8846859      0.5549147
      3446.5000         0.7946         4.2376         0.3059         -0.005        62.9703       78.02047         0.6496         0.6097         0.6903         0.3873         1.1268       -41.9802      -27.69442       1372.549      0.9578823      0.5828996
      3447.0000         0.7953          4.198         0.2994         0.0079         65.198       81.05589         0.6618         0.6092         0.6903           0.42         0.9125       -39.0099      -24.71528       1362.745              1      0.6294488
      3447.5000         0.8081         4.1584         0.3053         0.0079        61.3366       75.79444         0.6466         0.6087          0.687         0.4283         0.7097       -42.7723      -28.46884       1362.745        0.91052      0.5707994
      3448.0000         0.8313         4.2376         0.3202         -0.005        56.3235       68.96371         0.5973         0.5783         0.6618         0.4051         0.8371        -49.703       -35.3907       1372.549      0.7651854      0.4626454
      3448.5000         0.8611         4.7129          0.335        -0.0228        51.1765       61.95052         0.5502         0.5412         0.6258         0.3826         1.0422       -58.4158      -44.09466       1382.353      0.6159686       0.326646
      3449.0000         0.9037         5.2277         0.3469        -0.0307        48.9706       58.94482         0.5092         0.5176         0.5838         0.3594         1.3231       -67.7228      -53.39282       1392.157      0.5520175      0.1813622
      3449.5000         0.9422         5.7624         0.3469        -0.0327        48.2353       57.94291         0.4691         0.4872         0.5378         0.3552         1.3415       -73.0693      -58.73047       1382.353      0.5307003     0.09796137
      3450.0000          0.985         6.0198         0.3422        -0.0327        47.6471       57.14145         0.4302         0.4868         0.4955         0.3618         1.1797       -75.6436      -61.29594       1382.353      0.5136479     0.05787599
      3450.5000         0.9997         6.0169         0.3452        -0.0327        46.9145       56.14323            0.4         0.4752         0.4565         0.3684         1.0367       -77.5982      -63.24169       1371.647      0.4924092     0.02747357
