#------------------------------------------------------------------------------
# Created by    : vladimir.rabinovich
# Created on    : 09/19/2023 17:20:53
#------------------------------------------------------------------------------
~Version Information Section
VERS.           2.0     :   CWLS log ASCII Standard - VERSION 2.0
WRAP.           NO      :   One line per depth step
~Well Information Section
#MNEM       .UNIT                                         VALUE :DESCRIPTION
#------------------------------------------------------------------------------
STRT        .FT                                             875 :START DEPTH
STOP        .FT                                            6380 :STOP DEPTH
STEP        .FT                                             0.5 :STEP      
NULL        .                                           -999.25 :NULL      
COMP        .                       ENERGY DEVELOPMENT CORP N J :COMPANY   
WELL        .                                   STATE TRACT 241 :WELL      
FLD         .                                           WILDCAT :FIELD     
LOC         .                                                   :LOCATION  
CNTY        .                                           CALHOUN :LOCATION  
STAT        .                                             TEXAS :STATE     
CTRY        .                                     UNITED STATES :COUNTRY   
SRVC        .                                                   :SERVICE COMPANY
DATE        .                             9/13/2023 11:19:11 AM :LOG DATE  
API         .                                    42057314130000 :API NUMBER
UWI         .                                    42057314130000 :UNIQUE WELL ID
XCOORD      .                                  544841.599058466 :SURFACE X 
YCOORD      .                                   10330281.839261 :SURFACE Y 
LAT         .                                        28.4235103 :LATITUDE  
LON         .                                       -96.4085418 :LONGITUDE 
ELEV        .FT                                              34 :ELEVATION VALUE
ELEV_TYPE   .                                                KB :ELEVATION REFERENCE TYPE
~Curve Information Section
#MNEM       .UNIT                                      API CODE :CURVE DESCRIPTION
#------------------------------------------------------------------------------
DEPT        .FT                                                 :DEPTH     
ASN         .OHMM                                               :          
DCAL        .IN                                                 :          
DPHI        .V/V                                                :          
DRHO        .G/CC                                               :          
GR          .GAPI                                               :          
GR_NORM     .GAPI                                               :GammaRay Normalized
ILD         .OHMM                                               :          
ILD_LNR     .OHMM                                               :          
ILM         .OHMM                                               :          
NPHI        .V/V                                                :          
SFLU        .OHMM                                               :          
SP          .MV                                                 :          
SP_NORM     .MV                                                 :SP Normalized
TENS        .LB                                                 :          
VSH_GR      .V/V                                                :Volume of Shale from GR
VSH_SP      .V/V                                                :Volume of Shale from SP
~A        DEPTH            ASN           DCAL           DPHI           DRHO             GR        GR_NORM            ILD        ILD_LNR            ILM           NPHI           SFLU             SP        SP_NORM           TENS         VSH_GR         VSH_SP
       875.0000        -999.25         0.4158        -999.25        -999.25        28.6634       38.60818        2055.11        -999.25       2018.204        -999.25         0.2314        -20.396       14.33454       715.6863      0.1193229              1
       875.5000        -999.25         1.1089        -999.25        -999.25        33.5294       46.09342        2055.11        -999.25       1843.379        -999.25         0.3701       -29.1089       5.621641       715.6863      0.2785834              1
       876.0000        -999.25          1.901        -999.25        -999.25        38.3824       53.55865       2045.821        -999.25        1360.79        -999.25         1.4468       -36.8317      -2.101158       715.6863       0.437418              1
       876.5000        -999.25         2.7218        -999.25        -999.25        40.5882       56.95177         1684.7        -999.25       1018.976        -999.25         4.1484       -41.1881      -6.457558       715.2874      0.5096121      0.8496714
       877.0000        -999.25         3.4421        -999.25        -999.25        41.0294       57.63046       901.5474        -999.25       961.2602        -999.25         3.6509       -45.3465      -10.61596       704.7459      0.5240523      0.6688713
       877.5000        -999.25         3.9205        -999.25        -999.25        40.1471       56.27324        30.2752        -999.25        55.6758        -999.25         2.8922       -47.5248      -12.79426       704.0177      0.4951752      0.5741627
       878.0000        -999.25         4.4395        -999.25        -999.25        38.5294       53.78477         1.3412        -999.25         5.7588        -999.25         2.0826       -49.3069      -14.57636       703.2859      0.4422292      0.4966801
       878.5000        -999.25         4.2426        -999.25        -999.25        38.0982       53.12148          1.626        -999.25         1.9625        -999.25         1.9535       -51.0616      -16.33106       701.9542      0.4281165      0.4203888
       879.0000        -999.25         4.0876        -999.25        -999.25        37.6753       52.47094         2.6603        -999.25         1.9159        -999.25         2.1476       -52.9918      -18.26126       700.3566      0.4142753      0.3364671
       879.5000        -999.25         4.0924        -999.25        -999.25        38.1381       53.18285         4.2706        -999.25         1.9052        -999.25         2.3713       -53.3383      -18.60776         698.59      0.4294224      0.3214018
       880.0000        -999.25         4.0178        -999.25        -999.25        39.6415       55.49549         4.5882        -999.25         2.1623        -999.25         2.6183       -53.2888      -18.55826       696.8322      0.4786274       0.323554
       880.5000        -999.25         3.9802        -999.25        -999.25        41.8857       58.94768         2.3139        -999.25         2.4551        -999.25         2.7764       -53.4653      -18.73476       685.8474      0.5520782        0.31588
       881.0000        -999.25         3.9406        -999.25        -999.25        43.5206       61.46261         2.0275        -999.25         2.3351        -999.25         2.8018       -53.2673      -18.53676       685.0934      0.6055874      0.3244888
       881.5000        -999.25         3.8812        -999.25        -999.25         45.296       64.19366         1.9819        -999.25         2.1611        -999.25         2.6771       -53.2673      -18.53676       684.3358       0.663695      0.3244888
       882.0000        -999.25         3.8614        -999.25        -999.25        46.6317       66.24834          1.991        -999.25         2.0648        -999.25         2.4775       -53.2673      -18.53676       693.3882      0.7074116      0.3244888
       882.5000        -999.25         3.9604        -999.25        -999.25        46.0396       65.33751         2.0197        -999.25         2.1138        -999.25         2.3049       -53.4653      -18.73476       693.0693      0.6880321        0.31588
       883.0000        -999.25            4.1        -999.25        -999.25        44.7059       63.28592         2.0405        -999.25         2.2249        -999.25         2.1649       -54.2574      -19.52686       693.0693      0.6443812      0.2814409
       883.5000        -999.25           4.22        -999.25        -999.25        42.2059       59.44023         2.0335        -999.25         2.3101        -999.25         2.0521       -55.4455      -20.71496       702.9703      0.5625581      0.2297844
       884.0000        -999.25           4.38        -999.25        -999.25        38.3824       53.55865         1.9989        -999.25         2.1114        -999.25         2.0922       -56.8317      -22.10116       702.9703       0.437418      0.1695149
       884.5000        -999.25         4.5429        -999.25        -999.25        35.4412       49.03428         1.9549        -999.25         1.9818        -999.25          2.122       -58.0198      -23.28926       701.5934       0.341155      0.1178584
       885.0000        -999.25         4.7278        -999.25        -999.25        33.8235       46.54582         1.8763        -999.25         1.8508        -999.25         2.0554       -59.4059      -24.67536       709.0777      0.2882089     0.05759314
       885.5000        -999.25         4.9128        -999.25        -999.25        32.9412        45.1886         1.7845        -999.25         1.7284        -999.25         1.9549       -60.5882      -25.85766       706.6634       0.259332    0.006188766
       886.0000        -999.25         5.0977        -999.25        -999.25        33.0882       45.41473         1.7128        -999.25         1.6142        -999.25         1.8424       -60.5882      -25.85766       704.0077      0.2641431    0.006188766
       886.5000        -999.25           5.28        -999.25        -999.25        33.5294       46.09342         1.6972        -999.25         1.5493        -999.25         1.7603       -60.7843      -26.05376       702.9703      0.2785834              0
       887.0000        -999.25           5.48        -999.25        -999.25        33.6765       46.31969         1.6895        -999.25         1.5006        -999.25         1.6818       -60.9804      -26.24986       702.9703      0.2833976              0
       887.5000        -999.25           5.66        -999.25        -999.25        33.9706        46.7721         1.6895        -999.25         1.4601        -999.25         1.6068       -60.9804      -26.24986       702.9703      0.2930235              0
       888.0000        -999.25           5.84        -999.25        -999.25             35        48.3556         1.6741        -999.25         1.4534        -999.25         1.5635       -60.5882      -25.85766       702.9703      0.3267149    0.006188766
       888.5000        -999.25         6.0396        -999.25        -999.25        35.8903       49.72512         1.6741        -999.25         1.4601        -999.25         1.5563       -59.7731      -25.04256       701.9795      0.3558536      0.0416278
       889.0000        -999.25         6.2376        -999.25        -999.25         36.495       50.65531         1.6741        -999.25         1.5074        -999.25         1.5563       -58.9329      -24.20236        700.249      0.3756449     0.07815833
       889.5000        -999.25          6.495        -999.25        -999.25        34.2913       47.26543         1.7128        -999.25         1.5563        -999.25         1.5635       -59.4785      -24.74796        698.527      0.3035197     0.05443656
       890.0000         1.6417         6.7525        -999.25        -999.25         31.335       42.71782         1.8257        -999.25          1.629        -999.25         1.5995       -60.2219      -25.49136       696.8134      0.2067622     0.02211479
       890.5000         1.6732         7.0126        -999.25        -999.25        28.3991       38.20161          1.886         1.6785         1.6982        -999.25         1.6374       -61.1867      -26.45616       696.0784      0.1106726              0
