#------------------------------------------------------------------------------
# Created by    : vladimir.rabinovich
# Created on    : 09/19/2023 17:22:27
#------------------------------------------------------------------------------
~Version Information Section
VERS.           2.0     :   CWLS log ASCII Standard - VERSION 2.0
WRAP.           NO      :   One line per depth step
~Well Information Section
#MNEM       .UNIT                                         VALUE :DESCRIPTION
#------------------------------------------------------------------------------
STRT        .FT                                          1344.5 :START DEPTH
STOP        .FT                                            6047 :STOP DEPTH
STEP        .FT                                             0.5 :STEP      
NULL        .                                           -999.25 :NULL      
COMP        .                      HIGHLAND RESOURCES-G R BROWN :COMPANY   
WELL        .                                         ST TR 234 :WELL      
FLD         .                                           WILDCAT :FIELD     
LOC         .                                                   :LOCATION  
CNTY        .                                           CALHOUN :LOCATION  
STAT        .                                             TEXAS :STATE     
CTRY        .                                     UNITED STATES :COUNTRY   
SRVC        .                                                   :SERVICE COMPANY
DATE        .                             9/13/2023 11:18:59 AM :LOG DATE  
API         .                                    42057308440000 :API NUMBER
UWI         .                                    42057308440000 :UNIQUE WELL ID
XCOORD      .                                  538656.561995839 :SURFACE X 
YCOORD      .                                  10324779.5220427 :SURFACE Y 
LAT         .                                        28.4079151 :LATITUDE  
LON         .                                       -96.4272693 :LONGITUDE 
ELEV        .FT                                              14 :ELEVATION VALUE
ELEV_TYPE   .                                                KB :ELEVATION REFERENCE TYPE
~Curve Information Section
#MNEM       .UNIT                                      API CODE :CURVE DESCRIPTION
#------------------------------------------------------------------------------
DEPT        .FT                                                 :DEPTH     
CILD        .MMHO                                               :          
DT          .US/F                                               :          
RILD        .OHMM                                               :          
SFL         .OHMM                                               :          
SP          .MV                                                 :          
SP_NORM     .MV                                                 :SP Normalized
VSH_SP      .V/V                                                :Volume of Shale from SP
~A        DEPTH           CILD             DT           RILD            SFL             SP        SP_NORM         VSH_SP
# ...
      2885.5000       1421.666       144.9354         0.7034         0.8502       152.4942       3.841751              1
      2886.0000       1283.368       152.0883         0.7792         0.8665       153.1123       4.465454              1
      2886.5000       1176.194       153.2097         0.8502         0.8833       153.4276       4.786362              1
      2887.0000       1090.394       153.6158         0.9171         0.9178         153.91       5.274368              1
      2887.5000        1043.95       151.6083         0.9579          0.948       155.2753       6.645264              1
      2888.0000       1029.018       149.9364         0.9718         0.9875       155.8937       7.269287              1
      2888.5000       1015.538       149.1469         0.9847         1.0396       155.8847       7.265884              1
      2889.0000         963.02       149.3595         1.0384         1.0797        155.407       6.793793              1
      2889.5000       881.4456       149.4455         1.1345         1.1621       155.0014       6.393799              1
      2890.0000       798.5945       147.4778         1.2522         1.2395       155.0119       6.409897              1
      2890.5000       726.7441       139.1568          1.376         1.3496       155.0193       6.422913              1
      2891.0000        650.026       129.7692         1.5384         1.4902       155.0275       6.436707              1
      2891.5000       614.2883       121.2151         1.6279         1.6728        154.544       5.958817              1
      2892.0000        597.015       113.3243          1.675          1.733       153.6363       5.056732              1
      2892.5000       592.7331       109.0906         1.6871         1.7614       151.6949       3.120926              1
      2893.0000       597.8001       108.7075         1.6728         1.7982       149.2765      0.7081299              1
      2893.5000       618.2762       114.9998         1.6174         1.4642       147.1305      -1.432266      0.9933497
      2894.0000       636.7805       118.5018         1.5704         1.3507       146.7032      -1.853958      0.9868622
      2894.5000       668.1812       120.5211         1.4966         1.2253       147.4524      -1.099152      0.9984746
      2895.0000       684.7908       125.2208         1.4603         1.2538       147.1566      -1.389343      0.9940101
      2895.5000       692.0894       130.9266         1.4449         1.2951       146.3387      -2.201645      0.9815131
      2896.0000       683.8542       132.3527         1.4623         1.3688       145.0349      -3.499832      0.9615411
      2896.5000       676.1325        125.508          1.479         1.4641       144.4323      -4.096832      0.9523564
      2897.0000       672.5854       116.3508         1.4868          1.578       145.5133      -3.010223      0.9690735
      2897.5000       672.4949       106.3485          1.487         1.6281       148.1145     -0.4034119              1
      2898.0000       677.6904       104.2071         1.4756         1.6531       149.0191      0.5067902              1
      2898.5000       693.0967       128.3181         1.4428          1.674       150.2676        1.76088              1
      2899.0000       718.6489       135.4588         1.3915         1.6942        150.733       2.231903              1
      2899.5000       774.3535       141.3664         1.2914         1.6532       151.2553       2.759796              1
      2900.0000       857.2653        144.879         1.1665         1.3405       152.4311       3.941223              1
      2900.5000       911.3278       147.3486         1.0973         1.1102       153.6065       5.122223              1
      2901.0000       936.0667       145.3617         1.0683         0.9602       155.1949       6.716217              1
      2901.5000       959.9693       143.6126         1.0417         0.9924       156.0944       7.621338              1
      2902.0000       984.3488       146.5663         1.0159         1.0116       156.4323       7.964828              1
      2902.5000       994.1346       150.1747         1.0059         1.0308       156.2435       7.781631              1
      2903.0000       998.2033       151.8055         1.0018         1.0489       155.3876       6.931351              1
      2903.5000       1009.387       152.8327         0.9907         1.0642       154.0154       5.564743              1
      2904.0000       1020.721       153.5627         0.9797         1.0596        153.283       4.837952              1
      2904.5000       1041.124       154.5311         0.9605         1.0462       152.8053        4.36586              1
      2905.0000       1041.016       156.6896         0.9606         1.0122       152.3271       3.893265              1
      2905.5000       1040.908       155.8907         0.9607         0.9684       151.9094       3.481171              1
      2906.0000       1029.336       143.0288         0.9715         0.9363       151.6145       3.191879              1
      2906.5000       1015.331       126.7106         0.9849         0.9094       151.1986        2.78157              1
      2907.0000       976.3718       131.9276         1.0242         0.8807       150.7142       2.302795              1
      2907.5000       917.0106       134.5547         1.0905         0.8628       150.2429       1.837097              1
      2908.0000       841.3967       125.4674         1.1885         0.8723        149.765       1.364792              1
      2908.5000       757.0023       100.8703          1.321         0.9293       148.9082      0.5136108              1
      2909.0000        690.274        88.4344         1.4487         1.0795       148.0923     -0.2966919              1
      2909.5000       620.5399        80.9063         1.6115         1.1903       146.7865      -1.596893       0.990817
      2910.0000       590.5977        84.0223         1.6932         1.3119       145.3906      -2.987183      0.9694279
      2910.5000       578.0347        93.9588           1.73         1.5649       143.2149      -5.157272       0.936042
      2911.0000       580.5515         98.291         1.7225         1.7768       138.2631      -10.10345      0.8599468
      2911.5000        600.781       101.2976         1.6645         1.9679       133.1645      -15.19646       0.781593
      2912.0000       675.2195        106.394          1.481          2.263       126.6757      -21.67966      0.6818513
      2912.5000       768.3442       105.4952         1.3015         2.3464       117.5698      -30.77995       0.541847
      2913.0000       941.4423       105.0072         1.0622         2.3923       108.1836      -40.16055      0.3975301
      2913.5000       1041.016        105.439         0.9606         2.3932       105.4121      -42.92645      0.3549778
      2914.0000       1078.865       106.7536         0.9269         2.2936       104.1691      -44.16383       0.335941
      2914.5000        1107.42       108.8497          0.903         2.1709       103.2061      -45.12123      0.3212118
      2915.0000       1115.325       111.1739         0.8966          2.064       103.7993      -44.52243      0.3304242
      2915.5000         1115.2       113.2906         0.8967         2.0606       104.7571      -43.55901       0.345246
      2916.0000       1138.823       114.2393         0.8781         2.0801       104.7698      -43.54072      0.3455274
      2916.5000       1173.571       114.8224         0.8521         2.1143       104.3471       -43.9578      0.3391107
      2917.0000       1213.592        115.545          0.824         2.1254       102.6594       -45.6399      0.3132323
      2917.5000       1279.591        116.096         0.7815         2.1101        99.5877        -48.706      0.2660615
      2918.0000       1398.015       116.3516         0.7153         2.1094        95.9658      -52.32229      0.2104263
      2918.5000       1560.306       115.8864         0.6409         2.0777        93.4617      -54.82079      0.1719879
