#------------------------------------------------------------------------------
# Created by    : vladimir.rabinovich
# Created on    : 09/19/2023 17:22:27
#------------------------------------------------------------------------------
~Version Information Section
VERS.           2.0     :   CWLS log ASCII Standard - VERSION 2.0
WRAP.           NO      :   One line per depth step
~Well Information Section
#MNEM       .UNIT                                         VALUE :DESCRIPTION
#------------------------------------------------------------------------------
STRT        .FT                                          1344.5 :START DEPTH
STOP        .FT                                            6047 :STOP DEPTH
STEP        .FT                                             0.5 :STEP      
NULL        .                                           -999.25 :NULL      
COMP        .                      HIGHLAND RESOURCES-G R BROWN :COMPANY   
WELL        .                                         ST TR 234 :WELL      
FLD         .                                           WILDCAT :FIELD     
LOC         .                                                   :LOCATION  
CNTY        .                                           CALHOUN :LOCATION  
STAT        .                                             TEXAS :STATE     
CTRY        .                                     UNITED STATES :COUNTRY   
SRVC        .                                                   :SERVICE COMPANY
DATE        .                             9/13/2023 11:18:59 AM :LOG DATE  
API         .                                    42057308440000 :API NUMBER
UWI         .                                    42057308440000 :UNIQUE WELL ID
XCOORD      .                                  538656.561995839 :SURFACE X 
YCOORD      .                                  10324779.5220427 :SURFACE Y 
LAT         .                                        28.4079151 :LATITUDE  
LON         .                                       -96.4272693 :LONGITUDE 
ELEV        .FT                                              14 :ELEVATION VALUE
ELEV_TYPE   .                                                KB :ELEVATION REFERENCE TYPE
~Curve Information Section
#MNEM       .UNIT                                      API CODE :CURVE DESCRIPTION
#------------------------------------------------------------------------------
DEPT        .FT                                                 :DEPTH     
CILD        .MMHO                                               :          
DT          .US/F                                               :          
RILD        .OHMM                                               :          
SFL         .OHMM                                               :          
SP          .MV                                                 :          
SP_NORM     .MV                                                 :SP Normalized
VSH_SP      .V/V                                                :Volume of Shale from SP
~A        DEPTH           CILD             DT           RILD            SFL             SP        SP_NORM         VSH_SP
# ...
      4460.0000       2111.932       114.4857         0.4735          1.255        79.7743       -67.4183     0.03741599
      4460.5000       2123.593        114.602         0.4709         1.2529        78.8698      -68.34296     0.02401512
      4461.0000       2123.593       114.4759         0.4709         1.2742        78.5726      -68.66031     0.01941581
      4461.5000       2123.593       114.1366         0.4709         1.2994        78.5818      -68.67126     0.01925703
      4462.0000       2123.142       113.8271          0.471         1.3226        78.9465      -68.32672     0.02425042
      4462.5000       2138.123       114.0039         0.4677         1.3333        79.5677      -67.72568      0.0329612
      4463.0000       2153.316       114.5902         0.4644         1.3325        79.5267      -67.78683     0.03207486
      4463.5000       2188.663       114.9999         0.4569         1.3237        79.3242      -68.00949     0.02884796
      4464.0000       2214.839       115.3539         0.4515         1.3102        78.6279      -68.72595     0.01846446
      4464.5000       2254.283       115.8173         0.4436         1.2905        78.1728      -69.20121     0.01157667
      4465.0000       2295.684        115.964         0.4356         1.2571        77.6972      -69.69698    0.004391546
      4465.5000       2332.634       115.3466         0.4287         1.2022        77.4336      -69.98074   0.0002791916
      4466.0000       2398.082       114.7984          0.417          1.143        77.7481      -69.68639    0.004545018
      4466.5000        2444.39        114.267         0.4091         1.0856        78.0634      -69.39125    0.008822455
      4467.0000       2469.136       114.7668          0.405         1.0406        78.5166      -68.95821     0.01509846
      4467.5000       2515.091       117.0771         0.3976         0.9844        79.3161      -68.17886     0.02639328
      4468.0000       2560.819       119.0258         0.3905         0.9342        79.8097      -67.70542     0.03325476
      4468.5000       2593.361       120.3812         0.3856         0.8899        79.9986      -67.53668     0.03570026
      4469.0000        2641.31       120.8609         0.3786          0.851        80.2469      -67.30853     0.03900677
      4469.5000       2660.282        118.696         0.3759         0.8192        79.8289      -67.74669     0.03265668
      4470.0000        2641.31       115.6336         0.3786         0.7945        79.3482      -68.24755     0.02539781
      4470.5000        2612.33        114.275         0.3828         0.8073        80.0106      -67.60531     0.03470567
      4471.0000       2582.645       112.4862         0.3872         0.8862        81.3419      -66.29416     0.05370784
      4471.5000        2548.42       114.0902         0.3924         0.9552        82.1251      -65.53112     0.06476637
      4472.0000       2525.252        115.111          0.396         1.0045        81.2182      -66.45818     0.05133079
      4472.5000        2495.01       115.3149         0.4008         1.0336        79.6997      -67.99685     0.02903117
      4473.0000        2450.98       115.0047          0.408         1.0595        80.6287      -67.08801     0.04220283
      4473.5000        2422.48       114.8496         0.4128         1.0627        81.6065      -66.13036     0.05608169
      4474.0000       2379.253       115.7298         0.4203         1.0498        82.3778      -65.37922     0.06696784
      4474.5000       2336.448       116.0741          0.428         1.0122        82.7893      -64.98788     0.07263947
      4475.0000       2307.337       115.1496         0.4334         0.9518        83.1046      -64.69273      0.0769169
      4475.5000       2260.909       116.7581         0.4423         0.8805        83.4183      -64.39919     0.08117112
      4476.0000        2195.39       123.4794         0.4555          0.841        83.4275      -64.41015     0.08101234
      4476.5000       2180.074       131.6149         0.4587          0.872        83.2477       -64.6101     0.07811449
      4477.0000       2164.502       134.1885          0.462         0.9074        82.0977      -65.78026     0.06115568
      4477.5000       2164.034       126.0443         0.4621         0.9473        81.0134      -66.88472     0.04514899
      4478.0000       2184.837       121.3269         0.4577         0.9908        80.9046      -67.01367     0.04328012
      4478.5000        2226.18       114.0584         0.4492         1.0092        81.0307      -66.90773     0.04481551
      4479.0000       2258.866       110.4584         0.4427         0.9892        81.2096      -66.74899     0.04711616
      4479.5000       2312.139       110.2138         0.4325         0.8863        81.7475      -66.23125     0.05461961
      4480.0000       2388.916        114.512         0.4186         0.7982        82.5862      -65.41272     0.06648232
      4480.5000       2472.799       117.0487         0.4044         0.7856        83.3996      -64.61948      0.0779786
      4481.0000       2563.445       118.6551         0.3901         0.7798        84.1302      -63.90903     0.08827497
      4481.5000       2617.116       118.7363         0.3821         0.7781        84.1389      -63.92049     0.08810889
      4482.0000       2656.748        116.949         0.3764         0.7737         83.818      -64.26154     0.08316604
      4482.5000       2673.797       116.3964          0.374         0.7706         82.933       -65.1667      0.0700478
      4483.0000       2673.797       115.4179          0.374         0.7757        82.1778      -65.94205      0.0588108
      4483.5000       2673.797       115.2153          0.374         0.7967        81.4283      -66.71172     0.04765629
      4484.0000       2673.797       117.2361          0.374         0.8196        81.4366      -66.72357     0.04748447
      4484.5000       2673.082       119.2703         0.3741         0.8327        81.7634      -66.41693     0.05192854
      4485.0000       2673.082        121.253         0.3741         0.8431        82.3709      -65.82958     0.06044084
      4485.5000        2691.79        121.707         0.3715         0.8452        82.2609      -65.95974      0.0585545
      4486.0000        2691.79       118.1711         0.3715         0.8379        81.1691       -67.0717     0.04243911
      4486.5000       2717.391        116.352          0.368         0.8243          81.29      -66.97095      0.0438992
      4487.0000       2749.519       115.5554         0.3637         0.8089        82.4078      -65.87331     0.05980704
      4487.5000        2778.55       115.6486         0.3599         0.7955        82.8884      -65.41289     0.06647989
      4488.0000       2809.778       117.8002         0.3559         0.7798        83.3419      -64.97954     0.07276032
      4488.5000       2867.795       118.6203         0.3487         0.7659        83.3526        -64.989     0.07262321
      4489.0000       2905.288       119.0652         0.3442         0.7506        83.4538      -64.90796      0.0737977
      4489.5000       2970.885       120.1521         0.3366         0.7333         84.286      -64.09591     0.08556654
      4490.0000       3053.435       119.9299         0.3275         0.7156        84.7469      -63.65517      0.0919541
      4490.5000       3076.923       119.0323          0.325         0.6909        85.2197      -63.20252     0.09851417
      4491.0000       3076.923       117.9539          0.325         0.6628        85.0285      -63.41388     0.09545102
      4491.5000       3076.923       117.3412          0.325         0.6707        84.1731      -64.28944     0.08276179
      4492.0000       3076.923       117.5292          0.325         0.7034        83.1108      -65.37189     0.06707399
      4492.5000       3054.368       118.8058         0.3274         0.7255        82.2522      -66.25066     0.05433832
      4493.0000        3033.06       120.4448         0.3297          0.751        81.5976      -66.92541     0.04455931
