#------------------------------------------------------------------------------
# Created by    : vladimir.rabinovich
# Created on    : 09/19/2023 17:22:37
#------------------------------------------------------------------------------
~Version Information Section
VERS.           2.0     :   CWLS log ASCII Standard - VERSION 2.0
WRAP.           NO      :   One line per depth step
~Well Information Section
#MNEM       .UNIT                                         VALUE :DESCRIPTION
#------------------------------------------------------------------------------
STRT        .FT                                           554.5 :START DEPTH
STOP        .FT                                            5893 :STOP DEPTH
STEP        .FT                                             0.5 :STEP      
NULL        .                                           -999.25 :NULL      
COMP        .                              NEUMIN PRODUCTION CO :COMPANY   
WELL        .                                         ST TR 186 :WELL      
FLD         .                                           WILDCAT :FIELD     
LOC         .                                                   :LOCATION  
CNTY        .                                           CALHOUN :LOCATION  
STAT        .                                             TEXAS :STATE     
CTRY        .                                     UNITED STATES :COUNTRY   
SRVC        .                                                   :SERVICE COMPANY
DATE        .                             9/13/2023 11:18:59 AM :LOG DATE  
API         .                                    42057313020000 :API NUMBER
UWI         .                                    42057313020000 :UNIQUE WELL ID
XCOORD      .                                  487252.476079587 :SURFACE X 
YCOORD      .                                  10287942.6245796 :SURFACE Y 
LAT         .                                         28.302642 :LATITUDE  
LON         .                                       -96.5835194 :LONGITUDE 
ELEV        .FT                                              22 :ELEVATION VALUE
ELEV_TYPE   .                                                KB :ELEVATION REFERENCE TYPE
~Curve Information Section
#MNEM       .UNIT                                      API CODE :CURVE DESCRIPTION
#------------------------------------------------------------------------------
DEPT        .FT                                                 :DEPTH     
DCAL        .INCHES                                             :          
DPHI        .NONE                                               :          
GR          .GAPI                                               :          
GR_NORM     .GAPI                                               :GammaRay Normalized
ILD         .OHMM                                               :          
NPHI        .NONE                                               :          
VSH_GR      .V/V                                                :Volume of Shale from GR
~A        DEPTH           DCAL           DPHI             GR        GR_NORM            ILD           NPHI         VSH_GR
# ...
      4440.5000        -0.4168         0.2904        34.2373        35.2034         0.4992         0.3263     0.04688092
      4441.0000        -0.4171         0.2855        40.4208       41.63052         0.4747         0.3125      0.1836281
      4441.5000        -0.4555         0.2541        46.6632       48.11899         0.4673         0.3263      0.3216807
      4442.0000        -0.5401          0.216        52.9657       54.67006         0.4647         0.3649      0.4610651
      4442.5000        -0.5843         0.2437        59.7886       61.76323         0.4646         0.3888      0.6119835
      4443.0000        -0.6053         0.2731        67.5861       69.87158         0.4791         0.4201      0.7845017
      4443.5000        -0.6633         0.2851        78.2199       80.93443         0.4956         0.4309              1
      4444.0000        -0.6745         0.2949        83.0363       85.93749         0.5196         0.4426              1
      4444.5000        -0.6943         0.2981        83.7437       86.66032         0.5353         0.4588              1
      4445.0000        -0.7436         0.2967         82.271       85.11224         0.5612         0.4684              1
      4445.5000        -0.7117         0.2851        78.7863       81.46832         0.5879         0.4584              1
      4446.0000        -0.5725         0.2628        71.1495       73.49928         0.6132         0.3973      0.8616869
      4446.5000        -0.4359         0.2444         61.097        63.0139         0.6501         0.3553      0.6385936
      4447.0000        -0.3252         0.2275        42.4748       43.60175         0.6631         0.3201      0.2255691
      4447.5000        -0.3193         0.2261        33.5597       34.30115         0.6407         0.3015     0.02768407
      4448.0000        -0.4203          0.256        31.4382       32.07723         0.6095         0.2915              0
      4448.5000         -0.543         0.3096        29.6755       30.22705         0.5495         0.3037              0
      4449.0000        -0.4902         0.3319        29.4539       29.98219          0.426         0.3405              0
      4449.5000        -0.4028         0.3446        29.7337       30.25962         0.3502         0.3604              0
      4450.0000        -0.2375         0.3504         30.159        30.6886         0.3068         0.3901              0
      4450.5000        -0.1358          0.353        30.6861       31.22364         0.2852         0.3929              0
      4451.0000        -0.0847         0.3466        32.2971       32.88774         0.2838         0.3516              0
      4451.5000        -0.2075         0.3217        34.8371       35.51954         0.2932         0.3242     0.05360721
      4452.0000         -0.368         0.2897        39.0562        39.9004         0.3388         0.3102      0.1468171
      4452.5000         -0.453         0.2658        43.7308       44.75575         0.3921         0.3241      0.2501224
      4453.0000        -0.4532         0.2604        49.0797       50.31349         0.4532          0.351      0.3683721
      4453.5000        -0.4534         0.2695        53.3113       54.70738         0.4829         0.3843      0.4618591
      4454.0000        -0.4843         0.2921        53.6081       55.00251         0.5145          0.404      0.4681385
      4454.5000         -0.533          0.307        49.5157       50.72557         0.5311         0.4096      0.3771397
      4455.0000        -0.4493         0.3139        44.9173       45.92154         0.5362         0.3784      0.2749264
      4455.5000        -0.2508         0.3174        42.7537       43.65376         0.5139         0.3576      0.2266756
      4456.0000        -0.0524         0.3186        41.1004       41.91754          0.476         0.3517      0.1897348
      4456.5000         0.1271         0.3127        41.2724       42.08268         0.4354         0.3518      0.1932485
      4457.0000         0.0156         0.3032        44.8933       45.84042         0.4101         0.3554      0.2732003
      4457.5000        -0.2285         0.2994        47.8403       48.89618         0.3996         0.3629      0.3382167
      4458.0000        -0.4555         0.2985        49.9669       51.09736         0.3931         0.3642      0.3850503
      4458.5000        -0.4557         0.2995        51.6254       52.81093         0.3974         0.3596      0.4215092
      4459.0000         -0.456         0.2986        52.3213        53.5218         0.4069         0.3464      0.4366341
      4459.5000        -0.4367         0.2965        52.3291       53.51589         0.4396         0.3306      0.4365083
      4460.0000        -0.3102         0.2941        52.6983       53.88645         0.4768         0.3172      0.4443925
      4460.5000        -0.1198         0.2833        53.4929       54.70013         0.5176         0.3024      0.4617049
      4461.0000         0.0335         0.2675        56.4904       57.80849         0.5712         0.3062      0.5278401
      4461.5000         0.1974         0.2528        60.9867       62.47811           0.64         0.3364      0.6271937
      4462.0000         0.3083         0.2484        65.6035       67.27325         0.7185         0.3527       0.729218
      4462.5000         0.3081         0.2446        68.0399       69.79713         0.7877         0.3539      0.7829177
      4463.0000         0.2773         0.2413        67.7528       69.48404         0.8684         0.3392      0.7762561
      4463.5000        -0.0141         0.2355        63.2981        64.8297          0.925         0.3216      0.6772276
      4464.0000        -0.4163         0.2374        56.7724       58.01806         0.9226         0.3069      0.5322992
      4464.5000        -0.6729         0.2441        47.8235       48.68227         0.8865         0.3007      0.3336653
      4465.0000        -0.6731         0.2622        42.5349       43.15927         0.8044         0.3105      0.2161547
      4465.5000        -0.6397         0.3149         39.808       40.30472         0.6922         0.3449      0.1554196
      4466.0000        -0.5817         0.3398        39.3603       39.82434          0.565         0.3639      0.1451987
      4466.5000        -0.5399         0.3444        39.5977        40.0576         0.5022         0.3731      0.1501617
      4467.0000        -0.3678         0.3371        39.6064       40.05264         0.4432         0.3771      0.1500561
      4467.5000        -0.1736         0.3259        40.1763       40.63225         0.4039         0.3743      0.1623883
      4468.0000        -0.0492         0.3232        40.8158       41.28436         0.3763         0.3623       0.176263
      4468.5000         0.0297         0.3351        40.9042       41.36242         0.3475         0.3582      0.1779239
      4469.0000        -0.1622         0.3527        39.4759       39.86057         0.3259         0.3553      0.1459696
      4469.5000        -0.3735          0.364        37.3525       37.63467         0.3068         0.3496     0.09861001
      4470.0000        -0.4091         0.3586        35.6808       35.87929         0.2852         0.3427     0.06126152
      4470.5000        -0.3095          0.342        34.3407       34.46931         0.2725         0.3368     0.03126201
      4471.0000        -0.0021         0.3345         33.937       34.03477         0.2621          0.335      0.0220164
      4471.5000         0.2503         0.3311        33.8153       33.89397         0.2573         0.3432     0.01902065
      4472.0000         0.4012         0.3357        34.1946       34.27504         0.2583         0.3544      0.0271285
      4472.5000         0.3648         0.3423        34.6499       34.73528         0.2583         0.3603     0.03692091
      4473.0000         0.1547         0.3487        34.7926        34.8699         0.2601         0.3647     0.03978518
      4473.5000         0.0887         0.3494        35.5822       35.67837           0.26         0.3654     0.05698654
