#------------------------------------------------------------------------------
# Created by    : vladimir.rabinovich
# Created on    : 09/19/2023 17:20:53
#------------------------------------------------------------------------------
~Version Information Section
VERS.           2.0     :   CWLS log ASCII Standard - VERSION 2.0
WRAP.           NO      :   One line per depth step
~Well Information Section
#MNEM       .UNIT                                         VALUE :DESCRIPTION
#------------------------------------------------------------------------------
STRT        .FT                                             875 :START DEPTH
STOP        .FT                                            6380 :STOP DEPTH
STEP        .FT                                             0.5 :STEP      
NULL        .                                           -999.25 :NULL      
COMP        .                       ENERGY DEVELOPMENT CORP N J :COMPANY   
WELL        .                                   STATE TRACT 241 :WELL      
FLD         .                                           WILDCAT :FIELD     
LOC         .                                                   :LOCATION  
CNTY        .                                           CALHOUN :LOCATION  
STAT        .                                             TEXAS :STATE     
CTRY        .                                     UNITED STATES :COUNTRY   
SRVC        .                                                   :SERVICE COMPANY
DATE        .                             9/13/2023 11:19:11 AM :LOG DATE  
API         .                                    42057314130000 :API NUMBER
UWI         .                                    42057314130000 :UNIQUE WELL ID
XCOORD      .                                  544841.599058466 :SURFACE X 
YCOORD      .                                   10330281.839261 :SURFACE Y 
LAT         .                                        28.4235103 :LATITUDE  
LON         .                                       -96.4085418 :LONGITUDE 
ELEV        .FT                                              34 :ELEVATION VALUE
ELEV_TYPE   .                                                KB :ELEVATION REFERENCE TYPE
~Curve Information Section
#MNEM       .UNIT                                      API CODE :CURVE DESCRIPTION
#------------------------------------------------------------------------------
DEPT        .FT                                                 :DEPTH     
ASN         .OHMM                                               :          
DCAL        .IN                                                 :          
DPHI        .V/V                                                :          
DRHO        .G/CC                                               :          
GR          .GAPI                                               :          
GR_NORM     .GAPI                                               :GammaRay Normalized
ILD         .OHMM                                               :          
ILD_LNR     .OHMM                                               :          
ILM         .OHMM                                               :          
NPHI        .V/V                                                :          
SFLU        .OHMM                                               :          
SP          .MV                                                 :          
SP_NORM     .MV                                                 :SP Normalized
TENS        .LB                                                 :          
VSH_GR      .V/V                                                :Volume of Shale from GR
VSH_SP      .V/V                                                :Volume of Shale from SP
~A        DEPTH            ASN           DCAL           DPHI           DRHO             GR        GR_NORM            ILD        ILD_LNR            ILM           NPHI           SFLU             SP        SP_NORM           TENS         VSH_GR         VSH_SP
# ...
      5259.0000         0.7516         2.6337         0.3498        -0.0238        50.4744       37.18875         0.3028          0.432         0.3425         0.3844         0.8258       -66.0192       -67.2168       1871.763     0.08912237     0.08032216
      5259.5000         0.7515         1.9604         0.3534        -0.0287        50.4611       37.17534         0.3014         0.4317         0.3409         0.3701         0.8798       -67.2563       -68.4539       1842.558       0.088837     0.06314024
      5260.0000          0.751         1.1089         0.3552        -0.0307         51.184       38.02981         0.2973         0.4313         0.3378         0.3618         0.8879       -68.4932       -69.6908       1842.945      0.1070173     0.04596106
      5260.5000         0.7375         0.5545         0.3486        -0.0386           52.5        39.5835         0.2946         0.4308         0.3348         0.3569         0.7854       -69.1089       -70.3065       1863.985      0.1400744     0.03740968
      5261.0000         0.7262         0.4158         0.3485        -0.0406        53.5294        40.7993         0.2893         0.4305         0.3319          0.361            0.7       -69.1089       -70.3065       1866.059      0.1659427     0.03740968
      5261.5000         0.7034         0.4554         0.3525        -0.0396             55       42.53524         0.2827         0.4301         0.3275         0.3769          0.625       -67.5248       -68.7224       1878.008      0.2028775     0.05941105
      5262.0000         0.6974          0.495         0.3554        -0.0406        56.1765       43.92447         0.2764         0.4297         0.3231         0.3927         0.6193       -66.9307       -68.1283       1909.793      0.2324355     0.06766245
      5262.5000         0.6973         0.5149         0.3571        -0.0426        55.7353        43.4066         0.2689         0.4293         0.3216         0.3992         0.6222       -66.7327       -67.9303       1930.693      0.2214171     0.07041253
      5263.0000         0.6972          0.396         0.3559        -0.0396        53.8235       41.15506         0.2629         0.4312         0.3157         0.3921          0.672       -66.9307       -68.1283       1950.495       0.173512     0.06766245
      5263.5000         0.6971         0.3168         0.3588        -0.0396        52.3529       39.42366          0.257         0.4685         0.3085         0.3855         0.7535       -66.9307       -68.1283       1950.495      0.1366736     0.06766245
      5264.0000          0.697         0.3168         0.3618        -0.0426        51.1765       38.03907         0.2523         0.5058         0.3014         0.3867         0.8295       -66.7327       -67.9303       1960.396      0.1072142     0.07041253
      5264.5000         0.6969         0.3168         0.3636        -0.0455        52.3529       39.42818         0.2523         0.6069         0.2973         0.3885         0.7746       -65.9406       -67.1382       1990.099      0.1367699      0.0814139
      5265.0000         0.6968         0.3366         0.3612        -0.0455        54.4118       41.85766         0.2523         0.6812         0.2973         0.3897            0.7       -65.1485       -66.3461           2000      0.1884608     0.09241528
      5265.5000         0.6967         0.3366         0.3576        -0.0406        54.8529       42.37993         0.2617         0.7968         0.3028         0.3915         0.6307       -64.1584        -65.356       1970.297       0.199573      0.1061666
      5266.0000          0.699         0.3564         0.3518        -0.0356        52.3529       39.43496         0.2893         0.8535         0.3157         0.3915         0.5759       -63.1683      -64.36591       1940.594      0.1369141       0.119918
      5266.5000         0.7025         0.4356         0.3182        -0.0307        48.8235       35.27646         0.3662         0.9337         0.3662         0.3689         0.5305       -61.7822       -62.9798        1900.99     0.04843529      0.1391694
      5267.0000         0.7084         0.5545         0.2682        -0.0287        46.0294       31.98478         0.4586         0.9931         0.4734            0.3         0.7605        -60.396      -61.59361       1891.089              0      0.1584222
      5267.5000         0.7187         0.6139         0.1877        -0.0248        44.4059       30.07312         0.5733         0.9927         0.5973         0.2335          1.376       -58.0198       -59.2174       1891.089              0       0.191425
      5268.0000          0.754         0.5347         0.1465        -0.0257        43.2178       28.67474            0.7         0.9505         0.7501         0.1524         2.7016       -55.0495       -56.2471       1891.089              0      0.2326791
      5268.5000         0.8452         0.4158         0.1812        -0.0257        42.0297       27.27637         0.8333         0.8725         0.9293         0.1606        10.5144       -52.8713       -54.0689       1889.988              0      0.2629319
      5269.0000          2.562          0.396         0.2232        -0.0277        41.5842       26.75343         0.9774         0.7691         1.0806         0.2125        11.3103       -53.4653      -54.66291       1887.793              0      0.2546819
      5269.5000         2.4483         0.5149         0.2649        -0.0257        42.7723       28.15634         1.0467         0.6933         1.1106          0.259         7.5167       -56.8317       -58.0293       1885.609              0      0.2079263
      5270.0000         2.0953         0.8119         0.2912        -0.0248        45.8824       31.82507         1.0046         0.6623         1.0277         0.2965         4.1484       -59.4059       -60.6035       1883.436              0      0.1721736
      5270.5000         1.7423         1.1881         0.2994        -0.0236        49.4118       35.98809          0.848         0.6318         0.9078          0.335         1.6139       -61.7822       -62.9798       1882.353     0.06357647      0.1391694
      5271.0000         1.3893         1.2871         0.3018        -0.0224        49.7059       36.33707         0.7085         0.5937         0.8023         0.3665          1.109       -63.1683      -64.36591       1872.549      0.0710015       0.119918
      5271.5000         1.2381         1.0297          0.303        -0.0231        47.9412       34.25894         0.5973         0.5717         0.7077          0.363         0.9525       -63.1683      -64.36591       1872.549     0.02678599       0.119918
      5272.0000         1.1838         0.7921         0.3065        -0.0259        46.4706       32.52753         0.5186         0.5712         0.6308         0.3541         1.0523       -61.7822       -62.9798       1892.157              0      0.1391694
      5272.5000         1.1631         0.6733         0.3143        -0.0277        47.6471       33.91675         0.4482         0.6008         0.5603         0.3434         1.2016       -61.5842      -62.78181       1901.961     0.01950536      0.1419193
      5273.0000         1.1663         0.7921          0.316        -0.0257        48.3824       34.78586         0.4037         0.6197         0.5162          0.338         1.3601       -60.9901      -62.18771       1911.765     0.03799698      0.1501707
      5273.5000         1.1641         1.0495         0.3143        -0.0208        48.3824       34.78812         0.3854         0.6772         0.4865         0.3469         1.3477        -60.396      -61.59361       1911.765     0.03804503      0.1584222
      5274.0000          1.134         1.1683         0.3149        -0.0228        47.9412       34.27026         0.3801         0.7189         0.4756         0.3541         1.1689        -59.604      -60.80161       1901.961     0.02702681      0.1694221
      5274.5000          1.068         1.1881         0.3202        -0.0347        46.3235       32.36543         0.3926         0.7817         0.4821         0.3713         1.0139       -59.0099       -60.2075       1901.961              0      0.1776735
