#------------------------------------------------------------------------------
# Created by    : vladimir.rabinovich
# Created on    : 09/19/2023 17:22:27
#------------------------------------------------------------------------------
~Version Information Section
VERS.           2.0     :   CWLS log ASCII Standard - VERSION 2.0
WRAP.           NO      :   One line per depth step
~Well Information Section
#MNEM       .UNIT                                         VALUE :DESCRIPTION
#------------------------------------------------------------------------------
STRT        .FT                                          1344.5 :START DEPTH
STOP        .FT                                            6047 :STOP DEPTH
STEP        .FT                                             0.5 :STEP      
NULL        .                                           -999.25 :NULL      
COMP        .                      HIGHLAND RESOURCES-G R BROWN :COMPANY   
WELL        .                                         ST TR 234 :WELL      
FLD         .                                           WILDCAT :FIELD     
LOC         .                                                   :LOCATION  
CNTY        .                                           CALHOUN :LOCATION  
STAT        .                                             TEXAS :STATE     
CTRY        .                                     UNITED STATES :COUNTRY   
SRVC        .                                                   :SERVICE COMPANY
DATE        .                             9/13/2023 11:18:59 AM :LOG DATE  
API         .                                    42057308440000 :API NUMBER
UWI         .                                    42057308440000 :UNIQUE WELL ID
XCOORD      .                                  538656.561995839 :SURFACE X 
YCOORD      .                                  10324779.5220427 :SURFACE Y 
LAT         .                                        28.4079151 :LATITUDE  
LON         .                                       -96.4272693 :LONGITUDE 
ELEV        .FT                                              14 :ELEVATION VALUE
ELEV_TYPE   .                                                KB :ELEVATION REFERENCE TYPE
~Curve Information Section
#MNEM       .UNIT                                      API CODE :CURVE DESCRIPTION
#------------------------------------------------------------------------------
DEPT        .FT                                                 :DEPTH     
CILD        .MMHO                                               :          
DT          .US/F                                               :          
RILD        .OHMM                                               :          
SFL         .OHMM                                               :          
SP          .MV                                                 :          
SP_NORM     .MV                                                 :SP Normalized
VSH_SP      .V/V                                                :Volume of Shale from SP
~A        DEPTH           CILD             DT           RILD            SFL             SP        SP_NORM         VSH_SP
# ...
      3823.5000       1012.658       151.3121         0.9875         0.8967       138.6026       2.952774              1
      3824.0000       966.5571       149.8157         1.0346          0.948        138.056       2.367981              1
      3824.5000       926.9559       145.9304         1.0788         1.0149       138.0639       2.337708              1
      3825.0000       869.1118       140.2099         1.1506         1.0856       138.3789       2.614532              1
      3825.5000       827.2667       132.1839         1.2088         1.1702       139.0108       3.208237              1
      3826.0000       791.7656       126.6857          1.263         1.2355       139.9885       4.147751              1
      3826.5000       774.0537        124.875         1.2919         1.3182       140.8509       4.971985              1
      3827.0000        770.238       127.3292         1.2983         1.3622       141.1637       5.246582              1
      3827.5000       775.6147       130.9182         1.2893         1.3366       141.1737       5.218414              1
      3828.0000       787.8979       135.5245         1.2692         1.1743       141.1822       5.188721              1
      3828.5000       826.4462       139.1844           1.21         1.0935       141.1915       5.159836              1
      3829.0000       882.6904       140.5491         1.1329         1.0787       141.0103        4.94046              1
      3829.5000       908.0178       141.9077         1.1013         1.0877       140.5352        4.42717              1
      3830.0000        925.155       141.4758         1.0809         1.0917       139.9991        3.85289              1
      3830.5000       925.0694        140.059          1.081         1.0924       140.0072       3.822815              1
      3831.0000       924.8983       139.6768         1.0812         1.0948       140.0166       3.794022              1
      3831.5000       921.4892        140.655         1.0852         1.0948       140.0257       3.764938              1
      3832.0000       918.1893       142.3541         1.0891         1.0948        140.035       3.736053              1
      3832.5000        918.105       142.5059         1.0892         1.0948       140.0458       3.708679              1
      3833.0000       918.0207       141.7343         1.0893         1.0933       140.4546         4.0793              1
      3833.5000       917.8523       140.9076         1.0895         1.0917        140.674       4.260498              1
      3834.0000        917.768       140.3401         1.0896         1.0948       141.1365        4.68483              1
      3834.5000       924.2144       140.1898          1.082          1.094        141.608       5.118149              1
      3835.0000       928.0743       140.3728         1.0775         1.0805       141.8184       5.290359              1
      3835.5000       939.7613       140.7982         1.0641         1.0245       141.6251       5.058884              1
      3836.0000       977.6127       141.6437         1.0229         0.9863       141.9421       5.337692              1
      3836.5000       1016.054       142.7897         0.9842          0.942       142.2558       5.613205              1
      3837.0000       1064.056       145.7828         0.9398         0.9086       142.5704       5.889633              1
      3837.5000       1099.264       148.2147         0.9097         0.9297       142.5796       5.860641              1
      3838.0000       1125.746       151.2293         0.8883         0.9903       142.5889       5.831757              1
      3838.5000       1101.928       152.6303         0.9075         1.0395       142.5995       5.804184              1
      3839.0000       1064.283       153.9888         0.9396         1.0936       143.0192       6.185684              1
      3839.5000       1026.483       154.0744         0.9742         1.1407       143.5331       6.661407              1
      3840.0000       991.4733       152.2339         1.0086         1.1752       143.0645       6.154633              1
      3840.5000       947.9571       145.9366         1.0549         1.2187       141.1852       4.237137              1
      3841.0000       910.3323       139.3644         1.0985         1.2381       136.2341     -0.7521362              1
      3841.5000       895.4956       127.2463         1.1167         1.2389       132.1263      -4.898132      0.9435053
      3842.0000       884.2515       122.9732         1.1309         1.2013       127.0913      -9.971306      0.8699811
      3842.5000       869.2628       123.5543         1.1504         1.1655       127.0709      -10.02988      0.8691321
      3843.0000       853.3151       126.6657         1.1719          1.129       127.7197      -9.419273      0.8779815
      3843.5000       828.6378       131.7858         1.2068         1.0979       127.3476      -9.829552      0.8720355
      3844.0000       797.0033       137.6774         1.2547         1.1238       126.0824      -11.13293      0.8531459
      3844.5000       751.0327       134.9376         1.3315         1.2289       125.6101      -11.64342      0.8457475
      3845.0000         711.44       128.4554         1.4056         1.3516       126.8162       -10.4755      0.8626739
      3845.5000       670.5109       122.8688         1.4914         1.4985       128.9876      -8.342285      0.8935901
      3846.0000       642.5909       109.1153         1.5562         1.5678       131.2031      -6.164978      0.9251453
      3846.5000        618.697       104.3326         1.6163         1.6367       132.4083      -4.997955      0.9420586
      3847.0000       597.1219       101.8701         1.6747         1.7199       132.0703      -5.374146      0.9366066
      3847.5000       585.9261       115.5377         1.7067         1.7125        130.681       -6.80162      0.9159185
      3848.0000       585.8574       123.1429         1.7069         1.6155       128.4237      -9.097092      0.8826509
      3848.5000       589.3099       125.8242         1.6969         1.5243       127.5085      -10.05049      0.8688335
      3849.0000       620.2704        124.543         1.6122         1.4609       129.4711      -8.126068      0.8967236
      3849.5000       687.7579       118.4823          1.454         1.4067       132.3042      -5.331146      0.9372298
      3850.0000       725.9001       109.2253         1.3776         1.3494       135.0935      -2.580032       0.977101
      3850.5000       734.2683       121.8847         1.3619         1.3164       138.8521       1.140381              1
      3851.0000       709.7232       129.8036          1.409         1.3333        140.771       3.021088              1
      3851.5000        669.613       122.4764         1.4934         1.3955        141.923       4.134918              1
      3852.0000       636.3752       113.3801         1.5714          1.451       140.9046       3.078339              1
      3852.5000       598.2292       100.4552         1.6716         1.5273       138.8685       1.004044              1
      3853.0000       549.0885       103.7333         1.8212          1.841       136.7614      -1.141235      0.9979531
      3853.5000        493.486       103.3683         2.0264         2.0338         137.09     -0.8508148              1
      3854.0000       382.7019        90.6932          2.613         3.0682       139.2217       1.242691              1
      3854.5000       334.4482        80.0143           2.99         3.3292       141.2359       3.218719              1
      3855.0000       287.5877        86.8587         3.4772         3.3102       142.6319       4.576538              1
      3855.5000       265.7454         91.376          3.763         3.2775       143.2203       5.126755              1
      3856.0000        258.458        87.0713         3.8691         3.2486       142.8366       4.704865              1
      3856.5000       255.5584        84.4674          3.913          3.222       142.0165       3.846573              1
