#------------------------------------------------------------------------------
# Created by    : vladimir.rabinovich
# Created on    : 09/19/2023 17:22:37
#------------------------------------------------------------------------------
~Version Information Section
VERS.           2.0     :   CWLS log ASCII Standard - VERSION 2.0
WRAP.           NO      :   One line per depth step
~Well Information Section
#MNEM       .UNIT                                         VALUE :DESCRIPTION
#------------------------------------------------------------------------------
STRT        .FT                                           554.5 :START DEPTH
STOP        .FT                                            5893 :STOP DEPTH
STEP        .FT                                             0.5 :STEP      
NULL        .                                           -999.25 :NULL      
COMP        .                              NEUMIN PRODUCTION CO :COMPANY   
WELL        .                                         ST TR 186 :WELL      
FLD         .                                           WILDCAT :FIELD     
LOC         .                                                   :LOCATION  
CNTY        .                                           CALHOUN :LOCATION  
STAT        .                                             TEXAS :STATE     
CTRY        .                                     UNITED STATES :COUNTRY   
SRVC        .                                                   :SERVICE COMPANY
DATE        .                             9/13/2023 11:18:59 AM :LOG DATE  
API         .                                    42057313020000 :API NUMBER
UWI         .                                    42057313020000 :UNIQUE WELL ID
XCOORD      .                                  487252.476079587 :SURFACE X 
YCOORD      .                                  10287942.6245796 :SURFACE Y 
LAT         .                                         28.302642 :LATITUDE  
LON         .                                       -96.5835194 :LONGITUDE 
ELEV        .FT                                              22 :ELEVATION VALUE
ELEV_TYPE   .                                                KB :ELEVATION REFERENCE TYPE
~Curve Information Section
#MNEM       .UNIT                                      API CODE :CURVE DESCRIPTION
#------------------------------------------------------------------------------
DEPT        .FT                                                 :DEPTH     
DCAL        .INCHES                                             :          
DPHI        .NONE                                               :          
GR          .GAPI                                               :          
GR_NORM     .GAPI                                               :GammaRay Normalized
ILD         .OHMM                                               :          
NPHI        .NONE                                               :          
VSH_GR      .V/V                                                :Volume of Shale from GR
~A        DEPTH           DCAL           DPHI             GR        GR_NORM            ILD           NPHI         VSH_GR
# ...
      4072.0000        -0.1415         0.2581        69.7959       73.09986         1.0293         0.3156      0.8531885
      4072.5000        -0.1846         0.2617        67.2815       70.25423         0.9151         0.3142      0.7926433
      4073.0000        -0.2348         0.2737        63.3263         65.778         0.8002         0.3128      0.6974043
      4073.5000        -0.2826           0.28        62.0192       64.29871         0.7215         0.3156      0.6659301
      4074.0000        -0.3347         0.2811        62.7158       65.08707         0.6023         0.3249      0.6827037
      4074.5000        -0.3903         0.2784         64.132       66.68984         0.5271         0.3395      0.7168052
      4075.0000        -0.4216          0.278        65.7103       68.47605         0.4889         0.3498      0.7548096
      4075.5000        -0.4236         0.2775         60.533       62.61673         0.4719         0.3524      0.6301431
      4076.0000        -0.4538         0.2771        59.4567       61.39864         0.4685         0.3414      0.6042264
      4076.5000        -0.4704         0.2784        59.0795       60.97175         0.4649         0.3377      0.5951437
      4077.0000        -0.5472         0.2784         58.857       60.71994         0.4586         0.3341      0.5897859
      4077.5000        -0.5771         0.2784        60.0161       62.03174         0.4553         0.3334      0.6176966
      4078.0000        -0.6099         0.2775        60.7057       62.81217         0.4553          0.336      0.6343015
      4078.5000        -0.5496         0.2777        59.7678       61.75072         0.4552         0.3295      0.6117175
      4079.0000        -0.4397         0.2866        57.9679       59.71371         0.4551          0.323      0.5683769
      4079.5000         -0.306         0.2895        57.6164       59.31591          0.455         0.3268       0.559913
      4080.0000        -0.1926         0.2883        58.0256       59.77901         0.4616         0.3347      0.5697663
      4080.5000        -0.0891         0.2829        59.8091       61.79747         0.4949         0.3325       0.612712
      4081.0000        -0.0327         0.2753        61.9072       64.17196         0.5468         0.3268      0.6632332
      4081.5000        -0.0334         0.2709        63.5068       65.98228         0.6136         0.3272      0.7017506
      4082.0000        -0.0342         0.2675        64.4218       67.01781         0.7334         0.3345      0.7237833
      4082.5000        -0.0349         0.2601        64.6669        67.2952         0.8561          0.354       0.729685
      4083.0000        -0.0411         0.2489        65.1338        67.8236         0.9512         0.3728      0.7409277
      4083.5000        -0.0885         0.2397        65.5981       68.34907         0.9839         0.3793      0.7521078
      4084.0000         -0.196         0.2335        64.6879       67.31896         0.9987         0.3739      0.7301907
      4084.5000        -0.3137         0.2353        62.3706        64.6964          0.964         0.3425      0.6743916
      4085.0000        -0.3825         0.2482        59.8764       61.87363         0.9041         0.3223      0.6143326
      4085.5000         -0.407         0.2616        56.2231       57.73907         0.8468         0.3159      0.5263631
      4086.0000        -0.4079         0.2781        54.0757       55.30878         0.7611          0.316      0.4746549
      4086.5000        -0.4086         0.2875        52.7956       53.86005         0.6629         0.3142      0.4438308
      4087.0000        -0.4093         0.2896        53.8062       55.00378         0.6056         0.3093      0.4681655
      4087.5000        -0.4101         0.2822        56.2165       57.73159         0.5867         0.3031      0.5262041
      4088.0000        -0.4109         0.2682        57.8629       59.59488         0.5804         0.3013      0.5658486
      4088.5000        -0.3811         0.2612        58.6432       60.47797         0.6011         0.3041      0.5846378
      4089.0000        -0.3511         0.2602          59.94        61.9456         0.6449         0.3097      0.6158639
      4089.5000        -0.3212         0.2593        60.4532       62.52641         0.7164         0.3124      0.6282216
      4090.0000        -0.3222         0.2561        60.9684       63.10949         0.7672         0.3119      0.6406273
      4090.5000        -0.3228         0.2527        61.7963       64.04645         0.8107         0.3133      0.6605627
      4091.0000        -0.3849         0.2465        62.4576       64.79487         0.8417         0.3124      0.6764866
      4091.5000        -0.4324         0.2332        62.9644       65.36843         0.8453         0.3091        0.68869
      4092.0000        -0.4476         0.2235        63.1924       65.62646         0.8415         0.3066      0.6941801
      4092.5000        -0.4485         0.2235        63.1993       65.63427         0.8158         0.3033      0.6943462
      4093.0000        -0.4491         0.2226        63.4361       65.90227         0.7622         0.3024      0.7000483
      4093.5000        -0.4499         0.2238        62.4602        64.7978         0.6716         0.3024      0.6765489
      4094.0000        -0.4507         0.2343        58.8267       60.68565         0.5976         0.3015      0.5890564
      4094.5000        -0.4458          0.253        52.9071       53.98624         0.5349         0.3015      0.4465157
      4095.0000        -0.4216         0.2803        52.0898       53.06127         0.4811          0.307      0.4268356
      4095.5000        -0.3671         0.2966        51.7728       52.70251         0.4374          0.323      0.4192024
      4096.0000        -0.3308         0.3045        51.4333       52.31829         0.4017         0.3301      0.4110274
      4096.5000        -0.2634          0.306         51.098       51.93882         0.3746         0.3315      0.4029536
      4097.0000        -0.2101         0.3082        51.1066       51.94855         0.3637         0.3319      0.4031608
      4097.5000        -0.2111         0.3083        51.4946       52.38766         0.3613         0.3301      0.4125034
      4098.0000        -0.2561         0.2966        52.0369        53.0014         0.3628         0.3238      0.4255618
      4098.5000        -0.3044         0.2862        53.0078        54.1002         0.3741          0.316      0.4489405
      4099.0000        -0.3052         0.2808        54.6826       55.99563         0.3892         0.3117      0.4892687
      4099.5000        -0.3366         0.2779        56.4161       57.95749         0.4114         0.3108      0.5310104
      4100.0000        -0.3067          0.277        57.5688       59.26204         0.4365         0.3151      0.5587669
      4100.5000        -0.3881         0.2778         63.094        65.5151         0.4521         0.3189      0.6918106
      4101.0000        -0.4002         0.2789        66.2968       69.13981         0.4847         0.3219      0.7689321
      4101.5000        -0.4011         0.2784        67.0705       70.01544         0.5094         0.3228      0.7875626
      4102.0000        -0.3894         0.2778        66.5368       69.41142         0.5093         0.3198      0.7747111
      4102.5000        -0.3384         0.2752         63.589        66.0753         0.5117         0.3154      0.7037298
      4103.0000        -0.3116         0.2764        60.0729       62.09602         0.5238         0.3133      0.6190642
      4103.5000        -0.2306         0.2838        58.9851       60.86491         0.5453         0.3118      0.5928705
      4104.0000        -0.0989         0.2939        59.0918       60.98568         0.5642         0.3112      0.5954399
      4104.5000        -0.0034         0.2973        59.9943       62.00706          0.586         0.3132      0.6171716
      4105.0000         0.0527         0.2909        64.3902       66.98205          0.612         0.3403      0.7230223
