#------------------------------------------------------------------------------
# Created by    : vladimir.rabinovich
# Created on    : 09/19/2023 17:20:53
#------------------------------------------------------------------------------
~Version Information Section
VERS.           2.0     :   CWLS log ASCII Standard - VERSION 2.0
WRAP.           NO      :   One line per depth step
~Well Information Section
#MNEM       .UNIT                                         VALUE :DESCRIPTION
#------------------------------------------------------------------------------
STRT        .FT                                             875 :START DEPTH
STOP        .FT                                            6380 :STOP DEPTH
STEP        .FT                                             0.5 :STEP      
NULL        .                                           -999.25 :NULL      
COMP        .                       ENERGY DEVELOPMENT CORP N J :COMPANY   
WELL        .                                   STATE TRACT 241 :WELL      
FLD         .                                           WILDCAT :FIELD     
LOC         .                                                   :LOCATION  
CNTY        .                                           CALHOUN :LOCATION  
STAT        .                                             TEXAS :STATE     
CTRY        .                                     UNITED STATES :COUNTRY   
SRVC        .                                                   :SERVICE COMPANY
DATE        .                             9/13/2023 11:19:11 AM :LOG DATE  
API         .                                    42057314130000 :API NUMBER
UWI         .                                    42057314130000 :UNIQUE WELL ID
XCOORD      .                                  544841.599058466 :SURFACE X 
YCOORD      .                                   10330281.839261 :SURFACE Y 
LAT         .                                        28.4235103 :LATITUDE  
LON         .                                       -96.4085418 :LONGITUDE 
ELEV        .FT                                              34 :ELEVATION VALUE
ELEV_TYPE   .                                                KB :ELEVATION REFERENCE TYPE
~Curve Information Section
#MNEM       .UNIT                                      API CODE :CURVE DESCRIPTION
#------------------------------------------------------------------------------
DEPT        .FT                                                 :DEPTH     
ASN         .OHMM                                               :          
DCAL        .IN                                                 :          
DPHI        .V/V                                                :          
DRHO        .G/CC                                               :          
GR          .GAPI                                               :          
GR_NORM     .GAPI                                               :GammaRay Normalized
ILD         .OHMM                                               :          
ILD_LNR     .OHMM                                               :          
ILM         .OHMM                                               :          
NPHI        .V/V                                                :          
SFLU        .OHMM                                               :          
SP          .MV                                                 :          
SP_NORM     .MV                                                 :SP Normalized
TENS        .LB                                                 :          
VSH_GR      .V/V                                                :Volume of Shale from GR
VSH_SP      .V/V                                                :Volume of Shale from SP
~A        DEPTH            ASN           DCAL           DPHI           DRHO             GR        GR_NORM            ILD        ILD_LNR            ILM           NPHI           SFLU             SP        SP_NORM           TENS         VSH_GR         VSH_SP
# ...
      4155.0000         0.9677         2.6535         0.2269         -0.003        88.5149       89.83525         0.9251         0.9851         0.9041         0.3998         1.0611           -6.8      -1.655876       1574.257              1      0.9908906
      4155.5000         0.9442         2.4752         0.2376         -0.005        83.9109       88.66953         0.9596         0.9851         0.9336         0.4242         1.1784             -6     -0.8588338       1574.257              1              1
      4156.0000         0.9267         2.1386         0.2465        -0.0089         80.495        87.5038         0.9818         0.9552          0.964         0.4438         1.1208           -5.4     -0.2617917       1584.158              1              1
      4156.5000         0.9128         1.8416         0.2535        -0.0149        76.9307       86.33808         0.9818         0.9552         0.9684         0.4491         1.0562           -5.4       -0.26475       1594.059              1              1
      4157.0000         0.9087         1.5842         0.2553        -0.0228        75.8911       85.17236         0.9729         0.9552         0.9596         0.4497         0.9954           -5.6     -0.4677081       1584.158              1              1
      4157.5000         0.9087         1.4653         0.2535        -0.0228        71.7647       84.00663         0.9596         0.9552         0.9465         0.4432         0.9509           -5.8     -0.6706662       1574.257              1              1
      4158.0000         0.9087         1.4455         0.2524        -0.0238        70.8824       80.20519         0.9465         0.9254         0.9379         0.4301         0.9336           -6.2      -1.073624       1574.257              1      0.9989774
      4158.5000         0.9086         1.4059         0.2529        -0.0238        71.6338       80.98891         0.9336         0.9148         0.9251         0.4265         0.9125        -6.1918      -1.068382       1574.257              1      0.9990503
      4159.0000         0.8967         1.3069         0.2594        -0.0238         74.467       83.98733         0.9209         0.8955         0.9125          0.439         0.8798        -6.3758      -1.255341       1564.356              1      0.9964536
      4159.5000         0.8836         1.2079         0.2682        -0.0238        76.4308       86.06083         0.9251         0.8955         0.9125          0.458         0.8485        -6.3601      -1.242599       1584.158              1      0.9966305
      4160.0000         0.8758         1.3465         0.2724        -0.0228        78.2492       87.97967         0.9379         0.9045         0.9125         0.4651         0.8447        -6.1462      -1.031657        1603.96              1      0.9995603
      4160.5000         0.8668         1.5446         0.2723        -0.0228        80.0495       89.87923         0.9422         0.9254         0.9209         0.4681         0.8879        -5.9406     -0.8290148       1642.633              1              1
      4161.0000          0.866         1.6436         0.2669        -0.0198        80.3465       90.17956         0.9422         0.9254         0.9251         0.4735         0.9209        -5.7426     -0.6339726       1611.499              1              1
      4161.5000         0.8608         1.4851         0.2609        -0.0158        77.6733        87.3201         0.9379         0.9327         0.9336         0.4907         0.9209        -5.5446      -0.438931       1610.031              1              1
      4162.0000         0.8667         1.2871         0.2573        -0.0139        75.7426       85.25052         0.9336         0.9552         0.9336          0.499         0.9125        -5.3465     -0.2437892       1598.755              1              1
      4162.5000          0.867         1.2475          0.256        -0.0158        78.1188       87.76276         0.9336         0.9552         0.9336         0.4865            0.9        -5.9406      -0.840847       1578.431              1              1
      4163.0000         0.8771         1.3267         0.2578        -0.0198        79.7525        89.4851         0.9293         0.9552         0.9251         0.4764         0.8879        -5.7426     -0.6458054       1607.843              1              1
      4163.5000         0.8886         1.4455         0.2614        -0.0228        83.6139       93.57734         0.9293         0.9552         0.9251         0.4622          0.868        -5.9406     -0.8467631       1627.451              1              1
      4164.0000         0.9023         1.5644         0.2655        -0.0218         84.802       94.82564         0.9251         0.9552         0.9209         0.4497         0.8447        -5.7426     -0.6517215       1647.059              1              1
      4164.5000         0.9101         1.5644         0.2715        -0.0188        86.7327       96.86393         0.9209         0.9851         0.9166          0.458         0.8295        -5.3465     -0.2585793       1656.863              1              1
      4165.0000         0.9179         1.3069         0.2762        -0.0168        88.3663       98.58617         0.9209         0.9851         0.9125         0.4782         0.8073        -5.9406     -0.8556376       1656.863              1              1
      4165.5000         0.9321         0.9703         0.2804        -0.0158         89.703       99.99256         0.9293         1.0149         0.9166         0.4972            0.8        -5.7426     -0.6605959       1637.255              1              1
      4166.0000         0.9335         0.7525         0.2822        -0.0198        91.7822       102.1888         0.9509         1.0149         0.9293         0.5061         0.8409        -4.9505      0.1285462       1617.647              1              1
      4166.5000         0.9413         0.6733          0.281        -0.0248        91.7822       102.1732         0.9729         1.0149         0.9509          0.483         0.8879        -4.9505      0.1255879       1598.039              1              1
      4167.0000         0.9558         0.8515         0.2792        -0.0267        87.7723       97.89171         0.9954         1.0149         0.9729         0.4616         0.9379        -4.5545        0.51863       1598.039              1              1
      4167.5000          0.958         0.9505         0.2745        -0.0277        79.0099       88.55437         1.0138         1.0448         0.9909          0.458         0.9909        -4.7525      0.3176718        1549.02              1              1
      4168.0000         0.9677         0.9109         0.2685        -0.0248        74.2574       83.48289         1.0372         1.0448         1.0138         0.4747         0.9909        -4.9505      0.1167135       1539.216              1              1
      4168.5000         0.9676         0.7921         0.2608        -0.0228        71.2871       80.30735         1.0611         1.0448         1.0372         0.4836         0.9818        -4.9505      0.1137557       1578.431              1              1
      4169.0000         0.9676         0.6535         0.2525        -0.0218         70.099       79.02778         1.0659         1.0746         1.0419         0.4758         0.9818        -5.7426     -0.6813025       1558.823      0.9793144              1
      4169.5000         0.9676         0.6337         0.2459        -0.0218        70.2475       79.17012         1.0659         1.0746         1.0277         0.4598         0.9684        -5.7426     -0.6842604       1568.627       0.982343              1
      4170.0000         0.9735         0.6733         0.2442        -0.0228        71.7327       80.73448         1.0757         1.0746         1.0092         0.4503         0.9596        -6.1386      -1.083219       1568.627              1      0.9988442
      4170.5000         0.9739         0.7327         0.2454        -0.0248         74.703       83.87875         1.0855         1.0746         0.9954         0.4556         0.9552        -6.1386      -1.086177       1569.456              1      0.9988031
