#------------------------------------------------------------------------------
# Created by    : vladimir.rabinovich
# Created on    : 09/19/2023 17:22:37
#------------------------------------------------------------------------------
~Version Information Section
VERS.           2.0     :   CWLS log ASCII Standard - VERSION 2.0
WRAP.           NO      :   One line per depth step
~Well Information Section
#MNEM       .UNIT                                         VALUE :DESCRIPTION
#------------------------------------------------------------------------------
STRT        .FT                                           554.5 :START DEPTH
STOP        .FT                                            5893 :STOP DEPTH
STEP        .FT                                             0.5 :STEP      
NULL        .                                           -999.25 :NULL      
COMP        .                              NEUMIN PRODUCTION CO :COMPANY   
WELL        .                                         ST TR 186 :WELL      
FLD         .                                           WILDCAT :FIELD     
LOC         .                                                   :LOCATION  
CNTY        .                                           CALHOUN :LOCATION  
STAT        .                                             TEXAS :STATE     
CTRY        .                                     UNITED STATES :COUNTRY   
SRVC        .                                                   :SERVICE COMPANY
DATE        .                             9/13/2023 11:18:59 AM :LOG DATE  
API         .                                    42057313020000 :API NUMBER
UWI         .                                    42057313020000 :UNIQUE WELL ID
XCOORD      .                                  487252.476079587 :SURFACE X 
YCOORD      .                                  10287942.6245796 :SURFACE Y 
LAT         .                                         28.302642 :LATITUDE  
LON         .                                       -96.5835194 :LONGITUDE 
ELEV        .FT                                              22 :ELEVATION VALUE
ELEV_TYPE   .                                                KB :ELEVATION REFERENCE TYPE
~Curve Information Section
#MNEM       .UNIT                                      API CODE :CURVE DESCRIPTION
#------------------------------------------------------------------------------
DEPT        .FT                                                 :DEPTH     
DCAL        .INCHES                                             :          
DPHI        .NONE                                               :          
GR          .GAPI                                               :          
GR_NORM     .GAPI                                               :GammaRay Normalized
ILD         .OHMM                                               :          
NPHI        .NONE                                               :          
VSH_GR      .V/V                                                :Volume of Shale from GR
~A        DEPTH           DCAL           DPHI             GR        GR_NORM            ILD           NPHI         VSH_GR
# ...
      2330.0000         0.2858         0.3478         47.076       54.11306         0.3299         0.3541      0.4492141
      2330.5000          0.358          0.325        50.4935       58.22605          0.335         0.3519      0.5367245
      2331.0000         0.4067         0.2941        50.6707       58.43782          0.348         0.3504      0.5412302
      2331.5000         0.3388         0.2862        50.6738       58.43998         0.3717         0.3511      0.5412762
      2332.0000          0.129         0.3033        50.6922       58.46056         0.3931         0.3587       0.541714
      2332.5000        -0.1166         0.3191        52.2935       60.38691          0.419         0.3808      0.5827001
      2333.0000        -0.2907         0.3227        57.5226       66.68102         0.4809         0.3947      0.7166173
      2333.5000        -0.4258         0.3218        64.9081       75.57137         0.5654          0.406      0.9057739
      2334.0000        -0.5443         0.3199        69.5971       81.21522         0.6411         0.4161              1
      2334.5000        -0.6163         0.3145        73.1875       85.53639         0.7141         0.4304              1
      2335.0000        -0.7027         0.3087        74.8816       87.57446         0.7637         0.4701              1
      2335.5000        -0.7034         0.2994        74.1356       86.67472          0.811         0.4852              1
      2336.0000        -0.7026         0.2851        73.1822       85.52528         0.8697         0.4751              1
      2336.5000         -0.634         0.2908        73.5973       86.02346         0.9029         0.4499              1
      2337.0000         -0.614         0.3026        74.7942       87.46292         0.9323         0.4372              1
      2337.5000        -0.5844         0.3073        76.3934       89.38674         0.9507         0.4297              1
      2338.0000        -0.5851         0.3103        77.5529       90.78117         0.9655         0.4476              1
      2338.5000         -0.586         0.3147        75.9517       88.85179         0.9317         0.4583              1
      2339.0000         -0.587         0.3171        74.0875       86.60577         0.8777         0.4574              1
      2339.5000        -0.5478         0.3184        73.8884       86.36448         0.8504         0.4552              1
      2340.0000        -0.4967         0.3175        74.9791       87.67608         0.8526         0.4537              1
      2340.5000         -0.389         0.3153        75.2766       88.03268         0.8807         0.4514              1
      2341.0000        -0.2385         0.3056        72.5286        84.7226         0.9238         0.4475              1
      2341.5000        -0.0399         0.2858        69.8037       81.44032         0.9827         0.4336              1
      2342.0000         0.0513         0.2596        67.0305       78.09988         1.0349          0.419      0.9595718
      2342.5000         0.1423         0.2464         65.252       75.95705         1.0572         0.4033      0.9139797
      2343.0000         0.2195          0.244        63.7233       74.11494         1.0946         0.3901      0.8747861
      2343.5000         0.2326         0.2483        62.9128       73.13757         1.1305         0.3802      0.8539909
      2344.0000         0.2009         0.2475        62.2151       72.29596         1.1587         0.3868      0.8360842
      2344.5000         0.1472          0.245        60.6257       70.38079         1.1657          0.394      0.7953359
      2345.0000         -0.015         0.2467        61.3659       71.27041         1.1756         0.3951       0.814264
      2345.5000        -0.2094         0.2594        62.2379       72.31869         1.1819         0.3889      0.8365678
      2346.0000        -0.3593         0.2717         62.242       72.32205         1.1652           0.38      0.8366394
      2346.5000        -0.4158         0.2805        62.2448       72.32384         1.1384         0.3704      0.8366776
      2347.0000          -0.49         0.2718        62.2484       72.32661         1.0936         0.3659      0.8367363
      2347.5000        -0.5094         0.2672         65.403       76.12309          1.062          0.363      0.9175125
      2348.0000        -0.5407         0.2711        71.1561       83.04807          1.012         0.3653              1
      2348.5000        -0.5722         0.2803        78.3142       91.66465          0.974         0.3788              1
      2349.0000        -0.5425         0.2863        83.2858       97.64874         0.9355          0.399              1
      2349.5000        -0.5433         0.2885        86.3482       101.3342         0.9104         0.4196              1
      2350.0000        -0.5441         0.2859        83.3811       97.76033         0.8943         0.4456              1
      2350.5000        -0.5252         0.2811        75.6906        88.4996         0.8788         0.4578              1
      2351.0000         -0.515         0.2729        71.4507        83.3933         0.8906         0.4678              1
      2351.5000        -0.4855         0.2658         70.929       82.76361           0.91         0.4882              1
      2352.0000        -0.4107         0.2601        70.5398       82.29345         0.9464         0.5036              1
      2352.5000        -0.3602         0.2622        70.6527        82.4278         0.9777         0.4866              1
      2353.0000        -0.2834         0.2712        72.5014       84.65202         0.9898         0.4515              1
      2353.5000         -0.165         0.2726        75.2216       87.92548         0.9711         0.4324              1
      2354.0000        -0.0302         0.2721        78.4287       91.78516         0.9283         0.4212              1
      2354.5000         0.0761         0.2749        79.7313       93.35188         0.8876         0.4595              1
      2355.0000         0.0907         0.2803        80.9508       94.81855         0.8485         0.4787              1
      2355.5000         0.0284         0.2897        83.7271       98.15955         0.8182          0.481              1
      2356.0000        -0.0126         0.2977        85.8444       100.7072         0.8067         0.4807              1
      2356.5000        -0.0957         0.2998        87.3123       102.4729         0.8066         0.4774              1
      2357.0000        -0.1577         0.2898        88.2348        103.582         0.8099         0.4734              1
      2357.5000        -0.1892         0.2858        88.0355       103.3404         0.8247         0.4667              1
      2358.0000        -0.2208         0.2926        86.8137       101.8679         0.8352         0.4618              1
      2358.5000        -0.2215          0.293        84.3289       98.87465         0.8515         0.4535              1
      2359.0000         -0.253         0.2849        79.9754       93.63158         0.8772         0.4443              1
      2359.5000        -0.2538         0.2687        76.0961       88.95943          0.903         0.4363              1
      2360.0000        -0.2547         0.2615        74.0092        86.4453         0.9298         0.4314              1
      2360.5000        -0.2556          0.254        72.4157       84.52518          0.954         0.4316              1
      2361.0000         -0.287         0.2518        71.3778         83.274         0.9655         0.4325              1
      2361.5000        -0.2878         0.2538        71.9454        83.9558         0.9742         0.4306              1
      2362.0000        -0.3193          0.263        73.5904       85.93475          0.981         0.4264              1
      2362.5000        -0.3139         0.2652         74.696       87.26429         0.9808         0.4151              1
      2363.0000        -0.2904         0.2597        75.2023       87.87229         0.9807         0.3977              1
