#------------------------------------------------------------------------------
# Created by    : vladimir.rabinovich
# Created on    : 09/19/2023 17:20:53
#------------------------------------------------------------------------------
~Version Information Section
VERS.           2.0     :   CWLS log ASCII Standard - VERSION 2.0
WRAP.           NO      :   One line per depth step
~Well Information Section
#MNEM       .UNIT                                         VALUE :DESCRIPTION
#------------------------------------------------------------------------------
STRT        .FT                                             875 :START DEPTH
STOP        .FT                                            6380 :STOP DEPTH
STEP        .FT                                             0.5 :STEP      
NULL        .                                           -999.25 :NULL      
COMP        .                       ENERGY DEVELOPMENT CORP N J :COMPANY   
WELL        .                                   STATE TRACT 241 :WELL      
FLD         .                                           WILDCAT :FIELD     
LOC         .                                                   :LOCATION  
CNTY        .                                           CALHOUN :LOCATION  
STAT        .                                             TEXAS :STATE     
CTRY        .                                     UNITED STATES :COUNTRY   
SRVC        .                                                   :SERVICE COMPANY
DATE        .                             9/13/2023 11:19:11 AM :LOG DATE  
API         .                                    42057314130000 :API NUMBER
UWI         .                                    42057314130000 :UNIQUE WELL ID
XCOORD      .                                  544841.599058466 :SURFACE X 
YCOORD      .                                   10330281.839261 :SURFACE Y 
LAT         .                                        28.4235103 :LATITUDE  
LON         .                                       -96.4085418 :LONGITUDE 
ELEV        .FT                                              34 :ELEVATION VALUE
ELEV_TYPE   .                                                KB :ELEVATION REFERENCE TYPE
~Curve Information Section
#MNEM       .UNIT                                      API CODE :CURVE DESCRIPTION
#------------------------------------------------------------------------------
DEPT        .FT                                                 :DEPTH     
ASN         .OHMM                                               :          
DCAL        .IN                                                 :          
DPHI        .V/V                                                :          
DRHO        .G/CC                                               :          
GR          .GAPI                                               :          
GR_NORM     .GAPI                                               :GammaRay Normalized
ILD         .OHMM                                               :          
ILD_LNR     .OHMM                                               :          
ILM         .OHMM                                               :          
NPHI        .V/V                                                :          
SFLU        .OHMM                                               :          
SP          .MV                                                 :          
SP_NORM     .MV                                                 :SP Normalized
TENS        .LB                                                 :          
VSH_GR      .V/V                                                :Volume of Shale from GR
VSH_SP      .V/V                                                :Volume of Shale from SP
~A        DEPTH            ASN           DCAL           DPHI           DRHO             GR        GR_NORM            ILD        ILD_LNR            ILM           NPHI           SFLU             SP        SP_NORM           TENS         VSH_GR         VSH_SP
# ...
      4523.0000         0.9917         1.2277         0.2541         -0.004        67.5743       69.33223         0.8719          0.981         0.9209         0.4665         0.9774        -6.7327     -0.7446756       1673.267      0.7730262              1
      4523.5000         1.0275         1.2277         0.2524        -0.0079        67.4257       69.19239          0.864         0.9959         0.9125         0.4471         0.9774        -6.5347     -0.5466757        1702.97      0.7700509              1
      4524.0000         1.0703         1.2475         0.2518        -0.0099        67.2772       69.05266         0.8838         0.9967         0.9125         0.4476         0.9774        -6.7327     -0.7446756       1712.871      0.7670778              1
      4524.5000         1.1173         1.2475         0.2418        -0.0158         65.198       67.17065         0.9509         1.0256          0.964         0.4535         0.9209        -6.3366     -0.3485756       1722.772      0.7270352              1
      4525.0000         1.1601         1.1485          0.218        -0.0168        58.9706       61.54532         1.0327         1.0255         1.0279         0.4081          0.868        -5.5446      0.4434242       1712.871      0.6073473              1
      4525.5000         1.1884         1.0891         0.1682        -0.0168        53.3824        56.4968         1.1063         1.0254         1.0962         0.3422         1.0615        -5.1485      0.8395243       1712.871       0.499932              1
      4526.0000         1.2222         1.1089         0.1565        -0.0158        47.7941       51.44819         1.1797         1.0552         1.1636         0.2364         1.6954        -4.7525       1.235524       1693.069      0.3925146              1
      4526.5000         1.2772         1.1485         0.1859        -0.0089           47.5       51.17706          1.258         1.0768         1.2408           0.25         2.7139        -4.7525       1.235524       1673.267      0.3867459              1
      4527.0000         1.3562         1.0297         0.2198          0.001             55       57.93933         1.3477         1.1523         1.2813         0.3154         3.0414        -5.1485      0.8395243       1683.168      0.5306242              1
      4527.5000         1.4983         0.8713         0.2406         0.0129        62.6733       64.85799         1.4305         1.2938         1.3231          0.379         2.0183        -5.7426      0.2454243       1712.871      0.6778295              1
      4528.0000         1.4935         0.8317         0.2352         0.0089        63.5644       65.65639          1.484         1.4131         1.3601         0.4105         1.3415        -6.7327     -0.7446756       1712.871      0.6948168              1
      4528.5000         1.4507         1.0297          0.221         0.0059        59.4118       61.90334         1.4772         1.4131         1.3853         0.3719         1.1961        -8.3168      -2.328776       1732.673      0.6149647      0.9815448
      4529.0000         1.3731         1.1881         0.2139          0.001        59.8529       62.29567          1.457         1.3923         1.3853         0.3422         1.4772        -9.3069      -3.318876        1702.97      0.6233121      0.9677934
      4529.5000         1.2479         1.2871         0.2127          0.005        63.5644       65.63919          1.424         1.3532         1.3853         0.3422          1.711         -9.505      -3.516976       1693.069      0.6944509       0.965042
      4530.0000         1.1237         1.2475         0.2121         0.0079        68.6139       70.19012          1.379         1.2501         1.3539         0.3653         1.5609        -8.9109      -2.922876       1693.069      0.7912793      0.9732934
      4530.5000          1.013         1.2475         0.2162         0.0059        71.8812       73.13281         1.2872         1.1598         1.2991         0.3754         1.3231        -8.9109      -2.922876       1693.069      0.8538896      0.9732934
      4531.0000         0.9259         1.1881         0.2257         -0.002        70.6931       72.05494         1.2016         1.0246         1.2408          0.385         1.2754         -9.901      -3.912976       1693.069      0.8309562       0.959542
      4531.5000         0.8833         1.2475         0.2388        -0.0149         70.396       71.78111         1.1063         0.9335         1.1529         0.3945         1.2465       -11.4851      -5.497076       1693.069      0.8251299      0.9375406
      4532.0000         0.8363         1.3663         0.2512        -0.0198        70.6931       72.04348         0.9596         0.8579         1.0422         0.4034         1.0566       -14.0594      -8.071375        1702.97      0.8307123      0.9017864
      4532.5000         0.7669          1.505         0.2718        -0.0188        71.1386       72.43977          0.822         0.7822         0.9125         0.4152         0.8798       -17.2277      -11.23968        1702.97      0.8391439      0.8577823
      4533.0000         0.6993         1.5446         0.2812        -0.0158         70.396       71.76391         0.7097         0.6959         0.8073         0.4212         0.7675        -20.396      -14.40798       1683.168       0.824764      0.8137781
      4533.5000         0.6804         1.8416         0.2941         -0.004        72.0297       73.23243         0.6138         0.6308         0.6781         0.4335         0.7065       -24.5545      -18.56648       1693.069      0.8560091      0.7560211
      4534.0000         0.6695          2.099         0.3071          0.002        74.5545       75.50508         0.5388         0.5552         0.6055         0.4494          0.651        -29.703      -23.71498       1683.168      0.9043635      0.6845142
      4534.5000         0.6695         1.8812         0.3297         0.0089        76.1881       76.97351         0.4691         0.4981         0.5464         0.4347            0.6       -35.2475      -29.25948       1693.069      0.9356066      0.6075072
      4535.0000         0.6754         1.5446         0.3648         0.0178        65.3465       67.18432         0.4244         0.4568         0.5047         0.3921         0.5568       -42.1782      -36.19017       1693.069      0.7273259      0.5112476
      4535.5000          0.696         2.2178         0.3945         0.0366        51.3235       54.52423         0.3839         0.4522          0.467         0.3594         0.5807       -51.0891      -45.10107       1683.168      0.4579625      0.3874851
      4536.0000         0.7137         3.1881          0.401         0.0554        43.2178       47.20392         0.3456         0.4268         0.4322         0.3541         0.7032       -59.0099      -53.02187       1683.168       0.302211       0.277474
      4536.5000         0.7253         4.1765         0.3968         0.0485         35.198       39.96112         0.3213         0.4062         0.3964         0.3749         0.7963       -65.9406      -59.95257       1673.267      0.1481089      0.1812143
      4537.0000         0.7409         4.5294         0.3909         0.0327        32.6733        37.6771         0.3097          0.367         0.3668         0.3933         0.7963       -65.9406      -59.95257       1683.168     0.09951287      0.1812143
      4537.5000         0.7614         4.8039         0.3826         0.0059        33.2673        38.2074         0.2986         0.3604         0.3634         0.3921          0.789       -65.9406      -59.95257       1683.168      0.1107957      0.1812143
      4538.0000         0.7736         5.2157          0.376        -0.0109        36.0891       40.74806         0.2946          0.337         0.3668         0.3778         0.8036       -65.9406      -59.95257       1683.168      0.1648523      0.1812143
      4538.5000         0.7826          5.352          0.363        -0.0257         39.505       43.82484         0.3028         0.3369         0.3735         0.3796         0.8295       -63.9604      -57.97237       1673.267      0.2303157       0.208717
