#------------------------------------------------------------------------------
# Created by    : vladimir.rabinovich
# Created on    : 09/19/2023 17:22:37
#------------------------------------------------------------------------------
~Version Information Section
VERS.           2.0     :   CWLS log ASCII Standard - VERSION 2.0
WRAP.           NO      :   One line per depth step
~Well Information Section
#MNEM       .UNIT                                         VALUE :DESCRIPTION
#------------------------------------------------------------------------------
STRT        .FT                                           554.5 :START DEPTH
STOP        .FT                                            5893 :STOP DEPTH
STEP        .FT                                             0.5 :STEP      
NULL        .                                           -999.25 :NULL      
COMP        .                              NEUMIN PRODUCTION CO :COMPANY   
WELL        .                                         ST TR 186 :WELL      
FLD         .                                           WILDCAT :FIELD     
LOC         .                                                   :LOCATION  
CNTY        .                                           CALHOUN :LOCATION  
STAT        .                                             TEXAS :STATE     
CTRY        .                                     UNITED STATES :COUNTRY   
SRVC        .                                                   :SERVICE COMPANY
DATE        .                             9/13/2023 11:18:59 AM :LOG DATE  
API         .                                    42057313020000 :API NUMBER
UWI         .                                    42057313020000 :UNIQUE WELL ID
XCOORD      .                                  487252.476079587 :SURFACE X 
YCOORD      .                                  10287942.6245796 :SURFACE Y 
LAT         .                                         28.302642 :LATITUDE  
LON         .                                       -96.5835194 :LONGITUDE 
ELEV        .FT                                              22 :ELEVATION VALUE
ELEV_TYPE   .                                                KB :ELEVATION REFERENCE TYPE
~Curve Information Section
#MNEM       .UNIT                                      API CODE :CURVE DESCRIPTION
#------------------------------------------------------------------------------
DEPT        .FT                                                 :DEPTH     
DCAL        .INCHES                                             :          
DPHI        .NONE                                               :          
GR          .GAPI                                               :          
GR_NORM     .GAPI                                               :GammaRay Normalized
ILD         .OHMM                                               :          
NPHI        .NONE                                               :          
VSH_GR      .V/V                                                :Volume of Shale from GR
~A        DEPTH           DCAL           DPHI             GR        GR_NORM            ILD           NPHI         VSH_GR
# ...
      2665.0000         0.8388         0.2361        63.9318       69.04442         1.2649         0.3968      0.7669025
      2665.5000         0.9206         0.2381        62.3358       66.77441         1.2868         0.3978      0.7186044
      2666.0000         1.0213         0.2285        60.8473       64.65717         1.2952         0.3926      0.6735567
      2666.5000         1.0684         0.2141        61.0813       64.98785         1.2918         0.3666      0.6805925
      2667.0000         1.0814         0.2052        60.8581       64.66879         1.2762         0.3345      0.6738041
      2667.5000           1.05         0.2047        60.2908       63.86069         1.2392         0.3071      0.6566104
      2668.0000          0.847         0.2169        59.4042       62.59885         1.1723         0.3092      0.6297628
      2668.5000         0.5588         0.2354        57.4356       59.79932         1.0844         0.3318      0.5701982
      2669.0000         0.3156         0.2633        54.4228        55.5158         1.0266         0.3407      0.4790596
      2669.5000         0.1726         0.2898        48.7308       47.42477         0.9414          0.342      0.3069099
      2670.0000         0.0363         0.3146        46.2186       43.85269         0.8313         0.3353      0.2309083
      2670.5000        -0.0255          0.326        45.3012       42.54708         0.7247         0.3197      0.2031293
      2671.0000         0.0051         0.3401         45.079       42.22943         0.5912         0.3237      0.1963708
      2671.5000         0.1521         0.3515        45.0156       42.13747         0.5255         0.3419      0.1944142
      2672.0000         0.2751         0.3578        44.1724        40.9373         0.4718         0.3725      0.1688787
      2672.5000         0.5539         0.3654        42.8045       38.99144         0.4331         0.3905      0.1274774
      2673.0000         0.6189         0.3719         41.113       36.58569         0.4045         0.3984     0.07629127
      2673.5000         0.4248         0.3747        39.6032       34.43819         0.3843         0.3983     0.03059988
      2674.0000         0.2176         0.3719        38.9454        33.5015         0.3606          0.399     0.01067011
      2674.5000         0.1228         0.3692        37.7791       31.84215         0.3431         0.3937              0
      2675.0000         0.5815         0.3665        37.5551       31.52196         0.3345         0.3729              0
      2675.5000         0.6053          0.366        39.0481       33.64186         0.3259         0.3607      0.0136567
      2676.0000         0.2988         0.3638         41.008       36.42532         0.3195         0.3653     0.07287906
      2676.5000         0.1916          0.373        42.1093       37.98857         0.3181         0.3776      0.1061398
      2677.0000         0.2283          0.384        44.0004       40.67424         0.3216          0.396      0.1632818
      2677.5000          0.364         0.3924        45.1494       42.30529         0.3236         0.4046      0.1979849
      2678.0000         0.4702         0.3869        47.1256        45.1119         0.3235         0.4068         0.2577
      2678.5000         0.4854         0.3746        49.0643       47.86522         0.3234         0.4031      0.3162812
      2679.0000         0.4234         0.3603        49.5276       48.52179         0.3232         0.3955      0.3302508
      2679.5000          0.331         0.3462        47.9282       46.24693         0.3231         0.3789      0.2818497
      2680.0000         0.3303         0.3337        45.6443        42.9993          0.323         0.3435      0.2127511
      2680.5000         0.3455         0.3289        43.7443       40.29726         0.3258         0.3327      0.1552609
      2681.0000         0.3941         0.3301        43.2884        39.6475         0.3319         0.3279      0.1414361
      2681.5000         0.4509         0.3365        44.1626       40.88802         0.3365         0.3345      0.1678301
      2682.0000         0.4912         0.3375        47.4982       45.62653         0.3442         0.3485      0.2686495
      2682.5000         0.5723         0.3337        50.5949       50.02554         0.3658         0.3611      0.3622455
      2683.0000         0.6496         0.3246        52.0965       52.15769         0.4103         0.3602      0.4076104
      2683.5000         0.6981         0.2965        52.1033       52.16548         0.4911          0.351      0.4077762
      2684.0000         0.7848         0.2484        51.5812       51.42164         0.6306         0.3149      0.3919497
      2684.5000         0.8039          0.209        51.4257        51.1988         0.8545         0.2881      0.3872086
      2685.0000         0.7224         0.1969        51.5454       51.36704         1.2763         0.2749      0.3907881
      2685.5000         0.5775         0.1978        52.9028       53.29425         1.3884         0.2689      0.4317925
      2686.0000         0.3825         0.1976        54.1963       55.13065         1.5205         0.2639      0.4708648
      2686.5000         0.1385          0.197        53.9967       54.84512         1.5873         0.2601      0.4647899
      2687.0000         0.0649         0.1997        52.3722       52.53461         1.6432         0.2593        0.41563
      2687.5000        -0.0157         0.2089         49.631       48.63708         1.5619         0.2695      0.3327039
      2688.0000        -0.0164         0.2265          46.22       43.78769         1.2704         0.2821      0.2295253
      2688.5000        -0.0232         0.2581        43.2158       39.51641          0.902         0.2966      0.1386471
      2689.0000        -0.0789         0.3021        41.9371       37.69732         0.7116         0.3155     0.09994304
      2689.5000        -0.1534         0.3174        42.0798       37.89825         0.6109         0.3362      0.1042182
      2690.0000        -0.1719         0.3214        42.7718       38.87984         0.5169         0.3415       0.125103
      2690.5000        -0.1419         0.2948        43.5337       39.96075         0.4695         0.3261       0.148101
      2691.0000        -0.1048         0.2838        44.3913       41.17767         0.4488         0.3088      0.1739929
      2691.5000        -0.1126          0.282        44.9228       41.93114         0.4424         0.3071      0.1900243
      2692.0000        -0.1267          0.283        45.5489       42.81907         0.4428         0.3269      0.2089163
      2692.5000        -0.1444         0.2916        44.8699       41.85225         0.4546         0.3506      0.1883457
      2693.0000         -0.145         0.3051        41.4593       37.00341         0.4729         0.3575     0.08517902
      2693.5000        -0.1456         0.3113        38.4567        32.7344         0.4875          0.358              0
      2694.0000        -0.1156         0.3116        37.7052       31.66455         0.4997         0.3415              0
      2694.5000        -0.1162         0.3092        37.5497        31.4417         0.5009         0.3235              0
      2695.0000        -0.1522         0.3097        37.5555       31.44807         0.5007         0.3131              0
      2695.5000        -0.2707         0.3172        37.8128       31.81189          0.499         0.3131              0
      2696.0000        -0.3018         0.3169        38.2561       32.44002          0.493         0.3169              0
      2696.5000        -0.3025         0.3136        38.2607        32.4447         0.4819         0.3251              0
      2697.0000         -0.303         0.3097        38.0375       32.12563         0.4693         0.3225              0
      2697.5000        -0.1586         0.3128        37.9415       31.98734         0.4465         0.3169              0
      2698.0000         0.2163         0.3266        37.8189       31.81125         0.4257         0.3167              0
