#------------------------------------------------------------------------------
# Created by    : vladimir.rabinovich
# Created on    : 09/19/2023 17:22:27
#------------------------------------------------------------------------------
~Version Information Section
VERS.           2.0     :   CWLS log ASCII Standard - VERSION 2.0
WRAP.           NO      :   One line per depth step
~Well Information Section
#MNEM       .UNIT                                         VALUE :DESCRIPTION
#------------------------------------------------------------------------------
STRT        .FT                                          1344.5 :START DEPTH
STOP        .FT                                            6047 :STOP DEPTH
STEP        .FT                                             0.5 :STEP      
NULL        .                                           -999.25 :NULL      
COMP        .                      HIGHLAND RESOURCES-G R BROWN :COMPANY   
WELL        .                                         ST TR 234 :WELL      
FLD         .                                           WILDCAT :FIELD     
LOC         .                                                   :LOCATION  
CNTY        .                                           CALHOUN :LOCATION  
STAT        .                                             TEXAS :STATE     
CTRY        .                                     UNITED STATES :COUNTRY   
SRVC        .                                                   :SERVICE COMPANY
DATE        .                             9/13/2023 11:18:59 AM :LOG DATE  
API         .                                    42057308440000 :API NUMBER
UWI         .                                    42057308440000 :UNIQUE WELL ID
XCOORD      .                                  538656.561995839 :SURFACE X 
YCOORD      .                                  10324779.5220427 :SURFACE Y 
LAT         .                                        28.4079151 :LATITUDE  
LON         .                                       -96.4272693 :LONGITUDE 
ELEV        .FT                                              14 :ELEVATION VALUE
ELEV_TYPE   .                                                KB :ELEVATION REFERENCE TYPE
~Curve Information Section
#MNEM       .UNIT                                      API CODE :CURVE DESCRIPTION
#------------------------------------------------------------------------------
DEPT        .FT                                                 :DEPTH     
CILD        .MMHO                                               :          
DT          .US/F                                               :          
RILD        .OHMM                                               :          
SFL         .OHMM                                               :          
SP          .MV                                                 :          
SP_NORM     .MV                                                 :SP Normalized
VSH_SP      .V/V                                                :Volume of Shale from SP
~A        DEPTH           CILD             DT           RILD            SFL             SP        SP_NORM         VSH_SP
      1344.5000        -999.25        -999.25        -999.25        -999.25       172.2231       5.756027              1
      1345.0000        -999.25        -999.25        -999.25        -999.25       149.6464      -16.82068      0.5943416
      1345.5000       2911.208       168.4625         0.3435         1.1298       147.4263      -9.000046      0.7948706
      1346.0000       1625.224        157.482         0.6153         1.1872       145.9813      -1.152832      0.9960812
      1346.5000        697.788       157.9676         1.4331         1.2608       143.8738      -2.804047      0.9537424
      1347.0000        303.656       162.6182         3.2932         1.3962       140.9765      -5.245056      0.8911524
      1347.5000       293.3842       166.8253         3.4085         1.4498       140.7303      -5.034973      0.8965392
      1348.0000       386.2197       169.5539         2.5892         1.4966       142.1303       -3.17868      0.9441364
      1348.5000       897.9078       175.8351         1.1137         1.5237       143.3373      -1.515396      0.9867847
      1349.0000       1019.576       179.3314         0.9808         1.5397       143.3517      -1.044708      0.9988536
      1349.5000       1032.418       182.5165         0.9686         1.5543       143.0239     -0.9162292              1
      1350.0000       1021.033       189.1791         0.9794         1.5665       142.1628       -1.32103      0.9917685
      1350.5000       996.6116       199.0857         1.0034         1.5788       141.0797      -1.947845      0.9756963
      1351.0000       973.0466       212.5236         1.0277          1.588       140.0535      -2.517761      0.9610831
      1351.5000       941.4423       212.1856         1.0622         1.6017       139.3368      -3.242676      0.9424955
      1352.0000       930.9253        215.937         1.0742         1.6185       137.2735      -5.379578      0.8877031
      1352.5000       945.9843       229.2599         1.0571         1.6278       135.3518      -7.374863       0.836542
      1353.0000       982.6079       229.5842         1.0177         1.6423       132.0067      -10.79356      0.7488829
      1353.5000       1029.018       223.1112         0.9718         1.6554       128.8307      -14.04317      0.6655598
      1354.0000       1062.135       217.4691         0.9415         1.6735       126.1746      -16.77287      0.5955676
      1354.5000       1093.374        209.735         0.9146         1.6829       123.0573      -19.96376      0.5137497
      1355.0000       1118.193       182.0903         0.8943         1.6935       120.0758      -23.01885       0.435414
      1355.5000       1156.203       125.0342         0.8649         1.7044       117.3649      -25.80334      0.3640168
      1356.0000       1188.778        91.1488         0.8412         1.7102       115.1653      -28.07654      0.3057298
      1356.5000       1241.003        90.1768         0.8058         1.6878       114.1643      -29.15113      0.2781761
      1357.0000       1289.657        91.2981         0.7754         1.6516       113.6667      -29.72232      0.2635303
      1357.5000       1323.101        94.2574         0.7558         1.6128       113.8302      -29.63242      0.2658355
      1358.0000       1337.972       104.3904         0.7474         1.5786       114.6803      -28.85593      0.2857455
      1358.5000       1341.382       142.5967         0.7455         1.5628       116.5513      -27.05852      0.3318329
      1359.0000       1331.913       165.3898         0.7508         1.5484       119.5971      -24.08631      0.4080433
      1359.5000       1318.739        169.935         0.7583         1.5369       122.2913      -21.46571      0.4752383
      1360.0000       1303.951       169.1647         0.7669          1.545       123.4753      -20.35529      0.5037104
      1360.5000       1294.666       160.3528         0.7724         1.5643       123.8461      -20.05809       0.511331
      1361.0000       1285.677       139.2977         0.7778         1.5863       122.8913      -21.08649      0.4849619
      1361.5000       1294.666       128.6658         0.7724         1.6037       121.2208      -22.83057      0.4402417
      1362.0000       1297.859         127.22         0.7705         1.6244       119.3128      -24.81217      0.3894315
      1362.5000       1303.951       146.7932         0.7669         1.6405       117.8937      -26.30488       0.351157
      1363.0000        1317.87       206.4784         0.7588         1.6568       117.2035      -27.06867      0.3315725
      1363.5000         1332.8       220.1698         0.7503         1.6724        117.833      -26.51276      0.3458266
      1364.0000       1341.382       224.1042         0.7455         1.6795       118.6991      -25.72026      0.3661472
      1364.5000       1350.804       225.8261         0.7403         1.6722       120.8905      -23.60245      0.4204501
      1365.0000       1350.804       226.3934         0.7403         1.6461       122.4552      -22.11134      0.4586835
      1365.5000       1350.804       220.4455         0.7403         1.5825       122.9915      -21.64864      0.4705478
      1366.0000       1350.804       209.2549         0.7403         1.4623       125.2315      -19.48223      0.5260966
      1366.5000       1339.405       193.3429         0.7466         1.4081       125.8565      -18.93082      0.5402353
      1367.0000       1291.489       184.7667         0.7743         1.3327       125.8713      -18.98963      0.5387274
      1367.5000       1180.916       183.2937         0.8468         1.2966       125.2783      -19.65623      0.5216352
      1368.0000       1145.082       182.6461         0.8733         1.3552       124.0269      -20.98122      0.4876611
      1368.5000       1139.991       181.3511         0.8772         1.3873       121.0316      -24.05011      0.4089715
      1369.0000       1180.638       178.2201          0.847         1.4443       118.1005       -27.0548      0.3319282
      1369.5000       1198.035       172.7701         0.8347         1.4811       116.1621       -29.0668      0.2803386
      1370.0000       1231.072       169.5276         0.8123         1.5142       115.3101      -29.99239      0.2566053
      1370.5000        1281.23       164.2019         0.7805         1.5295       113.8079      -31.56818      0.2162004
      1371.0000       1364.629       164.9899         0.7328         1.4066       111.9463      -33.50338        0.16658
      1371.5000       1457.726        166.734          0.686         1.2986       111.2316      -34.29169       0.146367
      1372.0000       1535.155        168.035         0.6514         1.2359       111.3637      -34.23318      0.1478672
      1372.5000       1666.389       168.4337         0.6001         1.2318       113.7505      -31.91997      0.2071803
      1373.0000       1809.955       168.1843         0.5525         1.2058       115.0559      -30.68816       0.238765
      1373.5000       1965.409       167.8748         0.5088         1.1653       113.8533      -31.96436      0.2060422
      1374.0000       2105.707       169.0529         0.4749          1.138       111.9598      -33.93145      0.1556039
      1374.5000       2192.021       170.1343         0.4562         1.1079       110.5226      -35.44225      0.1168655
      1375.0000       2304.147       171.4857          0.434         1.0707       110.2312      -35.80724      0.1075068
      1375.5000       2366.304       172.9858         0.4226         1.0325       110.2664      -35.84563      0.1065224
      1376.0000       2437.241       173.5475         0.4103         1.0126       111.1636      -35.02203      0.1276404
      1376.5000       2463.661       172.4693         0.4059         0.9998       113.0814      -33.17783      0.1749273
      1377.0000        2450.38       171.1505         0.4081         0.9724       116.3991      -29.93372      0.2581097
      1377.5000        2383.79       169.1092         0.4195         0.9589       119.9775      -26.42892      0.3479765
