#------------------------------------------------------------------------------
# Created by    : vladimir.rabinovich
# Created on    : 09/19/2023 17:20:53
#------------------------------------------------------------------------------
~Version Information Section
VERS.           2.0     :   CWLS log ASCII Standard - VERSION 2.0
WRAP.           NO      :   One line per depth step
~Well Information Section
#MNEM       .UNIT                                         VALUE :DESCRIPTION
#------------------------------------------------------------------------------
STRT        .FT                                             875 :START DEPTH
STOP        .FT                                            6380 :STOP DEPTH
STEP        .FT                                             0.5 :STEP      
NULL        .                                           -999.25 :NULL      
COMP        .                       ENERGY DEVELOPMENT CORP N J :COMPANY   
WELL        .                                   STATE TRACT 241 :WELL      
FLD         .                                           WILDCAT :FIELD     
LOC         .                                                   :LOCATION  
CNTY        .                                           CALHOUN :LOCATION  
STAT        .                                             TEXAS :STATE     
CTRY        .                                     UNITED STATES :COUNTRY   
SRVC        .                                                   :SERVICE COMPANY
DATE        .                             9/13/2023 11:19:11 AM :LOG DATE  
API         .                                    42057314130000 :API NUMBER
UWI         .                                    42057314130000 :UNIQUE WELL ID
XCOORD      .                                  544841.599058466 :SURFACE X 
YCOORD      .                                   10330281.839261 :SURFACE Y 
LAT         .                                        28.4235103 :LATITUDE  
LON         .                                       -96.4085418 :LONGITUDE 
ELEV        .FT                                              34 :ELEVATION VALUE
ELEV_TYPE   .                                                KB :ELEVATION REFERENCE TYPE
~Curve Information Section
#MNEM       .UNIT                                      API CODE :CURVE DESCRIPTION
#------------------------------------------------------------------------------
DEPT        .FT                                                 :DEPTH     
ASN         .OHMM                                               :          
DCAL        .IN                                                 :          
DPHI        .V/V                                                :          
DRHO        .G/CC                                               :          
GR          .GAPI                                               :          
GR_NORM     .GAPI                                               :GammaRay Normalized
ILD         .OHMM                                               :          
ILD_LNR     .OHMM                                               :          
ILM         .OHMM                                               :          
NPHI        .V/V                                                :          
SFLU        .OHMM                                               :          
SP          .MV                                                 :          
SP_NORM     .MV                                                 :SP Normalized
TENS        .LB                                                 :          
VSH_GR      .V/V                                                :Volume of Shale from GR
VSH_SP      .V/V                                                :Volume of Shale from SP
~A        DEPTH            ASN           DCAL           DPHI           DRHO             GR        GR_NORM            ILD        ILD_LNR            ILM           NPHI           SFLU             SP        SP_NORM           TENS         VSH_GR         VSH_SP
# ...
      4891.0000         0.8891         0.1968         0.2958        -0.0327        87.0297        81.8517         1.0277          0.838         0.9293         0.5125         0.8524        -6.1386     -0.3423347       1803.922              1              1
      4891.5000         0.8879         0.0592          0.284        -0.0287        86.7327       81.54834         1.0138         0.8379         0.9209         0.5107         0.7854        -6.3366     -0.5584855       1803.922              1              1
      4892.0000         0.8802         0.0396         0.2756        -0.0257        78.8614       73.67069              1         0.8589         0.9251         0.4947         0.8183        -6.1386     -0.3786359       1813.725      0.8653339              1
      4892.5000          0.877          0.099         0.2685        -0.0188        75.5941       70.39704         0.9909         0.8674         0.9293         0.4747         0.8485        -5.3465      0.3953133       1813.725      0.7956817              1
      4893.0000         0.8772         0.1584         0.2626        -0.0149        72.6238       67.42039         0.9909         0.8673         0.9465         0.4651         0.8879        -4.3564       1.367262       1823.529      0.7323488              1
      4893.5000         0.8848         0.3762         0.2632        -0.0089        71.8812       66.67145         0.9909         0.8839         0.9552         0.4681         0.9293        -2.7723       2.933212       1813.725      0.7164138              1
      4894.0000         0.8924         0.6337         0.2685        -0.0139        71.7327       66.51659         1.0046         0.8968         0.9729         0.4818         0.9083        -1.9802       3.707161       1813.725      0.7131189              1
      4894.5000         0.9006         0.7129         0.2762        -0.0158        70.9901       65.76764         1.0231         0.8967         0.9864         0.4899         0.8601        -1.5842       4.085011       1794.118      0.6971838              1
      4895.0000         0.9065         0.7525         0.2798        -0.0158         70.099       64.87019         1.0419         0.8965              1          0.491         0.8759        -1.1881        4.46296       1803.922      0.6780892              1
      4895.5000         0.9092         0.9109          0.281        -0.0099        68.4653       63.23014         1.0562         0.8964              1         0.4861         0.9293        -0.7921       4.840809       1833.333      0.6431946              1
      4896.0000         0.9167         1.0495         0.2834        -0.0089        68.1683       62.92679         1.0855         0.8962         1.0092         0.4783          0.964        -0.7921       4.822659       1843.137      0.6367401              1
      4896.5000         0.9182         1.1287         0.2905        -0.0079        69.0594       63.81153         1.1157         0.8961         1.0138         0.4771         0.9818        -0.7921       4.804508       1833.333      0.6555645              1
      4897.0000         0.9182         1.2079         0.3018        -0.0089        71.5842       66.32999         1.1414         0.8959         1.0184         0.4806         0.9954        -0.7921       4.786357       1794.118      0.7091486              1
      4897.5000         0.9181         1.2673         0.3171        -0.0139        75.8911       70.63054         1.1414         0.8957         1.0277          0.483         1.0046        -0.7921       4.768207        1774.51      0.8006498              1
      4898.0000          0.918         1.2673         0.3282        -0.0168        81.6832       76.41628         1.1208         0.8922         1.0231         0.4765         1.0184        -0.7921       4.750056        1774.51      0.9237505              1
      4898.5000         0.9162          1.245         0.3371        -0.0168        85.9901       80.71684         1.0366         0.8537          0.946         0.4677         1.0225        -2.1782       3.345805       1784.042              1              1
      4899.0000         0.8982         1.2005         0.3435        -0.0168        90.4455       85.16589         0.9363         0.8152         0.8744         0.4696          0.958        -3.5644       1.941455       1783.497              1              1
      4899.5000         0.8752         1.1757         0.3465        -0.0168        91.1881       85.90214         0.8461         0.6862          0.776         0.4756         0.8774        -6.7327      -1.244996       1773.084              1      0.9965973
      4900.0000         0.8701         1.1906         0.3447        -0.0158        88.0693       82.77699          0.768         0.4695         0.6754         0.4722         0.8041        -10.297      -4.827447       1732.944              1       0.946841
      4900.5000         0.8717         1.3069         0.3435        -0.0109        74.4059       69.10723         0.6874         0.3097         0.6055          0.455         0.7364        -30.297       -24.8456       1772.277       0.768239      0.6688111
      4901.0000          0.876          1.802         0.3441        -0.0079        62.5248       57.21978         0.6193         0.2081         0.5946         0.4301         0.6874       -42.1782      -36.74495       1811.881      0.5153145      0.5035424
      4901.5000         0.8759          2.198         0.3482         -0.004        50.5291       45.21774         0.5162          0.208         0.5838         0.4099         0.7818       -56.0396       -50.6245       1811.881      0.2599518      0.3107708
      4902.0000         0.8743         2.4752         0.3475          0.001        43.8403       38.52258         0.4283         0.2078         0.5233         0.4057            0.9       -62.7723      -57.37535        1801.98      0.1175018       0.217009
      4902.5000          0.854         2.6337         0.3451          0.001        37.6471       32.32303         0.3714         0.2077         0.4186         0.4135         0.9954       -67.9208        -62.542       1811.881              0        0.14525
      4903.0000         0.8317         2.6535          0.344         -0.003        36.1765       30.84608           0.34         0.2075         0.3819         0.4016         0.9684       -71.0891      -65.72845        1801.98              0      0.1009937
      4903.5000          0.816         2.5743         0.3434        -0.0099        34.7059       29.36913         0.3113         0.2144         0.3529         0.3749         0.9083       -72.4752       -67.1327        1801.98              0     0.08149031
      4904.0000         0.8144         2.4158         0.3386        -0.0119        34.1176       28.77448         0.2853         0.2371         0.3353         0.3648         0.8485       -73.2673      -67.94296        1801.98              0     0.07023674
      4904.5000         0.8132         2.1188         0.3345        -0.0089        35.7353       30.38582         0.2665         0.2369         0.3246         0.4016         0.8036       -73.6634       -68.3572       1792.079              0     0.06448332
      4905.0000         0.8159          1.901         0.3386        -0.0129        38.3824       33.02658         0.2629         0.2368         0.3187         0.4147         0.8073       -74.6535      -69.36546       1772.277   0.0005655492     0.05047978
      4905.5000         0.8158         1.7822         0.3451        -0.0208        39.1176       33.75543         0.2605         0.2366         0.3157          0.404          0.822       -75.4455      -70.17561       1772.277     0.01607302      0.0392277
      4906.0000         0.8157         1.5446         0.3511        -0.0198        37.7941       32.42558         0.2581         0.2365         0.3128         0.3802          0.822       -76.2376      -70.98586       1811.881              0     0.02797423
      4906.5000         0.8197         1.3861         0.3535        -0.0257        36.1765       30.80163          0.257         0.2363         0.3113         0.3582         0.7963       -77.0297       -71.7961       1821.782              0     0.01672077
