#------------------------------------------------------------------------------
# Created by    : vladimir.rabinovich
# Created on    : 09/19/2023 17:22:27
#------------------------------------------------------------------------------
~Version Information Section
VERS.           2.0     :   CWLS log ASCII Standard - VERSION 2.0
WRAP.           NO      :   One line per depth step
~Well Information Section
#MNEM       .UNIT                                         VALUE :DESCRIPTION
#------------------------------------------------------------------------------
STRT        .FT                                          1344.5 :START DEPTH
STOP        .FT                                            6047 :STOP DEPTH
STEP        .FT                                             0.5 :STEP      
NULL        .                                           -999.25 :NULL      
COMP        .                      HIGHLAND RESOURCES-G R BROWN :COMPANY   
WELL        .                                         ST TR 234 :WELL      
FLD         .                                           WILDCAT :FIELD     
LOC         .                                                   :LOCATION  
CNTY        .                                           CALHOUN :LOCATION  
STAT        .                                             TEXAS :STATE     
CTRY        .                                     UNITED STATES :COUNTRY   
SRVC        .                                                   :SERVICE COMPANY
DATE        .                             9/13/2023 11:18:59 AM :LOG DATE  
API         .                                    42057308440000 :API NUMBER
UWI         .                                    42057308440000 :UNIQUE WELL ID
XCOORD      .                                  538656.561995839 :SURFACE X 
YCOORD      .                                  10324779.5220427 :SURFACE Y 
LAT         .                                        28.4079151 :LATITUDE  
LON         .                                       -96.4272693 :LONGITUDE 
ELEV        .FT                                              14 :ELEVATION VALUE
ELEV_TYPE   .                                                KB :ELEVATION REFERENCE TYPE
~Curve Information Section
#MNEM       .UNIT                                      API CODE :CURVE DESCRIPTION
#------------------------------------------------------------------------------
DEPT        .FT                                                 :DEPTH     
CILD        .MMHO                                               :          
DT          .US/F                                               :          
RILD        .OHMM                                               :          
SFL         .OHMM                                               :          
SP          .MV                                                 :          
SP_NORM     .MV                                                 :SP Normalized
VSH_SP      .V/V                                                :Volume of Shale from SP
~A        DEPTH           CILD             DT           RILD            SFL             SP        SP_NORM         VSH_SP
# ...
      1646.0000       1114.082       158.4097         0.8976         0.8685       152.7906      -2.612457      0.9664071
      1646.5000       1089.443       155.9593         0.9179         0.8708       151.9634      -3.448196      0.9489959
      1647.0000         1081.9       152.8717         0.9243         0.8731       151.8778      -3.542313      0.9470351
      1647.5000       1072.616       151.5646         0.9323         0.8769       152.8425      -2.586151      0.9669552
      1648.0000       1059.098       152.0221         0.9442         0.8965       153.4359      -2.001282        0.97914
      1648.5000       1056.078       153.2174         0.9469         0.9408       152.8367      -2.609009       0.966479
      1649.0000       1044.168       152.9261         0.9577         1.0058       152.0475      -3.406738      0.9498596
      1649.5000       1044.168       150.8535         0.9577         1.0858        151.022      -4.440765      0.9283174
      1650.0000       1044.059       148.2183         0.9578         1.1433       150.1268      -5.344498      0.9094896
      1650.5000       1051.414       144.9553         0.9511         1.2026       148.8614      -6.618423      0.8829495
      1651.0000       1054.185       142.1141         0.9486         1.2339       147.3013      -8.187042        0.85027
      1651.5000       1058.873       140.5457         0.9444         1.2721       144.8127      -10.68417      0.7982464
      1652.0000       1070.549       144.8414         0.9341         1.3162       141.9079       -13.5975       0.737552
      1652.5000       1091.465       150.6768         0.9162         1.3861       139.7526      -15.76134      0.6924722
      1653.0000       1128.286        156.815         0.8863         1.4375       138.2611      -17.26137      0.6612215
      1653.5000       1157.943       159.1397         0.8636         1.4555       138.9373      -16.59369      0.6751315
      1654.0000       1193.887       160.8009         0.8376         1.4688       141.7712      -13.76833      0.7339932
      1654.5000       1232.742       160.0275         0.8112         1.4901       146.2289      -9.319153      0.8266843
      1655.0000       1246.572       157.4427         0.8022         1.3583       149.6345      -5.922073      0.8974568
      1655.5000        1254.39        155.104         0.7972         1.2286       152.9637       -2.60141      0.9666373
      1656.0000        1254.39       154.7369         0.7972         1.1415        155.308     -0.2656403              1
      1656.5000       1254.233       157.1023         0.7973         1.0498       156.9512       1.369034              1
      1657.0000        1245.33       158.9309          0.803          0.976       156.9621       1.371399              1
      1657.5000       1235.788       158.5436         0.8092         0.9505       156.1805      0.5812683              1
      1658.0000       1210.507       156.6188         0.8261         0.9511       155.7573      0.1495361              1
      1658.5000       1191.185       155.5509         0.8395          0.955       156.0517      0.4354095              1
      1659.0000       1160.093       154.7229          0.862         0.9595       157.0137       1.388901              1
      1659.5000        1124.48       153.7413         0.8893         0.9718       157.7038       2.070465              1
      1660.0000       1087.075       152.8743         0.9199          1.004       157.9301       2.288239              1
      1660.5000       1050.862        151.682         0.9516         1.0347       156.1095      0.4591064              1
      1661.0000       1014.096       150.2884         0.9861         1.0701        155.078     -0.5809174              1
      1661.5000       971.9117       148.5737         1.0289         1.1054       154.6001      -1.067352      0.9985968
      1662.0000       948.4967       146.1009         1.0543         1.1508       153.8216      -1.854385      0.9822003
      1662.5000       931.2722        141.631         1.0738         1.1885       153.0406      -2.643906      0.9657519
      1663.0000       916.7583       137.9894         1.0908         1.2278       152.1863      -3.506744      0.9477761
      1663.5000       897.6661       132.4286          1.114          1.275       150.8601      -4.841461      0.9199696
      1664.0000        892.618       126.7679         1.1203         1.3374       148.8448      -6.865295      0.8778064
      1664.5000       886.2891       125.2276         1.1283         1.3794       148.0849      -7.633728      0.8617973
      1665.0000       886.2891       127.0827         1.1283          1.436       147.6094      -8.117752      0.8517135
      1665.5000       886.2106       129.9804         1.1284         1.5042       146.1256      -9.610092      0.8206231
      1666.0000       886.2106       130.4377         1.1284         1.5606        144.179      -11.56522      0.7798913
      1666.5000       892.4587       129.6652         1.1205         1.6016       141.5627      -14.19005      0.7252073
      1667.0000       903.5056       127.3994         1.1068         1.6648       139.2115      -16.54976      0.6760467
      1667.5000       918.0207       126.2241         1.0893         1.7297       136.3379      -19.43188      0.6160024
      1668.0000       945.0903       125.8116         1.0581          1.787       134.4083      -21.37003      0.5756245
      1668.5000       974.5638       128.8428         1.0261         1.8174       132.4122      -23.37465      0.5338615
      1669.0000        1006.34       132.4089         0.9937         1.8609       129.7005      -26.09488        0.47719
      1669.5000       1037.775       134.2958         0.9636         1.9111       127.7028      -28.10111      0.4353935
      1670.0000        1080.03       135.8121         0.9259         1.9338       125.7484      -30.06404      0.3944992
      1670.5000       1131.478       136.7441         0.8838         1.9491       123.5376      -32.28337      0.3482631
      1671.0000       1170.412       138.0387         0.8544         1.9289       121.9136       -33.9159       0.314252
      1671.5000       1209.336       141.4505         0.8269         1.8321       119.9757      -35.86233      0.2737015
      1672.0000       1234.568       146.2229           0.81         1.7167       118.8659      -36.98066      0.2504029
      1672.5000       1270.648       146.1753          0.787         1.6399       118.4658      -37.38929      0.2418898
      1673.0000       1302.253       144.1219         0.7679          1.558       121.3914      -34.47221      0.3026622
      1673.5000       1337.614       142.2842         0.7476         1.4453       126.8411      -29.03104      0.4160199
      1674.0000       1402.721       139.4323         0.7129         1.3192         130.45      -25.43068      0.4910275
      1674.5000       1444.043       141.4096         0.6925         1.2275       136.8249       -19.0643      0.6236604
      1675.0000        1516.07       147.8729         0.6596         1.0732       144.4667      -11.43102      0.7826872
      1675.5000       1552.795       155.6021          0.644         0.9761       150.2352      -5.671051      0.9026864
      1676.0000       1605.652        164.874         0.6228         0.9125       153.6809      -2.233887       0.974294
      1676.5000       1634.521       169.8264         0.6118         0.7713       155.4405     -0.4828033              1
      1677.0000       1650.165       170.5895          0.606         0.6569       157.1466       1.214767              1
      1677.5000       1638.538       173.8816         0.6103         0.6186        157.948       2.007629              1
      1678.0000       1616.815       175.0362         0.6185         0.6709       157.9559       2.007004              1
      1678.5000       1580.778       174.1215         0.6326         0.7102       157.3546       1.397171              1
      1679.0000       1538.462       173.3385           0.65          0.738       156.7195        0.75354              1
