#------------------------------------------------------------------------------
# Created by    : vladimir.rabinovich
# Created on    : 09/19/2023 17:22:27
#------------------------------------------------------------------------------
~Version Information Section
VERS.           2.0     :   CWLS log ASCII Standard - VERSION 2.0
WRAP.           NO      :   One line per depth step
~Well Information Section
#MNEM       .UNIT                                         VALUE :DESCRIPTION
#------------------------------------------------------------------------------
STRT        .FT                                          1344.5 :START DEPTH
STOP        .FT                                            6047 :STOP DEPTH
STEP        .FT                                             0.5 :STEP      
NULL        .                                           -999.25 :NULL      
COMP        .                      HIGHLAND RESOURCES-G R BROWN :COMPANY   
WELL        .                                         ST TR 234 :WELL      
FLD         .                                           WILDCAT :FIELD     
LOC         .                                                   :LOCATION  
CNTY        .                                           CALHOUN :LOCATION  
STAT        .                                             TEXAS :STATE     
CTRY        .                                     UNITED STATES :COUNTRY   
SRVC        .                                                   :SERVICE COMPANY
DATE        .                             9/13/2023 11:18:59 AM :LOG DATE  
API         .                                    42057308440000 :API NUMBER
UWI         .                                    42057308440000 :UNIQUE WELL ID
XCOORD      .                                  538656.561995839 :SURFACE X 
YCOORD      .                                  10324779.5220427 :SURFACE Y 
LAT         .                                        28.4079151 :LATITUDE  
LON         .                                       -96.4272693 :LONGITUDE 
ELEV        .FT                                              14 :ELEVATION VALUE
ELEV_TYPE   .                                                KB :ELEVATION REFERENCE TYPE
~Curve Information Section
#MNEM       .UNIT                                      API CODE :CURVE DESCRIPTION
#------------------------------------------------------------------------------
DEPT        .FT                                                 :DEPTH     
CILD        .MMHO                                               :          
DT          .US/F                                               :          
RILD        .OHMM                                               :          
SFL         .OHMM                                               :          
SP          .MV                                                 :          
SP_NORM     .MV                                                 :SP Normalized
VSH_SP      .V/V                                                :Volume of Shale from SP
~A        DEPTH           CILD             DT           RILD            SFL             SP        SP_NORM         VSH_SP
# ...
      2282.5000       997.5062       153.1337         1.0025         1.0689        149.565      -1.364792      0.9936001
      2283.0000       987.7518       152.1553         1.0124         1.0644       150.5309     -0.3846436              1
      2283.5000       976.2765       150.9704         1.0243         1.0581       151.4629      0.5616302              1
      2284.0000       972.3843       150.0455         1.0284         1.0543       151.7329       0.845871              1
      2284.5000       969.0861       149.1257         1.0319         1.0522       151.6419      0.7691498              1
      2285.0000       968.9923       148.9686          1.032         1.0552       150.8351    -0.02340698              1
      2285.5000       966.8375       148.9621         1.0343         1.0587       150.0817     -0.7625427              1
      2286.0000       961.9084        148.622         1.0396         1.0644       149.9373     -0.8926849              1
      2286.5000       958.5889       147.6793         1.0432         1.0662       149.9475     -0.8682251              1
      2287.0000       940.8223       145.1121         1.0629         1.0736        149.879     -0.9224701              1
      2287.5000       919.7939        143.395         1.0872         1.0803       149.0517      -1.735504      0.9870964
      2288.0000       900.6575       141.8789         1.1103         1.0879       147.7516      -3.021347      0.9645378
      2288.5000       883.0021       141.1792         1.1325         1.0956       146.3174      -4.441284      0.9396266
      2289.0000       880.4367       140.9139         1.1358         1.1011       146.3933      -4.351135      0.9412081
      2289.5000       876.5778       140.1769         1.1408         1.1079       146.6454      -4.084778      0.9458811
      2290.0000       876.4242       138.6358          1.141         1.1156       145.4362      -5.279709      0.9249174
      2290.5000        877.193       137.0973           1.14         1.1233       145.3589      -5.342758      0.9238113
      2291.0000       888.6519       136.4087         1.1253         1.1316       146.0651      -4.622299      0.9364509
      2291.5000        896.861       136.9521          1.115         1.1048       147.6408      -3.032349      0.9643447
      2292.0000       907.5234       143.9093         1.1019         1.0611       148.5268       -2.13208       0.980139
      2292.5000       916.9265        150.076         1.0906         1.0187       148.5382       -2.10643       0.980589
      2293.0000       934.2302       152.7457         1.0704         0.9756       148.8514      -1.778961       0.986334
      2293.5000        955.201       153.8076         1.0469         0.9372       149.1671      -1.449005      0.9921227
      2294.0000       985.3188       154.8889         1.0149            0.9       149.3176      -1.284241      0.9950133
      2294.5000       1037.344       156.0138          0.964         0.8683        149.491      -1.096588      0.9983055
      2295.0000       1079.331        157.098         0.9265         0.8441        149.695     -0.8783112              1
      2295.5000       1128.923       157.7951         0.8858         0.8227       149.8835     -0.6755676              1
      2296.0000       1180.219       158.3979         0.8473         0.8049       150.1318     -0.4129944              1
      2296.5000       1234.263       159.1702         0.8102         0.7852       150.1403     -0.3902435              1
      2297.0000       1290.822        159.926         0.7747         0.7615       149.8447     -0.6715851              1
      2297.5000       1324.503       160.8855          0.755         0.7398       149.2021      -1.299927      0.9947381
      2298.0000       1355.932       161.4102         0.7375         0.7235       148.0308      -2.456955      0.9744394
      2298.5000       1365.374       161.9944         0.7324         0.7142        148.043      -2.430511      0.9749033
      2299.0000        1354.83       162.3763         0.7381         0.7095        148.051      -2.408249      0.9752939
      2299.5000       1333.156         162.59         0.7501         0.7415       148.0612      -2.383789       0.975723
      2300.0000       1294.163       162.5225         0.7727          0.763       147.9179      -2.512848      0.9734588
      2300.5000       1253.604        162.185         0.7977          0.789       147.3912      -3.025269       0.964469
      2301.0000       1211.094       161.5404         0.8257         0.8044       146.3577      -4.044525      0.9465873
      2301.5000       1183.992       160.8204         0.8446          0.819       145.6225      -4.765457      0.9339393
      2302.0000       1149.557       160.4047         0.8699         0.8305       146.1189      -4.254807      0.9428982
      2302.5000       1133.273       160.1986         0.8824         0.8409       146.6398      -3.719635      0.9522871
      2303.0000       1126.634       160.0412         0.8876         0.8504       147.4167      -2.928482       0.966167
      2303.5000       1118.568       160.0373          0.894         0.8557       147.8298      -2.501114      0.9736646
      2304.0000       1118.443       160.0326         0.8941         0.8353       147.5344      -2.782272      0.9687321
      2304.5000       1118.193       160.2247         0.8943         0.8134       146.3437      -3.958694      0.9480931
      2305.0000       1125.999       160.6397         0.8881         0.8037       145.7194      -4.568741      0.9373905
      2305.5000       1133.787        161.147          0.882         0.7912       145.7288      -4.545074      0.9378057
      2306.0000       1144.034       162.0232         0.8741         0.7828       146.1196       -4.14003      0.9449118
      2306.5000       1157.809       162.1652         0.8637         0.7981       146.6639      -3.581467      0.9547111
      2307.0000       1165.909       162.1613         0.8577         0.8368       146.6721      -3.559006      0.9551052
      2307.5000       1165.773       162.3781         0.8578         0.8655       146.0363      -4.180542       0.944201
      2308.0000       1160.497       162.6164         0.8617         0.8867       144.9706      -5.231995      0.9257545
      2308.5000       1147.447       162.6133         0.8715         0.9082       145.2424      -4.945923      0.9307733
      2309.0000       1124.733       162.2384         0.8891          0.919       146.0988      -4.075272      0.9460478
      2309.5000       1098.177       161.5315         0.9106         0.9371       146.5403      -3.619522      0.9540434
      2310.0000       1070.205       161.0995         0.9344         0.9505       146.7266      -3.418961      0.9575621
      2310.5000       1050.972       160.6041         0.9515         0.9632       146.4305      -3.700806      0.9526175
      2311.0000       1031.779       160.4474         0.9692         0.9705       147.0491      -3.067932      0.9637205
      2311.5000       1010.816       160.4169         0.9893          0.982       145.8391      -4.263687      0.9427423
      2312.0000       1000.801         159.98         0.9992         0.9916       144.7468      -5.341721      0.9238294
      2312.5000        995.421       159.5016         1.0046          1.006       145.2455      -4.828766      0.9328287
      2313.0000       982.3182       158.7454          1.018         1.0166       144.7695      -5.290497      0.9247282
      2313.5000       979.9119       157.9413         1.0205         1.0268       144.6519      -5.393845       0.922915
      2314.0000        975.134       157.4426         1.0255         1.0325       144.9687      -5.062775      0.9287233
      2314.5000       964.5992       156.5852         1.0367         1.0396       145.2819      -4.735321       0.934468
      2315.0000       961.2612        156.019         1.0403         1.0401       145.2911      -4.711853      0.9348798
      2315.5000       961.1688       155.5042         1.0404         1.0426       145.3001      -4.688614      0.9352875
