#------------------------------------------------------------------------------
# Created by    : vladimir.rabinovich
# Created on    : 09/19/2023 17:22:37
#------------------------------------------------------------------------------
~Version Information Section
VERS.           2.0     :   CWLS log ASCII Standard - VERSION 2.0
WRAP.           NO      :   One line per depth step
~Well Information Section
#MNEM       .UNIT                                         VALUE :DESCRIPTION
#------------------------------------------------------------------------------
STRT        .FT                                           554.5 :START DEPTH
STOP        .FT                                            5893 :STOP DEPTH
STEP        .FT                                             0.5 :STEP      
NULL        .                                           -999.25 :NULL      
COMP        .                              NEUMIN PRODUCTION CO :COMPANY   
WELL        .                                         ST TR 186 :WELL      
FLD         .                                           WILDCAT :FIELD     
LOC         .                                                   :LOCATION  
CNTY        .                                           CALHOUN :LOCATION  
STAT        .                                             TEXAS :STATE     
CTRY        .                                     UNITED STATES :COUNTRY   
SRVC        .                                                   :SERVICE COMPANY
DATE        .                             9/13/2023 11:18:59 AM :LOG DATE  
API         .                                    42057313020000 :API NUMBER
UWI         .                                    42057313020000 :UNIQUE WELL ID
XCOORD      .                                  487252.476079587 :SURFACE X 
YCOORD      .                                  10287942.6245796 :SURFACE Y 
LAT         .                                         28.302642 :LATITUDE  
LON         .                                       -96.5835194 :LONGITUDE 
ELEV        .FT                                              22 :ELEVATION VALUE
ELEV_TYPE   .                                                KB :ELEVATION REFERENCE TYPE
~Curve Information Section
#MNEM       .UNIT                                      API CODE :CURVE DESCRIPTION
#------------------------------------------------------------------------------
DEPT        .FT                                                 :DEPTH     
DCAL        .INCHES                                             :          
DPHI        .NONE                                               :          
GR          .GAPI                                               :          
GR_NORM     .GAPI                                               :GammaRay Normalized
ILD         .OHMM                                               :          
NPHI        .NONE                                               :          
VSH_GR      .V/V                                                :Volume of Shale from GR
~A        DEPTH           DCAL           DPHI             GR        GR_NORM            ILD           NPHI         VSH_GR
# ...
      5847.5000        -0.1383         0.3243        68.2361       53.19533         0.4087         0.3615      0.4296878
      5848.0000         -0.169         0.3243        67.5493       53.89222         0.4131         0.3615      0.4445152
      5848.5000        -0.1692         0.3203        64.7953       59.46108          0.426         0.3598      0.5630017
      5849.0000        -0.1612         0.3004        62.9427       65.02994         0.4769         0.3523       0.681488
      5849.5000        -0.1389         0.2633        62.2779        70.5988         0.5616         0.3411      0.7999745
      5850.0000        -0.0501         0.1941         62.474       76.16766         0.7321         0.3329      0.9184609
      5850.5000         0.0182         0.1644        63.8858       81.73653         0.8589         0.3317              1
      5851.0000         0.1644         0.1495        65.2502       82.33533         0.9368         0.3361              1
      5851.5000           0.28          0.167        64.7289       82.93414         0.9902         0.3522              1
      5852.0000         0.3809          0.193        63.2056       83.53294         1.0247         0.3559              1
      5852.5000         0.4243         0.2187        62.5142       81.73653         1.0162         0.3531              1
      5853.0000         0.4109         0.2315        63.6626       79.94012         0.9513         0.3443      0.9987259
      5853.5000         0.3433          0.233        64.2239       79.71557         0.8944         0.3369      0.9939483
      5854.0000         0.2456         0.2324        64.0908       79.49101         0.8537         0.3347      0.9891705
      5854.5000         0.1351         0.2325        62.4851       79.26646         0.8328         0.3391      0.9843929
      5855.0000         0.0689         0.2337        62.0617       81.73653         0.8298         0.3484              1
      5855.5000        -0.0184         0.2362        63.8981       81.43713         0.8336         0.3554              1
      5856.0000        -0.0361         0.2414        65.4793       81.13773         0.8375         0.3558              1
      5856.5000        -0.0493         0.2473        67.5759       80.83833         0.8472         0.3493              1
      5857.0000        -0.0495         0.2465        69.0404       80.38922         0.8565         0.3475              1
      5857.5000        -0.0389         0.2283        69.6368       79.94012          0.882         0.3474      0.9987259
      5858.0000         0.0421         0.2114        69.4089       80.23952         0.9279          0.347              1
      5858.5000         0.2071           0.21        68.9169       80.53893         0.9571         0.3454              1
      5859.0000         0.3908         0.2205        67.8057       80.83833         0.9609         0.3428              1
      5859.5000         0.4704         0.2437        66.7255       82.63473         0.9608         0.3419              1
      5860.0000         0.4702         0.2561        65.6303       83.53294         0.9606         0.3492              1
      5860.5000         0.3781          0.263        65.0571       85.32934         0.9673         0.3578              1
      5861.0000         0.2242         0.2639         64.829       80.83833         0.9705         0.3642              1
      5861.5000        -0.0354         0.2642        64.8302       80.83833         0.9739         0.3718              1
      5862.0000        -0.3574         0.2723        64.8314       80.83833         0.9737         0.3749              1
      5862.5000        -0.5456         0.2832        64.8327       81.51198         0.9805         0.3556              1
      5863.0000        -0.7253         0.3018        64.8341       82.18563         0.9804         0.3436              1
      5863.5000        -0.8462         0.3211        64.8351       82.85928          0.991         0.3501              1
      5864.0000        -0.9114         0.3268        64.8364       83.53294         1.0022         0.3587              1
      5864.5000        -0.9603         0.3276        64.8376       84.20659          1.015         0.3601              1
      5865.0000        -1.0016         0.3276        64.8388       84.88024          1.035         0.3601              1
      5865.5000        -1.0018         0.3276        64.8403       85.55389         1.0737         0.3601              1
      5866.0000        -1.0019         0.3253        64.7738       86.22755         1.1494         0.3601              1
      5866.5000        -1.0021         0.3155        64.6131       86.22755         1.2194           0.36              1
      5867.0000        -1.0022         0.3093        64.8437       86.22755         1.2883         0.3599              1
      5867.5000        -1.0024         0.3069         64.845       86.22755         1.3334         0.3554              1
      5868.0000        -1.0026         0.3104        64.8462       86.67665         1.3742         0.3452              1
      5868.5000        -1.0027         0.3139        64.8474       87.12575         1.4111         0.3343              1
      5869.0000        -1.0029         0.3175        64.8488       87.72455         1.4109         0.3329              1
      5869.5000        -1.0031         0.3231        64.9537       88.32336         1.4107         0.3342              1
      5870.0000        -1.0032         0.3282        65.0805       88.92216         1.4106         0.3342              1
      5870.5000        -1.0034         0.3287        65.0817        87.3503         1.4104         0.3339              1
      5871.0000        -1.0035          0.325        65.3123       85.77844         1.4102         0.3323              1
      5871.5000        -1.0037         0.3238         65.543       84.20659         1.3667          0.331              1
      5872.0000        -1.0039         0.3242        65.5441       82.63473         1.2335         0.3294              1
      5872.5000         -1.004         0.3247        65.5454       81.73653         1.0735         0.3271              1
      5873.0000        -1.0042         0.3236        65.5466       81.43713         0.9116         0.3268              1
      5873.5000        -1.0044         0.3168        65.5478       81.13773         0.8495         0.3277              1
      5874.0000        -1.0045         0.3052        65.3198       80.83833         0.8632         0.3277              1
      5874.5000        -1.0353         0.3012        65.0916       80.83833         0.8864         0.3276              1
      5875.0000        -1.0355         0.3015        65.0928       80.83833         0.9025         0.3276              1
      5875.5000        -1.0357         0.3077        64.8647       80.83833         0.9045         0.3276              1
      5876.0000        -1.0358         0.3178        64.8659       80.83833         0.8981         0.3276              1
      5876.5000         -1.036         0.3188        64.8673       80.83833         0.8855         0.3276              1
      5877.0000        -1.0361         0.3176        64.8684       80.83833         0.8648         0.3276              1
      5877.5000        -1.0363         0.3115        64.8696       80.38922         0.8193          0.327              1
      5878.0000        -1.0365         0.3075        64.8708       79.94012         0.7762         0.3265      0.9987259
      5878.5000        -1.0366         0.3069        64.8721       79.94012         0.7319         0.3257      0.9987259
      5879.0000        -1.0368         0.3113        64.8735       79.94012         0.6672         0.3257      0.9987259
      5879.5000         -1.037         0.3289        64.8745        76.7964         0.5808         0.3257      0.9318383
      5880.0000        -1.0371         0.3355        65.1052       73.65269          0.504         0.3256       0.864951
      5880.5000        -1.0373         0.3355        65.1063       70.50899         0.4678         0.3256      0.7980636
