#------------------------------------------------------------------------------
# Created by    : vladimir.rabinovich
# Created on    : 09/19/2023 17:22:37
#------------------------------------------------------------------------------
~Version Information Section
VERS.           2.0     :   CWLS log ASCII Standard - VERSION 2.0
WRAP.           NO      :   One line per depth step
~Well Information Section
#MNEM       .UNIT                                         VALUE :DESCRIPTION
#------------------------------------------------------------------------------
STRT        .FT                                           554.5 :START DEPTH
STOP        .FT                                            5893 :STOP DEPTH
STEP        .FT                                             0.5 :STEP      
NULL        .                                           -999.25 :NULL      
COMP        .                              NEUMIN PRODUCTION CO :COMPANY   
WELL        .                                         ST TR 186 :WELL      
FLD         .                                           WILDCAT :FIELD     
LOC         .                                                   :LOCATION  
CNTY        .                                           CALHOUN :LOCATION  
STAT        .                                             TEXAS :STATE     
CTRY        .                                     UNITED STATES :COUNTRY   
SRVC        .                                                   :SERVICE COMPANY
DATE        .                             9/13/2023 11:18:59 AM :LOG DATE  
API         .                                    42057313020000 :API NUMBER
UWI         .                                    42057313020000 :UNIQUE WELL ID
XCOORD      .                                  487252.476079587 :SURFACE X 
YCOORD      .                                  10287942.6245796 :SURFACE Y 
LAT         .                                         28.302642 :LATITUDE  
LON         .                                       -96.5835194 :LONGITUDE 
ELEV        .FT                                              22 :ELEVATION VALUE
ELEV_TYPE   .                                                KB :ELEVATION REFERENCE TYPE
~Curve Information Section
#MNEM       .UNIT                                      API CODE :CURVE DESCRIPTION
#------------------------------------------------------------------------------
DEPT        .FT                                                 :DEPTH     
DCAL        .INCHES                                             :          
DPHI        .NONE                                               :          
GR          .GAPI                                               :          
GR_NORM     .GAPI                                               :GammaRay Normalized
ILD         .OHMM                                               :          
NPHI        .NONE                                               :          
VSH_GR      .V/V                                                :Volume of Shale from GR
~A        DEPTH           DCAL           DPHI             GR        GR_NORM            ILD           NPHI         VSH_GR
# ...
      5144.0000        -0.2485         0.3336        41.4859       34.27508         0.3244          0.323      0.0271294
      5144.5000        -0.3721         0.3274        41.4879       34.27748         0.3428         0.3205     0.02718053
      5145.0000        -0.3976         0.3251        41.4909        34.2811         0.3586         0.3289     0.02725747
      5145.5000        -0.3985         0.3299        42.0008       34.89501          0.365         0.3413     0.04031932
      5146.0000        -0.3993         0.3335        42.6413       35.66615         0.3667         0.3552     0.05672666
      5146.5000        -0.3817         0.3344        42.8735       35.94571         0.3667         0.3662     0.06267475
      5147.0000        -0.3028         0.3344        45.4207       39.01247         0.3636         0.3748      0.1279249
      5147.5000        -0.2488         0.3353        48.8616       43.15522         0.3538          0.378      0.2160685
      5148.0000        -0.1634         0.3353        48.3649       42.55721         0.3492         0.3785      0.2033448
      5148.5000         -0.066         0.3344        44.9046        38.3911         0.3344         0.3689      0.1147043
      5149.0000         0.0125         0.3344        41.7381       34.57872         0.3217         0.3565     0.03358979
      5149.5000          0.085         0.3345        40.9482        33.6277         0.3135         0.3565     0.01335542
      5150.0000         0.0839         0.3354        40.5956       33.20319         0.3071         0.3561    0.004323107
      5150.5000         0.0015         0.3377        41.0546       33.75581         0.3043         0.3528     0.01608098
      5151.0000        -0.1632         0.3411        42.9118       35.99183         0.3006         0.3511     0.06365585
      5151.5000        -0.1942          0.347        44.2725       37.63007         0.2984         0.3501     0.09851212
      5152.0000        -0.1508          0.353         45.073       38.59385         0.2985         0.3548      0.1190182
      5152.5000        -0.0122         0.3603        45.1943       38.73989         0.2989         0.3666      0.1221254
      5153.0000         0.2009         0.3653        44.9677       38.46708         0.2982         0.3741      0.1163208
      5153.5000          0.513         0.3687        43.4129       36.59513         0.3003         0.3714     0.07649215
      5154.0000         0.7783         0.3683         41.761        34.6063         0.3012         0.3633     0.03417652
      5154.5000         0.5852         0.3575          41.88       34.74957         0.3023         0.3558     0.03722479
      5155.0000         0.2286          0.353        42.2767       35.22718         0.3022         0.3558     0.04738674
      5155.5000         0.0961         0.3521        43.1443       36.27174         0.3021         0.3558     0.06961157
      5156.0000        -0.0497         0.3512        43.6049       36.82629         0.2999         0.3568     0.08141051
      5156.5000        -0.0996         0.3503        43.6073       36.82919         0.2988         0.3604     0.08147211
      5157.0000        -0.1801         0.3485        43.5033       36.70397         0.2975         0.3669     0.07880791
      5157.5000        -0.2656         0.3494        44.2343       37.58408         0.2935         0.3724     0.09753353
      5158.0000        -0.3106         0.3494        47.0548       40.97988         0.2881         0.3743      0.1697847
      5158.5000        -0.3605         0.3485        48.9211       43.22685         0.2813         0.3633      0.2175926
      5159.0000        -0.3905         0.3485        50.9582       45.67947         0.2753         0.3515      0.2697759
      5159.5000        -0.3914         0.3467        50.9604       45.68211         0.2714         0.3403      0.2698322
      5160.0000        -0.3923         0.3384        50.8843       45.59049         0.2714         0.3348      0.2678828
      5160.5000         -0.393         0.3338        49.8185        44.3073         0.2719          0.333      0.2405808
      5161.0000        -0.3632         0.3369        48.6399       42.88829          0.277         0.3468      0.2103892
      5161.5000        -0.3641         0.3403        47.2999       41.27497         0.2839         0.3575      0.1760633
      5162.0000        -0.3342         0.3403        46.5709       40.39728         0.2895         0.3643      0.1573889
      5162.5000        -0.3352         0.3403        46.9372       40.83829         0.2991         0.3699      0.1667722
      5163.0000         -0.336         0.3384         47.307       41.28352         0.3039         0.3756      0.1762451
      5163.5000        -0.3368         0.3367        46.9855       40.89645         0.3054         0.3782      0.1680095
      5164.0000        -0.3377         0.3376        46.3899       40.17936         0.3107         0.3755      0.1527524
      5164.5000        -0.3774         0.3392        45.8817        39.5675          0.312         0.3644      0.1397341
      5165.0000          -0.37         0.3413        45.2514       38.80864         0.3183         0.3608      0.1235881
      5165.5000        -0.3708         0.3424        45.2542       38.81201         0.3212         0.3657      0.1236597
      5166.0000         -0.341          0.345        43.9362       37.22517         0.3227         0.3681     0.08989732
      5166.5000        -0.3419          0.345        42.9649       36.05576         0.3181         0.3648     0.06501616
      5167.0000        -0.3119         0.3476        43.2657       36.41791         0.3107          0.359     0.07272152
      5167.5000         -0.313         0.3488        43.6573       36.88939         0.3027         0.3496     0.08275288
      5168.0000        -0.3138         0.3478        41.1372       33.85526         0.2992         0.3414     0.01819692
      5168.5000        -0.3146         0.3449        39.9925       32.47707         0.2963         0.3416              0
      5169.0000        -0.3156         0.3424        41.0115       33.70392         0.2984         0.3428     0.01497699
      5169.5000        -0.3163         0.3414        43.0684       36.18037         0.3029         0.3425     0.06766737
      5170.0000        -0.3172         0.3415        45.1104       38.63888         0.3154         0.3376      0.1199761
      5170.5000         -0.318         0.3409        45.2771       38.83958         0.3356         0.3248      0.1242464
      5171.0000        -0.3494         0.3338        45.1656       38.70534          0.368         0.2957      0.1213902
      5171.5000        -0.3504         0.3194        43.2173       36.35964         0.3881         0.2787     0.07148167
      5172.0000        -0.3817         0.3104        40.9264       33.60146         0.4091         0.2618     0.01279693
      5172.5000        -0.3826         0.3046        40.4692         33.051         0.4116           0.27     0.00108516
      5173.0000        -0.3834         0.3056        40.9307       33.60663         0.4003          0.303     0.01290707
      5173.5000        -0.3843         0.3223        42.6908       35.72575         0.3808         0.3629      0.0579946
      5174.0000        -0.3853         0.3406        44.6935       38.13694         0.3547         0.3768      0.1092966
      5174.5000        -0.3859         0.3497        45.7544       39.41423         0.3243         0.3786      0.1364731
      5175.0000        -0.4175         0.3536        45.6003       39.22871         0.2975         0.3733      0.1325257
      5175.5000        -0.4183         0.3536        45.2999       38.86703          0.284         0.3642      0.1248304
      5176.0000        -0.4191         0.3536        45.7843       39.45023         0.2695         0.3602       0.137239
      5176.5000        -0.4201         0.3554        45.9923       39.70066         0.2714         0.3603      0.1425672
      5177.0000        -0.4208         0.3573         44.619       38.04725         0.2754         0.3584      0.1073882
