#------------------------------------------------------------------------------
# Created by    : vladimir.rabinovich
# Created on    : 09/19/2023 17:20:53
#------------------------------------------------------------------------------
~Version Information Section
VERS.           2.0     :   CWLS log ASCII Standard - VERSION 2.0
WRAP.           NO      :   One line per depth step
~Well Information Section
#MNEM       .UNIT                                         VALUE :DESCRIPTION
#------------------------------------------------------------------------------
STRT        .FT                                             875 :START DEPTH
STOP        .FT                                            6380 :STOP DEPTH
STEP        .FT                                             0.5 :STEP      
NULL        .                                           -999.25 :NULL      
COMP        .                       ENERGY DEVELOPMENT CORP N J :COMPANY   
WELL        .                                   STATE TRACT 241 :WELL      
FLD         .                                           WILDCAT :FIELD     
LOC         .                                                   :LOCATION  
CNTY        .                                           CALHOUN :LOCATION  
STAT        .                                             TEXAS :STATE     
CTRY        .                                     UNITED STATES :COUNTRY   
SRVC        .                                                   :SERVICE COMPANY
DATE        .                             9/13/2023 11:19:11 AM :LOG DATE  
API         .                                    42057314130000 :API NUMBER
UWI         .                                    42057314130000 :UNIQUE WELL ID
XCOORD      .                                  544841.599058466 :SURFACE X 
YCOORD      .                                   10330281.839261 :SURFACE Y 
LAT         .                                        28.4235103 :LATITUDE  
LON         .                                       -96.4085418 :LONGITUDE 
ELEV        .FT                                              34 :ELEVATION VALUE
ELEV_TYPE   .                                                KB :ELEVATION REFERENCE TYPE
~Curve Information Section
#MNEM       .UNIT                                      API CODE :CURVE DESCRIPTION
#------------------------------------------------------------------------------
DEPT        .FT                                                 :DEPTH     
ASN         .OHMM                                               :          
DCAL        .IN                                                 :          
DPHI        .V/V                                                :          
DRHO        .G/CC                                               :          
GR          .GAPI                                               :          
GR_NORM     .GAPI                                               :GammaRay Normalized
ILD         .OHMM                                               :          
ILD_LNR     .OHMM                                               :          
ILM         .OHMM                                               :          
NPHI        .V/V                                                :          
SFLU        .OHMM                                               :          
SP          .MV                                                 :          
SP_NORM     .MV                                                 :SP Normalized
TENS        .LB                                                 :          
VSH_GR      .V/V                                                :Volume of Shale from GR
VSH_SP      .V/V                                                :Volume of Shale from SP
~A        DEPTH            ASN           DCAL           DPHI           DRHO             GR        GR_NORM            ILD        ILD_LNR            ILM           NPHI           SFLU             SP        SP_NORM           TENS         VSH_GR         VSH_SP
# ...
      1243.0000         1.1977        14.7255        -999.25        -0.0455        25.8824       31.37203         0.5209         0.5373         0.6335         0.3469          1.411       -65.1485      -37.60359       803.9216              0      0.1522955
      1243.5000         1.2209        14.7451        -999.25        -0.0475        25.5882       30.91946         0.5329         0.5565         0.6422         0.3422         1.4305       -64.5545      -37.00959       813.7255              0      0.1664384
      1244.0000         1.2787        14.7255        -999.25        -0.0495        25.8824       31.37203         0.5428         0.5672          0.654         0.3463          1.457       -62.7723      -35.22739       813.7255              0      0.2088717
      1244.5000         1.3347        14.7255        -999.25        -0.0525        27.9412       34.53902         0.5553         0.5672         0.6659         0.3511         1.4504       -58.8119      -31.26699       803.9216     0.03274512      0.3031669
      1245.0000         1.3531        14.7059        -999.25        -0.0545        30.4455       38.39131         0.5681         0.5672         0.6781         0.3493         1.3664       -54.8515      -27.30659       813.7255      0.1147088      0.3974621
      1245.5000         1.3609        14.6863        -999.25        -0.0564        34.4554       44.55963         0.5785          0.597         0.6937          0.335         1.2126       -54.8515      -27.30659       813.7255      0.2459496      0.3974621
      1246.0000         1.3703        14.7255        -999.25        -0.0545        36.3861       47.52958         0.5919          0.597         0.7097         0.3309         1.0615       -54.6535      -27.10859       813.7255      0.3091401      0.4021764
      1246.5000         1.3692        14.7255        -999.25        -0.0495        38.3168       50.49952         0.6055          0.597         0.7263         0.3469         1.0232       -52.4752      -24.93029       813.7255      0.3723303      0.4540407
      1247.0000         1.3364        14.7255        -999.25        -0.0485        38.3168       50.49952         0.6082          0.597         0.7432         0.3642         1.0518       -51.4851      -23.94019       813.7255      0.3723303      0.4776146
      1247.5000          1.277        14.7255        -999.25        -0.0485        37.8713       49.81422         0.6138         0.6269         0.7501         0.3784         1.1689       -54.8515      -27.30659       803.9216      0.3577495      0.3974621
      1248.0000         1.2201        14.7451        -999.25        -0.0485        35.6436       46.38741         0.6138          0.597         0.7501         0.3719         1.3111       -57.6238      -30.07889       803.9216      0.2848385      0.3314551
      1248.5000         1.1731        14.7451        -999.25        -0.0485        33.8769       43.66974         0.6142          0.597         0.7369         0.3624         1.4114            -60      -32.45509       803.9216      0.2270158      0.2748788
      1249.0000         1.1534        14.7451        -999.25        -0.0475        33.0162       42.34576         0.6149         0.5672         0.7209         0.3701         1.2769       -61.1836      -33.63869       803.9216      0.1988459      0.2466978
      1249.5000         1.1494        14.7255        -999.25        -0.0446        33.4879       43.07135          0.599         0.5611          0.702         0.3998         1.1398        -59.604      -32.05909       803.9216      0.2142841      0.2843074
      1250.0000         1.1591        14.7451        -999.25        -0.0455        32.9267       42.20807         0.5831         0.5373         0.6839         0.4081         1.0509       -58.2178      -30.67289       794.1176      0.1959164      0.3173122
      1250.5000         1.1748        14.7451        -999.25        -0.0465        31.3255         39.745         0.5594         0.5373          0.672         0.3939         1.1362       -57.4257      -29.88079       794.1176      0.1435106      0.3361717
      1251.0000          1.191        14.7255        -999.25        -0.0485        29.7041       37.25085          0.549         0.5373         0.6659         0.3778         1.3207       -59.2079      -31.66299       803.9216     0.09044355      0.2937383
      1251.5000         1.2215        14.7059        -999.25        -0.0485        28.2288       34.98143         0.5388         0.5257          0.651         0.3719         1.4207       -60.9804      -33.43549       803.9216       0.042158       0.251536
      1252.0000         1.2494        14.6863        -999.25        -0.0436        27.7914       34.30859         0.5289         0.5075         0.6364         0.3653         1.4142       -62.3529      -34.80799       813.7255     0.02784226      0.2188574
      1252.5000         1.2624        14.7255        -999.25        -0.0386        28.5294       35.44383         0.5215         0.5075         0.6222         0.3701         1.3512       -61.3725      -33.82759       803.9216     0.05199643      0.2422002
      1253.0000         1.2624        14.7255        -999.25        -0.0337        30.4455       38.39131         0.5118         0.5075         0.6082          0.385         1.3028       -59.4059      -31.86099       803.9216      0.1147088      0.2890241
      1253.5000         1.2489        14.7255        -999.25        -0.0297        30.8911       39.07676         0.5166         0.5247         0.6138         0.4117         1.2222       -57.2277      -29.68279       794.1176      0.1292928       0.340886
      1254.0000         1.2087        14.7255        -999.25        -0.0277        32.6733       41.81829         0.5289         0.5373         0.6222         0.4277         1.0855       -54.0594      -26.51449       794.1176      0.1876231      0.4163217
      1254.5000         1.1484        14.7255        -999.25        -0.0267        34.7525       45.01665         0.5414         0.5424         0.6335         0.4313         0.9509       -50.6931      -23.14819       794.1176      0.2556735      0.4964717
      1255.0000         1.0633        14.7255        -999.25        -0.0218        37.4257       49.12877         0.5568         0.5672         0.6451         0.4164         0.8371       -47.3267      -19.78179       794.1176      0.3431654      0.5766241
      1255.5000          0.976        14.7255        -999.25        -0.0188        41.7327       55.75411         0.5726         0.5672          0.669         0.4028            0.8       -44.5545      -17.00959       794.1176        0.48413      0.6426288
      1256.0000         0.9182        14.7255        -999.25        -0.0188        43.8119       58.95249         0.5889         0.5672         0.6905         0.3915         0.8409       -44.9505      -17.40559       784.3137      0.5521806      0.6332002
      1256.5000         0.8955        14.7059        -999.25        -0.0168        44.2574       59.63779         0.6082         0.5672          0.713         0.4069         0.9083       -47.7228      -20.17789       784.3137      0.5667614      0.5671931
      1257.0000         0.9044        14.7059        -999.25        -0.0109        43.2178        58.0386         0.6082         0.5672         0.7398         0.4176         0.9729        -50.495      -22.95009       784.3137      0.5327361      0.5011884
      1257.5000         0.9494        14.7059         0.6024        -0.0059        39.6535       52.55573         0.6082         0.5373         0.7535         0.4135         1.0562       -53.6634      -26.11849       784.3137      0.4160794      0.4257503
      1258.0000         0.9809        14.7059         0.6018          0.001        36.0891       47.07271         0.6082           0.53         0.7501         0.3921         1.2111       -56.4356      -28.89069       794.1176      0.2994193      0.3597455
      1258.5000         1.0533        14.7059         0.6018         0.0069        32.6733       41.81829         0.6082         0.5075          0.713         0.3713         1.5282       -58.5849      -31.03999       794.1176      0.1876231      0.3085717
