#------------------------------------------------------------------------------
# Created by    : vladimir.rabinovich
# Created on    : 09/19/2023 17:22:37
#------------------------------------------------------------------------------
~Version Information Section
VERS.           2.0     :   CWLS log ASCII Standard - VERSION 2.0
WRAP.           NO      :   One line per depth step
~Well Information Section
#MNEM       .UNIT                                         VALUE :DESCRIPTION
#------------------------------------------------------------------------------
STRT        .FT                                           554.5 :START DEPTH
STOP        .FT                                            5893 :STOP DEPTH
STEP        .FT                                             0.5 :STEP      
NULL        .                                           -999.25 :NULL      
COMP        .                              NEUMIN PRODUCTION CO :COMPANY   
WELL        .                                         ST TR 186 :WELL      
FLD         .                                           WILDCAT :FIELD     
LOC         .                                                   :LOCATION  
CNTY        .                                           CALHOUN :LOCATION  
STAT        .                                             TEXAS :STATE     
CTRY        .                                     UNITED STATES :COUNTRY   
SRVC        .                                                   :SERVICE COMPANY
DATE        .                             9/13/2023 11:18:59 AM :LOG DATE  
API         .                                    42057313020000 :API NUMBER
UWI         .                                    42057313020000 :UNIQUE WELL ID
XCOORD      .                                  487252.476079587 :SURFACE X 
YCOORD      .                                  10287942.6245796 :SURFACE Y 
LAT         .                                         28.302642 :LATITUDE  
LON         .                                       -96.5835194 :LONGITUDE 
ELEV        .FT                                              22 :ELEVATION VALUE
ELEV_TYPE   .                                                KB :ELEVATION REFERENCE TYPE
~Curve Information Section
#MNEM       .UNIT                                      API CODE :CURVE DESCRIPTION
#------------------------------------------------------------------------------
DEPT        .FT                                                 :DEPTH     
DCAL        .INCHES                                             :          
DPHI        .NONE                                               :          
GR          .GAPI                                               :          
GR_NORM     .GAPI                                               :GammaRay Normalized
ILD         .OHMM                                               :          
NPHI        .NONE                                               :          
VSH_GR      .V/V                                                :Volume of Shale from GR
~A        DEPTH           DCAL           DPHI             GR        GR_NORM            ILD           NPHI         VSH_GR
# ...
      3737.0000         0.0518         0.2204        70.0392       76.93197         1.0796         0.3589      0.9347227
      3737.5000         0.0308         0.2259        69.0724       75.83179         1.0718         0.3667      0.9113148
      3738.0000        -0.0412         0.2248        67.9595       74.56627         1.0715         0.3814      0.8843887
      3738.5000         0.0195         0.2199         64.683       70.85213          1.079            0.4      0.8053644
      3739.0000         0.0331         0.2113        59.7615       65.27629         1.1031         0.4117      0.6867296
      3739.5000         0.1138         0.2109        55.8247       60.81485         1.1404         0.4086      0.5918054
      3740.0000         0.2311         0.2086        56.0836       61.10185         1.2135         0.3832      0.5979117
      3740.5000         0.3467         0.1878        57.4323        62.6222         1.3118         0.3355      0.6302596
      3741.0000         0.4456         0.1508        56.6243       61.70174         1.3925         0.3006      0.6106753
      3741.5000         0.4451         0.1305        55.5996       60.53605         1.4487         0.2813      0.5858733
      3742.0000         0.4101         0.1327        55.3716       60.27199         1.4667         0.2789      0.5802552
      3742.5000         0.2824         0.1453        55.1433        60.0076         1.4797         0.2814      0.5746298
      3743.0000         0.1985         0.1633        55.3954        60.2869         1.4762         0.2868      0.5805723
      3743.5000         0.1673         0.1789        56.2814       61.28359         1.4354         0.2981      0.6017786
      3744.0000         0.1668         0.2016        57.5028       62.65988         1.3719         0.3173      0.6310613
      3744.5000         0.1663         0.2147        59.2764       64.66112         1.2813         0.3323      0.6736408
      3745.0000         0.1657           0.22        60.7421       66.31387         1.2271         0.3542      0.7088058
      3745.5000         0.1652         0.2164        61.8166        67.5239         1.1606         0.3646      0.7345511
      3746.0000         0.1646         0.2086        62.3392       68.10934         1.1148         0.3689      0.7470072
      3746.5000         0.1641         0.2018        62.8462       68.67711         1.0649         0.3626      0.7590874
      3747.0000         0.1635         0.1959        63.1812       69.05022          1.041          0.352      0.7670259
      3747.5000          0.163         0.1899        62.4024       68.16282         1.0359         0.3479      0.7481451
      3748.0000         0.1625         0.1894        60.1056       65.55743         1.0355         0.3479      0.6927114
      3748.5000         0.1619         0.1909        57.9095       63.06601         1.0352         0.3456      0.6397024
      3749.0000         0.1308         0.1943        57.2221       62.28204         1.0349         0.3397      0.6230222
      3749.5000          0.069         0.2029        57.2236       62.27774         1.0346         0.3407      0.6229306
      3750.0000         0.0013         0.2094        56.9953       62.01334         1.0343         0.3471      0.6173051
      3750.5000         -0.103         0.2095        57.2725       62.32104         1.0267         0.3609      0.6238518
      3751.0000        -0.2389         0.2095         59.062       64.34026         1.0128         0.3665      0.6668141
      3751.5000        -0.3551         0.2095         61.236       66.79464          1.004         0.3629      0.7190349
      3752.0000        -0.4543         0.2096        64.3393       70.30074         0.9859         0.3629      0.7936327
      3752.5000        -0.5015         0.2124        66.5312       72.77536         0.9832         0.3712      0.8462843
      3753.0000        -0.5528         0.2152        65.4964       71.59823         0.9829          0.373      0.8212389
      3753.5000        -0.5785         0.2272        62.0493       67.69101         0.9856         0.3682      0.7381066
      3754.0000         -0.579         0.2637        59.9896       65.35397         0.9965          0.364      0.6883824
      3754.5000        -0.5489           0.29        59.5285       64.82611         1.0101         0.3741      0.6771513
      3755.0000        -0.4972         0.2908        60.0043       65.35857         1.0329         0.4036      0.6884803
      3755.5000        -0.4139         0.2879        61.9842       67.59328         1.0603         0.4193      0.7360274
      3756.0000        -0.3056         0.2762        63.4312       69.22488         1.0925         0.4298      0.7707421
      3756.5000        -0.2656         0.2623        62.6462       68.33044         1.1297         0.4386      0.7517116
      3757.0000        -0.2453         0.2437        59.0755       64.28335         1.1762         0.4122      0.6656032
      3757.5000        -0.2765         0.2211        54.4934       59.09163         1.2266         0.3577       0.555141
      3758.0000        -0.3076         0.2011        52.3542        56.6646         1.2891         0.3344      0.5035021
      3758.5000        -0.3083         0.1788         52.657       57.00127           1.32         0.3179      0.5106654
      3759.0000        -0.3087         0.1734        56.7262       61.60051         1.3344         0.3137      0.6085216
      3759.5000        -0.3093         0.1904        59.9986       65.29798         1.3134         0.3187      0.6871911
      3760.0000        -0.2792         0.2148        61.0485       66.48017         1.2802         0.3496      0.7123441
      3760.5000        -0.2797         0.2196        60.8375       66.23536         1.2167          0.384      0.7071353
      3761.0000        -0.2803         0.2315        59.7728       65.02438          1.181         0.4082      0.6813698
      3761.5000        -0.2909         0.2315        55.0697       59.69571         1.1577         0.4178      0.5679939
      3762.0000         -0.312         0.2248          50.83       54.89149         1.1671         0.4077      0.4657765
      3762.5000        -0.3431         0.2059        48.7773       52.56237         1.1932         0.3811      0.4162206
      3763.0000        -0.3437          0.205        47.2137       50.78677         1.2149         0.3536      0.3784419
      3763.5000        -0.3443         0.2124        46.4756       49.94542         1.2265         0.3365      0.3605409
      3764.0000         -0.314          0.213        47.7627       51.39606         1.2489         0.3218      0.3914056
      3764.5000         -0.284         0.1989        49.2314       53.05222         1.2677         0.3099       0.426643
      3765.0000        -0.1762         0.1799        49.4607       53.30572          1.287         0.3077      0.4320365
      3765.5000         0.0347         0.1679        49.4618       53.30095         1.3106         0.3054       0.431935
      3766.0000         0.2962         0.1767        49.4631        53.2964         1.3103          0.304      0.4318382
      3766.5000          0.397         0.2027        50.0193       53.91985         1.3007         0.3118      0.4451032
      3767.0000         0.4178         0.2274        50.8575       54.86246         1.2861         0.3362      0.4651587
      3767.5000         0.4019         0.2293        52.2499       56.43227          1.263         0.3648      0.4985589
      3768.0000         0.4255         0.2278        54.9902       59.52754         1.2113         0.3637      0.5644157
      3768.5000         0.5998          0.222        58.4137       63.39602         1.1685         0.3426      0.6467238
      3769.0000         0.6962         0.2117        61.2536       66.60402         1.1205         0.3349      0.7149791
      3769.5000         0.9051         0.1889        64.7038        70.5027          1.084         0.3337      0.7979298
      3770.0000         1.0717         0.1832        68.9777       75.33361         1.0477         0.3484      0.9007151
