#------------------------------------------------------------------------------
# Created by    : vladimir.rabinovich
# Created on    : 09/19/2023 17:22:27
#------------------------------------------------------------------------------
~Version Information Section
VERS.           2.0     :   CWLS log ASCII Standard - VERSION 2.0
WRAP.           NO      :   One line per depth step
~Well Information Section
#MNEM       .UNIT                                         VALUE :DESCRIPTION
#------------------------------------------------------------------------------
STRT        .FT                                          1344.5 :START DEPTH
STOP        .FT                                            6047 :STOP DEPTH
STEP        .FT                                             0.5 :STEP      
NULL        .                                           -999.25 :NULL      
COMP        .                      HIGHLAND RESOURCES-G R BROWN :COMPANY   
WELL        .                                         ST TR 234 :WELL      
FLD         .                                           WILDCAT :FIELD     
LOC         .                                                   :LOCATION  
CNTY        .                                           CALHOUN :LOCATION  
STAT        .                                             TEXAS :STATE     
CTRY        .                                     UNITED STATES :COUNTRY   
SRVC        .                                                   :SERVICE COMPANY
DATE        .                             9/13/2023 11:18:59 AM :LOG DATE  
API         .                                    42057308440000 :API NUMBER
UWI         .                                    42057308440000 :UNIQUE WELL ID
XCOORD      .                                  538656.561995839 :SURFACE X 
YCOORD      .                                  10324779.5220427 :SURFACE Y 
LAT         .                                        28.4079151 :LATITUDE  
LON         .                                       -96.4272693 :LONGITUDE 
ELEV        .FT                                              14 :ELEVATION VALUE
ELEV_TYPE   .                                                KB :ELEVATION REFERENCE TYPE
~Curve Information Section
#MNEM       .UNIT                                      API CODE :CURVE DESCRIPTION
#------------------------------------------------------------------------------
DEPT        .FT                                                 :DEPTH     
CILD        .MMHO                                               :          
DT          .US/F                                               :          
RILD        .OHMM                                               :          
SFL         .OHMM                                               :          
SP          .MV                                                 :          
SP_NORM     .MV                                                 :SP Normalized
VSH_SP      .V/V                                                :Volume of Shale from SP
~A        DEPTH           CILD             DT           RILD            SFL             SP        SP_NORM         VSH_SP
# ...
      1981.0000       970.3086       151.1059         1.0306         1.1182       154.6747      -2.211533       0.978745
      1981.5000       985.0276       152.3538         1.0152         1.1109       155.5242       -1.36203      0.9936486
      1982.0000       1007.354       153.5356         0.9927         1.0833       156.3235     -0.5627289              1
      1982.5000       1033.912       154.5971         0.9672         1.0303        157.146      0.2597656              1
      1983.0000        1053.63       155.8777         0.9491         0.9722       157.1537      0.2674713              1
      1983.5000       1078.749       157.3184          0.927         0.9366       156.8578    -0.02842712              1
      1984.0000       1086.366       158.9445         0.9205         0.9292       155.4809      -1.405334      0.9928889
      1984.5000       1069.519       159.8629          0.935         0.9215       154.0377      -2.848526      0.9675697
      1985.0000       1033.805        158.456         0.9673         0.9116       152.0009       -4.88533      0.9318363
      1985.5000       998.9012       155.4028         1.0011         0.9152       149.1302      -7.756027      0.8814732
      1986.0000       949.5775       149.3601         1.0531         0.9743       146.5218      -10.36443      0.8357118
      1986.5000       905.0593       144.0286         1.1049         1.0887        147.239      -9.647232      0.8482942
      1987.0000       852.2242       140.4273         1.1734         1.1678       148.3792      -8.507034      0.8682976
      1987.5000        796.432       137.6737         1.2556         1.2332       148.8724      -8.013824      0.8769504
      1988.0000       752.2756       136.0334         1.3293         1.2877       149.6709      -7.215332      0.8909591
      1988.5000       730.7805       133.7468         1.3684         1.3344        150.537      -6.349228      0.9061539
      1989.0000        725.584        130.498         1.3782         1.3647       151.3807      -5.505524      0.9209557
      1989.5000        725.584       128.2501         1.3782         1.3769       152.3862      -4.500031       0.938596
      1990.0000       733.6757       127.2414          1.363         1.3423       152.8652      -4.021027      0.9469995
      1990.5000       749.0075       127.2631         1.3351         1.2775         153.32      -3.566223      0.9549785
      1991.0000       784.1907       128.0803         1.2752          1.227       152.4147      -4.471527       0.939096
      1991.5000       826.1732       130.3298         1.2104          1.202       151.4488      -5.437424      0.9221504
      1992.0000       859.6235        132.251         1.1633         1.1866       148.7677       -8.11853      0.8751135
      1992.5000       897.6661        133.452          1.114         1.1798       145.6578      -11.22842       0.820554
      1993.0000       953.5616       134.2157         1.0487         1.2148       140.9216      -15.96463      0.7374626
      1993.5000       1033.165       134.4663         0.9679         1.2746       133.1754      -23.71083      0.6015643
      1994.0000           1146       130.9297         0.8726         1.4069       124.2616      -32.62463      0.4451819
      1994.5000       1332.623       127.8243         0.7504         1.4882       117.9737      -38.91253      0.3348679
      1995.0000        1462.63       126.0087         0.6837          1.334       115.2391      -41.64713      0.2868924
      1995.5000       1641.228       127.7055         0.6093         1.2109       113.1054      -43.78083      0.2494591
      1996.0000       1811.266       131.8172         0.5521         1.1621       111.3731      -45.51313      0.2190679
      1996.5000         1951.6       134.7553         0.5124         1.1178       110.3744      -46.51183      0.2015468
      1997.0000       2022.654       134.6419         0.4944          1.071       112.2179      -44.66833       0.233889
      1997.5000       2004.812       134.1354         0.4988         1.0333       118.6796      -38.20663      0.3472522
      1998.0000       1924.557        134.378         0.5196         0.9922        141.548      -15.33823      0.7484522
      1998.5000       1790.831       135.9198         0.5584         0.8938       148.4099      -8.476334      0.8688362
      1999.0000       1598.466       139.6563         0.6256         0.8049       152.6573      -4.228928      0.9433522
      1999.5000       1380.072       142.5685         0.7246         0.7713       154.3995      -2.486725      0.9739171
      2000.0000       1287.498       151.0179         0.7767         0.7884       155.4014      -1.484833      0.9914942
      2000.5000       1206.418        154.122         0.8289         0.8129       155.6395      -1.246735      0.9956713
      2001.0000       1142.465       154.8597         0.8753         0.8293        155.953     -0.9332275              1
      2001.5000       1098.418       154.9063         0.9104         0.8447       155.9621     -0.9241333              1
      2002.0000       1069.633       154.5397         0.9349         0.8677       155.9711     -0.9151306              1
      2002.5000       1062.135       154.9972         0.9415         0.8907        155.925     -0.9612274              1
      2003.0000       1042.318       156.1552         0.9594         0.9088       154.4638      -2.422424      0.9750452
      2003.5000       1030.503       156.8351         0.9704         0.9228       152.9278      -3.958435      0.9480976
      2004.0000       1024.695       156.4206         0.9759         0.9371       151.7329      -5.153336      0.9271345
      2004.5000       1014.507       154.8742         0.9857         0.9563       153.4567      -3.429535      0.9573766
      2005.0000       1010.101       153.7538           0.99          0.973       155.4812      -1.405029      0.9928942
      2005.5000       998.8015       153.4517         1.0012         0.9967       156.0384     -0.8478241              1
      2006.0000       987.4593       152.8267         1.0127          1.023       155.5682      -1.318024      0.9944206
      2006.5000       974.5638       150.6879         1.0261           1.04       153.3141      -3.572128      0.9548749
      2007.0000       953.8344       148.9127         1.0484         1.0586        152.715      -4.171234      0.9443643
      2007.5000        914.244       147.1448         1.0938         1.0881       153.0848      -3.801437       0.950852
      2008.0000       875.7335       144.8336         1.1419         1.1379       154.5543      -2.331924      0.9766329
      2008.5000       843.1703        142.213          1.186         1.1901       155.5732      -1.313034      0.9945081
      2009.0000       804.6347       139.9072         1.2428         1.2274       155.5147      -1.371536      0.9934818
      2009.5000       784.5598       136.8267         1.2746         1.3163       154.3548      -2.531433      0.9731327
      2010.0000       776.4578       133.4413         1.2879         1.3709       154.0117      -2.874527      0.9671136
      2010.5000       776.3975        131.009          1.288         1.3858       155.3052      -1.581024      0.9898066
      2011.0000        776.277        129.756         1.2882         1.3787       156.2317     -0.6545258              1
      2011.5000       776.1564       129.2924         1.2884         1.3306       157.1047      0.2184753              1
      2012.0000       782.7176        130.532         1.2776         1.2533       157.9509       1.064667              1
      2012.5000        798.212       132.8209         1.2528         1.1748       158.6551       1.768875              1
      2013.0000       816.1267       135.4809         1.2253         1.1172       158.0273       1.141068              1
      2013.5000       838.5744       139.3046         1.1925         1.0605       156.7635     -0.1227264              1
      2014.0000       870.0192       142.6372         1.1494         1.0102       156.2497     -0.6365356              1
