#------------------------------------------------------------------------------
# Created by    : vladimir.rabinovich
# Created on    : 09/19/2023 17:20:53
#------------------------------------------------------------------------------
~Version Information Section
VERS.           2.0     :   CWLS log ASCII Standard - VERSION 2.0
WRAP.           NO      :   One line per depth step
~Well Information Section
#MNEM       .UNIT                                         VALUE :DESCRIPTION
#------------------------------------------------------------------------------
STRT        .FT                                             875 :START DEPTH
STOP        .FT                                            6380 :STOP DEPTH
STEP        .FT                                             0.5 :STEP      
NULL        .                                           -999.25 :NULL      
COMP        .                       ENERGY DEVELOPMENT CORP N J :COMPANY   
WELL        .                                   STATE TRACT 241 :WELL      
FLD         .                                           WILDCAT :FIELD     
LOC         .                                                   :LOCATION  
CNTY        .                                           CALHOUN :LOCATION  
STAT        .                                             TEXAS :STATE     
CTRY        .                                     UNITED STATES :COUNTRY   
SRVC        .                                                   :SERVICE COMPANY
DATE        .                             9/13/2023 11:19:11 AM :LOG DATE  
API         .                                    42057314130000 :API NUMBER
UWI         .                                    42057314130000 :UNIQUE WELL ID
XCOORD      .                                  544841.599058466 :SURFACE X 
YCOORD      .                                   10330281.839261 :SURFACE Y 
LAT         .                                        28.4235103 :LATITUDE  
LON         .                                       -96.4085418 :LONGITUDE 
ELEV        .FT                                              34 :ELEVATION VALUE
ELEV_TYPE   .                                                KB :ELEVATION REFERENCE TYPE
~Curve Information Section
#MNEM       .UNIT                                      API CODE :CURVE DESCRIPTION
#------------------------------------------------------------------------------
DEPT        .FT                                                 :DEPTH     
ASN         .OHMM                                               :          
DCAL        .IN                                                 :          
DPHI        .V/V                                                :          
DRHO        .G/CC                                               :          
GR          .GAPI                                               :          
GR_NORM     .GAPI                                               :GammaRay Normalized
ILD         .OHMM                                               :          
ILD_LNR     .OHMM                                               :          
ILM         .OHMM                                               :          
NPHI        .V/V                                                :          
SFLU        .OHMM                                               :          
SP          .MV                                                 :          
SP_NORM     .MV                                                 :SP Normalized
TENS        .LB                                                 :          
VSH_GR      .V/V                                                :Volume of Shale from GR
VSH_SP      .V/V                                                :Volume of Shale from SP
~A        DEPTH            ASN           DCAL           DPHI           DRHO             GR        GR_NORM            ILD        ILD_LNR            ILM           NPHI           SFLU             SP        SP_NORM           TENS         VSH_GR         VSH_SP
# ...
      5611.0000         0.7865         2.2178          0.338         0.0119        38.6139         35.985         0.3347         0.3498         0.3821         0.3493         0.8759       -73.8614      -66.40842       1970.297     0.06351073     0.09154977
      5611.5000          0.783         2.5743         0.3475        -0.0139        39.0594       36.40557         0.3227         0.3494         0.3752         0.3695         0.8295       -74.8515      -67.41439           2000     0.07245903     0.07757791
      5612.0000         0.7746         2.4158         0.3469        -0.0287        39.0594       36.40738         0.3126          0.349         0.3634         0.3861         0.7605       -75.6436      -68.22236       1960.396     0.07249751     0.06635613
      5612.5000         0.7746         1.7624         0.3422        -0.0356        37.7228       35.15278         0.3014         0.3487          0.352         0.3873         0.7364       -75.8416      -68.43623       1960.396      0.0458038     0.06338575
      5613.0000         0.7769         1.2673         0.3368        -0.0356        36.9802       34.45654         0.2946         0.3483         0.3425         0.3861         0.7854       -76.2376      -68.84811       1950.495     0.03099028     0.05766519
      5613.5000         0.7883         0.7525         0.3285        -0.0287        37.1287       34.59793         0.2879         0.3479         0.3317         0.3832         0.8371       -77.0297      -69.65607       1940.594     0.03399853     0.04644341
      5614.0000         0.7984         0.3366          0.325        -0.0267        38.3168       35.71655         0.2802         0.3774         0.3227          0.382          0.822       -78.0198      -70.66204       1920.792     0.05779899     0.03247166
      5614.5000         0.8054         0.0594         0.3255        -0.0248        40.5446       37.81249         0.2764          0.377         0.3169         0.3915         0.7782       -78.8119      -71.47001       1881.188      0.1023934     0.02124988
      5615.0000         0.8103          -0.04         0.3291        -0.0228         40.396       37.67461         0.2739         0.3765         0.3213         0.3974         0.7364       -78.8119      -71.48589       1851.485     0.09945979     0.02102937
      5615.5000         0.8103          -0.08         0.3321        -0.0307        38.6139       36.00124         0.2726         0.3762         0.3272         0.3986         0.7032       -78.6139      -71.30376       1831.683     0.06385609     0.02355894
      5616.0000         0.8102           -0.1         0.3345        -0.0317        37.7228       35.16541         0.2714          0.386         0.3272         0.3921          0.822       -79.0099      -71.71563       1881.188     0.04607254     0.01783848
      5616.5000         0.8088           -0.1         0.3368        -0.0317        36.9802       34.46917         0.2714         0.4053         0.3242         0.3778         0.8879        -79.802       -72.5236       1930.693     0.03125885    0.006616699
      5617.0000         0.8042          -0.14         0.3386        -0.0347        36.6832       34.19179         0.2714         0.4049         0.3198         0.3665         0.9422        -79.802      -72.53947       1910.891     0.02535727    0.006396294
      5617.5000         0.7983          -0.12         0.3386        -0.0356         35.495       33.07668         0.2751         0.4045         0.3169         0.3564         0.8759        -79.604      -72.35734       1891.089    0.001631554    0.008925862
      5618.0000         0.7856          -0.12         0.3428        -0.0366        33.7129       31.40331         0.2764         0.4042         0.3169         0.3493         0.7854       -79.4059      -72.17511       1881.188              0     0.01145681
      5618.5000          0.763        -0.1223         0.3362        -0.0347        33.2673       30.98625         0.2789         0.4038         0.3183         0.3457          0.757       -79.4059      -72.19098       1881.188              0      0.0112364
      5619.0000         0.7403        -0.1469         0.3309        -0.0287        34.3069       31.96528         0.2866         0.4332         0.3242         0.3493          0.822       -79.4059      -72.20685       1861.386              0       0.011016
      5619.5000         0.7147        -0.1516         0.3303        -0.0248        34.7525       32.38595         0.2906         0.4329         0.3317         0.3677          0.868       -79.0099      -71.82673       1861.386              0     0.01629543
      5620.0000         0.6957        -0.1363         0.3327        -0.0228        34.7525       32.38775         0.2959         0.4325         0.3394          0.376         0.8183       -78.2178      -71.05049       1861.386              0     0.02707651
      5620.5000         0.6871        -0.1386         0.3356        -0.0228        33.7274       31.42596         0.3041         0.4321         0.3472         0.3814          0.757       -76.8072      -69.65576       1861.386              0     0.04644775
      5621.0000         0.7096        -0.1386         0.3333        -0.0188        33.1631       30.89733         0.3112         0.4616         0.3552         0.3832            0.7        -75.583      -68.44743       1851.485              0     0.06323009
      5621.5000         0.7743        -0.1386         0.3261        -0.0168         34.373       32.03643         0.3227         0.4612         0.3618         0.3796         0.6222        -73.971       -66.8513       1851.485              0     0.08539857
      5622.0000         0.8525        -0.0594         0.3154        -0.0158        36.0185       33.58501         0.3363         0.4608         0.3769         0.3659         0.5542       -70.7962      -63.69238       1851.485     0.01244703      0.1292725
      5622.5000         0.9027         0.0792         0.3059        -0.0178        36.6176       34.14996         0.3488         0.4604         0.3857         0.3434         0.5594       -67.0588      -59.97085       1841.584     0.02446731      0.1809604
      5623.0000         0.9438         0.2574         0.2994        -0.0208        36.6176       34.15177         0.3634           0.46         0.3982         0.3356         0.7097       -64.7059      -57.63382       1841.584     0.02450578      0.2134192
      5623.5000         0.9769         0.4554         0.2976        -0.0218        36.9118       34.43013         0.3718         0.4597         0.4092         0.3345         0.8601       -62.1569      -55.10069       1841.584     0.03042822      0.2486015
      5624.0000         0.9987         0.5347         0.2988        -0.0238        38.3824       35.81429         0.3821         0.4592         0.4205         0.3422         0.9684       -61.9608      -54.92046       1841.584     0.05987857      0.2511047
      5624.5000         1.0184         0.5743         0.3036        -0.0277        38.3824        35.8161         0.3928         0.4589         0.4342         0.3541         1.1208       -63.9216      -56.89713       1821.782     0.05991696      0.2236509
      5625.0000         1.0246         0.5941         0.3107        -0.0337        38.3824        35.8179         0.4037         0.4585         0.4442         0.3683         1.1259       -64.7059       -57.6973       1821.782     0.05995527      0.2125375
      5625.5000         1.0184         0.6337         0.3143        -0.0366        37.0588       34.57552         0.4055         0.4581         0.4401         0.3796         1.1414       -65.8824      -58.88967       1831.683     0.03352169      0.1959768
      5626.0000         1.0033         0.6733         0.3154        -0.0376        35.4412       33.05678         0.4018         0.4577         0.4362         0.3832         1.1157       -66.6667      -59.68985       1821.782    0.001208042      0.1848633
      5626.5000         0.9882         0.8119         0.3149        -0.0386        33.8095       31.52479         0.3964         0.4574         0.4263         0.3784         1.0277       -66.2831      -59.32211       1831.683              0      0.1899707
