#------------------------------------------------------------------------------
# Created by    : vladimir.rabinovich
# Created on    : 09/19/2023 17:22:55
#------------------------------------------------------------------------------
~Version Information Section
VERS.           2.0     :   CWLS log ASCII Standard - VERSION 2.0
WRAP.           NO      :   One line per depth step
~Well Information Section
#MNEM       .UNIT                                         VALUE :DESCRIPTION
#------------------------------------------------------------------------------
STRT        .FT                                            1722 :START DEPTH
STOP        .FT                                            8384 :STOP DEPTH
STEP        .FT                                             0.5 :STEP      
NULL        .                                           -999.25 :NULL      
COMP        .                                   HEBERT HILARY B :COMPANY   
WELL        .                                    REARWIN LEILAW :WELL      
FLD         .                                           WILDCAT :FIELD     
LOC         .                                                   :LOCATION  
CNTY        .                                          CHAMBERS :LOCATION  
STAT        .                                             TEXAS :STATE     
CTRY        .                                     UNITED STATES :COUNTRY   
SRVC        .                                                   :SERVICE COMPANY
DATE        .                             9/13/2023 11:19:11 AM :LOG DATE  
API         .                                    42071022820000 :API NUMBER
UWI         .                                    42071022820000 :UNIQUE WELL ID
XCOORD      .                                  1141949.94059063 :SURFACE X 
YCOORD      .                                  10792730.9347258 :SURFACE Y 
LAT         .                                        29.7291796 :LATITUDE  
LON         .                                       -94.5709084 :LONGITUDE 
ELEV        .FT                                              28 :ELEVATION VALUE
ELEV_TYPE   .                                                DF :ELEVATION REFERENCE TYPE
~Curve Information Section
#MNEM       .UNIT                                      API CODE :CURVE DESCRIPTION
#------------------------------------------------------------------------------
DEPT        .FT                                                 :DEPTH     
LAT         .OHMM                                               :          
LN          .OHMM                                               :          
SN          .OHMM                                               :          
SP          .MV                                                 :          
SP_NORM     .MV                                                 :SP Normalized
VSH_SP      .V/V                                                :Volume of Shale from SP
~A        DEPTH            LAT             LN             SN             SP        SP_NORM         VSH_SP
# ...
      7460.0000         0.5427         0.3633         0.3038       -67.1353      -1.150169              1
      7460.5000         0.5437         0.3595         0.2986       -67.0039      -1.019897              1
      7461.0000         0.5447         0.3564         0.2934       -67.4373       -1.45443              1
      7461.5000         0.5457         0.3539         0.2882       -67.8616       -1.87986              1
      7462.0000         0.5467         0.3515         0.2934       -68.0737      -2.093086      0.9990501
      7462.5000         0.5477          0.349         0.2997        -68.286      -2.306526      0.9968722
      7463.0000         0.5505         0.3465          0.306       -68.4982      -2.519852      0.9946954
      7463.5000         0.5535         0.3441         0.3123       -68.0547      -2.077484      0.9992093
      7464.0000         0.5566         0.3418         0.3186       -67.4081      -1.432007              1
      7464.5000         0.5596           0.34         0.3249       -66.3807     -0.4057388              1
      7465.0000         0.5627         0.3381         0.3302       -65.3524      0.6214294              1
      7465.5000         0.5657         0.3363         0.3299       -64.6024         1.3703              1
      7466.0000         0.5687         0.3345         0.3295       -64.8843       1.087265              1
      7466.5000         0.5607         0.3326         0.3291       -65.8127      0.1577377              1
      7467.0000         0.5511         0.3308         0.3287       -66.6609     -0.6915894              1
      7467.5000         0.5416          0.329         0.3283       -67.2446      -1.276421              1
      7468.0000         0.5321         0.3265          0.324       -67.8285       -1.86145              1
      7468.5000         0.5226         0.3238         0.3195       -68.2759      -2.309982      0.9968369
      7469.0000          0.517         0.3211          0.315       -68.0637      -2.098907      0.9989907
      7469.5000         0.5167         0.3185         0.3105       -67.1768       -1.21315              1
      7470.0000         0.5163         0.3158          0.306       -66.3459     -0.3833771              1
      7470.5000          0.516         0.3131         0.3108       -65.6656      0.2957916              1
      7471.0000         0.5157         0.3104          0.319       -65.7283      0.2319641              1
      7471.5000         0.5154         0.3077         0.3272       -66.0033    -0.04416656              1
      7472.0000         0.5204         0.3117         0.3355       -66.2786     -0.3205948              1
      7472.5000         0.5254         0.3161         0.3437       -66.5537     -0.5968246              1
      7473.0000         0.5303         0.3206         0.3519       -66.8287     -0.8729553              1
      7473.5000         0.5353          0.325           0.36       -67.1038      -1.149185              1
      7474.0000         0.5403         0.3362          0.368       -67.3164      -1.362915              1
      7474.5000         0.5421         0.3496          0.376       -67.4462      -1.493843              1
      7475.0000          0.542          0.363          0.384       -67.3842      -1.432976              1
      7475.5000         0.5418         0.3765          0.392       -67.3221      -1.372002              1
      7476.0000         0.5416         0.3899         0.4001       -67.2601      -1.311134              1
      7476.5000         0.5414         0.4033         0.4081       -67.1981      -1.250259              1
      7477.0000         0.5412         0.4168         0.4124       -67.4583      -1.511597              1
      7477.5000         0.5365         0.4238         0.4145       -67.7462      -1.800629              1
      7478.0000         0.5286         0.4294         0.4166       -68.0342       -2.08976      0.9990841
      7478.5000         0.5207         0.4351         0.4187       -68.3219      -2.378586      0.9961369
      7479.0000         0.5128         0.4407         0.4208       -68.6099      -2.667717      0.9931865
      7479.5000         0.5049         0.4464         0.4229       -68.8978      -2.956741      0.9902374
      7480.0000          0.497          0.452         0.4246       -69.2672      -3.327271      0.9864564
      7480.5000         0.4891         0.4488         0.4174       -69.7555      -3.816711      0.9814621
      7481.0000         0.4813         0.4408         0.4101       -70.2445      -4.306839      0.9764608
      7481.5000         0.4737         0.4329         0.4029        -70.629      -4.692467      0.9725258
      7482.0000          0.466          0.425         0.3956       -69.9542      -4.018799         0.9794
      7482.5000         0.4584         0.4165         0.3884       -69.2784      -3.344124      0.9862844
      7483.0000         0.4507         0.4078         0.3828       -68.6036      -2.670456      0.9931586
      7483.5000         0.4431         0.3991         0.3776       -68.0396      -2.107582      0.9989022
      7484.0000         0.4354         0.3903         0.3723       -67.5775      -1.646622              1
      7484.5000         0.4278         0.3816         0.3671       -67.9043      -1.974548              1
      7485.0000         0.4259         0.3729         0.3601       -68.7238      -2.795181      0.9918859
      7485.5000          0.425         0.3641         0.3459       -69.5433      -3.615807      0.9835122
      7486.0000         0.4241         0.3581         0.3325       -70.8984      -4.972038      0.9696731
      7486.5000         0.4232         0.3521         0.3192       -72.8811      -6.955872      0.9494299
      7487.0000         0.4224         0.3461          0.306       -74.3002      -8.376099      0.9349378
      7487.5000         0.4215         0.3401         0.3005       -75.7214      -9.798424      0.9204242
      7488.0000         0.4206         0.3341         0.2975       -74.9625      -9.040665      0.9281565
      7488.5000         0.4214         0.3281         0.2945       -74.0487      -8.127991      0.9374695
      7489.0000          0.428          0.322         0.2916       -73.1359      -7.216324      0.9467722
      7489.5000         0.4347          0.316         0.2886       -71.8033       -5.88485      0.9603587
      7490.0000         0.4414           0.31         0.2894       -70.6829      -4.765579      0.9717798
      7490.5000          0.448          0.304         0.2975       -69.4591      -3.542908       0.984256
      7491.0000         0.4547         0.3062         0.3056       -69.3165      -3.401436      0.9856997
      7491.5000         0.4613          0.311         0.3137       -70.2249      -4.310974      0.9764186
      7492.0000          0.468         0.3158         0.3219       -72.4971      -6.584305      0.9532214
      7492.5000         0.4776         0.3205           0.33       -73.9161      -8.004433      0.9387303
      7493.0000         0.4891         0.3253         0.3381       -75.1354      -9.224861      0.9262769
      7493.5000         0.5005         0.3301         0.3462       -76.0695       -10.1601      0.9167337
      7494.0000          0.512         0.3349         0.3543       -75.4711       -9.56282      0.9228284
      7494.5000         0.5234         0.3411         0.3624        -74.454      -8.546852      0.9331954
      7495.0000         0.5349         0.3531         0.3705       -73.4255      -7.519485      0.9436787
      7495.5000         0.5458         0.3651         0.3786       -72.3972      -6.492317        0.95416
      7496.0000         0.5561         0.3772         0.3867       -71.6888      -5.785042      0.9613771
      7496.5000         0.5665         0.3892         0.3941       -71.0797      -5.177071      0.9675809
      7497.0000         0.5768         0.4008         0.3988       -70.8053      -4.903801      0.9703694
      7497.5000         0.5871         0.4121         0.4035       -71.3851      -5.484734      0.9644415
