#------------------------------------------------------------------------------
# Created by    : vladimir.rabinovich
# Created on    : 09/19/2023 17:22:55
#------------------------------------------------------------------------------
~Version Information Section
VERS.           2.0     :   CWLS log ASCII Standard - VERSION 2.0
WRAP.           NO      :   One line per depth step
~Well Information Section
#MNEM       .UNIT                                         VALUE :DESCRIPTION
#------------------------------------------------------------------------------
STRT        .FT                                            1722 :START DEPTH
STOP        .FT                                            8384 :STOP DEPTH
STEP        .FT                                             0.5 :STEP      
NULL        .                                           -999.25 :NULL      
COMP        .                                   HEBERT HILARY B :COMPANY   
WELL        .                                    REARWIN LEILAW :WELL      
FLD         .                                           WILDCAT :FIELD     
LOC         .                                                   :LOCATION  
CNTY        .                                          CHAMBERS :LOCATION  
STAT        .                                             TEXAS :STATE     
CTRY        .                                     UNITED STATES :COUNTRY   
SRVC        .                                                   :SERVICE COMPANY
DATE        .                             9/13/2023 11:19:11 AM :LOG DATE  
API         .                                    42071022820000 :API NUMBER
UWI         .                                    42071022820000 :UNIQUE WELL ID
XCOORD      .                                  1141949.94059063 :SURFACE X 
YCOORD      .                                  10792730.9347258 :SURFACE Y 
LAT         .                                        29.7291796 :LATITUDE  
LON         .                                       -94.5709084 :LONGITUDE 
ELEV        .FT                                              28 :ELEVATION VALUE
ELEV_TYPE   .                                                DF :ELEVATION REFERENCE TYPE
~Curve Information Section
#MNEM       .UNIT                                      API CODE :CURVE DESCRIPTION
#------------------------------------------------------------------------------
DEPT        .FT                                                 :DEPTH     
LAT         .OHMM                                               :          
LN          .OHMM                                               :          
SN          .OHMM                                               :          
SP          .MV                                                 :          
SP_NORM     .MV                                                 :SP Normalized
VSH_SP      .V/V                                                :Volume of Shale from SP
~A        DEPTH            LAT             LN             SN             SP        SP_NORM         VSH_SP
# ...
      7004.0000          0.668         0.5243         0.3524       -68.7704      -3.353081      0.9861931
      7004.5000         0.6626         0.5226         0.3395       -68.1204      -2.699036       0.992867
      7005.0000         0.6572         0.5209         0.3274       -67.4697      -2.044296       0.999548
      7005.5000         0.6518         0.5192         0.3155       -66.8197      -1.390251              1
      7006.0000         0.6464         0.5198         0.3036       -66.2719     -0.8384018              1
      7006.5000         0.6412         0.5221         0.2917       -65.9177     -0.4801636              1
      7007.0000         0.6386         0.5245         0.2798       -65.5629      -0.121315              1
      7007.5000          0.636         0.5268          0.273       -65.3832     0.06242371              1
      7008.0000         0.6334         0.5292         0.2893       -65.4336      0.0160675              1
      7008.5000         0.6309         0.5411         0.3056        -65.484     -0.0302887              1
      7009.0000         0.6283         0.5534         0.3269       -65.5345    -0.07674408              1
      7009.5000         0.6257         0.5657         0.3551        -65.585     -0.1231995              1
      7010.0000         0.6222          0.578         0.3833       -65.6563     -0.1904602              1
      7010.5000         0.6184         0.5923         0.4115       -65.7401     -0.2702103              1
      7011.0000         0.6145         0.6079         0.4397       -65.8241     -0.3501663              1
      7011.5000         0.6107         0.6235         0.4544       -65.9081     -0.4301224              1
      7012.0000         0.6068         0.6391         0.4634       -65.9921     -0.5100861              1
      7012.5000          0.603         0.6552         0.4724       -65.9104     -0.4243393              1
      7013.0000         0.6009         0.6725         0.4814       -65.8286     -0.3384933              1
      7013.5000         0.6004         0.6897         0.4857       -65.7468      -0.252655              1
      7014.0000         0.5999          0.707         0.4806       -65.6667     -0.1685104              1
      7014.5000         0.5995         0.7243         0.4754       -65.6403     -0.1380615              1
      7015.0000          0.599         0.7376         0.4702       -65.6136     -0.1073227              1
      7015.5000         0.5986         0.7505         0.4651       -65.5872    -0.07687378              1
      7016.0000          0.599         0.7633         0.4599       -65.5607    -0.04633331              1
      7016.5000         0.5998         0.7528          0.459       -66.0074     -0.4889908              1
      7017.0000         0.6006         0.7318         0.4678       -66.5408      -1.018349              1
      7017.5000         0.6057         0.6916         0.5035       -67.0741        -1.5476              1
      7018.0000         0.6351         0.6514          0.564       -67.8369      -2.306358      0.9968739
      7018.5000         0.6644         0.6111         0.6306       -68.6273      -3.092712      0.9888499
      7019.0000         0.6937         0.5346         0.7013        -69.879       -4.34037      0.9761187
      7019.5000         0.7363         0.4494         0.7719       -71.4238      -5.881126      0.9603966
      7020.0000         0.7867         0.3882         0.8579         -73.75      -8.203285      0.9367012
      7020.5000         0.8453          0.354         0.9451       -75.8539      -10.30314      0.9152741
      7021.0000         0.9048         0.3447         1.0111       -79.8618        -14.307      0.8744184
      7021.5000         0.9679         0.3698         1.0736       -82.1824      -16.62356        0.85078
      7022.0000         1.0443         0.3949          1.136       -83.4713      -17.90841      0.8376693
      7022.5000         1.1206         0.4269         1.1938       -84.4659      -18.89896      0.8275616
      7023.0000         1.2014         0.4665         1.2484       -85.4202      -19.84922      0.8178651
      7023.5000         1.2858          0.506         1.2173        -87.276      -21.70098      0.7989696
      7024.0000           1.37         0.5456         1.1348       -89.1194      -23.54034      0.7802007
      7024.5000         1.4822         0.5785          1.029       -90.8484      -25.26529      0.7625991
      7025.0000          1.605         0.6095         0.8442       -92.4965      -26.90935       0.745823
      7025.5000         1.7224         0.6404         0.6978       -93.7482      -28.15701      0.7330918
      7026.0000         1.8044         0.6475         0.6046        -94.991      -29.39576      0.7204514
      7026.5000         1.6564         0.6243         0.5409       -94.8676      -29.26832      0.7217519
      7027.0000         1.4547         0.6011         0.4988        -91.668      -26.06467      0.7544421
      7027.5000         1.3375         0.5779         0.4567       -88.7197      -23.11234       0.784568
      7028.0000         1.2478         0.5547         0.4508       -86.6877      -21.07629       0.805344
      7028.5000         1.1579         0.5353         0.4489       -85.0946      -19.47914      0.8216414
      7029.0000         1.0681         0.5227         0.4471       -84.4458       -18.8263       0.828303
      7029.5000         0.9894         0.5102         0.4452       -83.7104      -18.08686      0.8358483
      7030.0000         0.9112         0.4977         0.4433       -82.0151      -16.38751      0.8531886
      7030.5000         0.8409         0.4851         0.4428       -80.5422      -14.91057      0.8682595
      7031.0000         0.7963         0.4788         0.4436       -79.2781      -13.64243      0.8811997
      7031.5000         0.7519         0.4784         0.4444       -78.5685      -12.92878      0.8884819
      7032.0000         0.7073         0.4779         0.4451       -77.8579      -12.21414      0.8957741
      7032.5000          0.676         0.4775         0.4459       -77.4784       -11.8306      0.8996878
      7033.0000         0.6491          0.477         0.4467       -77.1995      -11.54765       0.902575
      7033.5000         0.6221         0.4766         0.4475       -76.9204      -11.26451      0.9054642
      7034.0000         0.5952         0.4801         0.4532       -76.6965      -11.03658      0.9077901
      7034.5000         0.5699         0.4853         0.4596        -76.484      -10.82003      0.9099997
      7035.0000         0.5598         0.4905         0.4659       -76.2712      -10.60319      0.9122124
      7035.5000         0.5497         0.4957         0.4722       -76.0461      -10.37404      0.9145506
      7036.0000         0.5397         0.5008         0.4786       -75.7925       -10.1164      0.9171796
      7036.5000         0.5296          0.506         0.4849       -75.5385      -9.858353      0.9198127
      7037.0000         0.5195         0.5112         0.4912        -75.767      -10.08281      0.9175224
      7037.5000         0.5095         0.5164          0.497       -76.0223      -10.33407      0.9149585
      7038.0000          0.502         0.5192         0.4989       -76.2777      -10.58543      0.9123936
      7038.5000         0.4972           0.52         0.5007       -76.2882      -10.59188      0.9123278
      7039.0000         0.4925         0.5208         0.5025       -76.1882      -10.48784      0.9133894
      7039.5000         0.4878         0.5216         0.5044       -76.0881      -10.38369      0.9144521
      7040.0000          0.483         0.5224         0.5062        -75.988      -10.27955      0.9155148
      7040.5000         0.4857         0.5231         0.5081       -76.5162       -10.8037      0.9101663
      7041.0000         0.5064         0.5233         0.5072       -77.2809      -11.56436      0.9024045
      7041.5000         0.5271          0.523          0.501       -78.0465      -12.32592      0.8946335
