#------------------------------------------------------------------------------
# Created by    : vladimir.rabinovich
# Created on    : 09/19/2023 17:22:55
#------------------------------------------------------------------------------
~Version Information Section
VERS.           2.0     :   CWLS log ASCII Standard - VERSION 2.0
WRAP.           NO      :   One line per depth step
~Well Information Section
#MNEM       .UNIT                                         VALUE :DESCRIPTION
#------------------------------------------------------------------------------
STRT        .FT                                            1722 :START DEPTH
STOP        .FT                                            8384 :STOP DEPTH
STEP        .FT                                             0.5 :STEP      
NULL        .                                           -999.25 :NULL      
COMP        .                                   HEBERT HILARY B :COMPANY   
WELL        .                                    REARWIN LEILAW :WELL      
FLD         .                                           WILDCAT :FIELD     
LOC         .                                                   :LOCATION  
CNTY        .                                          CHAMBERS :LOCATION  
STAT        .                                             TEXAS :STATE     
CTRY        .                                     UNITED STATES :COUNTRY   
SRVC        .                                                   :SERVICE COMPANY
DATE        .                             9/13/2023 11:19:11 AM :LOG DATE  
API         .                                    42071022820000 :API NUMBER
UWI         .                                    42071022820000 :UNIQUE WELL ID
XCOORD      .                                  1141949.94059063 :SURFACE X 
YCOORD      .                                  10792730.9347258 :SURFACE Y 
LAT         .                                        29.7291796 :LATITUDE  
LON         .                                       -94.5709084 :LONGITUDE 
ELEV        .FT                                              28 :ELEVATION VALUE
ELEV_TYPE   .                                                DF :ELEVATION REFERENCE TYPE
~Curve Information Section
#MNEM       .UNIT                                      API CODE :CURVE DESCRIPTION
#------------------------------------------------------------------------------
DEPT        .FT                                                 :DEPTH     
LAT         .OHMM                                               :          
LN          .OHMM                                               :          
SN          .OHMM                                               :          
SP          .MV                                                 :          
SP_NORM     .MV                                                 :SP Normalized
VSH_SP      .V/V                                                :Volume of Shale from SP
~A        DEPTH            LAT             LN             SN             SP        SP_NORM         VSH_SP
# ...
      3052.0000         0.9245         0.7863         0.4099       -84.9336       1.695251              1
      3052.5000         0.9419         0.7717           0.41        -85.998      0.6220932              1
      3053.0000         0.9594          0.757         0.4101       -86.7893     -0.1779633              1
      3053.5000         0.9785         0.7508          0.405       -87.1824     -0.5798187              1
      3054.0000         0.9999         0.7587         0.3983       -87.4371      -0.843277              1
      3054.5000         1.0213         0.7666         0.3915       -87.6918      -1.106735              1
      3055.0000         1.0428         0.7745         0.3847       -88.3197      -1.743393              1
      3055.5000         1.0639         0.7824         0.3779       -88.9733      -2.405746      0.9951115
      3056.0000         1.0654         0.7943         0.3712       -89.9836      -3.424805      0.9828337
      3056.5000         1.0669         0.8074         0.3644       -91.3279       -4.77787      0.9665317
      3057.0000         1.0685         0.8205         0.3576       -92.6818      -6.140526      0.9501141
      3057.5000           1.07         0.8336         0.3509       -93.8994      -7.366882      0.9353388
      3058.0000         1.0684         0.8466         0.3444       -92.7371      -6.213341      0.9492369
      3058.5000         1.0564         0.8597         0.3378       -91.6287      -5.113693      0.9624856
      3059.0000         1.0444         0.8728         0.3313       -90.5288      -4.022552      0.9756319
      3059.5000         1.0324         0.8811         0.3247       -89.4283      -2.930809      0.9887854
      3060.0000         1.0204         0.8861         0.3182       -88.4022      -1.913467              1
      3060.5000         1.0084         0.8911         0.3116       -87.4409     -0.9609299              1
      3061.0000          0.996         0.8962         0.3051       -87.5288      -1.057587              1
      3061.5000         0.9823         0.9012         0.2968       -87.6708      -1.208344              1
      3062.0000         0.9687         0.9063         0.2878       -87.8126      -1.358902              1
      3062.5000          0.955         0.9003         0.2789       -88.0225       -1.57756              1
      3063.0000         0.9413         0.8918         0.2809       -88.2362      -1.800011              1
      3063.5000         0.9277         0.8832         0.2918         -88.45      -2.022568      0.9997281
      3064.0000         0.9195         0.8747         0.3089       -88.6299      -2.211227      0.9974551
      3064.5000         0.9179         0.8661         0.3312       -88.8076       -2.39769      0.9952086
      3065.0000         0.9163         0.8632         0.3534       -87.7833      -1.382149              1
      3065.5000         0.9147         0.8616         0.3757       -86.5258     -0.1334076              1
      3066.0000         0.9135         0.8601         0.3979       -85.1459        1.23774              1
      3066.5000         0.9179         0.8585         0.4181       -83.2367       3.138176              1
      3067.0000         0.9222         0.8581         0.4347       -82.4478        3.91832              1
      3067.5000         0.9266         0.8594         0.4513          -81.9       4.457367              1
      3068.0000          0.931         0.8607         0.4678       -82.0157       4.332909              1
      3068.5000         0.9352         0.8619         0.4844       -83.0222        3.31765              1
      3069.0000         0.9378         0.8632         0.4827       -84.0398        2.29129              1
      3069.5000         0.9405         0.8645         0.4678       -85.0581       1.264236              1
      3070.0000         0.9431         0.8657         0.4529       -86.1135      0.2000732              1
      3070.5000         0.9457         0.8669          0.438       -87.1785     -0.8736801              1
      3071.0000         0.9483         0.8681         0.4231       -87.9691      -1.673042              1
      3071.5000          0.951         0.8693         0.4125       -88.7526      -2.465302      0.9943939
      3072.0000         0.9537         0.8705         0.4031       -89.5365       -3.25795       0.984844
      3072.5000         0.9564         0.8717         0.3938       -90.1847      -3.914909      0.9769288
      3073.0000         0.9591          0.873         0.3844       -89.5406      -3.279572      0.9845835
      3073.5000         0.9618          0.877          0.375        -87.054     -0.8017273              1
      3074.0000          0.964         0.8811         0.3656       -85.2445      0.9990158              1
      3074.5000          0.962         0.8852         0.3562       -84.2792       1.955559              1
      3075.0000         0.9599         0.8892         0.3473       -83.3674       2.858597              1
      3075.5000         0.9579         0.8933         0.3407        -82.526       3.691238              1
      3076.0000         0.9559         0.8989         0.3341        -81.875       4.333481              1
      3076.5000         0.9538         0.9054         0.3275       -81.4542       4.745529              1
      3077.0000         0.9518         0.9119         0.3209       -81.0336       5.157372              1
      3077.5000         0.9496         0.9184         0.3142        -80.719       5.463211              1
      3078.0000         0.9464         0.9249         0.3076       -80.4204       5.753052              1
      3078.5000         0.9431          0.931          0.301       -80.4215       5.743195              1
      3079.0000         0.9399         0.9271         0.2944       -80.5635       5.592438              1
      3079.5000         0.9366         0.9231         0.2917       -80.7053       5.441879              1
      3080.0000         0.9334         0.9192         0.2918       -81.4729        4.66552              1
      3080.5000         0.9301         0.9112         0.2918       -82.5378       3.591858              1
      3081.0000         0.9294          0.898         0.2919       -83.5881       2.532806              1
      3081.5000         0.9307         0.8849          0.292       -84.3259       1.786255              1
      3082.0000          0.932         0.8717         0.2921       -85.0637       1.039696              1
      3082.5000         0.9332         0.8637         0.2921       -85.6478      0.4468384              1
      3083.0000         0.9345         0.8587         0.3055       -85.6785      0.4073792              1
      3083.5000         0.9358         0.8536         0.3224       -85.7053      0.3718185              1
      3084.0000         0.9389         0.8485         0.3393       -85.5388      0.5295563              1
      3084.5000         0.9426         0.8471         0.3547       -85.3722      0.6874008              1
      3085.0000         0.9462         0.8502         0.3698       -85.9319      0.1189423              1
      3085.5000         0.9499         0.8532         0.3814       -86.6204     -0.5783157              1
      3086.0000         0.9793         0.8563         0.3878       -87.2936      -1.260269              1
      3086.5000         1.0156         0.8594         0.3942       -87.9669      -1.942329              1
      3087.0000         1.0474         0.8628         0.4005       -88.6401      -2.624283      0.9924785
      3087.5000          1.062         0.8665         0.3907       -89.3204      -3.313339      0.9841766
      3088.0000         1.0765         0.8702          0.381       -90.0009      -4.002602      0.9758723
      3088.5000         1.0868         0.8738         0.3713       -89.6945      -3.704964      0.9794583
      3089.0000         1.0819         0.8752         0.3616       -89.0913      -3.110519      0.9866202
      3089.5000          1.077         0.8752         0.3533       -88.4884       -2.51638      0.9937785
