#------------------------------------------------------------------------------
# Created by    : vladimir.rabinovich
# Created on    : 09/19/2023 17:19:41
#------------------------------------------------------------------------------
~Version Information Section
VERS.           2.0     :   CWLS log ASCII Standard - VERSION 2.0
WRAP.           NO      :   One line per depth step
~Well Information Section
#MNEM       .UNIT                                         VALUE :DESCRIPTION
#------------------------------------------------------------------------------
STRT        .FT                                             149 :START DEPTH
STOP        .FT                                         11018.5 :STOP DEPTH
STEP        .FT                                             0.5 :STEP      
NULL        .                                           -999.25 :NULL      
COMP        .                          STANDARD OIL CO OF TEXAS :COMPANY   
WELL        .                                   JACKSON BERTA N :WELL      
FLD         .                                           WILDCAT :FIELD     
LOC         .                                                   :LOCATION  
CNTY        .                                          CHAMBERS :LOCATION  
STAT        .                                             TEXAS :STATE     
CTRY        .                                     UNITED STATES :COUNTRY   
SRVC        .                                                   :SERVICE COMPANY
DATE        .                             9/13/2023 11:19:11 AM :LOG DATE  
API         .                                    42071023650000 :API NUMBER
UWI         .                                    42071023650000 :UNIQUE WELL ID
XCOORD      .                                  1147650.32957209 :SURFACE X 
YCOORD      .                                  10746494.5600269 :SURFACE Y 
LAT         .                                        29.6022446 :LATITUDE  
LON         .                                       -94.5509971 :LONGITUDE 
ELEV        .FT                                            17.6 :ELEVATION VALUE
ELEV_TYPE   .                                                KB :ELEVATION REFERENCE TYPE
~Curve Information Section
#MNEM       .UNIT                                      API CODE :CURVE DESCRIPTION
#------------------------------------------------------------------------------
DEPT        .FT                                                 :DEPTH     
AM64        .OHMM                                               :          
CILD        .MMHO                                               :          
SN16        .OHMM                                               :          
SP          .MV                                                 :          
SP_NORM     .MV                                                 :SP Normalized
VSH_SP      .V/V                                                :Volume of Shale from SP
~A        DEPTH           AM64           CILD           SN16             SP        SP_NORM         VSH_SP
# ...
      3759.0000          1.329       856.5765         1.2284       -44.5034      -5.994083      0.9108199
      3759.5000         1.3284       862.1953         1.2168       -42.8034      -4.294083      0.9411771
      3760.0000         1.3279       867.8486         1.2065       -40.6907      -2.181385      0.9789038
      3760.5000         1.3273       873.4666         1.2065        -39.602      -1.092686      0.9983449
      3761.0000         1.3268       873.6264         1.2065       -39.0593      -0.549984              1
      3761.5000         1.3262       873.7488         1.2122       -38.4948     0.01451492              1
      3762.0000         1.2984       873.9097         1.2173       -37.9739      0.5354156              1
      3762.5000         1.2978       868.5284         1.2228       -37.9766      0.5327148              1
      3763.0000         1.2973       857.7093         1.2308       -37.9793       0.530014              1
      3763.5000          1.324       851.6401         1.2391       -37.9821      0.5272141              1
      3764.0000         1.3393        841.509         1.2445       -37.9848      0.5245171              1
      3764.5000         1.3775       830.0446         1.2499       -37.9876      0.5217171              1
      3765.0000         1.4071       814.3197         1.2521       -37.9902      0.5141983              1
      3765.5000         1.4584       797.4467         1.2825        -37.993      0.4910431              1
      3766.0000         1.4864       776.1414         1.3559       -37.9956      0.4680824              1
      3766.5000         1.5939       747.1534         1.5059       -37.9985       0.444828              1
      3767.0000         1.7574       677.5234         1.6599       -38.7211     -0.2981262              1
      3767.5000         2.4522       603.6982         1.8601       -39.6404      -1.237785      0.9962846
      3768.0000         2.5213       518.4661         1.9737       -39.7956      -1.413342      0.9935415
      3768.5000         2.5755       490.6552         2.1885       -40.7368      -2.374901      0.9785172
      3769.0000         2.6022       469.2987         2.5084       -41.4161      -3.074554      0.9675851
      3769.5000         2.6016       458.2973         2.7059       -43.4695      -5.148312      0.9351826
      3770.0000          2.601       431.1205         2.8204       -45.3273       -7.02647      0.9058364
      3770.5000         2.5732       420.2447         2.9236       -52.2023      -13.92183      0.7980965
      3771.0000         2.4907       516.3395         2.9872       -56.8301      -18.56998      0.7254691
      3771.5000         2.3478       634.8137         3.1141       -61.4805      -23.24074      0.6524885
      3772.0000         2.1344       708.3813         3.1957       -66.5883       -28.3689       0.572361
      3772.5000         1.9891        777.954           3.25       -72.9406      -34.74155      0.4727883
      3773.0000         1.8054       824.1845         3.2772       -81.9798      -43.80111      0.3312327
      3773.5000         1.7181       893.6218          2.841       -88.2188      -50.06047      0.2334302
      3774.0000         1.5311       942.0345         2.5917       -89.8798      -51.74182       0.207159
      3774.5000         1.4751       998.3007         2.3231       -92.0424      -53.92477      0.1730504
      3775.0000         1.3934       1040.844          2.268        -93.681      -55.58373      0.1471292
      3775.5000         1.2563       1097.485         2.1194       -95.0368      -56.95989      0.1256267
      3776.0000         1.1071       1182.606         1.7833       -95.8683      -57.81175      0.1123164
      3776.5000         0.9819       1273.592         1.5304       -96.6568       -58.6206      0.0996781
      3777.0000         0.8617       1441.608         1.2656       -96.9647      -58.94886     0.09454906
      3777.5000         0.7349       1642.008         1.1755        -97.731      -59.73552     0.08225751
      3778.0000         0.6623       1880.594         1.0748       -98.0611      -60.08597     0.07678169
      3778.5000         0.5426       2285.148         1.0217       -98.8059      -60.85113     0.06482607
      3779.0000         0.5077        2413.42         0.9821       -99.7029      -61.76849     0.05049235
      3779.5000         0.4868       2532.684         0.9403      -100.4259      -62.51185     0.03887737
      3780.0000          0.459       2619.165         0.8621      -101.3448       -63.4511     0.02420151
      3780.5000         0.4858       2703.297         0.7336      -102.9837      -65.11036              0
      3781.0000         0.4852       2719.912           0.73      -100.2594      -62.40641     0.04052478
      3781.5000          0.512       2670.613         0.7612       -97.9491      -60.11647     0.07630521
      3782.0000         0.5115       2639.875          0.813       -95.9012      -58.08892      0.1079856
      3782.5000         0.5382       2610.457         0.8983       -94.8125      -57.02058      0.1246784
      3783.0000         0.5377       2592.499         0.9764         -94.27      -56.49844      0.1328369
      3783.5000         0.5372        2577.76         0.9882       -94.2727       -56.5215      0.1324766
      3784.0000         0.5366       2586.404         1.0036       -94.8213      -57.09045      0.1235867
      3784.5000         0.5361       2715.419         1.0036       -97.2018      -59.49131     0.08607334
      3785.0000         0.5355       2799.555         0.9872      -100.8268      -63.13667      0.0291146
      3785.5000          0.535       2880.537         0.9649      -101.9636      -64.29382     0.01103401
      3786.0000         0.5344       2962.861         0.9544      -103.5595      -65.91008              0
      3786.5000         0.5339       3012.688         0.9544      -103.5618      -65.93274              0
      3787.0000         0.5333       3040.287         0.9653        -104.11       -66.5013              0
      3787.5000         0.4986       3007.477         0.9926      -104.1133      -66.52495              0
      3788.0000         0.4502       2959.106         1.0332      -104.6609       -67.0929              0
      3788.5000         0.4497       2870.398         1.0688      -104.6636      -67.11596              0
      3789.0000         0.4491        2765.09         1.0742      -104.6663      -67.13902              0
      3789.5000         0.4213       2722.329         1.0524      -104.6691      -67.16217              0
      3790.0000         0.4481       2657.761         0.9443      -104.6717      -67.18513              0
      3790.5000         0.4475       2332.502          0.927       -104.129      -66.66279              0
      3791.0000         0.4469       2150.858         0.9562      -103.3899      -65.94405              0
      3791.5000          0.474       2080.038         0.9705      -101.9528       -64.5273    0.007385969
      3792.0000          0.528       2061.662         0.9814      -101.4095      -64.00436     0.01555681
      3792.5000         0.5546       2019.882         0.9759      -100.3219      -62.93711     0.03223258
      3793.0000         0.6475        2007.69         0.9759       -96.5921      -59.22768     0.09019256
      3793.5000         0.7721       1943.242         0.9813       -94.3274      -56.98333      0.1252605
      3794.0000         0.8634       1819.544          0.999       -92.4307      -55.10699      0.1545783
      3794.5000         0.9623       1613.855         1.0194       -89.4238      -52.12044      0.2012431
      3795.0000         0.9973       1496.129         1.0325       -85.1717       -47.8887      0.2673641
      3795.5000         1.0978       1136.116         1.3899       -64.3384      -27.07576      0.5925663
      3796.0000          1.376       1011.925         1.5935       -65.0619      -27.81961      0.5809436
      3796.5000         1.6431        878.158         1.8627       -68.7075      -31.48557       0.523663
