#------------------------------------------------------------------------------
# Created by    : vladimir.rabinovich
# Created on    : 09/19/2023 17:19:41
#------------------------------------------------------------------------------
~Version Information Section
VERS.           2.0     :   CWLS log ASCII Standard - VERSION 2.0
WRAP.           NO      :   One line per depth step
~Well Information Section
#MNEM       .UNIT                                         VALUE :DESCRIPTION
#------------------------------------------------------------------------------
STRT        .FT                                             149 :START DEPTH
STOP        .FT                                         11018.5 :STOP DEPTH
STEP        .FT                                             0.5 :STEP      
NULL        .                                           -999.25 :NULL      
COMP        .                          STANDARD OIL CO OF TEXAS :COMPANY   
WELL        .                                   JACKSON BERTA N :WELL      
FLD         .                                           WILDCAT :FIELD     
LOC         .                                                   :LOCATION  
CNTY        .                                          CHAMBERS :LOCATION  
STAT        .                                             TEXAS :STATE     
CTRY        .                                     UNITED STATES :COUNTRY   
SRVC        .                                                   :SERVICE COMPANY
DATE        .                             9/13/2023 11:19:11 AM :LOG DATE  
API         .                                    42071023650000 :API NUMBER
UWI         .                                    42071023650000 :UNIQUE WELL ID
XCOORD      .                                  1147650.32957209 :SURFACE X 
YCOORD      .                                  10746494.5600269 :SURFACE Y 
LAT         .                                        29.6022446 :LATITUDE  
LON         .                                       -94.5509971 :LONGITUDE 
ELEV        .FT                                            17.6 :ELEVATION VALUE
ELEV_TYPE   .                                                KB :ELEVATION REFERENCE TYPE
~Curve Information Section
#MNEM       .UNIT                                      API CODE :CURVE DESCRIPTION
#------------------------------------------------------------------------------
DEPT        .FT                                                 :DEPTH     
AM64        .OHMM                                               :          
CILD        .MMHO                                               :          
SN16        .OHMM                                               :          
SP          .MV                                                 :          
SP_NORM     .MV                                                 :SP Normalized
VSH_SP      .V/V                                                :Volume of Shale from SP
~A        DEPTH           AM64           CILD           SN16             SP        SP_NORM         VSH_SP
# ...
      5925.0000         1.0042       1621.378         1.1446       -42.9304      -13.54731      0.8411733
      5925.5000          1.004       1424.821         1.1239       -38.6298      -9.248919      0.8955833
      5926.0000         1.0039       1291.667         0.9981       -36.9675      -7.588829      0.9165971
      5926.5000         1.0037       1256.796         0.9766       -36.4289      -7.052441      0.9233868
      5927.0000         0.9763       1242.175         0.9656       -36.3568      -6.982548      0.9242715
      5927.5000         0.9489       1224.263         0.9582       -37.4993      -8.127254      0.9097816
      5928.0000         0.9487       1242.134         0.9491       -43.0007      -13.63087      0.8401156
      5928.5000         0.9213        1308.92         0.9425       -47.3257      -17.95807      0.7853408
      5929.0000         0.9211       1401.434         0.9271       -51.7445      -22.37908      0.7293787
      5929.5000         0.9036       1445.808         0.9211       -51.6701      -22.30689      0.7302925
      5930.0000         0.8935       1467.327         0.9026       -49.0337       -19.6727      0.7636367
      5930.5000         0.8776         1478.3         0.8669       -45.1083      -15.74951      0.8132973
      5931.0000         0.8659       1483.778         0.8252       -39.7775      -10.42092      0.8807479
      5931.5000         0.8658       1489.248         0.7959       -35.9659       -6.61153       0.928968
      5932.0000         0.8656       1489.229          0.784       -32.4554      -3.103237      0.9733768
      5932.5000         0.8655       1489.207         0.7739       -30.5279      -1.177948      0.9977475
      5933.0000         0.8654       1487.713         0.7738       -29.0393      0.3084431              1
      5933.5000         0.8652       1467.188         0.7683       -27.8165       1.529036              1
      5934.0000         0.8651       1448.711         0.7682       -26.5751       2.768225              1
      5934.5000         0.8649       1423.191         0.7736       -25.6518       3.689316              1
      5935.0000         0.8648       1411.184          0.779       -24.9982       4.340708              1
      5935.5000         0.8647       1384.689         0.7851       -24.0308       5.305899              1
      5936.0000         0.8646       1362.642         0.8006       -24.0389       5.295589              1
      5936.5000         0.8644       1335.663         0.8114       -24.0484       5.283878              1
      5937.0000         0.8643       1318.698         0.8268       -23.5095        5.82057              1
      5937.5000         0.8747       1313.187         0.8494       -24.0649       5.262962              1
      5938.0000         0.8913       1291.209         0.8781       -24.0715       5.254152              1
      5938.5000         0.8988       1285.714         0.8765       -24.0795       5.243944              1
      5939.0000         0.9184       1285.714         0.8356        -24.088       5.233236              1
      5939.5000         0.9456       1285.714            0.8       -24.0957       5.223326              1
      5940.0000              1       1285.714         0.7945       -24.1045       5.212317              1
      5940.5000         0.9999       1297.413         0.7814        -24.112       5.202608              1
      5941.0000         0.9451       1367.501         0.7725       -25.2119       4.100498              1
      5941.5000         0.8357       1483.516         0.7847       -28.3712      0.9389896              1
      5942.0000         0.7429       1544.771         0.8541       -34.5011      -5.193119      0.9469225
      5942.5000         0.7535        1560.44         0.9275       -37.4242      -8.118427      0.9098933
      5943.0000          0.843       1553.437          1.012       -42.6994      -13.39584      0.8430907
      5943.5000         0.9444       1521.978         1.0392       -46.5832      -17.28185      0.7939007
      5944.0000         1.0036       1461.591         1.0316       -50.6155      -21.31636      0.7428309
      5944.5000         1.0535       1379.121          1.027       -54.1771      -24.88017      0.6977194
      5945.0000         1.0823       1311.925         1.0401       -51.7816      -22.48688      0.7280142
      5945.5000         1.1078       1263.631         1.0552       -44.9208      -15.62828      0.8148319
      5946.0000         1.0804       1225.275          1.066       -42.3796      -13.08929       0.846971
      5946.5000         1.0803       1208.791         1.0659       -40.5737       -11.2856      0.8698025
      5947.0000         1.0528       1203.297         1.0659       -38.8054       -9.51951      0.8921581
      5947.5000         1.0253       1203.297         0.9898        -36.772      -7.488319      0.9178694
      5948.0000         0.9979       1214.286         0.8477       -36.1378      -6.856327      0.9258693
      5948.5000         0.9431       1243.751         0.8476       -34.6067      -5.327438      0.9452223
      5949.0000         0.8883       1285.714         0.8475       -34.2322      -4.955147      0.9499348
      5949.5000         0.8882        1314.76         0.8475       -33.3787      -4.103855      0.9607107
      5950.0000         0.8607       1351.648         0.8474       -32.4479      -3.175264       0.972465
      5950.5000         0.8606       1357.143         0.8146       -32.0534      -2.782972      0.9774307
      5951.0000         0.8713       1343.898         0.8036       -31.1173      -1.849083      0.9892521
      5951.5000         0.8876       1313.187         0.8362       -30.2892      -1.023191      0.9997064
      5952.0000         0.8875       1287.904         0.8534       -29.9866     -0.7228012              1
      5952.5000         0.8873       1252.747         0.8633       -29.0419      0.2196884              1
      5953.0000         0.9033       1228.645         0.8741       -28.1338        1.12558              1
      5953.5000         0.9144       1208.791         0.8741       -27.8033       1.453871              1
      5954.0000         0.9143       1203.297         0.8685       -27.0594       2.195562              1
      5954.5000         0.9141       1203.297         0.8614       -26.2051       3.047655              1
      5955.0000         0.9413       1197.802         0.8575        -25.871       3.379545              1
      5955.5000         0.9603       1200.123         0.8519       -25.4247       3.823635              1
      5956.0000         0.9957       1197.802         0.8518       -24.3651       4.881025              1
      5956.5000         0.9996       1196.071         0.8572       -23.8262       5.417717              1
      5957.0000         1.0227       1181.319         0.8649       -23.8344       5.407309              1
      5957.5000         1.0226       1157.085         0.9006       -23.8427       5.396801              1
      5958.0000         1.0498       1115.385         0.9417       -24.0586        5.17869              1
      5958.5000         1.0496       1075.848         0.9768       -24.4047       4.830381              1
      5959.0000         1.0768       1054.945         0.9943       -24.9577       4.275171              1
      5959.5000         1.0767       1054.945         1.0147       -26.0576       3.173063              1
      5960.0000         1.0765       1070.722         1.0092       -27.8219       1.406555              1
      5960.5000         1.0491       1104.396         0.9657       -30.9831      -1.756855      0.9904196
      5961.0000         1.0409       1139.054         0.9219       -34.5724      -5.348364      0.9449574
      5961.5000         0.9942       1181.319         0.9231       -40.2724      -11.05057      0.8727776
      5962.0000         0.9889       1212.419         0.9435       -44.7084      -15.48878      0.8165977
      5962.5000         0.9392       1236.264         0.9603       -47.9252      -18.70779      0.7758507
