#------------------------------------------------------------------------------
# Created by    : vladimir.rabinovich
# Created on    : 09/19/2023 17:22:55
#------------------------------------------------------------------------------
~Version Information Section
VERS.           2.0     :   CWLS log ASCII Standard - VERSION 2.0
WRAP.           NO      :   One line per depth step
~Well Information Section
#MNEM       .UNIT                                         VALUE :DESCRIPTION
#------------------------------------------------------------------------------
STRT        .FT                                            1640 :START DEPTH
STOP        .FT                                            9504 :STOP DEPTH
STEP        .FT                                             0.5 :STEP      
NULL        .                                           -999.25 :NULL      
COMP        .                        UNION OIL CO OF CALIFORNIA :COMPANY   
WELL        .                                       DROUGHT H P :WELL      
FLD         .                                           WILDCAT :FIELD     
LOC         .                                                   :LOCATION  
CNTY        .                                          CHAMBERS :LOCATION  
STAT        .                                             TEXAS :STATE     
CTRY        .                                     UNITED STATES :COUNTRY   
SRVC        .                                                   :SERVICE COMPANY
DATE        .                             9/13/2023 11:19:11 AM :LOG DATE  
API         .                                    42071019550000 :API NUMBER
UWI         .                                    42071019550000 :UNIQUE WELL ID
XCOORD      .                                    1177783.835691 :SURFACE X 
YCOORD      .                                  10819467.9364056 :SURFACE Y 
LAT         .                                        29.8039986 :LATITUDE  
LON         .                                       -94.4590755 :LONGITUDE 
ELEV        .FT                                              40 :ELEVATION VALUE
ELEV_TYPE   .                                                DF :ELEVATION REFERENCE TYPE
~Curve Information Section
#MNEM       .UNIT                                      API CODE :CURVE DESCRIPTION
#------------------------------------------------------------------------------
DEPT        .FT                                                 :DEPTH     
LAT         .OHMM                                               :          
LN          .OHMM                                               :          
SN          .OHMM                                               :          
SP          .MV                                                 :          
SP_NORM     .MV                                                 :SP Normalized
VSH_SP      .V/V                                                :Volume of Shale from SP
~A        DEPTH            LAT             LN             SN             SP        SP_NORM         VSH_SP
# ...
      3730.0000         0.4368         0.6573          0.606       -53.7733      -6.859718       0.918615
      3730.5000         0.4686         0.7037         0.6399       -54.7222      -7.808617      0.9054359
      3731.0000         0.5004         0.7525         0.6852       -56.3602      -9.446617      0.8826859
      3731.5000         0.5358         0.8097         0.7335        -58.067      -11.15342      0.8589803
      3732.0000         0.5716         0.8668         0.7819       -55.7897      -8.876118      0.8906095
      3732.5000         0.6266         0.9239         0.8275       -53.5114      -6.597816      0.9222525
      3733.0000         0.5974           0.98         0.8725        -51.262      -4.348419      0.9534942
      3733.5000         0.5515         1.0245         0.9175       -49.0447      -2.131119        0.98429
      3734.0000         0.4979          1.069         0.9625       -46.8263     0.08728027              1
      3734.5000         0.4443         1.1135         1.0075       -44.6079       2.305683              1
      3735.0000         0.3907         1.1579         1.0511       -42.3895       4.524082              1
      3735.5000         0.3371         1.1865          1.076       -42.9949       3.918682              1
      3736.0000         0.2835         1.2088         1.1009       -44.0164       2.897182              1
      3736.5000           0.28         1.2312         1.1259        -45.038       1.875584              1
      3737.0000         0.3209         1.2535         1.1326       -46.0594      0.8541832              1
      3737.5000         0.4159         1.2758         1.1366       -46.7528      0.1607819              1
      3738.0000         0.5156         1.2924         1.1406       -46.7446      0.1689835              1
      3738.5000         0.6402         1.3035         1.1446       -46.7365      0.1770821              1
      3739.0000         0.7681         1.3145         1.1486       -46.7283      0.1852837              1
      3739.5000         0.8971         1.3256         1.1526       -46.6862      0.2273827              1
      3740.0000         1.0129         1.3358         1.1537       -46.2187      0.6948814              1
      3740.5000         1.1214         1.3451         1.1542       -45.7515       1.162083              1
      3741.0000           1.23         1.3544         1.1546       -45.2841       1.629482              1
      3741.5000         1.2875         1.3637         1.1551       -45.9951      0.9184837              1
      3742.0000         1.3002         1.3792         1.1555       -47.2835     -0.3699188              1
      3742.5000          1.303         1.4023          1.156       -49.9059      -2.992317      0.9723289
      3743.0000         1.3058         1.4237         1.1697       -53.4593      -6.545719      0.9229761
      3743.5000         1.3253         1.4399         1.2074       -56.8618      -9.948219      0.8757192
      3744.0000         1.3529         1.4127         1.3533       -60.0379      -13.12432      0.8316067
      3744.5000         1.3819         1.3279          1.447       -62.1187      -15.20512      0.8027067
      3745.0000         1.4296         1.2372           1.54        -63.619      -16.70542      0.7818692
      3745.5000         1.4773         1.1614         1.6225       -64.2616      -17.34801      0.7729442
      3746.0000         1.5878          1.122         1.6495       -63.9487      -17.03512        0.77729
      3746.5000         1.7198         1.0826         1.6202       -62.3029      -15.38932      0.8001484
      3747.0000          1.833         1.0412         1.5909       -60.6571      -13.74352      0.8230067
      3747.5000         1.9372         0.9985         1.5418       -59.0103      -12.09672      0.8458789
      3748.0000         1.9969         1.0125          1.481       -57.3645      -10.45092      0.8687373
      3748.5000         1.9311         1.0284         1.4202       -54.8842      -7.970619      0.9031858
      3749.0000         1.8444         1.0444         1.3595       -51.9722      -5.058617      0.9436303
      3749.5000         1.4419         1.0933         1.3072       -49.0624      -2.148819      0.9840442
      3750.0000         1.2366         1.1531         1.2589       -46.1127      0.8008804              1
      3750.5000         1.1725         1.2129         1.2109       -47.1448     -0.2312164              1
      3751.0000         1.0908          1.284          1.164       -48.8272       -1.91362      0.9873108
      3751.5000         1.0432         1.2339         1.1171       -51.3152      -4.401619      0.9527553
      3752.0000         1.1211         1.1838         1.0702       -55.3281      -8.414516      0.8970206
      3752.5000          1.199         1.1337         1.0385       -55.8164      -8.902817      0.8902386
      3753.0000         1.2769         1.0846         1.0086       -55.7443      -8.830719        0.89124
      3753.5000         1.3325         1.0365         0.9787       -55.2629      -8.349319      0.8979261
      3754.0000         1.3706         0.9884         0.9488       -54.4658      -7.552219      0.9089969
      3754.5000         1.3256         0.9402         0.9189        -52.192      -5.278419      0.9405775
      3755.0000         1.2806         0.9106          0.889       -49.9181      -3.004517      0.9721595
      3755.5000         1.2356         0.8872         0.8631       -48.2579      -1.344318      0.9952178
      3756.0000         1.1906         0.8684         0.8451       -47.2625     -0.3489189              1
      3756.5000         1.1283         0.8497          0.827       -47.3283     -0.4147186              1
      3757.0000          1.053          0.831          0.809        -47.516      -0.602417              1
      3757.5000         0.9778         0.8266         0.8024       -47.7039     -0.7903175              1
      3758.0000         0.9132         0.8382         0.7975       -47.8915     -0.9779167              1
      3758.5000         0.8533         0.8499         0.7966       -48.0792      -1.165619      0.9976997
      3759.0000         0.7852         0.8615         0.8088       -48.2211      -1.307518      0.9957289
      3759.5000         0.7968         0.8721         0.8211        -48.353      -1.439419       0.993897
      3760.0000         0.8313         0.8822         0.8333        -48.485      -1.571419      0.9920636
      3760.5000         0.8783         0.8923         0.8515       -48.6169       -1.70332      0.9902317
      3761.0000         0.9252         0.9024         0.8732       -48.8021      -1.888519      0.9876595
      3761.5000         0.9715         0.9125          0.895       -49.0037      -2.090118      0.9848595
      3762.0000          0.942         0.9226         0.9168       -48.4854      -1.571819       0.992058
      3762.5000         0.9124         0.9327          0.933       -47.7036       -0.79002              1
      3763.0000         0.8829         0.9404         0.9458        -47.885     -0.9714165              1
      3763.5000         0.8533         0.9482         0.9586       -49.8914      -2.977818      0.9725303
      3764.0000         0.8238         0.9559         0.9713       -51.4234      -4.509819      0.9512525
      3764.5000         0.7942         0.9636         0.9841       -51.3683       -4.45472      0.9520178
      3765.0000         0.7916         0.9713         0.9472       -51.3133      -4.399719      0.9527817
      3765.5000         0.7921         0.9791         0.9094       -50.9124      -3.998817      0.9583498
      3766.0000         0.7926         0.9875         0.8717       -49.1324      -2.218819       0.983072
      3766.5000         0.7987         0.9997         0.8346       -47.3512     -0.4376183              1
      3767.0000         0.8112          1.012         0.8061       -45.8009       1.112682              1
      3767.5000         0.8237         1.0242         0.7776       -44.5047       2.408882              1
