#------------------------------------------------------------------------------
# Created by    : vladimir.rabinovich
# Created on    : 09/19/2023 17:19:41
#------------------------------------------------------------------------------
~Version Information Section
VERS.           2.0     :   CWLS log ASCII Standard - VERSION 2.0
WRAP.           NO      :   One line per depth step
~Well Information Section
#MNEM       .UNIT                                         VALUE :DESCRIPTION
#------------------------------------------------------------------------------
STRT        .FT                                             149 :START DEPTH
STOP        .FT                                         11018.5 :STOP DEPTH
STEP        .FT                                             0.5 :STEP      
NULL        .                                           -999.25 :NULL      
COMP        .                          STANDARD OIL CO OF TEXAS :COMPANY   
WELL        .                                   JACKSON BERTA N :WELL      
FLD         .                                           WILDCAT :FIELD     
LOC         .                                                   :LOCATION  
CNTY        .                                          CHAMBERS :LOCATION  
STAT        .                                             TEXAS :STATE     
CTRY        .                                     UNITED STATES :COUNTRY   
SRVC        .                                                   :SERVICE COMPANY
DATE        .                             9/13/2023 11:19:11 AM :LOG DATE  
API         .                                    42071023650000 :API NUMBER
UWI         .                                    42071023650000 :UNIQUE WELL ID
XCOORD      .                                  1147650.32957209 :SURFACE X 
YCOORD      .                                  10746494.5600269 :SURFACE Y 
LAT         .                                        29.6022446 :LATITUDE  
LON         .                                       -94.5509971 :LONGITUDE 
ELEV        .FT                                            17.6 :ELEVATION VALUE
ELEV_TYPE   .                                                KB :ELEVATION REFERENCE TYPE
~Curve Information Section
#MNEM       .UNIT                                      API CODE :CURVE DESCRIPTION
#------------------------------------------------------------------------------
DEPT        .FT                                                 :DEPTH     
AM64        .OHMM                                               :          
CILD        .MMHO                                               :          
SN16        .OHMM                                               :          
SP          .MV                                                 :          
SP_NORM     .MV                                                 :SP Normalized
VSH_SP      .V/V                                                :Volume of Shale from SP
~A        DEPTH           AM64           CILD           SN16             SP        SP_NORM         VSH_SP
# ...
       871.0000         3.0389        -999.25         2.3819       -68.1184      -4.050995      0.6624171
       871.5000          3.183        -999.25          2.446       -67.5658       -3.50943      0.7075475
       872.0000         3.2846        -999.25         2.5732       -67.5566      -3.511261      0.7073949
       872.5000         3.3391        -999.25         2.6365       -67.5494      -3.515091      0.7070758
       873.0000          3.339        -999.25         2.6827       -66.9947       -2.97142      0.7523816
       873.5000         3.3336        -999.25         2.7375       -67.1026      -3.090355      0.7424704
       874.0000         3.1748        -999.25          2.765       -67.5247      -3.523483      0.7063764
       874.5000         3.0634        -999.25         2.7925       -68.0627      -4.072517      0.6606236
       875.0000         2.9014        -999.25         2.7928       -68.5983      -4.619148       0.615071
       875.5000          2.874        -999.25         2.8203       -68.7172      -4.749084       0.604243
       876.0000         2.8465        -999.25         2.8206       -69.1282      -5.171112       0.569074
       876.5000         2.8182        -999.25         2.8208       -69.7972      -5.851151      0.5124041
       877.0000         2.7643        -999.25         2.8212       -70.2027      -6.267677      0.4776936
       877.5000         2.7096        -999.25         2.8214       -70.7408      -6.816811      0.4319324
       878.0000         2.6959        -999.25         2.8217       -70.7309      -6.817947      0.4318377
       878.5000         2.6821        -999.25         2.8256       -70.7235      -6.821579      0.4315351
       879.0000          2.682        -999.25         2.8767       -70.7145      -6.823612      0.4313656
       879.5000         2.6272        -999.25         2.9315       -70.1616      -6.281742      0.4765215
       880.0000         2.5998        -999.25         2.9863       -70.1527      -6.283878      0.4763435
       880.5000         2.5997        -999.25         3.0158       -69.5997      -5.741909      0.5215076
       881.0000         2.5723        -999.25         3.0686       -69.0454      -5.198643      0.5667798
       881.5000         2.5995        -999.25         3.0961       -68.8782      -5.042469      0.5797942
       882.0000         2.5994        -999.25         3.1236       -68.4835      -4.658802      0.6117665
       882.5000         2.5992        -999.25         3.1238       -67.9305      -4.116833      0.6569306
       883.0000         2.5991        -999.25         3.1241       -68.4678      -4.665165      0.6112363
       883.5000          2.599        -999.25         3.1244       -68.4595      -4.667904       0.611008
       884.0000         2.5989        -999.25         3.1247       -68.4507      -4.670132      0.6108224
       884.5000         2.5988        -999.25         3.1249       -68.4431      -4.673569      0.6105359
       885.0000         2.5987        -999.25         3.1132       -68.9803      -5.221802      0.5648499
       885.5000         2.5986        -999.25         3.0982       -69.5187      -5.771233      0.5190639
       886.0000         2.5985        -999.25         3.0712       -70.0548      -6.318367      0.4734694
       886.5000         2.5984        -999.25         3.0443       -70.0466      -6.321198      0.4732336
       887.0000         2.6066        -999.25         3.0069       -70.0379      -6.323532       0.473039
       887.5000         2.6255        -999.25         2.9903       -70.5768      -6.873459      0.4272118
       888.0000         2.6527        -999.25         2.9538        -70.567      -6.874695      0.4271088
       888.5000         2.7072        -999.25         2.8819       -71.1059      -7.424629      0.3812809
       889.0000         2.7143        -999.25         2.7917        -71.096      -7.425758      0.3811868
       889.5000         2.7617        -999.25          2.719       -70.5428      -6.883595      0.4263671
       890.0000         2.8162        -999.25         2.6489       -69.9887      -6.340527      0.4716228
       890.5000         2.8707        -999.25         2.5833       -69.2258      -5.588657      0.5342786
       891.0000          2.898        -999.25         2.5219       -68.3359      -4.709789      0.6075175
       891.5000         2.9252        -999.25         2.4476       -67.7826      -4.167522      0.6527064
       892.0000         2.9251        -999.25         2.3661       -67.2286      -3.624554      0.6979539
       892.5000         2.9523        -999.25         2.2847       -66.6753      -3.082287      0.7431428
       893.0000         2.9522        -999.25         2.2249       -66.6668       -3.08482      0.7429317
       893.5000         2.9521        -999.25         2.1762       -66.8852      -3.314251      0.7238124
       894.0000          2.952        -999.25         2.1764       -67.1961      -3.636181      0.6969849
       894.5000         2.9519        -999.25         2.1768       -67.1879      -3.639011       0.696749
       895.0000         2.9244        -999.25          2.177       -67.1795      -3.641647      0.6965294
       895.5000         2.9243        -999.25         2.1773       -67.1715      -3.644684      0.6962764
       896.0000         2.8939        -999.25         2.1806       -66.6176      -3.101814      0.7415155
       896.5000         2.7875        -999.25         2.2051       -66.6096      -3.104843      0.7412631
       897.0000         2.7054        -999.25         2.2053       -66.6012      -3.107475      0.7410437
       897.5000         2.6507        -999.25         2.2057       -66.5931      -3.110413       0.740799
       898.0000         2.6232        -999.25         2.2087       -66.5848      -3.113144      0.7405713
       898.5000         2.6231        -999.25         2.3152       -66.5767      -3.116074      0.7403272
       899.0000          2.679        -999.25         2.3148       -67.6593      -4.209709      0.6491909
       899.5000         2.7028        -999.25         2.2613       -68.4562      -5.017639      0.5818634
       900.0000         2.6932        -999.25         2.2887       -70.3702      -6.942673      0.4214439
       900.5000         2.6836        -999.25         2.3707       -70.9091      -7.492611      0.3756157
       901.0000         2.7058        -999.25         2.3994       -72.0065       -8.60104      0.2832467
       901.5000         2.7607        -999.25         2.5889       -71.4675      -8.073071      0.3272441
       902.0000         2.8156        -999.25         2.6708       -70.8822      -7.498806      0.3750995
       902.5000         2.8706        -999.25         2.7254       -70.3865      -7.014133      0.4154889
       903.0000         2.9255        -999.25         2.7256       -69.7695      -6.408169      0.4659859
       903.5000         3.0077        -999.25         2.6985       -68.7618      -5.410763      0.5491031
       904.0000         3.0737        -999.25         2.6713       -68.7665      -5.424309      0.5479743
       904.5000         3.1175        -999.25         2.6715       -68.7725      -5.439152      0.5467374
       905.0000         3.1583        -999.25         2.6716       -68.2314      -4.906898      0.5910918
       905.5000         3.2007        -999.25         2.6718       -68.2379      -4.922245      0.5898129
       906.0000         3.2277        -999.25         2.6719       -68.2429      -4.936089      0.5886593
       906.5000         3.2552        -999.25         2.6993       -68.2486      -4.950634      0.5874472
       907.0000         3.2829        -999.25         2.7355       -68.2538      -4.964684      0.5862764
       907.5000         3.2831        -999.25         2.7813       -68.2594      -4.979134      0.5850722
       908.0000         3.2834        -999.25         2.8087       -67.7183       -4.44688      0.6294267
       908.5000         3.2836        -999.25         2.8088       -67.1792      -3.916626      0.6736145
