#------------------------------------------------------------------------------
# Created by    : vladimir.rabinovich
# Created on    : 09/19/2023 17:22:55
#------------------------------------------------------------------------------
~Version Information Section
VERS.           2.0     :   CWLS log ASCII Standard - VERSION 2.0
WRAP.           NO      :   One line per depth step
~Well Information Section
#MNEM       .UNIT                                         VALUE :DESCRIPTION
#------------------------------------------------------------------------------
STRT        .FT                                            1722 :START DEPTH
STOP        .FT                                            8384 :STOP DEPTH
STEP        .FT                                             0.5 :STEP      
NULL        .                                           -999.25 :NULL      
COMP        .                                   HEBERT HILARY B :COMPANY   
WELL        .                                    REARWIN LEILAW :WELL      
FLD         .                                           WILDCAT :FIELD     
LOC         .                                                   :LOCATION  
CNTY        .                                          CHAMBERS :LOCATION  
STAT        .                                             TEXAS :STATE     
CTRY        .                                     UNITED STATES :COUNTRY   
SRVC        .                                                   :SERVICE COMPANY
DATE        .                             9/13/2023 11:19:11 AM :LOG DATE  
API         .                                    42071022820000 :API NUMBER
UWI         .                                    42071022820000 :UNIQUE WELL ID
XCOORD      .                                  1141949.94059063 :SURFACE X 
YCOORD      .                                  10792730.9347258 :SURFACE Y 
LAT         .                                        29.7291796 :LATITUDE  
LON         .                                       -94.5709084 :LONGITUDE 
ELEV        .FT                                              28 :ELEVATION VALUE
ELEV_TYPE   .                                                DF :ELEVATION REFERENCE TYPE
~Curve Information Section
#MNEM       .UNIT                                      API CODE :CURVE DESCRIPTION
#------------------------------------------------------------------------------
DEPT        .FT                                                 :DEPTH     
LAT         .OHMM                                               :          
LN          .OHMM                                               :          
SN          .OHMM                                               :          
SP          .MV                                                 :          
SP_NORM     .MV                                                 :SP Normalized
VSH_SP      .V/V                                                :Volume of Shale from SP
~A        DEPTH            LAT             LN             SN             SP        SP_NORM         VSH_SP
# ...
      3470.0000         0.4631         0.1314         0.8862      -152.9905      -72.85305      0.2381392
      3470.5000         0.3994         0.1424         0.9035      -162.7419      -82.60987      0.1332272
      3471.0000         0.3465         0.1404         0.9132       -168.376      -88.24939     0.07258721
      3471.5000         0.2936         0.1384         0.8669      -174.1472        -94.026     0.01047311
      3472.0000          0.254         0.1364         0.8206      -176.3674      -96.25162              0
      3472.5000          0.218         0.1244         0.7588      -179.0852      -98.97483              0
      3473.0000         0.1894         0.1073         0.6655      -181.9868      -101.8818              0
      3473.5000         0.1715         0.0901         0.5813      -183.4194      -103.3199              0
      3474.0000         0.1548         0.0729         0.5201      -181.9688      -101.8747              0
      3474.5000          0.168         0.0573         0.4893      -180.4414      -100.3527              0
      3475.0000         0.1811         0.0575          0.495      -178.4016      -98.31829              0
      3475.5000         0.1943         0.0592         0.5134      -169.3174      -89.23951     0.06194076
      3476.0000         0.2079         0.0735         0.5317      -163.2622      -83.18974      0.1269921
      3476.5000         0.2246         0.0878           0.55      -161.2522      -81.18513      0.1485469
      3477.0000         0.2412         0.1021         0.5683      -163.3186      -83.25696      0.1262693
      3477.5000         0.2579         0.1054         0.5426      -166.3755      -86.31927     0.09334113
      3478.0000         0.2712            0.1         0.4597      -178.1279      -98.07708              0
      3478.5000         0.2821         0.0945         0.3404      -181.8787      -101.8333              0
      3479.0000         0.2929         0.0709         0.2561      -183.2009      -103.1609              0
      3479.5000         0.2941         0.0792         0.1806      -180.4077      -100.3731              0
      3480.0000         0.2931         0.0961         0.1401      -176.7446      -96.71544              0
      3480.5000         0.2921         0.1094         0.1533      -172.2234      -92.19966     0.03011117
      3481.0000         0.2912         0.1095         0.2403      -167.5964      -87.57807     0.07980568
      3481.5000         0.2902         0.1097         0.3259      -164.1362      -84.12328      0.1169539
      3482.0000         0.2926         0.0957         0.4124      -145.8059      -65.79839      0.3139959
      3482.5000         0.2986         0.0791         0.5088      -141.7026      -61.70052       0.358059
      3483.0000         0.3046         0.0632         0.5981      -144.2583      -64.26163      0.3305201
      3483.5000         0.3117         0.0488         0.5653      -148.6848      -68.69353      0.2828652
      3484.0000          0.319         0.0345         0.4899      -153.1228      -73.13696      0.2350865
      3484.5000         0.3262         0.0291         0.3795      -150.9487      -70.96827      0.2584057
      3485.0000         0.3437         0.0457         0.2563      -139.0815      -59.10648      0.3859519
      3485.5000         0.3641         0.0633          0.217      -130.2644       -50.2948      0.4807011
      3486.0000         0.3965         0.0877           0.29      -121.4429      -41.47871      0.5754977
      3486.5000         0.4361         0.1121         0.4335      -113.4344      -33.47562      0.6615524
      3487.0000         0.4757         0.1365         0.6132      -109.1655      -29.21214      0.7073964
      3487.5000         0.5047         0.1609         0.8233      -121.0193      -41.07135       0.579878
      3488.0000         0.5288         0.1821         0.9434      -126.2614      -46.31886      0.5234531
      3488.5000          0.553          0.198         1.0484      -134.2788      -54.34167      0.4371863
      3489.0000         0.5551         0.2139         1.1103      -144.2764      -64.34469       0.329627
      3489.5000         0.5158         0.2298         0.9636      -153.9946      -74.06831       0.225072
      3490.0000         0.4765         0.2457         0.8434      -165.2964      -85.37553       0.103489
      3490.5000         0.4372         0.2616         0.7883      -163.0774      -83.16193      0.1272911
      3491.0000         0.3979         0.2656         0.7331      -160.8562      -80.94615      0.1511167
      3491.5000         0.3578         0.2547         0.6986      -158.6375      -78.73286      0.1749154
      3492.0000         0.3178         0.2438          0.712      -155.4971      -75.59788       0.208625
      3492.5000         0.2778         0.2329         0.7211      -151.4558      -71.56199      0.2520216
      3493.0000          0.252          0.222         0.7005      -150.2617      -70.37331      0.2648031
      3493.5000         0.2462         0.2152         0.6462      -149.6479      -69.76492      0.2713449
      3494.0000         0.2421         0.2089         0.5798      -148.8657      -68.98814      0.2796974
      3494.5000           0.27         0.2025         0.5126      -145.4163      -65.54415      0.3167295
      3495.0000          0.298         0.1962         0.4408      -129.2688      -49.40206      0.4903004
      3495.5000         0.3259         0.1899          0.372      -110.9677      -31.10638      0.6870282
      3496.0000          0.355         0.1891         0.3033       -89.8507      -9.994789      0.9140345
      3496.5000         0.3921         0.1993         0.2208       -86.9594      -7.108902      0.9450656
      3497.0000         0.4293         0.2095         0.1402       -85.4692      -5.624123       0.961031
      3497.5000         0.4623         0.2198          0.072        -84.149      -4.309334      0.9751685
      3498.0000         0.4774          0.232         0.0298       -82.8932      -3.058952      0.9886134
      3498.5000         0.4852         0.2447         0.0345       -81.7787      -1.949867              1
      3499.0000         0.4673         0.2574         0.0392       -81.2288      -1.405373              1
      3499.5000         0.4494         0.2701         0.0439       -80.6785     -0.8604889              1
      3500.0000         0.4327         0.2829         0.0486        -80.233     -0.4204025              1
      3500.5000          0.435         0.2953         0.0505       -79.9153     -0.1081161              1
      3501.0000         0.4373         0.3037         0.0507       -79.5975      0.2042618              1
      3501.5000         0.4395         0.3121         0.0508       -79.2795      0.5168533              1
      3502.0000         0.4441         0.3205         0.0515       -78.8757      0.9152374              1
      3502.5000         0.4489         0.3289         0.0726       -78.3984       1.387123              1
      3503.0000         0.4538         0.3371         0.0937       -77.9211       1.859016              1
      3503.5000         0.4579         0.3453         0.1149       -77.4227       2.351997              1
      3504.0000         0.4619         0.3535         0.1353       -77.0654        2.70388              1
      3504.5000         0.4659         0.3617         0.1536       -77.6257       2.138168              1
      3505.0000         0.4696         0.3693         0.1718       -78.1859       1.572556              1
      3505.5000         0.4724          0.377         0.1675       -78.7462       1.006844              1
      3506.0000         0.4751         0.3846         0.1596         -79.23      0.5176239              1
      3506.5000         0.4745         0.3923         0.1495       -79.5848      0.1574097              1
      3507.0000         0.4728         0.3999         0.1394       -79.5492      0.1875992              1
      3507.5000         0.4711          0.408         0.1356       -79.2136      0.5177841              1
