#------------------------------------------------------------------------------
# Created by    : vladimir.rabinovich
# Created on    : 09/19/2023 17:22:55
#------------------------------------------------------------------------------
~Version Information Section
VERS.           2.0     :   CWLS log ASCII Standard - VERSION 2.0
WRAP.           NO      :   One line per depth step
~Well Information Section
#MNEM       .UNIT                                         VALUE :DESCRIPTION
#------------------------------------------------------------------------------
STRT        .FT                                            1640 :START DEPTH
STOP        .FT                                            9504 :STOP DEPTH
STEP        .FT                                             0.5 :STEP      
NULL        .                                           -999.25 :NULL      
COMP        .                        UNION OIL CO OF CALIFORNIA :COMPANY   
WELL        .                                       DROUGHT H P :WELL      
FLD         .                                           WILDCAT :FIELD     
LOC         .                                                   :LOCATION  
CNTY        .                                          CHAMBERS :LOCATION  
STAT        .                                             TEXAS :STATE     
CTRY        .                                     UNITED STATES :COUNTRY   
SRVC        .                                                   :SERVICE COMPANY
DATE        .                             9/13/2023 11:19:11 AM :LOG DATE  
API         .                                    42071019550000 :API NUMBER
UWI         .                                    42071019550000 :UNIQUE WELL ID
XCOORD      .                                    1177783.835691 :SURFACE X 
YCOORD      .                                  10819467.9364056 :SURFACE Y 
LAT         .                                        29.8039986 :LATITUDE  
LON         .                                       -94.4590755 :LONGITUDE 
ELEV        .FT                                              40 :ELEVATION VALUE
ELEV_TYPE   .                                                DF :ELEVATION REFERENCE TYPE
~Curve Information Section
#MNEM       .UNIT                                      API CODE :CURVE DESCRIPTION
#------------------------------------------------------------------------------
DEPT        .FT                                                 :DEPTH     
LAT         .OHMM                                               :          
LN          .OHMM                                               :          
SN          .OHMM                                               :          
SP          .MV                                                 :          
SP_NORM     .MV                                                 :SP Normalized
VSH_SP      .V/V                                                :Volume of Shale from SP
~A        DEPTH            LAT             LN             SN             SP        SP_NORM         VSH_SP
# ...
      5820.0000          0.661         0.6561         0.7228       -56.0301      -14.05479      0.8625811
      5820.5000         0.6593         0.6594         0.7347       -57.2273      -15.25199       0.849979
      5821.0000         0.6526         0.6625         0.7329       -57.1104      -15.13509      0.8512095
      5821.5000         0.6459         0.6656         0.7311       -54.8604      -12.88509      0.8748937
      5822.0000         0.6391         0.6687         0.7293       -57.3674      -15.39209      0.8485043
      5822.5000         0.6324         0.6718         0.7413       -59.8766      -17.90129      0.8220917
      5823.0000         0.6375         0.6634         0.7541       -62.3859      -20.41059       0.795678
      5823.5000         0.6794         0.6506         0.7717       -64.6259      -22.65059       0.772099
      5824.0000         0.7213         0.6379         0.8168        -66.537       -24.5617      0.7519822
      5824.5000         0.7632         0.6251         0.8617       -68.4481      -26.47279      0.7318653
      5825.0000         0.8259         0.6123         0.8424       -70.7168      -28.74149      0.7079843
      5825.5000         0.8985         0.5995         0.8049       -70.3859      -28.41059      0.7114674
      5826.0000         0.8723         0.5814         0.7632       -68.4393      -26.46399       0.731958
      5826.5000         0.8375         0.5608         0.6966       -65.4799      -23.50459      0.7631096
      5827.0000         0.8027         0.5401         0.6301        -60.563      -18.58769      0.8148664
      5827.5000         0.8159         0.5195         0.5649       -53.5407      -11.56539      0.8887854
      5828.0000         0.8363         0.4991         0.5034       -46.2227      -4.247391      0.9658169
      5828.5000         0.8594         0.4794          0.478        -47.079      -5.103691      0.9568033
      5829.0000         0.9134         0.4597         0.4991       -50.3584      -8.383091      0.9222832
      5829.5000         0.9675           0.44         0.5203       -55.7211      -13.74579      0.8658338
      5830.0000         0.9588         0.4202         0.5415       -64.2043      -22.22899      0.7765369
      5830.5000         0.9251         0.4117         0.5634       -72.5817       -30.6064      0.6883537
      5831.0000         0.8914         0.4103         0.5965       -80.9148       -38.9395      0.6006369
      5831.5000         0.8576         0.4089         0.6296       -87.5973      -45.62199      0.5302948
      5832.0000         0.8239         0.4075         0.6628       -93.8207      -51.84539      0.4647853
      5832.5000         0.7902         0.4061         0.6959       -97.4268       -55.4515      0.4268264
      5833.0000          0.754         0.3958         0.7291      -101.0283      -59.05299      0.3889159
      5833.5000         0.7084         0.3855         0.7384      -104.2858      -62.31049      0.3546264
      5834.0000         0.6629         0.3751         0.7452      -106.8523        -64.877      0.3276106
      5834.5000         0.6174         0.3648          0.752      -109.4189      -67.44359      0.3005938
      5835.0000         0.5718         0.3544         0.7228      -111.6809       -69.7056      0.2767832
      5835.5000         0.5263         0.3441         0.6784      -113.4001      -71.42479      0.2586864
      5836.0000         0.4808         0.3338          0.634      -115.1193        -73.144      0.2405895
      5836.5000         0.4425         0.3233         0.5908      -117.4475       -75.4722      0.2160821
      5837.0000         0.4077         0.3128         0.5747      -119.5828       -77.6075      0.1936053
      5837.5000          0.431         0.3022         0.5586      -119.0486      -77.07329      0.1992286
      5838.0000         0.4647         0.2917         0.5565      -117.3439      -75.36859      0.2171727
      5838.5000         0.4984         0.2812         0.5734      -117.5811      -75.60579      0.2146759
      5839.0000         0.5069         0.2706         0.5903      -119.5618      -77.58649      0.1938265
      5839.5000         0.4875         0.2601         0.6061      -122.3247       -80.3494      0.1647432
      5840.0000         0.4681         0.2651          0.594      -125.0768      -83.10149      0.1357738
      5840.5000         0.4487         0.2714         0.5819      -127.3807       -85.4054      0.1115222
      5841.0000         0.4164         0.2777         0.5698      -129.5081      -87.53279     0.08912852
      5841.5000         0.3816          0.284         0.5577      -130.3689      -88.39359     0.08006752
      5842.0000         0.3468         0.2906         0.5442      -130.3655      -88.39018     0.08010335
      5842.5000          0.312         0.2978         0.5287      -129.4341      -87.45879     0.08990751
      5843.0000         0.2772         0.3051         0.5132      -128.7131      -86.73779     0.09749692
      5843.5000          0.258         0.3123         0.4977       -128.196      -86.22069      0.1029401
      5844.0000          0.244         0.3195         0.5089      -128.1409      -86.16559      0.1035201
      5844.5000           0.23         0.3195         0.5275      -129.0867      -87.11139     0.09356432
      5845.0000         0.2546         0.3043          0.546      -127.5132      -85.53789      0.1101275
      5845.5000         0.2937         0.2892         0.5646      -124.7854      -82.81009      0.1388412
      5846.0000         0.3329          0.274         0.5832      -122.3534       -80.3781      0.1644411
      5846.5000          0.372         0.2588         0.6117      -119.3632      -77.38789      0.1959169
      5847.0000          0.418         0.2381         0.6549      -115.7946      -73.81929      0.2334812
      5847.5000         0.4757         0.2148         0.6981      -113.6429      -71.66759      0.2561307
      5848.0000         0.5335         0.1916         0.7354      -112.9456      -70.97029      0.2634706
      5848.5000         0.5557         0.1694         0.7472      -117.3372      -75.36189      0.2172432
      5849.0000         0.5283         0.1648         0.7045        -122.85      -80.87469      0.1592137
      5849.5000         0.5009         0.1603         0.6617      -130.7639      -88.78859     0.07590958
      5850.0000         0.4487         0.1564          0.659      -133.2312      -91.25589       0.049938
      5850.5000         0.3784         0.1663         0.6822      -134.7737      -92.79839      0.0337012
      5851.0000         0.3081         0.1763         0.7054      -135.6587       -93.6834     0.02438531
      5851.5000         0.2379         0.1862         0.7212      -136.5437      -94.56839     0.01506958
      5852.0000         0.1675         0.1961         0.7117      -136.9385       -94.9632     0.01091373
      5852.5000         0.1472         0.2061         0.7021      -137.0605      -95.08519    0.009629581
      5853.0000         0.1362         0.2131         0.6784      -137.1826      -95.20729    0.008344309
      5853.5000         0.1253         0.2118         0.6548      -137.2356      -95.26028     0.00778648
      5854.0000         0.1328         0.2104         0.6312      -137.0327      -95.05739    0.009922229
      5854.5000         0.1518         0.2091         0.6075      -136.8301      -94.85478     0.01205492
      5855.0000         0.1708         0.2078         0.5839      -136.7341      -94.75879     0.01306538
      5855.5000           0.16         0.2064         0.5603      -136.7937      -94.81839       0.012438
      5856.0000         0.1309         0.2051         0.5469      -136.8533      -94.87799     0.01181062
      5856.5000         0.1023         0.2038          0.537      -136.9128      -94.93748     0.01118437
      5857.0000         0.0757         0.2025         0.5271      -136.9724      -94.99709     0.01055699
      5857.5000         0.0492         0.2011         0.5171      -137.1272      -95.15189    0.008927516
