#------------------------------------------------------------------------------
# Created by    : vladimir.rabinovich
# Created on    : 09/19/2023 17:22:55
#------------------------------------------------------------------------------
~Version Information Section
VERS.           2.0     :   CWLS log ASCII Standard - VERSION 2.0
WRAP.           NO      :   One line per depth step
~Well Information Section
#MNEM       .UNIT                                         VALUE :DESCRIPTION
#------------------------------------------------------------------------------
STRT        .FT                                            1722 :START DEPTH
STOP        .FT                                            8384 :STOP DEPTH
STEP        .FT                                             0.5 :STEP      
NULL        .                                           -999.25 :NULL      
COMP        .                                   HEBERT HILARY B :COMPANY   
WELL        .                                    REARWIN LEILAW :WELL      
FLD         .                                           WILDCAT :FIELD     
LOC         .                                                   :LOCATION  
CNTY        .                                          CHAMBERS :LOCATION  
STAT        .                                             TEXAS :STATE     
CTRY        .                                     UNITED STATES :COUNTRY   
SRVC        .                                                   :SERVICE COMPANY
DATE        .                             9/13/2023 11:19:11 AM :LOG DATE  
API         .                                    42071022820000 :API NUMBER
UWI         .                                    42071022820000 :UNIQUE WELL ID
XCOORD      .                                  1141949.94059063 :SURFACE X 
YCOORD      .                                  10792730.9347258 :SURFACE Y 
LAT         .                                        29.7291796 :LATITUDE  
LON         .                                       -94.5709084 :LONGITUDE 
ELEV        .FT                                              28 :ELEVATION VALUE
ELEV_TYPE   .                                                DF :ELEVATION REFERENCE TYPE
~Curve Information Section
#MNEM       .UNIT                                      API CODE :CURVE DESCRIPTION
#------------------------------------------------------------------------------
DEPT        .FT                                                 :DEPTH     
LAT         .OHMM                                               :          
LN          .OHMM                                               :          
SN          .OHMM                                               :          
SP          .MV                                                 :          
SP_NORM     .MV                                                 :SP Normalized
VSH_SP      .V/V                                                :Volume of Shale from SP
~A        DEPTH            LAT             LN             SN             SP        SP_NORM         VSH_SP
# ...
      6130.0000         0.4929         0.0688         0.4595      -113.6432      -46.04327      0.5505788
      6130.5000         0.4347         0.0642         0.4306      -116.4857      -48.88383      0.5215935
      6131.0000         0.4086         0.0596         0.4016      -117.1886       -49.5848      0.5144408
      6131.5000         0.4013          0.055         0.3741      -113.5466      -45.94086      0.5516238
      6132.0000         0.3942         0.0504         0.3479      -113.4354      -45.82774      0.5527782
      6132.5000         0.3952         0.0465         0.3218      -113.5847       -45.9751      0.5512745
      6133.0000         0.3962         0.0499         0.3288      -111.5953      -43.98376      0.5715942
      6133.5000         0.3972         0.0533         0.3396      -110.0203      -42.40683      0.5876854
      6134.0000         0.3974         0.0567         0.3833      -109.4084        -41.793       0.593949
      6134.5000         0.3949         0.0601         0.4394      -110.4413      -42.82396       0.583429
      6135.0000         0.3923         0.0636         0.4956       -111.473      -43.85372      0.5729212
      6135.5000         0.3897         0.0652         0.5408      -115.0779       -47.4567      0.5361562
      6136.0000         0.3831          0.063         0.5682      -120.2737      -52.65055      0.4831576
      6136.5000         0.3629         0.0608         0.5805      -131.5002      -63.87512      0.3686212
      6137.0000         0.3427         0.0587         0.5928      -146.3196      -78.69258      0.2174226
      6137.5000         0.3225         0.0565         0.6273      -158.1301      -90.50115     0.09692702
      6138.0000         0.3036         0.0534          0.701      -158.4849      -90.85401     0.09332641
      6138.5000         0.2913           0.05           0.77      -155.1506      -87.51779      0.1273695
      6139.0000          0.279         0.0467         0.8274      -152.2922      -84.65746      0.1565566
      6139.5000         0.2666         0.0433         0.8864      -150.4915      -82.85481      0.1749509
      6140.0000         0.2543         0.0399         0.9479      -155.6333      -87.99468      0.1225032
      6140.5000         0.2442         0.0397         0.9434        -159.72      -92.07944     0.08082199
      6141.0000         0.2388         0.0406         0.8658      -166.4648      -98.82231     0.01201723
      6141.5000         0.2335         0.0415         0.7827      -170.2417      -102.5973              0
      6142.0000         0.2281         0.0425         0.6996      -171.9661      -104.3197              0
      6142.5000         0.2227         0.0434          0.686      -173.6792      -106.0309              0
      6143.0000         0.2173         0.0368         0.6831      -175.2083      -107.5581              0
      6143.5000          0.213         0.0298         0.6803      -175.6404      -107.9882              0
      6144.0000         0.2091         0.0227         0.6749      -175.7764      -108.1223              0
      6144.5000         0.2052         0.0157         0.6371      -175.4692      -107.8132              0
      6145.0000         0.2014         0.0087         0.5992      -175.1624      -107.5044              0
      6145.5000         0.2038         0.0036         0.5614      -174.5684      -106.9085              0
      6146.0000         0.2207         0.0002         0.5216      -173.5759      -105.9141              0
      6146.5000         0.2377        -0.0031         0.4785      -169.7881      -102.1243              0
      6147.0000         0.2568        -0.0065         0.4353        -157.78       -90.1143      0.1008745
      6147.5000         0.2879        -0.0099         0.4003      -145.2756      -77.60796      0.2284902
      6148.0000          0.319        -0.0036         0.3864      -144.1528      -76.48323       0.239967
      6148.5000         0.3502          0.011         0.3725      -146.5442       -78.8727      0.2155847
      6149.0000         0.3813         0.0256         0.3672      -149.0837      -81.41026      0.1896913
      6149.5000         0.4009         0.0372         0.3633      -152.1487      -84.47332      0.1584355
      6150.0000         0.4187         0.0439         0.3595      -150.5186      -82.84129      0.1750888
      6150.5000         0.4263         0.0506         0.3505       -147.613      -79.93376      0.2047575
      6151.0000         0.4106         0.0573         0.3407       -147.292      -79.61083      0.2080527
      6151.5000         0.3949         0.0641         0.3716      -149.5374      -81.85429      0.1851603
      6152.0000         0.3792         0.0638         0.4096       -152.876      -85.19096      0.1511127
      6152.5000         0.3576         0.0543         0.4344      -158.7812      -91.09422     0.09087528
      6153.0000         0.3351         0.0448         0.4329      -167.5247      -99.83578    0.001675664
      6153.5000         0.3125         0.0353         0.4315      -176.8474      -109.1565              0
      6154.0000           0.29         0.0258         0.4265      -183.3049      -115.6121              0
      6154.5000         0.2933         0.0151         0.4146      -173.8455      -106.1508              0
      6155.0000         0.3137         0.0036         0.4028      -172.3835      -104.6868              0
      6155.5000         0.3342        -0.0079         0.3927      -172.0801      -104.3815              0
      6156.0000         0.3547        -0.0193         0.3841      -172.5757      -104.8752              0
      6156.5000         0.3752        -0.0308         0.3755      -173.0613      -105.3588              0
      6157.0000         0.3956        -0.0279         0.3739      -173.5002      -105.7958              0
      6157.5000         0.3891        -0.0249         0.3789      -171.5483       -103.842              0
      6158.0000         0.3712        -0.0218         0.4201      -168.3914      -100.6831              0
      6158.5000         0.3533        -0.0114         0.4861      -157.4116      -89.70141      0.1050877
      6159.0000         0.3423         0.0037         0.5676      -153.1096      -85.39748      0.1490053
      6159.5000         0.3348         0.0188         0.6304      -147.2493      -79.53523      0.2088242
      6160.0000         0.3274         0.0332         0.6931      -142.9607      -75.24469      0.2526052
      6160.5000         0.3199          0.037         0.6275       -144.155      -76.43707      0.2404381
      6161.0000         0.3248         0.0408         0.5618       -148.812      -81.09212      0.1929375
      6161.5000         0.3451         0.0446         0.4962      -155.8894       -88.1676      0.1207388
      6162.0000         0.3655         0.0485         0.4305      -159.3899      -91.66615     0.08503926
      6162.5000          0.381         0.0512         0.3907      -161.7048      -93.97913     0.06143741
      6163.0000         0.3569         0.0436         0.3695      -163.6111      -95.88349     0.04200519
      6163.5000         0.3327          0.036         0.4053      -164.9651      -97.23557     0.02820852
      6164.0000         0.3101         0.0284         0.4431      -166.0371      -98.30562     0.01728961
      6164.5000         0.2923         0.0208         0.4749      -166.8174      -99.08398    0.009347098
      6165.0000         0.2744         0.0316         0.4474      -166.4946      -98.75925     0.01266067
      6165.5000         0.2589         0.0446         0.4105      -164.3521      -96.61481     0.03454271
      6166.0000          0.252         0.0577         0.3788       -160.645      -92.90579     0.07238988
      6166.5000         0.2547         0.0708          0.355      -156.5898      -88.84865      0.1137893
      6167.0000         0.2713         0.0783         0.3608      -154.5825      -86.83942      0.1342916
      6167.5000         0.2879         0.0841         0.4183      -153.8811      -86.13609      0.1414685
