#------------------------------------------------------------------------------
# Created by    : vladimir.rabinovich
# Created on    : 09/19/2023 17:22:55
#------------------------------------------------------------------------------
~Version Information Section
VERS.           2.0     :   CWLS log ASCII Standard - VERSION 2.0
WRAP.           NO      :   One line per depth step
~Well Information Section
#MNEM       .UNIT                                         VALUE :DESCRIPTION
#------------------------------------------------------------------------------
STRT        .FT                                            1640 :START DEPTH
STOP        .FT                                            9504 :STOP DEPTH
STEP        .FT                                             0.5 :STEP      
NULL        .                                           -999.25 :NULL      
COMP        .                        UNION OIL CO OF CALIFORNIA :COMPANY   
WELL        .                                       DROUGHT H P :WELL      
FLD         .                                           WILDCAT :FIELD     
LOC         .                                                   :LOCATION  
CNTY        .                                          CHAMBERS :LOCATION  
STAT        .                                             TEXAS :STATE     
CTRY        .                                     UNITED STATES :COUNTRY   
SRVC        .                                                   :SERVICE COMPANY
DATE        .                             9/13/2023 11:19:11 AM :LOG DATE  
API         .                                    42071019550000 :API NUMBER
UWI         .                                    42071019550000 :UNIQUE WELL ID
XCOORD      .                                    1177783.835691 :SURFACE X 
YCOORD      .                                  10819467.9364056 :SURFACE Y 
LAT         .                                        29.8039986 :LATITUDE  
LON         .                                       -94.4590755 :LONGITUDE 
ELEV        .FT                                              40 :ELEVATION VALUE
ELEV_TYPE   .                                                DF :ELEVATION REFERENCE TYPE
~Curve Information Section
#MNEM       .UNIT                                      API CODE :CURVE DESCRIPTION
#------------------------------------------------------------------------------
DEPT        .FT                                                 :DEPTH     
LAT         .OHMM                                               :          
LN          .OHMM                                               :          
SN          .OHMM                                               :          
SP          .MV                                                 :          
SP_NORM     .MV                                                 :SP Normalized
VSH_SP      .V/V                                                :Volume of Shale from SP
~A        DEPTH            LAT             LN             SN             SP        SP_NORM         VSH_SP
# ...
      4756.0000         0.1528         0.2382         0.5427      -135.3877      -91.06644              0
      4756.5000         0.1399         0.2337         0.5284      -135.4153      -91.10162              0
      4757.0000          0.127         0.2321         0.5111      -135.3455      -91.03941              0
      4757.5000         0.1141         0.2323         0.4938      -135.2754       -90.9769              0
      4758.0000         0.1012         0.2325         0.5143      -135.2053      -90.91438              0
      4758.5000         0.0922         0.2327         0.5517      -134.5613      -90.27795              0
      4759.0000         0.0851         0.2329         0.5891      -133.6475      -89.37175     0.00705899
      4759.5000         0.0781         0.2331         0.6265      -133.3853      -89.11712    0.009920013
      4760.0000         0.0711         0.2352         0.6639      -133.7817       -89.5211    0.005380952
      4760.5000         0.0641         0.2379         0.7124      -134.1785      -89.92548   0.0008373475
      4761.0000          0.057         0.2407         0.7213      -134.8127      -90.56726              0
      4761.5000          0.074         0.2434         0.6471       -135.574      -91.33615              0
      4762.0000         0.0976         0.2461          0.573      -131.3879      -87.15762     0.03193682
      4762.5000         0.1212         0.2475         0.5239      -116.5707      -72.34801      0.1983369
      4763.0000         0.1448         0.2397         0.4795      -112.5646      -68.34949      0.2432641
      4763.5000         0.1685         0.2318         0.4351      -108.2032      -63.99568      0.2921834
      4764.0000         0.1921          0.224         0.4247        -102.73      -58.53006      0.3535948
      4764.5000         0.2029         0.2161         0.4153       -98.2887      -54.09634       0.403412
      4765.0000         0.2094         0.2083         0.4174        -97.432      -53.24722      0.4129525
      4765.5000          0.216         0.2005         0.4235       -100.506       -56.3288      0.3783281
      4766.0000         0.2225         0.1929         0.4296      -104.3723      -60.20269      0.3348013
      4766.5000         0.2198         0.1912         0.4346      -108.2499      -64.08788      0.2911475
      4767.0000         0.1968         0.1896         0.4315      -110.3561      -66.20166      0.2673971
      4767.5000         0.1738         0.1879         0.4284      -108.0389      -63.89204      0.2933479
      4768.0000         0.1508         0.1871         0.4253      -104.6365      -60.49722       0.331492
      4768.5000         0.1283         0.1894         0.4222      -101.4915       -57.3598      0.3667438
      4769.0000         0.1135         0.1917          0.419       -97.8226      -53.69848      0.4078822
      4769.5000         0.0988         0.1941         0.4159       -95.5143      -51.39776       0.433733
      4770.0000          0.084         0.1964          0.415      -103.7909      -59.68195      0.3406523
      4770.5000         0.0693         0.1987         0.4152      -113.5477      -69.44633      0.2309401
      4771.0000         0.0545         0.2011         0.4154       -119.092      -74.99821      0.1685594
      4771.5000         0.0398         0.2031         0.4156      -123.4445      -79.35829      0.1195698
      4772.0000          0.025         0.2048         0.4158       -126.574      -82.49538     0.08432161
      4772.5000         0.0276         0.2065          0.416      -129.2529      -85.18185     0.05413647
      4773.0000         0.0309         0.2083         0.4162      -130.4902      -86.42674     0.04014896
      4773.5000         0.0342           0.21         0.4164      -131.1829      -87.12703     0.03228057
      4774.0000         0.0374         0.2092         0.4166      -131.1572       -87.1089     0.03248425
      4774.5000         0.0407         0.2082         0.4168      -130.6511      -86.61038     0.03808559
      4775.0000          0.044         0.2072          0.417      -128.4517      -84.41858     0.06271259
      4775.5000         0.0469         0.2061         0.4172      -126.2544      -82.22885     0.08731627
      4776.0000         0.0461         0.2051         0.4174      -124.9221      -80.90413      0.1022008
      4776.5000         0.0453         0.2041         0.4123       -124.278      -80.26761      0.1093527
      4777.0000         0.0446         0.2032         0.4029      -124.5565       -80.5537      0.1061383
      4777.5000         0.0438         0.2022         0.3935      -125.5486      -81.55338      0.0949059
      4778.0000          0.043         0.2013         0.3841      -126.5396      -82.55196     0.08368588
      4778.5000         0.0422         0.2003         0.3758      -127.4629      -83.48284      0.0732265
      4779.0000         0.0415         0.1994         0.3775       -128.208      -84.23552     0.06476945
      4779.5000         0.0428         0.1985         0.3793      -128.9534      -84.98851     0.05630888
      4780.0000         0.0447          0.196          0.381      -128.2551      -84.29779     0.06406977
      4780.5000         0.0466         0.1933         0.3827      -126.6716      -82.72187     0.08177674
      4781.0000         0.0484         0.1906         0.3904      -124.1526      -80.21046      0.1099949
      4781.5000         0.0503         0.1878          0.405      -123.5977      -79.66314      0.1161445
      4782.0000         0.0521         0.1851         0.4196      -125.8893      -81.96231     0.09031112
      4782.5000          0.054         0.1852         0.4342      -127.6871       -83.7677     0.07002584
      4783.0000         0.0559         0.1854         0.4487      -129.4849      -85.57307     0.04974074
      4783.5000         0.0571         0.1856         0.4633      -131.3125      -87.40826     0.02912063
      4784.0000         0.0573         0.1858         0.4766      -133.3457      -89.44905    0.006190439
      4784.5000         0.0575          0.186         0.4575       -133.269      -89.37993    0.006967095
      4785.0000         0.0577         0.1862         0.4383      -132.0984      -88.21692     0.02003462
      4785.5000         0.0579         0.1885         0.4192      -130.9265       -87.0526     0.03311689
      4786.0000         0.0581         0.1916            0.4      -129.0288      -85.16247     0.05435429
      4786.5000         0.0583         0.1947         0.3809      -126.4053      -82.54655     0.08374657
      4787.0000         0.0604         0.1979         0.3617       -121.973      -78.12184      0.1334625
      4787.5000         0.0676          0.201         0.3426      -116.2689      -72.42532      0.1974683
      4788.0000         0.0748         0.2041         0.3431      -108.7759      -64.93991       0.281574
      4788.5000          0.082         0.2073         0.3856      -103.0762      -59.24779      0.3455305
      4789.0000         0.0892         0.2135         0.4264       -97.7716      -53.95077      0.4050476
      4789.5000         0.0964         0.2233         0.4566       -90.6958      -46.88255      0.4844657
      4790.0000         0.1079         0.2332         0.4867       -83.9663      -40.16063      0.5599929
      4790.5000         0.1353          0.243         0.5169       -79.6338      -35.83571      0.6085875
      4791.0000         0.1626         0.2529          0.547       -74.1428       -30.3523      0.6701989
      4791.5000           0.19         0.2627         0.5765       -70.1765      -26.39358      0.7146789
      4792.0000         0.2173         0.2726         0.6023       -67.8816      -24.10626      0.7403791
      4792.5000         0.2231         0.2935         0.6281         -64.65      -20.88224       0.776604
      4793.0000         0.2233         0.3167          0.654       -50.8913      -7.131126      0.9311109
      4793.5000         0.2235         0.3399         0.6798       -48.0814      -4.328812      0.9625976
