#------------------------------------------------------------------------------
# Created by    : vladimir.rabinovich
# Created on    : 09/19/2023 17:22:55
#------------------------------------------------------------------------------
~Version Information Section
VERS.           2.0     :   CWLS log ASCII Standard - VERSION 2.0
WRAP.           NO      :   One line per depth step
~Well Information Section
#MNEM       .UNIT                                         VALUE :DESCRIPTION
#------------------------------------------------------------------------------
STRT        .FT                                            1640 :START DEPTH
STOP        .FT                                            9504 :STOP DEPTH
STEP        .FT                                             0.5 :STEP      
NULL        .                                           -999.25 :NULL      
COMP        .                        UNION OIL CO OF CALIFORNIA :COMPANY   
WELL        .                                       DROUGHT H P :WELL      
FLD         .                                           WILDCAT :FIELD     
LOC         .                                                   :LOCATION  
CNTY        .                                          CHAMBERS :LOCATION  
STAT        .                                             TEXAS :STATE     
CTRY        .                                     UNITED STATES :COUNTRY   
SRVC        .                                                   :SERVICE COMPANY
DATE        .                             9/13/2023 11:19:11 AM :LOG DATE  
API         .                                    42071019550000 :API NUMBER
UWI         .                                    42071019550000 :UNIQUE WELL ID
XCOORD      .                                    1177783.835691 :SURFACE X 
YCOORD      .                                  10819467.9364056 :SURFACE Y 
LAT         .                                        29.8039986 :LATITUDE  
LON         .                                       -94.4590755 :LONGITUDE 
ELEV        .FT                                              40 :ELEVATION VALUE
ELEV_TYPE   .                                                DF :ELEVATION REFERENCE TYPE
~Curve Information Section
#MNEM       .UNIT                                      API CODE :CURVE DESCRIPTION
#------------------------------------------------------------------------------
DEPT        .FT                                                 :DEPTH     
LAT         .OHMM                                               :          
LN          .OHMM                                               :          
SN          .OHMM                                               :          
SP          .MV                                                 :          
SP_NORM     .MV                                                 :SP Normalized
VSH_SP      .V/V                                                :Volume of Shale from SP
~A        DEPTH            LAT             LN             SN             SP        SP_NORM         VSH_SP
      1640.0000              0         0.1732          1.223       -57.9908      -1.200676      0.9962838
      1640.5000              0         0.6003         1.2741       -58.4784      -1.688278      0.9872541
      1641.0000              0         1.0109         1.3252       -58.9235      -2.133377      0.9790115
      1641.5000              0         1.2784         1.3764       -59.3688      -2.578678      0.9707652
      1642.0000              0         1.4843         1.4275       -59.8201      -3.029976      0.9624078
      1642.5000              0         1.6396         1.4595       -60.2816      -3.491478      0.9538615
      1643.0000              0         1.7371         1.4888       -60.2968      -3.506676      0.9535801
      1643.5000              0         1.7844         1.5181       -59.9387      -3.148579      0.9602115
      1644.0000              0         1.8318         1.5473       -59.2411      -2.450977        0.97313
      1644.5000              0         1.8629         1.5766       -59.1282      -2.338078      0.9752208
      1645.0000              0         1.8913         1.5973       -60.1286      -3.338478      0.9566948
      1645.5000         0.1129         1.9196         1.6103       -61.1287      -4.338577      0.9381745
      1646.0000         0.8473         1.9463         1.6233        -62.129      -5.338879      0.9196504
      1646.5000         1.1568         1.9562         1.6363       -63.1292      -6.339077      0.9011282
      1647.0000         1.6808         1.9661         1.6474       -63.7805      -6.990376      0.8890671
      1647.5000         1.6762         1.9761         1.6474       -63.1741      -6.383976      0.9002967
      1648.0000         1.6561         1.9835         1.6475       -61.7781      -4.987976      0.9261486
      1648.5000         1.6394         1.9884         1.6476       -60.3494      -3.559277       0.952606
      1649.0000         1.6264         1.9933         1.6594       -58.3027      -1.512577      0.9905078
      1649.5000         1.7164         1.9982          1.672       -56.2564      0.5337219              1
      1650.0000         1.8227         2.0023         1.6846        -55.923      0.8671227              1
      1650.5000         1.9289         1.9988         1.7037       -58.9424      -2.152279      0.9786615
      1651.0000         2.0267         1.9953         1.7282       -61.9618      -5.171677      0.9227467
      1651.5000         2.1182         1.9919         1.7528       -65.0322      -8.242081      0.8658874
      1652.0000         2.2169         1.9879         1.7773       -68.2058      -11.41568       0.807117
      1652.5000         2.2818         1.9779         1.8014       -71.3784      -14.58828      0.7483652
      1653.0000         2.2683         1.9679         1.8253       -74.3944      -17.60428      0.6925133
      1653.5000          2.243         1.9579         1.8492       -77.3861      -20.59598      0.6371115
      1654.0000         2.2177         1.9479         1.8736       -79.7308      -22.94067      0.5936912
      1654.5000         2.1728         1.9219         1.8999       -80.8954      -24.10528      0.5721245
      1655.0000         2.1233         1.8929         1.9262       -81.3051      -24.51498      0.5645375
      1655.5000         2.0738         1.8521         1.9531        -80.923      -24.13287      0.5716134
      1656.0000         2.0243         1.7936         1.9819       -80.5409      -23.75078      0.5786893
      1656.5000         1.9735          1.735         2.0106       -79.6764      -22.88628      0.5946986
      1657.0000          1.929         1.6764         2.0394       -77.7927      -21.00258      0.6295819
      1657.5000         1.9766         1.6259         2.0701       -77.7567      -20.96658      0.6302486
      1658.0000         2.0243         1.5765         2.1061       -81.8857      -25.09557      0.5537857
      1658.5000          2.072          1.527         2.1422       -85.6053      -28.81518      0.4849041
      1659.0000         2.1197         1.4775         2.2016       -87.5562      -30.76608      0.4487764
      1659.5000         2.1745         1.4316         2.2834       -89.5076      -32.71748      0.4126393
      1660.0000         2.2359         1.4043         2.1091       -91.4583      -34.66817      0.3765153
      1660.5000              2         1.3771         1.9191       -93.2959      -36.50578      0.3424856
      1661.0000         1.5471         1.3498         1.8153       -94.9709      -38.18426      0.3114026
      1661.5000         1.4342         1.3226         1.7182        -96.646       -39.8667      0.2802464
      1662.0000         1.3213         1.3076         1.6949       -98.1373      -41.36533       0.252494
      1662.5000         1.2229         1.3059         1.6716       -99.1483      -42.38366      0.2336359
      1663.0000         1.1289         1.3042         1.6494      -100.1594       -43.4021      0.2147759
      1663.5000          1.082         1.3025         1.6532      -101.1704      -44.42044      0.1959178
      1664.0000         1.0566         1.2957          1.657      -102.0032      -45.26057      0.1803598
      1664.5000         1.0312         1.2829         1.6608      -102.7852      -46.04991      0.1657424
      1665.0000         1.0058         1.2702         1.6617      -103.5673      -46.83934      0.1511233
      1665.5000         0.9965         1.2575         1.6529      -104.2551      -47.53448      0.1382504
      1666.0000         0.9905         1.2447         1.6442      -104.9031      -48.18982      0.1261145
      1666.5000         0.9845          1.228         1.6354      -105.5513      -48.84535       0.113975
      1667.0000         0.9785         1.2114         1.6279       -105.984      -49.28539      0.1058261
      1667.5000         0.9725         1.1947         1.6204      -106.1365      -49.44522      0.1028663
      1668.0000         0.9665         1.1781         1.6111      -106.2219      -49.53796      0.1011489
      1668.5000         0.9571         1.1773         1.5936      -106.2653      -49.58869      0.1002094
      1669.0000         0.9475         1.1811         1.5761      -106.3086      -49.63933     0.09927163
      1669.5000         0.9379         1.1849         1.5427      -106.7816      -50.11967     0.09037647
      1670.0000         0.9284         1.1887         1.5042      -107.5579      -50.90331     0.07586472
      1670.5000         0.9188         1.1902         1.3888      -108.3344      -51.68714      0.0613493
      1671.0000         0.9059         1.1916         1.3073      -108.7211      -52.08118     0.05405228
      1671.5000         0.8675          1.193         1.2524      -108.2308      -51.59821     0.06299612
      1672.0000         0.8291         1.1944         1.2139      -107.7406      -51.11535     0.07193799
      1672.5000         0.7907         1.1958         1.1904      -107.2504      -50.63248     0.08087999
      1673.0000         0.7523         1.1902         1.1943      -105.9755      -49.36492      0.1043533
      1673.5000         0.7141         1.1822         1.1981      -103.9564      -47.35315      0.1416083
      1674.0000         0.6925         1.1743          1.202       -99.3108      -42.71489       0.227502
      1674.5000         0.6709         1.1663         1.2059       -95.8903      -39.30172      0.2907088
      1675.0000         0.6494         1.1564         1.2097       -93.1733      -36.59207      0.3408876
      1675.5000         0.7027         1.1424         1.1983       -90.0607       -33.4868      0.3983926
      1676.0000         0.7845         1.1284         1.1816       -86.9481      -30.38153      0.4558975
      1676.5000          0.849         1.1138          1.165       -88.8428      -32.28357      0.4206747
      1677.0000         0.8252         1.0974         1.1483       -92.3145      -35.76261       0.356248
      1677.5000         0.8013         1.0811         1.1666       -95.9863      -39.44174      0.2881159
