#------------------------------------------------------------------------------
# Created by    : vladimir.rabinovich
# Created on    : 09/19/2023 17:22:55
#------------------------------------------------------------------------------
~Version Information Section
VERS.           2.0     :   CWLS log ASCII Standard - VERSION 2.0
WRAP.           NO      :   One line per depth step
~Well Information Section
#MNEM       .UNIT                                         VALUE :DESCRIPTION
#------------------------------------------------------------------------------
STRT        .FT                                            1640 :START DEPTH
STOP        .FT                                            9504 :STOP DEPTH
STEP        .FT                                             0.5 :STEP      
NULL        .                                           -999.25 :NULL      
COMP        .                        UNION OIL CO OF CALIFORNIA :COMPANY   
WELL        .                                       DROUGHT H P :WELL      
FLD         .                                           WILDCAT :FIELD     
LOC         .                                                   :LOCATION  
CNTY        .                                          CHAMBERS :LOCATION  
STAT        .                                             TEXAS :STATE     
CTRY        .                                     UNITED STATES :COUNTRY   
SRVC        .                                                   :SERVICE COMPANY
DATE        .                             9/13/2023 11:19:11 AM :LOG DATE  
API         .                                    42071019550000 :API NUMBER
UWI         .                                    42071019550000 :UNIQUE WELL ID
XCOORD      .                                    1177783.835691 :SURFACE X 
YCOORD      .                                  10819467.9364056 :SURFACE Y 
LAT         .                                        29.8039986 :LATITUDE  
LON         .                                       -94.4590755 :LONGITUDE 
ELEV        .FT                                              40 :ELEVATION VALUE
ELEV_TYPE   .                                                DF :ELEVATION REFERENCE TYPE
~Curve Information Section
#MNEM       .UNIT                                      API CODE :CURVE DESCRIPTION
#------------------------------------------------------------------------------
DEPT        .FT                                                 :DEPTH     
LAT         .OHMM                                               :          
LN          .OHMM                                               :          
SN          .OHMM                                               :          
SP          .MV                                                 :          
SP_NORM     .MV                                                 :SP Normalized
VSH_SP      .V/V                                                :Volume of Shale from SP
~A        DEPTH            LAT             LN             SN             SP        SP_NORM         VSH_SP
# ...
      3198.0000         1.3437         0.6374          1.037       -91.7245      -41.13631      0.4425513
      3198.5000         1.2761         0.6137         0.9951       -93.9818      -43.40268      0.4110739
      3199.0000         1.1911         0.5899         0.9532       -96.5996      -46.02956      0.3745895
      3199.5000         1.0854         0.5661         0.8856       -99.3485      -48.78753      0.3362843
      3200.0000         0.9783         0.5424         0.8121      -101.4504      -50.89851      0.3069652
      3200.5000         0.8801         0.5272         0.7385      -103.7898      -53.24698      0.2743475
      3201.0000         0.8096         0.5171          0.665      -106.1913      -55.65755      0.2408673
      3201.5000         0.7392          0.507         0.6424      -108.1998      -57.67513      0.2128455
      3202.0000         0.6685         0.4969         0.6277      -105.6841       -55.1685      0.2476597
      3202.5000         0.5966         0.4868         0.6131      -101.0675      -50.56097      0.3116531
      3203.0000         0.5575         0.4767         0.6036       -95.3545      -44.85705      0.3908743
      3203.5000         0.5971         0.4666         0.5941       -93.3531      -42.86473      0.4185455
      3204.0000         0.6367         0.4565         0.5846       -91.9553        -41.476      0.4378334
      3204.5000         0.6764         0.4465         0.5751       -90.8761      -40.40587      0.4526962
      3205.0000         0.6656         0.4366         0.5656       -90.1016      -39.64045      0.4633271
      3205.5000          0.633         0.4266         0.5583       -89.3275      -38.87542      0.4739525
      3206.0000         0.6005         0.4166         0.5511       -87.6085      -37.16549      0.4977015
      3206.5000         0.5679         0.4066         0.5476        -85.541      -35.10707      0.5262907
      3207.0000         0.5343         0.3966          0.574       -82.3527      -31.92785      0.5704466
      3207.5000            0.5         0.3872         0.6004       -78.5751      -28.15932      0.6227872
      3208.0000         0.4915           0.38         0.6275       -89.4307      -39.02399       0.471889
      3208.5000           0.49         0.3728         0.6598       -92.4581      -42.06047      0.4297158
      3209.0000         0.4885         0.3656         0.6921       -94.4401      -44.05154      0.4020619
      3209.5000          0.487         0.3584         0.7243       -95.6315      -45.25201      0.3853887
      3210.0000         0.4646         0.3512         0.7549       -96.8232      -46.45279      0.3687113
      3210.5000         0.4409         0.3443         0.7819       -98.1245      -47.76316      0.3505117
      3211.0000         0.4231         0.3376          0.809       -99.7557      -49.40344        0.32773
      3211.5000         0.4191         0.3309          0.793      -101.3871      -51.04391      0.3049456
      3212.0000         0.4151         0.3242         0.7739      -103.7654      -53.43129      0.2717876
      3212.5000         0.4105         0.3175         0.7549      -106.3932      -56.06816      0.2351644
      3213.0000         0.3969         0.3108         0.7267      -108.3375      -58.02154      0.2080342
      3213.5000         0.3833         0.3041         0.6733      -110.2828      -59.97591      0.1808901
      3214.0000         0.3697         0.2998         0.6199       -111.811      -61.51318      0.1595392
      3214.5000         0.3563         0.2983         0.5665      -113.3014      -63.01266      0.1387131
      3215.0000         0.3529         0.2968         0.5277      -114.6814      -64.40173      0.1194204
      3215.5000         0.3496         0.2953         0.4895      -113.1128      -62.84221      0.1410804
      3216.0000         0.3463         0.2938         0.4514      -110.9221      -60.66058      0.1713809
      3216.5000         0.3424         0.2923         0.4149      -108.7703      -58.51786      0.2011409
      3217.0000         0.3358         0.2909         0.3832      -106.6785      -56.43513      0.2300677
      3217.5000         0.3292         0.2894         0.3514       -104.611      -54.37671      0.2586569
      3218.0000         0.3225         0.2879         0.3818      -105.0432      -54.81797      0.2525281
      3218.5000         0.3167         0.2865         0.4548      -107.3309      -57.11475      0.2206284
      3219.0000         0.3171         0.2851         0.5277      -111.9786      -61.77153       0.155951
      3219.5000         0.3174         0.2838         0.5584      -115.6497       -65.4517      0.1048375
      3220.0000         0.3178         0.2824         0.5818      -118.4252      -68.23628     0.06616274
      3220.5000         0.3104          0.281         0.6051      -121.2017      -71.02185      0.0274743
      3221.0000          0.283         0.2796         0.6227      -123.2542      -73.08343              0
      3221.5000         0.2556         0.2782         0.6335      -124.6115       -74.4498              0
      3222.0000         0.2282         0.2764         0.6442      -125.9686      -75.81597              0
      3222.5000         0.2008         0.2738         0.6534      -127.3259      -77.18234              0
      3223.0000         0.1764         0.2712          0.619      -129.2373      -79.10283              0
      3223.5000         0.1646         0.2686         0.5847      -130.2251      -80.09969              0
      3224.0000         0.1528          0.266         0.5503      -128.8223      -78.70596              0
      3224.5000         0.1411         0.2636          0.516      -127.4202      -77.31294              0
      3225.0000         0.1293         0.2616         0.4836      -126.4569      -76.35872              0
      3225.5000         0.1214         0.2596         0.4674      -125.6508      -75.56169              0
      3226.0000         0.1169         0.2576         0.4511      -124.8445      -74.76447              0
      3226.5000         0.1125         0.2555         0.4349      -124.0382      -73.96724              0
      3227.0000          0.108         0.2535         0.4223      -123.2321      -73.17021              0
      3227.5000         0.1036         0.2523         0.4211      -122.9001      -72.84729    0.002120972
      3228.0000         0.0991         0.2526         0.4199      -122.9133      -72.86957    0.001811557
      3228.5000         0.0946          0.253         0.4187      -122.9266      -72.89194    0.001500871
      3229.0000         0.0901         0.2533         0.4175      -122.9398      -72.91421    0.001191563
      3229.5000         0.0856         0.2536         0.4059       -122.953      -72.93649   0.0008820428
      3230.0000         0.0811         0.2539         0.3873      -122.9663      -72.95886   0.0005713569
      3230.5000         0.0766         0.2542         0.3687      -122.9795      -72.98114   0.0002619425
      3231.0000         0.0721         0.2546         0.3502      -123.3488      -73.35951              0
      3231.5000         0.0676         0.2549         0.3316      -123.8632      -73.88298              0
      3232.0000         0.0686         0.2558         0.3175      -124.3773      -74.40616              0
      3232.5000         0.0786         0.2574         0.3054      -124.8914      -74.92934              0
      3233.0000         0.0886          0.259         0.2933      -124.9017      -74.94871              0
      3233.5000         0.0986         0.2605         0.2812      -124.6113      -74.66737              0
      3234.0000         0.1086         0.2621         0.2691      -123.5455      -73.61066              0
      3234.5000         0.1186         0.2637          0.257      -122.0018      -72.07603     0.01283285
      3235.0000         0.1286         0.2653         0.2675      -120.1575       -70.2408     0.03832224
      3235.5000         0.1386         0.2668         0.3104      -118.2653      -68.35767     0.06447676
