#------------------------------------------------------------------------------
# Created by    : vladimir.rabinovich
# Created on    : 09/19/2023 17:19:41
#------------------------------------------------------------------------------
~Version Information Section
VERS.           2.0     :   CWLS log ASCII Standard - VERSION 2.0
WRAP.           NO      :   One line per depth step
~Well Information Section
#MNEM       .UNIT                                         VALUE :DESCRIPTION
#------------------------------------------------------------------------------
STRT        .FT                                             149 :START DEPTH
STOP        .FT                                         11018.5 :STOP DEPTH
STEP        .FT                                             0.5 :STEP      
NULL        .                                           -999.25 :NULL      
COMP        .                          STANDARD OIL CO OF TEXAS :COMPANY   
WELL        .                                   JACKSON BERTA N :WELL      
FLD         .                                           WILDCAT :FIELD     
LOC         .                                                   :LOCATION  
CNTY        .                                          CHAMBERS :LOCATION  
STAT        .                                             TEXAS :STATE     
CTRY        .                                     UNITED STATES :COUNTRY   
SRVC        .                                                   :SERVICE COMPANY
DATE        .                             9/13/2023 11:19:11 AM :LOG DATE  
API         .                                    42071023650000 :API NUMBER
UWI         .                                    42071023650000 :UNIQUE WELL ID
XCOORD      .                                  1147650.32957209 :SURFACE X 
YCOORD      .                                  10746494.5600269 :SURFACE Y 
LAT         .                                        29.6022446 :LATITUDE  
LON         .                                       -94.5509971 :LONGITUDE 
ELEV        .FT                                            17.6 :ELEVATION VALUE
ELEV_TYPE   .                                                KB :ELEVATION REFERENCE TYPE
~Curve Information Section
#MNEM       .UNIT                                      API CODE :CURVE DESCRIPTION
#------------------------------------------------------------------------------
DEPT        .FT                                                 :DEPTH     
AM64        .OHMM                                               :          
CILD        .MMHO                                               :          
SN16        .OHMM                                               :          
SP          .MV                                                 :          
SP_NORM     .MV                                                 :SP Normalized
VSH_SP      .V/V                                                :Volume of Shale from SP
~A        DEPTH           AM64           CILD           SN16             SP        SP_NORM         VSH_SP
# ...
      9535.0000         1.0739       1210.488         0.9155       -36.0217      -2.459049       0.981531
      9535.5000         1.0737       1225.783         0.9155       -36.0307      -2.464405      0.9814633
      9536.0000         1.0817       1237.853         0.9101        -36.038      -2.468063      0.9814169
      9536.5000         1.1005       1253.422         0.9046       -36.0472      -2.473625      0.9813465
      9537.0000         1.1002       1258.987         0.8937       -36.0543      -2.477081      0.9813028
      9537.5000         1.1049       1253.588         0.8828       -36.0636      -2.482742      0.9812311
      9538.0000          1.127       1247.711         0.8719       -36.0706      -2.486099      0.9811886
      9538.5000         1.1267       1226.281         0.8704       -36.0801      -2.491962      0.9811144
      9539.0000         1.1264       1209.493         0.9094       -36.0869      -2.495121      0.9810744
      9539.5000         1.1261       1176.996         0.9537        -36.095       -2.49958      0.9810179
      9540.0000         1.1258       1155.084         0.9602       -36.1032      -2.504139      0.9809602
      9540.5000         1.1256       1144.162         0.9646        -35.305      -1.702301      0.9911101
      9541.0000          1.098       1144.261         0.9646       -34.4833     -0.8769569              1
      9541.5000         1.0977       1144.341         0.9591       -33.9444     -0.3344193              1
      9542.0000         1.0701       1149.922         0.9474       -33.7897      -0.176075              1
      9542.5000          1.064       1164.917         0.9319       -33.2101      0.4071655              1
      9543.0000         0.9876       1183.054         0.8962       -32.3344       1.286503              1
      9543.5000           0.96       1201.313         0.8392        -32.342       1.282547              1
      9544.0000         0.9324       1221.682         0.8223       -31.8054       1.822784              1
      9544.5000         0.9048       1239.654          0.812       -31.8129       1.818928              1
      9545.0000         0.8772       1265.803          0.812       -32.3673       1.268169              1
      9545.5000         0.8496       1291.279         0.8065       -33.5914      0.0477066              1
      9546.0000          0.822       1337.398         0.8065       -34.5656     -0.9228516              1
      9546.5000         0.7671       1377.683         0.8065       -34.5727     -0.9263115              1
      9547.0000         0.7668       1403.498         0.8011       -35.1275      -1.477467      0.9939561
      9547.5000         0.7666       1421.219         0.8011       -37.9995      -4.345829      0.9576477
      9548.0000         0.7936       1442.125         0.7956       -39.5076      -5.850288      0.9386039
      9548.5000         0.8207       1442.512         0.7902       -38.9687      -5.307747      0.9454716
      9549.0000         0.8477       1447.786         0.7901       -38.4317      -4.767109      0.9523151
      9549.5000         0.8474       1442.198         0.7793       -37.3331      -3.664864      0.9662675
      9550.0000         0.9019       1385.212         0.7738       -36.2662      -2.594326      0.9798186
      9550.5000         0.9289       1321.644         0.7927       -35.7288      -2.053288      0.9866673
      9551.0000         0.9411       1300.463         0.8174       -34.6446     -0.9654427              1
      9551.5000         0.9556       1272.359         0.8418        -34.109     -0.4262047              1
      9552.0000         0.9554       1250.448         0.8556       -34.1169     -0.4304657              1
      9552.5000         0.9551       1250.547         0.8689       -34.1255      -0.435421              1
      9553.0000         0.9439       1250.625         0.8828       -34.1332     -0.4394836              1
      9553.5000         0.8999       1267.197         0.8828       -33.5959      0.1014595              1
      9554.0000         0.8723       1279.808         0.8828       -33.6041     0.09690094              1
      9554.5000         0.8447       1294.835         0.8719       -33.6129     0.09173965              1
      9555.0000         0.8444       1307.178          0.861       -33.6204       0.087883              1
      9555.5000         0.8441       1327.968          0.848       -33.6294     0.08252335              1
      9556.0000         0.8439       1341.047         0.8338       -33.6367     0.07886505              1
      9556.5000         0.8436       1361.101         0.8209       -33.6459     0.07330322              1
      9557.0000          0.851       1372.904         0.8065       -34.1984     -0.4755554              1
      9557.5000         0.8704        1377.75         0.8011       -34.2078     -0.4813156              1
      9558.0000         0.8975       1383.314         0.7956       -33.6693     0.06082535              1
      9558.5000         0.9345        1383.41         0.7956       -33.6788     0.05496979              1
      9559.0000         0.9576       1383.478         0.8011       -33.3983      0.3391075              1
      9559.5000         1.0332       1372.587         0.8082       -33.1483      0.5927467              1
      9560.0000         1.0655       1350.675         0.8229       -33.1564      0.5882912              1
      9560.5000         1.1419       1312.747         0.8423       -33.1646      0.5837288              1
      9561.0000         1.1417       1273.918         0.8828       -33.1729      0.5790672              1
      9561.5000         1.1414       1237.501         0.9772       -32.7899      0.9657097              1
      9562.0000         1.1411       1164.194         1.0191       -32.6435       1.115749              1
      9562.5000         1.1408       1107.336         1.0245       -32.6517       1.111195              1
      9563.0000         1.1406       1109.415         1.0191       -32.6598       1.106731              1
      9563.5000         1.1129       1147.634         1.0112        -32.668       1.102173              1
      9564.0000         1.0854       1186.504         0.9973       -32.6768       1.097015              1
      9564.5000         1.0578       1211.384         0.9853       -32.6843       1.093155              1
      9565.0000         1.0291       1247.109           0.97       -32.6932       1.087898              1
      9565.5000         0.9752       1278.079         0.9581        -32.295       1.489738              1
      9566.0000         0.9612       1329.692         0.8501       -32.1633       1.625076              1
      9566.5000         0.9474       1359.864         0.8501       -32.7169       1.075119              1
      9567.0000         0.9198       1423.265         0.8501       -33.2716      0.5240593              1
      9567.5000         0.9068       1445.923         0.8392       -33.8952    -0.09589767              1
      9568.0000         0.8919       1467.387         0.8338       -34.9244       -1.12146      0.9984626
      9568.5000         0.8917       1467.455         0.8399       -34.9761      -1.169521      0.9978542
      9569.0000         0.8914       1456.563          0.861       -36.0318      -2.221577       0.984537
      9569.5000         0.9681        1417.85         0.8725       -36.0385       -2.22464      0.9844982
      9570.0000         1.1367       1334.294         0.9101       -36.0467      -2.229195      0.9844406
      9570.5000         1.2117       1154.598         1.0045       -36.0549      -2.233757      0.9843828
      9571.0000         1.3548       1030.216         1.1335       -34.9705      -1.145718      0.9981555
      9571.5000          1.428       880.0385         1.3221       -34.9804      -1.151974      0.9980763
      9572.0000         1.5455       736.3845         1.8354       -37.5163      -3.684235      0.9660224
      9572.5000         1.6718       687.8965         2.0708       -41.5423      -7.706596      0.9151064
