#------------------------------------------------------------------------------
# Created by    : vladimir.rabinovich
# Created on    : 09/19/2023 17:22:55
#------------------------------------------------------------------------------
~Version Information Section
VERS.           2.0     :   CWLS log ASCII Standard - VERSION 2.0
WRAP.           NO      :   One line per depth step
~Well Information Section
#MNEM       .UNIT                                         VALUE :DESCRIPTION
#------------------------------------------------------------------------------
STRT        .FT                                            1722 :START DEPTH
STOP        .FT                                            8384 :STOP DEPTH
STEP        .FT                                             0.5 :STEP      
NULL        .                                           -999.25 :NULL      
COMP        .                                   HEBERT HILARY B :COMPANY   
WELL        .                                    REARWIN LEILAW :WELL      
FLD         .                                           WILDCAT :FIELD     
LOC         .                                                   :LOCATION  
CNTY        .                                          CHAMBERS :LOCATION  
STAT        .                                             TEXAS :STATE     
CTRY        .                                     UNITED STATES :COUNTRY   
SRVC        .                                                   :SERVICE COMPANY
DATE        .                             9/13/2023 11:19:11 AM :LOG DATE  
API         .                                    42071022820000 :API NUMBER
UWI         .                                    42071022820000 :UNIQUE WELL ID
XCOORD      .                                  1141949.94059063 :SURFACE X 
YCOORD      .                                  10792730.9347258 :SURFACE Y 
LAT         .                                        29.7291796 :LATITUDE  
LON         .                                       -94.5709084 :LONGITUDE 
ELEV        .FT                                              28 :ELEVATION VALUE
ELEV_TYPE   .                                                DF :ELEVATION REFERENCE TYPE
~Curve Information Section
#MNEM       .UNIT                                      API CODE :CURVE DESCRIPTION
#------------------------------------------------------------------------------
DEPT        .FT                                                 :DEPTH     
LAT         .OHMM                                               :          
LN          .OHMM                                               :          
SN          .OHMM                                               :          
SP          .MV                                                 :          
SP_NORM     .MV                                                 :SP Normalized
VSH_SP      .V/V                                                :Volume of Shale from SP
~A        DEPTH            LAT             LN             SN             SP        SP_NORM         VSH_SP
# ...
      6586.0000         0.7075         0.4982         0.3429        -64.962       1.903519              1
      6586.5000         0.7011         0.5039         0.3436       -64.9725       1.873779              1
      6587.0000         0.6947         0.5095         0.3445       -64.9829       1.844154              1
      6587.5000         0.6883         0.5152         0.3689       -64.9933       1.814522              1
      6588.0000         0.6819         0.5144            0.4       -64.9373       1.851295              1
      6588.5000         0.6755         0.5077         0.4234       -64.8625        1.90686              1
      6589.0000          0.669         0.5011         0.4426       -64.8033       1.946838              1
      6589.5000         0.6626         0.4944         0.4618       -64.7544       1.976501              1
      6590.0000         0.6562         0.4877         0.4497       -64.7054       2.006279              1
      6590.5000         0.6561         0.4804         0.4346       -64.6477       2.044754              1
      6591.0000         0.6583          0.473         0.4196       -64.3931       2.280121              1
      6591.5000         0.6606         0.4655         0.4066        -64.118       2.535995              1
      6592.0000         0.6628          0.458         0.3984       -63.7916       2.843159              1
      6592.5000         0.6651         0.4505         0.3902       -63.4655       3.150032              1
      6593.0000         0.6673          0.444         0.3821       -63.1517       3.444599              1
      6593.5000         0.6622         0.4381         0.3763       -62.8469       3.730171              1
      6594.0000         0.6568         0.4323         0.3756       -62.9362       3.621639              1
      6594.5000         0.6513         0.4264          0.375       -63.2556       3.283012              1
      6595.0000         0.6459         0.4205         0.3744        -63.575       2.944378              1
      6595.5000         0.6405          0.415         0.3738       -64.2589       2.241249              1
      6596.0000         0.6341         0.4105         0.3737       -65.0459        1.43502              1
      6596.5000         0.6258          0.406         0.3745       -66.3022      0.1594925              1
      6597.0000         0.6176         0.4015         0.3753       -68.7878      -2.345345      0.9964761
      6597.5000         0.6093          0.397         0.3761        -70.739      -4.315765      0.9763697
      6598.0000         0.6011         0.3925          0.377       -73.1606      -6.756599      0.9514633
      6598.5000         0.5928         0.3881         0.3778       -74.4102      -8.025429       0.938516
      6599.0000          0.585         0.3841         0.3733       -75.3937       -9.02816      0.9282841
      6599.5000         0.5793         0.3809         0.3653       -74.0487      -7.702385      0.9418124
      6600.0000         0.5736         0.3777         0.3573       -72.5936      -6.266518      0.9564641
      6600.5000         0.5679         0.3744         0.3493       -72.8816      -6.573746      0.9533291
      6601.0000         0.5623         0.3712         0.3413        -73.333      -7.044373      0.9485268
      6601.5000         0.5566          0.368         0.3319       -73.8746      -7.605209       0.942804
      6602.0000         0.5509         0.3648         0.3217       -74.4281      -8.177933      0.9369599
      6602.5000         0.5508          0.362         0.3116       -73.2043      -6.973366      0.9492514
      6603.0000         0.5568         0.3626         0.3014       -71.2756      -5.063889      0.9687358
      6603.5000         0.5628         0.3633         0.2998       -70.7637      -4.571228       0.973763
      6604.0000         0.5688         0.3639          0.302       -72.2793      -6.106049      0.9581016
      6604.5000         0.5748         0.3646         0.3043       -73.5311      -7.377083      0.9451318
      6605.0000         0.5803         0.3652         0.3065       -72.9485      -6.813713      0.9508805
      6605.5000         0.5836          0.368         0.3104       -71.0264      -4.910843      0.9702975
      6606.0000         0.5868           0.38         0.3246        -69.156      -3.059669      0.9891871
      6606.5000           0.59          0.392         0.3387       -68.2018      -2.124702      0.9987275
      6607.0000         0.5932          0.404         0.3529       -69.9935      -3.935631      0.9802487
      6607.5000         0.5964          0.416         0.3659       -72.2479      -6.209267      0.9570483
      6608.0000         0.5898          0.428         0.3775       -75.3307      -9.311295       0.925395
      6608.5000         0.5776          0.435         0.3892       -78.3193      -12.31912      0.8947029
      6609.0000         0.5654         0.4369         0.4008       -77.8815      -11.90055      0.8989739
      6609.5000         0.5532         0.4389         0.4036       -74.1047      -8.142982      0.9373165
      6610.0000          0.541         0.4408         0.3977       -72.2512      -6.308708      0.9560336
      6610.5000         0.5291         0.4427         0.3918       -71.1948      -5.271545      0.9666169
      6611.0000         0.5247         0.4447         0.3859       -74.3114      -8.407372      0.9346187
      6611.5000         0.5203         0.4428         0.3804         -79.35       -13.4652      0.8830081
      6612.0000         0.5159         0.4407         0.3782       -82.7673      -16.90173      0.8479415
      6612.5000         0.5116         0.4387         0.3759       -91.7128      -25.86646      0.7564647
      6613.0000         0.5072         0.4367         0.3737       -87.2872      -21.46009      0.8014277
      6613.5000         0.5084         0.4346         0.3714       -86.2611      -20.45322      0.8117019
      6614.0000         0.5237         0.4336         0.3692        -86.691      -20.90235      0.8071189
      6614.5000          0.539         0.4331         0.3672       -79.8574      -14.08797      0.8766533
      6615.0000         0.5542         0.4326         0.3651       -75.4116      -9.661407      0.9218224
      6615.5000         0.5689         0.4321         0.3631        -71.828      -6.097038      0.9581935
      6616.0000         0.5826         0.4316         0.3611       -70.2686       -4.55687      0.9739095
      6616.5000         0.5963         0.4311          0.359       -70.8289      -5.136398      0.9679959
      6617.0000           0.61         0.4304         0.3603        -73.146      -7.472733      0.9441558
      6617.5000         0.6237         0.4291         0.3622       -74.9805      -9.326454      0.9252403
      6618.0000         0.6374         0.4278         0.3642       -76.7004      -11.06559       0.907494
      6618.5000         0.6481         0.4265         0.3661       -76.5443      -10.92871      0.9088907
      6619.0000         0.6585         0.4251          0.368       -75.4004      -9.804047      0.9203669
      6619.5000         0.6688         0.4238         0.3684        -74.281      -8.703873      0.9315931
      6620.0000         0.6792         0.4225         0.3649       -73.5179      -7.960007      0.9391836
      6620.5000         0.6895         0.4212         0.3613       -73.8317      -8.293037      0.9357854
      6621.0000         0.6998         0.4178         0.3578       -74.0475      -8.528069       0.933387
      6621.5000          0.687         0.4142         0.3543       -73.8912      -8.390991      0.9347858
      6622.0000         0.6741         0.4107         0.3498       -73.6776      -8.196625      0.9367691
      6622.5000         0.6613         0.4072         0.3397       -73.3105      -7.848755      0.9403188
      6623.0000         0.6484         0.4037         0.3295       -72.9434      -7.500877      0.9438686
      6623.5000         0.6358         0.3981         0.3194       -72.5768      -7.153511      0.9474131
