#------------------------------------------------------------------------------
# Created by    : vladimir.rabinovich
# Created on    : 09/19/2023 17:22:55
#------------------------------------------------------------------------------
~Version Information Section
VERS.           2.0     :   CWLS log ASCII Standard - VERSION 2.0
WRAP.           NO      :   One line per depth step
~Well Information Section
#MNEM       .UNIT                                         VALUE :DESCRIPTION
#------------------------------------------------------------------------------
STRT        .FT                                            1640 :START DEPTH
STOP        .FT                                            9504 :STOP DEPTH
STEP        .FT                                             0.5 :STEP      
NULL        .                                           -999.25 :NULL      
COMP        .                        UNION OIL CO OF CALIFORNIA :COMPANY   
WELL        .                                       DROUGHT H P :WELL      
FLD         .                                           WILDCAT :FIELD     
LOC         .                                                   :LOCATION  
CNTY        .                                          CHAMBERS :LOCATION  
STAT        .                                             TEXAS :STATE     
CTRY        .                                     UNITED STATES :COUNTRY   
SRVC        .                                                   :SERVICE COMPANY
DATE        .                             9/13/2023 11:19:11 AM :LOG DATE  
API         .                                    42071019550000 :API NUMBER
UWI         .                                    42071019550000 :UNIQUE WELL ID
XCOORD      .                                    1177783.835691 :SURFACE X 
YCOORD      .                                  10819467.9364056 :SURFACE Y 
LAT         .                                        29.8039986 :LATITUDE  
LON         .                                       -94.4590755 :LONGITUDE 
ELEV        .FT                                              40 :ELEVATION VALUE
ELEV_TYPE   .                                                DF :ELEVATION REFERENCE TYPE
~Curve Information Section
#MNEM       .UNIT                                      API CODE :CURVE DESCRIPTION
#------------------------------------------------------------------------------
DEPT        .FT                                                 :DEPTH     
LAT         .OHMM                                               :          
LN          .OHMM                                               :          
SN          .OHMM                                               :          
SP          .MV                                                 :          
SP_NORM     .MV                                                 :SP Normalized
VSH_SP      .V/V                                                :Volume of Shale from SP
~A        DEPTH            LAT             LN             SN             SP        SP_NORM         VSH_SP
# ...
      5288.0000         0.4433          0.607         0.7349       -39.5325       2.442806              1
      5288.5000         0.3576         0.6376         0.8143       -40.2483       1.727009              1
      5289.0000         0.2718         0.6682         0.8937       -40.9646       1.010708              1
      5289.5000         0.2474         0.6952         0.8907       -41.6804      0.2949066              1
      5290.0000          0.237         0.7185         0.8841       -42.6947     -0.7193909              1
      5290.5000         0.2834         0.7419         0.8775       -44.7788      -2.803493      0.9817829
      5291.0000         0.3444         0.7652          0.871       -46.8629      -4.887592      0.9607314
      5291.5000         0.4054         0.7886         0.8641       -46.8224      -4.847092      0.9611405
      5292.0000         0.4665         0.8119         0.8572       -46.0551      -4.079792       0.968891
      5292.5000         0.5398         0.8241         0.8503       -44.1019      -2.126591      0.9886203
      5293.0000         0.6203         0.8308         0.8498       -42.1465     -0.1711922              1
      5293.5000         0.7008         0.8375         0.8522       -40.1911       1.784206              1
      5294.0000         0.7814         0.8475         0.8547       -38.0338       3.941509              1
      5294.5000         0.8619         0.8615          0.853       -36.8957       5.079609              1
      5295.0000         0.8482         0.8754          0.849       -37.0684       4.906906              1
      5295.5000         0.8221         0.8893         0.8449        -37.241       4.734306              1
      5296.0000         0.7961         0.9032          0.844       -37.4137       4.561607              1
      5296.5000           0.77         0.9172         0.8545       -37.5952       4.380108              1
      5297.0000         0.7521         0.9311          0.865       -37.7895       4.185806              1
      5297.5000         0.7359          0.945         0.8755       -37.9839       3.991409              1
      5298.0000         0.7197         0.9549         0.8821       -38.1785       3.796806              1
      5298.5000          0.741         0.9492         0.8877       -38.3728       3.602509              1
      5299.0000         0.7718         0.9434         0.8932       -38.5673       3.408009              1
      5299.5000         0.8026         0.9178         0.8988       -38.7618       3.213509              1
      5300.0000         0.8334         0.8865         0.9044       -39.3854       2.589909              1
      5300.5000         0.8657         0.8552         0.9189       -40.0463       1.929008              1
      5301.0000         0.9037         0.8239         0.9408       -40.7066       1.268707              1
      5301.5000         0.9417         0.7989         0.9627       -41.3669      0.6084061              1
      5302.0000         0.9797         0.7765         1.0111       -43.0476      -1.072292      0.9992698
      5302.5000         1.0179         0.7541         1.0026       -46.1105      -4.135193      0.9683314
      5303.0000         1.0561         0.7429         0.9905       -49.5641      -7.588791      0.9334466
      5303.5000         1.0493         0.7334         0.9784       -58.9304      -16.95509      0.8388374
      5304.0000         1.0187         0.7241         0.9664       -66.7518      -24.77649      0.7598334
      5304.5000         0.9329         0.7148         0.9432       -74.8042      -32.82889      0.6784961
      5305.0000         0.8472         0.7056         0.8921       -83.1317      -41.15639      0.5943799
      5305.5000         0.7615         0.7006         0.8409       -88.5651      -46.58979       0.539497
      5306.0000         0.6776         0.6985         0.7898        -95.339      -53.36369      0.4710738
      5306.5000          0.594         0.6965         0.7387       -97.6051       -55.6298      0.4481839
      5307.0000         0.5103         0.6941         0.6734       -95.3257      -53.35039      0.4712082
      5307.5000         0.4417         0.6913         0.6079       -89.6393      -47.66399      0.5286466
      5308.0000         0.3998         0.6885         0.5743       -83.9485      -41.97319      0.5861294
      5308.5000         0.4353         0.7051          0.548       -78.2577      -36.28239      0.6436122
      5309.0000         0.5229          0.734         0.5684       -60.8658      -18.89049       0.819288
      5309.5000         0.6247         0.7855         0.6323       -55.8408      -13.86549      0.8700455
      5310.0000         0.7452          0.837         0.7125       -53.3217      -11.34639      0.8954909
      5310.5000         0.8426         0.8857         0.7906       -51.0467      -9.071392      0.9184708
      5311.0000          0.848          0.918         0.8687       -49.1091      -7.133793      0.9380425
      5311.5000         0.7705         0.9502         0.9073       -47.4922      -5.516891      0.9543748
      5312.0000         0.6313         0.9825          0.943       -46.8455      -4.870193      0.9609072
      5312.5000         0.5182         1.0148         0.9746       -46.5206      -4.545292       0.964189
      5313.0000         0.4253         1.0335         0.9798       -45.8808      -3.905491      0.9706516
      5313.5000         0.3322         1.0513         0.9849       -44.9819      -3.006592      0.9797314
      5314.0000          0.279         1.0691         0.9805       -44.0969      -2.121593      0.9886708
      5314.5000         0.2443         1.0709         0.9548       -43.2762      -1.300892      0.9969607
      5315.0000         0.2566           1.04          0.929       -43.1449      -1.169594      0.9982869
      5315.5000         0.2943         1.0091         0.9033       -43.2091      -1.233791      0.9976385
      5316.0000          0.332         0.9782         0.8776       -43.2733      -1.297993        0.99699
      5316.5000         0.4051         0.9255         0.8461       -43.3374      -1.362091      0.9963425
      5317.0000         0.5206         0.8617         0.8114       -43.1242      -1.148891      0.9984961
      5317.5000         0.6286         0.7978         0.7766       -42.6725     -0.6971931              1
      5318.0000         0.7292         0.7339         0.7419       -42.2208      -0.245491              1
      5318.5000         0.8667          0.697         0.7071       -41.7692      0.2061081              1
      5319.0000         1.0052         0.6824         0.6868       -41.1877      0.7876091              1
      5319.5000         0.9554         0.6678          0.679       -40.5612       1.414108              1
      5320.0000         0.8673         0.6531         0.6712       -39.9342       2.041107              1
      5320.5000         0.7791         0.6878         0.6634        -39.801       2.174309              1
      5321.0000         0.7234         0.7438         0.6556       -40.0676       1.907707              1
      5321.5000         0.6715         0.7998         0.6477        -40.334       1.641308              1
      5322.0000         0.6197         0.8358         0.6412       -39.8232       2.152107              1
      5322.5000         0.5678         0.8531         0.6382       -39.2417       2.733608              1
      5323.0000          0.516         0.8704         0.6352       -38.6597       3.315609              1
      5323.5000         0.5039         0.8877         0.6322       -38.5888       3.386509              1
      5324.0000         0.4917          0.905         0.6292       -38.7099       3.265408              1
      5324.5000         0.4796         0.9222         0.6262        -38.831       3.144306              1
      5325.0000         0.4674         0.9395         0.6232       -39.0792       2.896107              1
      5325.5000         0.4892         0.9363         0.6202       -39.6423       2.333008              1
