#------------------------------------------------------------------------------
# Created by    : vladimir.rabinovich
# Created on    : 09/19/2023 17:22:55
#------------------------------------------------------------------------------
~Version Information Section
VERS.           2.0     :   CWLS log ASCII Standard - VERSION 2.0
WRAP.           NO      :   One line per depth step
~Well Information Section
#MNEM       .UNIT                                         VALUE :DESCRIPTION
#------------------------------------------------------------------------------
STRT        .FT                                            1722 :START DEPTH
STOP        .FT                                            8384 :STOP DEPTH
STEP        .FT                                             0.5 :STEP      
NULL        .                                           -999.25 :NULL      
COMP        .                                   HEBERT HILARY B :COMPANY   
WELL        .                                    REARWIN LEILAW :WELL      
FLD         .                                           WILDCAT :FIELD     
LOC         .                                                   :LOCATION  
CNTY        .                                          CHAMBERS :LOCATION  
STAT        .                                             TEXAS :STATE     
CTRY        .                                     UNITED STATES :COUNTRY   
SRVC        .                                                   :SERVICE COMPANY
DATE        .                             9/13/2023 11:19:11 AM :LOG DATE  
API         .                                    42071022820000 :API NUMBER
UWI         .                                    42071022820000 :UNIQUE WELL ID
XCOORD      .                                  1141949.94059063 :SURFACE X 
YCOORD      .                                  10792730.9347258 :SURFACE Y 
LAT         .                                        29.7291796 :LATITUDE  
LON         .                                       -94.5709084 :LONGITUDE 
ELEV        .FT                                              28 :ELEVATION VALUE
ELEV_TYPE   .                                                DF :ELEVATION REFERENCE TYPE
~Curve Information Section
#MNEM       .UNIT                                      API CODE :CURVE DESCRIPTION
#------------------------------------------------------------------------------
DEPT        .FT                                                 :DEPTH     
LAT         .OHMM                                               :          
LN          .OHMM                                               :          
SN          .OHMM                                               :          
SP          .MV                                                 :          
SP_NORM     .MV                                                 :SP Normalized
VSH_SP      .V/V                                                :Volume of Shale from SP
~A        DEPTH            LAT             LN             SN             SP        SP_NORM         VSH_SP
# ...
      2596.0000         0.6117         0.5296          0.174       -76.1376       11.76385              1
      2596.5000         0.6124         0.5224         0.1787       -76.6605       11.22758              1
      2597.0000         0.6211         0.5152         0.1835       -77.1644       10.71032              1
      2597.5000         0.6297          0.508         0.1883        -77.463       10.39835              1
      2598.0000         0.6383         0.5008          0.193       -77.7617       10.08627              1
      2598.5000         0.6476         0.4935         0.1907       -78.0603       9.774307              1
      2599.0000         0.6571         0.4888         0.1884       -78.5167       9.304535              1
      2599.5000         0.6666         0.4914         0.1896       -79.1436       8.664268              1
      2600.0000         0.6761          0.494         0.2042       -79.7704       8.024094              1
      2600.5000         0.6855          0.496         0.2187       -80.9323       6.848831              1
      2601.0000         0.6946         0.4962         0.2392         -82.12       5.647758              1
      2601.5000         0.7036         0.4964         0.2824       -83.8855       3.868889              1
      2602.0000         0.7126         0.4966         0.3364       -86.0166       1.724419              1
      2602.5000         0.7224         0.4968         0.4325       -88.8741      -1.146454              1
      2603.0000         0.7322         0.4948         0.5603       -90.1985      -2.484222      0.9937114
      2603.5000         0.7356         0.4914         0.7161       -91.0854      -3.384491      0.9820196
      2604.0000         0.7357          0.488         0.8461       -98.3209      -10.63336      0.8878784
      2604.5000         0.7357         0.4846         0.9539      -103.2589      -15.58473      0.8235749
      2605.0000         0.7337         0.4833         1.0279        -104.59       -16.9292      0.8061143
      2605.5000         0.7314         0.4835         0.9558      -103.9612      -16.31377      0.8141069
      2606.0000          0.729         0.4836         0.8798      -102.9751      -15.34103      0.8267398
      2606.5000         0.7226         0.4838         0.8447      -102.6586      -15.03791      0.8306765
      2607.0000         0.7155         0.4872         0.8199      -103.9696      -16.36227       0.813477
      2607.5000         0.7084         0.5071         0.7951       -106.202      -18.60806       0.784311
      2608.0000         0.7012          0.527         0.7703      -105.3989      -17.81832      0.7945672
      2608.5000         0.6845         0.5469          0.719      -103.9922      -16.42499      0.8126625
      2609.0000         0.6658         0.5663         0.6599      -100.6333      -13.07946      0.8561109
      2609.5000          0.647         0.5836         0.6007       -97.5973      -10.05682       0.895366
      2610.0000         0.6283         0.6009         0.5485       -96.7279      -9.200798      0.9064831
      2610.5000         0.6118         0.6182         0.4988       -96.7021       -9.18837      0.9066445
      2611.0000         0.5969         0.6355         0.4491       -96.6765      -9.176132      0.9068035
      2611.5000         0.5971         0.6485         0.4097       -95.6526      -8.165611      0.9199271
      2612.0000         0.6602         0.6576         0.3742       -93.9766      -6.502975      0.9415198
      2612.5000         0.7144         0.6626         0.3387       -91.0953      -3.635048      0.9787656
      2613.0000         0.7687         0.6381         0.3032        -89.033      -1.586113              1
      2613.5000         0.8229         0.6136         0.2773       -87.9894     -0.5558929              1
      2614.0000         0.8373         0.5797         0.2556       -86.8676      0.5525436              1
      2614.5000         0.8518         0.5366          0.234       -85.5492       1.857574              1
      2615.0000         0.8662         0.4935          0.214       -83.1229         4.2705              1
      2615.5000         0.8762         0.4336         0.2173       -81.5708       5.809235              1
      2616.0000         0.8863         0.3658         0.2206       -80.9609       6.405762              1
      2616.5000         0.8963         0.3055         0.2239       -82.0541       5.299194              1
      2617.0000         0.9141         0.2539         0.2272       -83.1466       4.193329              1
      2617.5000         0.9442          0.213         0.2336       -84.5963       2.730255              1
      2618.0000         0.9743          0.206          0.244       -86.1185       1.194687              1
      2618.5000         1.0044          0.199         0.2544       -87.6498     -0.3499908              1
      2619.0000          1.031         0.1921         0.2648       -89.1823      -1.895851              1
      2619.5000         1.0568         0.1863         0.2772       -91.1179      -3.844818      0.9760413
      2620.0000         1.0826         0.1847         0.2967       -93.2872      -6.027496      0.9476948
      2620.5000          1.096         0.1831         0.3161       -96.5908       -9.34446      0.9046174
      2621.0000         1.1093         0.1815         0.3519       -105.248      -18.01504      0.7920125
      2621.5000         1.1226         0.1761         0.3979      -116.5004       -29.2808      0.6457039
      2622.0000         1.1262         0.1552          0.444      -122.5106      -35.30437      0.5674757
      2622.5000         1.0857         0.1344         0.4901      -128.5229      -41.33005      0.4892202
      2623.0000         1.0451         0.1136         0.5478      -134.5332      -47.35371      0.4109907
      2623.5000         1.0018         0.0941         0.6123      -140.5459      -53.37978      0.3327301
      2624.0000         0.9435         0.0749         0.6278      -146.5605      -59.40775      0.2544448
      2624.5000         0.8852         0.0557         0.5632      -158.7837      -71.64433     0.09552824
      2625.0000          0.827         0.0366         0.4987      -163.4548       -76.3288     0.03469096
      2625.5000         0.7683         0.0174         0.4705       -165.145      -78.03236      0.0125667
      2626.0000         0.7088         0.0128         0.4534      -164.4792      -77.37994     0.02103979
      2626.5000         0.6492          0.009         0.4869      -163.6782      -76.59231     0.03126873
      2627.0000         0.5905         0.0052         0.5203      -162.2017      -75.12917     0.05027048
      2627.5000         0.5319         0.0034         0.5599      -160.5972      -73.53804     0.07093454
      2628.0000         0.4787         0.0059         0.6104       -158.772      -71.72621     0.09446479
      2628.5000         0.4887         0.0084         0.6686      -157.8691      -70.83668      0.1060172
      2629.0000         0.4987         0.0109         0.7406      -157.8691      -70.85004      0.1058436
      2629.5000         0.5087         0.0134         0.8107      -158.0232      -71.01751      0.1036687
      2630.0000         0.5311         0.0159         0.8708      -158.7056      -71.71329     0.09463263
      2630.5000         0.5672         0.0186         0.9162      -159.3877      -72.40875     0.08560061
      2631.0000         0.6033         0.0232         0.9356      -160.6467      -73.68113     0.06907624
      2631.5000         0.6328         0.0279         0.9551      -162.0537      -75.10149     0.05062995
      2632.0000          0.659         0.0325         0.9296      -164.0686      -77.12977     0.02428872
      2632.5000         0.6804         0.0372         0.8667       -166.041      -79.11554              0
      2633.0000         0.6965         0.0418         0.7604      -167.8386       -80.9265              0
      2633.5000         0.6944         0.0465         0.6283        -169.01      -82.11127              0
