#------------------------------------------------------------------------------
# Created by    : vladimir.rabinovich
# Created on    : 09/19/2023 17:19:41
#------------------------------------------------------------------------------
~Version Information Section
VERS.           2.0     :   CWLS log ASCII Standard - VERSION 2.0
WRAP.           NO      :   One line per depth step
~Well Information Section
#MNEM       .UNIT                                         VALUE :DESCRIPTION
#------------------------------------------------------------------------------
STRT        .FT                                             149 :START DEPTH
STOP        .FT                                         11018.5 :STOP DEPTH
STEP        .FT                                             0.5 :STEP      
NULL        .                                           -999.25 :NULL      
COMP        .                          STANDARD OIL CO OF TEXAS :COMPANY   
WELL        .                                   JACKSON BERTA N :WELL      
FLD         .                                           WILDCAT :FIELD     
LOC         .                                                   :LOCATION  
CNTY        .                                          CHAMBERS :LOCATION  
STAT        .                                             TEXAS :STATE     
CTRY        .                                     UNITED STATES :COUNTRY   
SRVC        .                                                   :SERVICE COMPANY
DATE        .                             9/13/2023 11:19:11 AM :LOG DATE  
API         .                                    42071023650000 :API NUMBER
UWI         .                                    42071023650000 :UNIQUE WELL ID
XCOORD      .                                  1147650.32957209 :SURFACE X 
YCOORD      .                                  10746494.5600269 :SURFACE Y 
LAT         .                                        29.6022446 :LATITUDE  
LON         .                                       -94.5509971 :LONGITUDE 
ELEV        .FT                                            17.6 :ELEVATION VALUE
ELEV_TYPE   .                                                KB :ELEVATION REFERENCE TYPE
~Curve Information Section
#MNEM       .UNIT                                      API CODE :CURVE DESCRIPTION
#------------------------------------------------------------------------------
DEPT        .FT                                                 :DEPTH     
AM64        .OHMM                                               :          
CILD        .MMHO                                               :          
SN16        .OHMM                                               :          
SP          .MV                                                 :          
SP_NORM     .MV                                                 :SP Normalized
VSH_SP      .V/V                                                :Volume of Shale from SP
~A        DEPTH           AM64           CILD           SN16             SP        SP_NORM         VSH_SP
# ...
      8091.0000         1.2295       910.1102         1.8216        -45.868      -9.727764      0.8820572
      8091.5000         1.1952       882.7277         1.8978       -41.9347      -5.791248      0.9352534
      8092.0000         1.1202       893.8516         1.7506        -39.317      -3.170334      0.9706712
      8092.5000         1.0884       910.0342         1.4734       -38.7509      -2.601013      0.9783647
      8093.0000         0.9836       1146.823         1.3254       -37.6796      -1.526497      0.9928852
      8093.5000         0.9542       1235.421         1.1609       -37.1274     -0.9710808              1
      8094.0000         0.9016        1305.97         1.0037       -37.1247     -0.9651642              1
      8094.5000         0.8743       1361.424         0.9219       -36.5764     -0.4136505              1
      8095.0000         0.8197       1380.221         0.9054       -36.3798     -0.2138329              1
      8095.5000         0.7923       1383.626         0.9052       -36.0254      0.1437836              1
      8096.0000         0.8197       1389.225         0.9107       -35.3214      0.8509979              1
      8096.5000          0.847       1389.346         0.9114        -34.929       1.246613              1
      8097.0000         0.8814       1389.446         0.8425       -34.8085       1.370331              1
      8097.5000         0.9836       1378.582         0.8069        -34.378       1.804047              1
      8098.0000         1.0383       1360.425         0.8079       -33.8302       2.355061              1
      8098.5000         1.0929       1312.872         0.8394       -33.2816       2.906876              1
      8099.0000         1.0929       1251.182         0.8626       -32.7338       3.457893              1
      8099.5000         1.0929       1203.207         0.9156       -32.7306        3.46431              1
      8100.0000         1.0109       1192.308         0.9703       -34.3674       1.830723              1
      8100.5000         1.0656        1210.51         0.9048       -33.8193       2.382042              1
      8101.0000         1.0929       1230.816         0.8882       -33.8226       2.381958              1
      8101.5000         1.0796       1247.322         0.8961       -33.8253       2.382477              1
      8102.0000         1.0656       1236.356         0.8991       -33.8281       2.382893              1
      8102.5000         1.0383       1234.157         0.9045       -33.8307       2.383507              1
      8103.0000         1.0109       1236.403          0.899       -34.3791       1.838322              1
      8103.5000         0.9714       1269.938         0.8751       -36.0629      0.1577377              1
      8104.0000         0.9016       1373.811         0.8445       -40.3846      -4.160748      0.9572872
      8104.5000         0.8354       1443.146         0.8152       -47.2186      -10.99153      0.8649793
      8105.0000         0.7923       1544.187         0.8117       -58.9355      -22.70522      0.7066863
      8105.5000         0.7539       1610.996         0.8225       -62.9749       -26.7414      0.6521433
      8106.0000         0.6831       1681.596         0.8825       -73.1229      -36.88618      0.5150515
      8106.5000         0.6452       1770.993         0.9761        -83.205      -46.96507      0.3788504
      8107.0000         0.5738       1890.434         1.1113       -84.5829      -48.33975      0.3602736
      8107.5000         0.5365       1933.557         1.2949       -85.7859      -49.53953      0.3440604
      8108.0000         0.4918       1989.381         1.5145       -87.8612      -51.61162      0.3160592
      8108.5000         0.4918       2145.668         1.6246       -89.0427       -52.7899      0.3001365
      8109.0000         0.4918       2423.493         1.7434       -91.1394      -54.88338      0.2718462
      8109.5000         0.5007       2526.148          1.776       -91.1417      -54.88247      0.2718585
      8110.0000         0.5464       2593.869         1.1929       -91.3624      -55.09995      0.2689196
      8110.5000         0.5548       2622.425         0.7593       -87.1979      -50.93224        0.32524
      8111.0000         0.6011       2637.871         0.6243       -82.9686      -46.69972      0.3824362
      8111.5000         0.6284        2637.89         0.6596       -80.2012      -43.92911      0.4198769
      8112.0000         0.6557       2615.939         0.6805       -76.4287      -40.15339      0.4709001
      8112.5000         0.6557       2571.524         0.6725       -74.7945      -38.51598      0.4930274
      8113.0000         0.6557         2514.3         0.6478       -76.1272      -39.84546      0.4750614
      8113.5000         0.6831       2456.664         0.6418          -80.8      -44.51505      0.4119588
      8114.0000         0.6897       2388.624         0.6368       -84.6209      -48.33273      0.3603685
      8114.5000         0.7104       2363.303          0.648       -76.4419      -40.15051       0.470939
      8115.0000         0.7104       2349.995         0.6695       -68.2623      -31.96769      0.5815176
      8115.5000         0.7104       2352.361         0.6751       -71.5383      -35.24048      0.5372908
      8116.0000         0.7104       2388.337         0.6858       -76.6917      -40.39067      0.4676937
      8116.5000         0.7054       2440.319         0.6966       -86.8165      -50.51224      0.3309157
      8117.0000         0.6831       2530.674          0.694       -93.1686      -56.86113      0.2451199
      8117.5000         0.6831       2616.189         0.6802       -95.0039      -58.69321       0.220362
      8118.0000         0.6557       2676.264         0.6371        -95.705       -59.3911      0.2109311
      8118.5000         0.6557        2731.62         0.5548       -95.5548      -59.23768      0.2130043
      8119.0000         0.6284       2748.122         0.5035       -92.6989      -56.37856       0.251641
      8119.5000         0.6011       2704.194         0.5003       -90.1058      -53.78225      0.2867264
      8120.0000         0.5738       2656.418         0.5057       -84.2149      -47.88813      0.3663766
      8120.5000         0.5464       2610.834         0.5111       -75.3837      -39.05371      0.4857606
      8121.0000         0.5464        2558.21         0.5294       -74.8408       -38.5076      0.4931405
      8121.5000         0.5191       2517.473         0.5329       -73.7532      -37.41678      0.5078813
      8122.0000         0.4918       2511.997         0.5092        -71.921      -35.58137      0.5326842
      8122.5000         0.4773       2528.508         0.4456       -66.6678      -30.32495      0.6037169
      8123.0000         0.4645       2570.249          0.433       -65.0336      -28.68754      0.6258441
      8123.5000         0.4372       2676.906         0.4292       -77.0369      -40.68763      0.4636807
      8124.0000         0.4372       2798.712         0.4416       -98.4466      -62.09411      0.1744039
      8124.5000         0.4372       3116.513          0.451       -106.474      -70.11829     0.06596911
      8125.0000         0.4372       3283.855         0.4428      -101.5901      -65.23117      0.1320112
      8125.5000         0.4372       3440.735         0.4128       -92.9291      -56.56696      0.2490952
      8126.0000         0.4372       3556.325         0.4007       -86.8683      -50.50294      0.3310413
      8126.5000         0.4372       3600.117         0.3855       -87.1114      -50.74282      0.3277997
      8127.0000         0.4372       3589.152         0.3874       -89.0556      -52.68381      0.3015701
      8127.5000         0.4372       3543.968         0.4508        -95.057      -58.68199      0.2205136
      8128.0000         0.4372       3473.813         0.6227       -98.8793      -62.50108      0.1689043
      8128.5000           0.45       3420.939         0.7014      -104.7301      -68.34866     0.08988293
