#------------------------------------------------------------------------------
# Created by    : vladimir.rabinovich
# Created on    : 09/19/2023 17:22:55
#------------------------------------------------------------------------------
~Version Information Section
VERS.           2.0     :   CWLS log ASCII Standard - VERSION 2.0
WRAP.           NO      :   One line per depth step
~Well Information Section
#MNEM       .UNIT                                         VALUE :DESCRIPTION
#------------------------------------------------------------------------------
STRT        .FT                                            1640 :START DEPTH
STOP        .FT                                            9504 :STOP DEPTH
STEP        .FT                                             0.5 :STEP      
NULL        .                                           -999.25 :NULL      
COMP        .                        UNION OIL CO OF CALIFORNIA :COMPANY   
WELL        .                                       DROUGHT H P :WELL      
FLD         .                                           WILDCAT :FIELD     
LOC         .                                                   :LOCATION  
CNTY        .                                          CHAMBERS :LOCATION  
STAT        .                                             TEXAS :STATE     
CTRY        .                                     UNITED STATES :COUNTRY   
SRVC        .                                                   :SERVICE COMPANY
DATE        .                             9/13/2023 11:19:11 AM :LOG DATE  
API         .                                    42071019550000 :API NUMBER
UWI         .                                    42071019550000 :UNIQUE WELL ID
XCOORD      .                                    1177783.835691 :SURFACE X 
YCOORD      .                                  10819467.9364056 :SURFACE Y 
LAT         .                                        29.8039986 :LATITUDE  
LON         .                                       -94.4590755 :LONGITUDE 
ELEV        .FT                                              40 :ELEVATION VALUE
ELEV_TYPE   .                                                DF :ELEVATION REFERENCE TYPE
~Curve Information Section
#MNEM       .UNIT                                      API CODE :CURVE DESCRIPTION
#------------------------------------------------------------------------------
DEPT        .FT                                                 :DEPTH     
LAT         .OHMM                                               :          
LN          .OHMM                                               :          
SN          .OHMM                                               :          
SP          .MV                                                 :          
SP_NORM     .MV                                                 :SP Normalized
VSH_SP      .V/V                                                :Volume of Shale from SP
~A        DEPTH            LAT             LN             SN             SP        SP_NORM         VSH_SP
# ...
      7910.0000         0.4423         0.3414         0.5434       -60.1996      -10.92389       0.895538
      7910.5000         0.4936         0.3297         0.5208       -56.2505      -6.960213      0.9372609
      7911.0000         0.5307         0.3403         0.4982       -52.6804      -3.375538      0.9749944
      7911.5000         0.5489         0.3611         0.4769       -50.3642      -1.044762      0.9995288
      7912.0000         0.5671          0.382         0.4593       -48.9648      0.3692169              1
      7912.5000         0.5853         0.4028         0.4417       -48.0204       1.328194              1
      7913.0000         0.5686          0.422         0.5006       -48.0723       1.290871              1
      7913.5000         0.5286         0.4368         0.5713       -50.0711     -0.6933479              1
      7914.0000         0.4886         0.4515         0.6394       -52.7377      -3.356426      0.9751955
      7914.5000         0.4486         0.4663         0.7072       -55.2368      -5.857716      0.9488661
      7915.0000         0.4167          0.481         0.7306       -56.3992      -7.022305      0.9366073
      7915.5000         0.3979         0.4958         0.7006        -54.677      -5.302292      0.9547127
      7916.0000          0.379         0.5105         0.6706       -52.6319      -3.259384       0.976217
      7916.5000         0.3601         0.5253         0.6407       -50.6441      -1.273773      0.9971182
      7917.0000         0.3413           0.54         0.6107       -49.4364    -0.06826401              1
      7917.5000         0.3267         0.5498         0.5808       -48.2288       1.137146              1
      7918.0000          0.334         0.5565         0.5503       -47.0233       2.340458              1
      7918.5000         0.3414         0.5632         0.5197       -45.8156       3.545967              1
      7919.0000         0.3549         0.5698         0.4893       -45.1693       4.190079              1
      7919.5000           0.38         0.5765         0.5199       -44.8575       4.499691              1
      7920.0000         0.4047         0.5831          0.551        -45.561       3.793999              1
      7920.5000          0.426         0.5898         0.5821       -46.5076       2.845211              1
      7921.0000         0.4473          0.595         0.6037       -47.4541       1.896519              1
      7921.5000         0.4685         0.5931         0.6182       -49.8287     -0.4802704              1
      7922.0000         0.4898         0.5912         0.6327       -51.7195       -2.37326      0.9855446
      7922.5000         0.5111         0.5893         0.6441       -50.9537      -1.609646      0.9935827
      7923.0000         0.5227         0.5874         0.6387       -50.1879      -0.846035              1
      7923.5000          0.533         0.5855         0.6333        -49.421    -0.08132553              1
      7924.0000         0.5433         0.5836         0.6278       -48.6552      0.6822853              1
      7924.5000         0.5536         0.5817         0.6224       -49.0728      0.2624969              1
      7925.0000          0.564          0.574          0.617       -49.5951     -0.2619934              1
      7925.5000         0.5743         0.5643         0.6193       -50.1174     -0.7864838              1
      7926.0000         0.5804         0.5545         0.6222       -51.1422      -1.813473      0.9914371
      7926.5000         0.5857         0.5447         0.6252       -52.3983      -3.071762       0.978192
      7927.0000          0.591         0.5349         0.6281       -53.1884      -3.864052      0.9698521
      7927.5000         0.5964         0.5251         0.6325       -53.7454      -4.423241      0.9639659
      7928.0000         0.6017         0.5153         0.6511       -54.0803       -4.76033      0.9604176
      7928.5000          0.607         0.5033         0.6696       -54.2938      -4.976021      0.9581472
      7929.0000         0.6172         0.4887         0.6882       -54.5227      -5.207111      0.9557146
      7929.5000         0.6345         0.4741         0.6955       -55.5189      -6.205502      0.9452053
      7930.0000         0.6518         0.4596         0.6731       -56.6031      -7.291889      0.9337696
      7930.5000          0.669          0.445         0.6506       -57.7447       -8.43568      0.9217297
      7931.0000         0.6928         0.4304         0.6277       -59.6884      -10.38157      0.9012467
      7931.5000         0.7274         0.4145         0.6047       -62.9147      -13.61005      0.8672626
      7932.0000         0.7602         0.3979         0.5818       -68.4858      -19.18335      0.8085964
      7932.5000         0.7899         0.3812         0.5588        -74.771      -25.47074      0.7424133
      7933.0000         0.7738         0.3645         0.5707       -83.7008      -34.40272      0.6483924
      7933.5000         0.7551         0.3495         0.6288       -92.4012      -43.10531      0.5567862
      7934.0000         0.7364         0.3348          0.687      -102.9971       -53.7034      0.4452273
      7934.5000         0.6735         0.3345         0.7428      -139.7166      -90.42509     0.05868321
      7935.0000         0.6073         0.3557         0.6693       -141.345      -92.05568     0.04151917
      7935.5000         0.5411         0.3803         0.6078      -143.4099      -94.12277     0.01976029
      7936.0000         0.4749         0.4102         0.5464      -145.4827      -96.19775              0
      7936.5000         0.4087         0.4402         0.5084      -145.3977      -96.11496              0
      7937.0000         0.3391         0.4702         0.4707      -137.1467      -87.86613     0.08561964
      7937.5000         0.2665         0.4878         0.4469      -128.4814      -79.20303      0.1768102
      7938.0000         0.1941         0.4846         0.4914      -120.3805      -71.10432      0.2620597
      7938.5000         0.1462         0.4782         0.5359        -114.21        -64.936      0.3269894
      7939.0000         0.1199         0.4547         0.5804      -107.2725       -58.0007      0.3999926
      7939.5000           0.23         0.4313         0.6248       -99.2065      -49.93689      0.4848749
      7940.0000         0.3517         0.4065         0.6675       -92.9786      -43.71118      0.5504087
      7940.5000         0.4733         0.3731         0.7087       -87.8616      -38.59637      0.6042487
      7941.0000         0.6046         0.3396         0.7499       -89.6554      -40.39236      0.5853436
      7941.5000         0.6619         0.3062          0.791       -96.7031      -47.44225      0.5111343
      7942.0000         0.6269         0.2761         0.8561      -106.1353      -56.87663      0.4118249
      7942.5000         0.5831         0.2729         0.9278       -114.924      -65.66753      0.3192892
      7943.0000         0.5283         0.2697         1.0294       -123.219      -73.96471      0.2319504
      7943.5000         0.4735          0.289         1.1001      -136.4636      -87.21149     0.09251059
      7944.0000         0.4187         0.3111         1.1577      -140.4524      -91.20248     0.05050017
      7944.5000         0.3639         0.3331         1.1244       -142.167      -92.91929     0.03242854
      7945.0000         0.3092         0.3551         1.0832      -143.1025      -93.85696     0.02255827
      7945.5000         0.2544         0.3763          1.042      -143.4783      -94.23496     0.01857934
      7946.0000         0.1996         0.3855         1.0008      -143.0776      -93.83646     0.02277415
      7946.5000         0.1651         0.3947         0.9595      -142.6777      -93.43874     0.02696059
      7947.0000         0.1426         0.4038         0.9189      -142.2773      -93.04053     0.03115234
      7947.5000         0.1201          0.413         0.8861      -141.8298      -92.59522     0.03583976
