#------------------------------------------------------------------------------
# Created by    : vladimir.rabinovich
# Created on    : 09/19/2023 17:22:55
#------------------------------------------------------------------------------
~Version Information Section
VERS.           2.0     :   CWLS log ASCII Standard - VERSION 2.0
WRAP.           NO      :   One line per depth step
~Well Information Section
#MNEM       .UNIT                                         VALUE :DESCRIPTION
#------------------------------------------------------------------------------
STRT        .FT                                            1640 :START DEPTH
STOP        .FT                                            9504 :STOP DEPTH
STEP        .FT                                             0.5 :STEP      
NULL        .                                           -999.25 :NULL      
COMP        .                        UNION OIL CO OF CALIFORNIA :COMPANY   
WELL        .                                       DROUGHT H P :WELL      
FLD         .                                           WILDCAT :FIELD     
LOC         .                                                   :LOCATION  
CNTY        .                                          CHAMBERS :LOCATION  
STAT        .                                             TEXAS :STATE     
CTRY        .                                     UNITED STATES :COUNTRY   
SRVC        .                                                   :SERVICE COMPANY
DATE        .                             9/13/2023 11:19:11 AM :LOG DATE  
API         .                                    42071019550000 :API NUMBER
UWI         .                                    42071019550000 :UNIQUE WELL ID
XCOORD      .                                    1177783.835691 :SURFACE X 
YCOORD      .                                  10819467.9364056 :SURFACE Y 
LAT         .                                        29.8039986 :LATITUDE  
LON         .                                       -94.4590755 :LONGITUDE 
ELEV        .FT                                              40 :ELEVATION VALUE
ELEV_TYPE   .                                                DF :ELEVATION REFERENCE TYPE
~Curve Information Section
#MNEM       .UNIT                                      API CODE :CURVE DESCRIPTION
#------------------------------------------------------------------------------
DEPT        .FT                                                 :DEPTH     
LAT         .OHMM                                               :          
LN          .OHMM                                               :          
SN          .OHMM                                               :          
SP          .MV                                                 :          
SP_NORM     .MV                                                 :SP Normalized
VSH_SP      .V/V                                                :Volume of Shale from SP
~A        DEPTH            LAT             LN             SN             SP        SP_NORM         VSH_SP
# ...
      4262.0000         1.0809         0.6785         0.7933       -78.4575      -31.54391      0.6568099
      4262.5000         1.0878         0.6694         0.7727       -73.9386      -27.02502      0.7075841
      4263.0000         1.0726         0.6579         0.7498       -69.0912      -22.17762      0.7620492
      4263.5000         1.0573         0.6392         0.7244       -64.1594      -17.24582      0.8174627
      4264.0000         1.0421         0.6204          0.699       -58.2023      -11.28872      0.8843964
      4264.5000         1.0268         0.6016         0.6736        -54.103      -7.189419       0.930456
      4265.0000         1.0116         0.5829         0.6482       -52.1864       -5.27282      0.9519908
      4265.5000          0.991         0.5678         0.6227       -50.2698      -3.356216      0.9735256
      4266.0000         0.9681         0.5592         0.6061       -48.7318      -1.818218      0.9908065
      4266.5000         0.9452         0.5506         0.6046       -47.2203     -0.3067169              1
      4267.0000         0.9219          0.542         0.6031       -45.3759       1.537682              1
      4267.5000         0.8819         0.5334         0.6016       -45.1739       1.739681              1
      4268.0000          0.842         0.5398         0.6087       -50.5229      -3.609318      0.9706818
      4268.5000         0.8021         0.5613         0.6775       -55.8674      -8.953819      0.9106312
      4269.0000         0.7606         0.5828         0.7748       -61.0433      -14.12972       0.852475
      4269.5000         0.7159         0.6043         1.0326        -65.793      -18.87942      0.7991077
      4270.0000         0.6712         0.6176         1.2658       -70.5472      -23.63362      0.7456896
      4270.5000         0.6173         0.6226         1.4144       -73.2661      -26.35252      0.7151403
      4271.0000         0.5585         0.6276         1.5544       -75.6121      -28.69852      0.6887807
      4271.5000          0.488         0.6326         1.6693       -78.4375      -31.52392      0.6570346
      4272.0000          0.479         0.6369         1.4864       -78.2644      -31.35081      0.6589796
      4272.5000         0.4968         0.6305         1.2535       -75.9139      -29.00032      0.6853896
      4273.0000         0.5146         0.6241         1.1113        -73.902      -26.98842      0.7079953
      4273.5000          0.559         0.6176         0.9838       -72.1841      -25.27052      0.7272976
      4274.0000          0.605         0.5857         0.9028       -70.4662      -23.55262      0.7465998
      4274.5000         0.6642         0.5482          0.838       -68.4719      -21.55832      0.7690076
      4275.0000          0.791         0.5056         0.7472       -65.4823      -18.56872      0.8025987
      4275.5000         0.8965         0.4539         0.6493       -62.4127      -15.49912      0.8370885
      4276.0000         0.9743         0.4023         0.6378       -60.0911      -13.17752       0.863174
      4276.5000         1.0521         0.3665         0.6918       -64.2172      -17.30362      0.8168133
      4277.0000         1.1071         0.3476         0.6686       -68.3433      -21.42972      0.7704526
      4277.5000         1.1592         0.3291         0.6254       -72.3938      -25.48022      0.7249414
      4278.0000         1.0999         0.3117         0.6074       -76.2891      -29.37552      0.6811739
      4278.5000         0.9954         0.3039         0.6397       -91.3794      -44.46582        0.51162
      4279.0000         0.8909         0.3308         0.6803       -94.7864      -47.87282      0.4733391
      4279.5000         0.7457         0.3744         0.7374       -95.2213      -48.30772      0.4684526
      4280.0000         0.5204         0.4284         0.7945       -90.0966      -43.18302      0.5260335
      4280.5000          0.295         0.4825          0.778       -83.6067      -36.69312      0.5989538
      4281.0000         0.2048         0.5139         0.7537       -77.8693      -30.95572      0.6634189
      4281.5000         0.1304         0.5173         0.6964        -73.761      -26.84742      0.7095795
      4282.0000          0.056         0.5207         0.6391       -69.6527      -22.73912      0.7557402
      4282.5000         0.1023          0.524         0.5817       -65.9883      -19.07471      0.7969133
      4283.0000         0.1847         0.5272         0.5245       -61.7358      -14.82222      0.8446941
      4283.5000         0.2669         0.5149         0.5247       -60.5417      -13.62812       0.858111
      4284.0000         0.3492         0.5026         0.5391       -65.1538      -18.24022      0.8062897
      4284.5000          0.413         0.4902         0.5534       -69.7659      -22.85232      0.7544683
      4285.0000         0.4558         0.4779         0.5677        -75.359      -28.44542      0.6916245
      4285.5000         0.4987         0.4655         0.5821       -82.5414      -35.62782      0.6109234
      4286.0000         0.5048         0.4554         0.5717        -89.697      -42.78342      0.5305234
      4286.5000         0.4724         0.4497         0.5544       -95.8717      -48.95811      0.4611448
      4287.0000           0.44          0.444          0.537      -100.6658      -53.75222      0.4072784
      4287.5000         0.4076         0.4383          0.531      -103.5667      -56.65312       0.374684
      4288.0000         0.3517         0.4327         0.5258      -106.1102      -59.19662      0.3461054
      4288.5000         0.2902         0.4292         0.5277      -108.0928      -61.17921      0.3238291
      4289.0000         0.2287         0.4282         0.5456      -108.6865      -61.77292      0.3171582
      4289.5000         0.1672         0.4271         0.5449      -105.6708      -58.75722      0.3510425
      4290.0000         0.1396         0.4261          0.537      -101.7423      -54.82872      0.3951829
      4290.5000         0.1526          0.425         0.5372       -96.1558      -49.24222      0.4579526
      4291.0000         0.1754          0.424         0.5373       -89.2487      -42.33512      0.5355604
      4291.5000         0.2286         0.4158          0.534       -82.6212      -35.70762      0.6100268
      4292.0000         0.2818         0.4031         0.5206       -76.8284      -29.91482      0.6751144
      4292.5000          0.335         0.3904         0.5071       -70.5161      -23.60252      0.7460392
      4293.0000         0.3883         0.3778         0.4937        -62.779      -15.86542      0.8329728
      4293.5000         0.4415         0.3651           0.49       -56.4268      -9.513218      0.9043459
      4294.0000         0.4947         0.3524         0.4927       -49.4109      -2.497318      0.9831762
      4294.5000         0.5735         0.3442         0.4954       -49.0924      -2.178818      0.9867548
      4295.0000         0.6627           0.34         0.5548       -51.0245       -4.11092      0.9650459
      4295.5000         0.7212         0.3358         0.6304       -52.9565      -6.042919       0.943338
      4296.0000         0.7061         0.3407         0.6817       -55.0262      -8.112617      0.9200829
      4296.5000         0.6538         0.3672         0.6996       -57.1326      -10.21902      0.8964155
      4297.0000         0.6014         0.3937         0.7175       -59.2389      -12.32532      0.8727493
      4297.5000         0.5491         0.4202         0.7372       -61.8468      -14.93322       0.843447
      4298.0000         0.4967         0.4467         0.7581        -65.136      -18.22242      0.8064896
      4298.5000         0.4444         0.4733         0.7911        -72.709      -25.79542      0.7213998
      4299.0000         0.3958         0.5099         0.8711       -77.8182      -30.90462      0.6639931
      4299.5000         0.3483         0.5476         0.9335       -80.5286      -33.61502      0.6335391
