#------------------------------------------------------------------------------
# Created by    : vladimir.rabinovich
# Created on    : 09/19/2023 17:22:55
#------------------------------------------------------------------------------
~Version Information Section
VERS.           2.0     :   CWLS log ASCII Standard - VERSION 2.0
WRAP.           NO      :   One line per depth step
~Well Information Section
#MNEM       .UNIT                                         VALUE :DESCRIPTION
#------------------------------------------------------------------------------
STRT        .FT                                            1722 :START DEPTH
STOP        .FT                                            8384 :STOP DEPTH
STEP        .FT                                             0.5 :STEP      
NULL        .                                           -999.25 :NULL      
COMP        .                                   HEBERT HILARY B :COMPANY   
WELL        .                                    REARWIN LEILAW :WELL      
FLD         .                                           WILDCAT :FIELD     
LOC         .                                                   :LOCATION  
CNTY        .                                          CHAMBERS :LOCATION  
STAT        .                                             TEXAS :STATE     
CTRY        .                                     UNITED STATES :COUNTRY   
SRVC        .                                                   :SERVICE COMPANY
DATE        .                             9/13/2023 11:19:11 AM :LOG DATE  
API         .                                    42071022820000 :API NUMBER
UWI         .                                    42071022820000 :UNIQUE WELL ID
XCOORD      .                                  1141949.94059063 :SURFACE X 
YCOORD      .                                  10792730.9347258 :SURFACE Y 
LAT         .                                        29.7291796 :LATITUDE  
LON         .                                       -94.5709084 :LONGITUDE 
ELEV        .FT                                              28 :ELEVATION VALUE
ELEV_TYPE   .                                                DF :ELEVATION REFERENCE TYPE
~Curve Information Section
#MNEM       .UNIT                                      API CODE :CURVE DESCRIPTION
#------------------------------------------------------------------------------
DEPT        .FT                                                 :DEPTH     
LAT         .OHMM                                               :          
LN          .OHMM                                               :          
SN          .OHMM                                               :          
SP          .MV                                                 :          
SP_NORM     .MV                                                 :SP Normalized
VSH_SP      .V/V                                                :Volume of Shale from SP
~A        DEPTH            LAT             LN             SN             SP        SP_NORM         VSH_SP
# ...
      7878.0000         0.6986         0.1935         0.8465      -119.0344      -53.99412      0.4694478
      7878.5000         0.7008         0.2213         0.9266       -127.616      -62.57684       0.381869
      7879.0000         0.6917         0.2405         0.9332      -135.2942      -70.25618      0.3035084
      7879.5000          0.689         0.2273          0.898      -138.8284       -73.7915      0.2674336
      7880.0000         0.6905         0.2214         0.8528      -139.6904      -74.65463      0.2586262
      7880.5000         0.6944         0.2185          0.802      -137.9546      -72.91997      0.2763269
      7881.0000         0.6993         0.2158         0.7664      -135.3845        -70.351      0.3025408
      7881.5000         0.7002         0.2149         0.7659      -132.7288      -67.69643      0.3296283
      7882.0000         0.6985         0.2235         0.7895      -130.2219      -65.19065      0.3551974
      7882.5000         0.6951         0.2305         0.7786      -127.6521      -62.62199      0.3814083
      7883.0000         0.6897         0.2317         0.7097      -124.7976      -59.76862      0.4105243
      7883.5000         0.6843          0.231         0.6438      -121.2159      -56.18804      0.4470608
      7884.0000         0.6791         0.2284          0.589      -116.6224      -51.59567      0.4939217
      7884.5000         0.6773         0.2259         0.6003       -111.076       -46.0504      0.5505061
      7885.0000         0.6866         0.2236         0.6306       -106.844      -41.81953      0.5936782
      7885.5000         0.6958          0.219         0.6981      -106.1123      -41.08897       0.601133
      7886.0000         0.7045         0.2131         0.7647      -108.9803       -43.9581      0.5718561
      7886.5000         0.7189         0.2055         0.8055      -111.6993      -46.67823      0.5440997
      7887.0000         0.7401          0.197         0.7484      -113.5466      -48.52666      0.5252382
      7887.5000         0.7559         0.1896         0.6555       -112.824      -47.80518      0.5326002
      7888.0000         0.7574         0.1793          0.584      -109.3959      -44.37821      0.5675693
      7888.5000         0.7578         0.1661         0.6406      -106.7175      -41.70094      0.5948883
      7889.0000         0.7554         0.1481         0.8842      -106.1033      -41.08788      0.6011441
      7889.5000          0.739         0.1473         1.1436      -115.5565      -50.54221      0.5046713
      7890.0000         0.7051         0.1651         1.3843      -142.6021      -77.58894      0.2286843
      7890.5000         0.6789         0.1991         1.5544      -156.7664      -91.75437     0.08413906
      7891.0000         0.6573         0.2254         1.4865       -165.095      -100.0841              0
      7891.5000         0.6347         0.2453         1.2966      -168.3853      -103.3755              0
      7892.0000         0.6119         0.2465         1.0892      -170.2688      -105.2602              0
      7892.5000         0.5824         0.2419         0.9222      -171.5876      -106.5801              0
      7893.0000         0.5504         0.2353          0.796      -172.1619      -107.1555              0
      7893.5000         0.5327         0.2411         0.7234      -172.5615      -107.5562              0
      7894.0000         0.5252         0.2477         0.6645      -172.8674      -107.8633              0
      7894.5000         0.5211         0.2509         0.6114      -172.7947      -107.7917              0
      7895.0000         0.5291         0.2472         0.5607      -172.1704      -107.1685              0
      7895.5000         0.5376         0.2385         0.4551      -171.2117       -106.211              0
      7896.0000         0.5528         0.2276         0.3828      -169.3113      -104.3117              0
      7896.5000          0.568         0.2152         0.3322      -166.3914      -101.3929              0
      7897.0000         0.5862         0.1947         0.3336      -161.4546      -96.45727     0.03615033
      7897.5000         0.6082         0.1758         0.3861      -151.8342      -86.83799      0.1343062
      7898.0000         0.6302         0.1614         0.5129      -140.6147      -75.61962      0.2487794
      7898.5000         0.6449         0.1357         0.6167      -128.0496      -63.05566      0.3769831
      7899.0000         0.6595         0.1197         0.6732      -123.6549      -58.66208      0.4218155
      7899.5000         0.6719         0.1217         0.6814      -119.5222      -54.53051      0.4639744
      7900.0000         0.6837         0.1435         0.7022      -116.5457      -51.55515      0.4943353
      7900.5000          0.684         0.1716         0.7488      -114.4985      -49.50907      0.5152135
      7901.0000         0.6809         0.2031         0.7496      -118.3389       -53.3506      0.4760143
      7901.5000          0.684         0.2177         0.6881      -122.8103      -57.82314      0.4303762
      7902.0000         0.6885         0.2256         0.6171      -121.2656      -56.27956      0.4461269
      7902.5000         0.7047         0.2224          0.601       -111.618      -46.63309      0.5445603
      7903.0000         0.7183         0.2205         0.6248      -104.0753      -39.09152      0.6215151
      7903.5000         0.7188         0.2213         0.6199      -101.9164      -36.93375      0.6435331
      7904.0000         0.7207           0.22         0.5457      -109.8114      -44.82989      0.5629603
      7904.5000         0.7274         0.2167         0.4333      -106.1259      -41.14552       0.600556
      7905.0000         0.7341         0.2285         0.3686       -91.7268      -26.74754      0.7474741
      7905.5000         0.7443         0.2453         0.3536       -74.0758      -9.097672      0.9275748
      7906.0000          0.755         0.2632         0.3484       -66.8446      -1.867599              1
      7906.5000         0.7627         0.2777         0.3535       -69.0352      -4.059334      0.9789864
      7907.0000         0.7695          0.283         0.3608       -70.4178      -5.443062      0.9648667
      7907.5000         0.7706         0.2852         0.3702       -73.4796      -8.505997      0.9336123
      7908.0000          0.765          0.286         0.3834       -74.5546       -9.58213      0.9226313
      7908.5000         0.7591         0.2868         0.3938       -70.6635      -5.692154       0.962325
      7909.0000         0.7512         0.2875         0.3908       -71.9417      -6.971489      0.9492705
      7909.5000         0.7434         0.2974         0.3874        -72.723      -7.753914      0.9412866
      7910.0000         0.7344           0.31         0.3833       -69.1887      -4.220741      0.9773394
      7910.5000         0.7246         0.3241         0.3715        -64.234      0.7328262              1
      7911.0000         0.7169         0.3364         0.3651       -62.5177        2.44799              1
      7911.5000         0.7112         0.3565         0.3739       -60.4084        4.55616              1
      7912.0000         0.7091          0.382         0.3943       -59.1306       5.832832              1
      7912.5000         0.7171         0.4054         0.4258       -59.3121       5.650204              1
      7913.0000         0.7239         0.4202         0.4634       -62.4725       2.488674              1
      7913.5000         0.7282         0.4282         0.5046       -68.8093      -3.849258        0.98113
      7914.0000         0.7157         0.4362         0.5458       -78.1859      -13.22698       0.885439
      7914.5000         0.6819         0.4373         0.5199       -84.1749      -19.21712      0.8243151
      7915.0000         0.6585         0.4332         0.4799       -89.9744      -25.01775       0.765125
      7915.5000         0.6431         0.4298          0.436        -85.286      -20.33048      0.8129542
