#------------------------------------------------------------------------------
# Created by    : vladimir.rabinovich
# Created on    : 09/19/2023 17:22:55
#------------------------------------------------------------------------------
~Version Information Section
VERS.           2.0     :   CWLS log ASCII Standard - VERSION 2.0
WRAP.           NO      :   One line per depth step
~Well Information Section
#MNEM       .UNIT                                         VALUE :DESCRIPTION
#------------------------------------------------------------------------------
STRT        .FT                                            1640 :START DEPTH
STOP        .FT                                            9504 :STOP DEPTH
STEP        .FT                                             0.5 :STEP      
NULL        .                                           -999.25 :NULL      
COMP        .                        UNION OIL CO OF CALIFORNIA :COMPANY   
WELL        .                                       DROUGHT H P :WELL      
FLD         .                                           WILDCAT :FIELD     
LOC         .                                                   :LOCATION  
CNTY        .                                          CHAMBERS :LOCATION  
STAT        .                                             TEXAS :STATE     
CTRY        .                                     UNITED STATES :COUNTRY   
SRVC        .                                                   :SERVICE COMPANY
DATE        .                             9/13/2023 11:19:11 AM :LOG DATE  
API         .                                    42071019550000 :API NUMBER
UWI         .                                    42071019550000 :UNIQUE WELL ID
XCOORD      .                                    1177783.835691 :SURFACE X 
YCOORD      .                                  10819467.9364056 :SURFACE Y 
LAT         .                                        29.8039986 :LATITUDE  
LON         .                                       -94.4590755 :LONGITUDE 
ELEV        .FT                                              40 :ELEVATION VALUE
ELEV_TYPE   .                                                DF :ELEVATION REFERENCE TYPE
~Curve Information Section
#MNEM       .UNIT                                      API CODE :CURVE DESCRIPTION
#------------------------------------------------------------------------------
DEPT        .FT                                                 :DEPTH     
LAT         .OHMM                                               :          
LN          .OHMM                                               :          
SN          .OHMM                                               :          
SP          .MV                                                 :          
SP_NORM     .MV                                                 :SP Normalized
VSH_SP      .V/V                                                :Volume of Shale from SP
~A        DEPTH            LAT             LN             SN             SP        SP_NORM         VSH_SP
# ...
      2666.0000         1.0018         0.5247         1.2214      -115.1991      -58.62432      0.1996622
      2666.5000         0.9438         0.5076         1.1495      -116.4459      -59.86854      0.1823814
      2667.0000         0.8821         0.4905         1.0874      -117.4652      -60.88526      0.1682603
      2667.5000         0.8137         0.4733         1.0362       -117.109      -60.52647      0.1732435
      2668.0000         0.7739         0.4565         0.9781      -116.1479      -59.56279       0.186628
      2668.5000         0.7511         0.4413          0.937      -115.1874       -58.5997      0.2000042
      2669.0000         0.7282         0.4261         1.0041      -115.9803      -59.39001      0.1890276
      2669.5000          0.726         0.4109         1.1415      -118.0134      -61.42052       0.160826
      2670.0000         0.7283         0.3973         1.1438      -120.0476      -63.45214      0.1326092
      2670.5000         0.7307         0.3854         1.0826      -122.0807      -65.48267      0.1044074
      2671.0000          0.716         0.3735         1.0214      -124.1136      -67.51297     0.07620875
      2671.5000         0.6757         0.3616         0.9601      -126.0347      -69.43149     0.04956267
      2672.0000         0.6354         0.3544         0.8989      -127.8069       -71.2011     0.02498468
      2672.5000          0.595         0.3532         0.8417      -128.3706      -71.76222     0.01719136
      2673.0000         0.5291          0.352         0.7888      -127.8247      -71.21373     0.02480931
      2673.5000         0.4611         0.3509         0.7359      -127.5447      -70.93114      0.0287341
      2674.0000         0.4088         0.3497          0.683      -127.2825      -70.66637     0.03241158
      2674.5000         0.3652         0.3485         0.6409      -127.1927      -70.57397      0.0336948
      2675.0000         0.3346         0.3473         0.6191      -128.1765      -71.55519     0.02006679
      2675.5000         0.3238         0.3461         0.6026      -129.1609      -72.53701    0.006430414
      2676.0000         0.3129          0.345         0.6299       -130.145      -73.51852              0
      2676.5000         0.3021         0.3439         0.6571      -131.1289      -74.49984              0
      2677.0000         0.2913         0.3432         0.6844      -131.7205      -75.08885              0
      2677.5000         0.2896         0.3425         0.7088      -132.3062      -75.67197              0
      2678.0000         0.2885         0.3417         0.7153      -132.8689      -76.23207              0
      2678.5000         0.2874          0.341         0.7219      -133.2593      -76.61989              0
      2679.0000         0.2863         0.3402         0.7284      -133.3057       -76.6637              0
      2679.5000         0.2852         0.3395          0.735      -133.1963      -76.55173              0
      2680.0000         0.2766         0.3387         0.7425      -133.0869      -76.43974              0
      2680.5000         0.2672          0.338          0.751      -131.9146      -75.26485              0
      2681.0000         0.2579         0.3372         0.7595      -130.5935      -73.94118              0
      2681.5000         0.2485         0.3365         0.7679      -129.2729      -72.61798     0.00530582
      2682.0000         0.2392         0.3357          0.778      -127.9701       -71.3126     0.02343612
      2682.5000         0.2302          0.335         0.8014      -126.7433      -70.08321     0.04051092
      2683.0000         0.2305         0.3352         0.8248      -125.5159      -68.85323     0.05759409
      2683.5000         0.2308         0.3356         0.8584      -125.0886      -68.42334     0.06356473
      2684.0000         0.2311          0.336         0.7757      -124.7838      -68.11595       0.067834
      2684.5000         0.2314         0.3364         0.6728      -124.7562      -68.08577      0.0682532
      2685.0000         0.2316         0.3368         0.6216      -125.0393      -68.36629     0.06435712
      2685.5000         0.2319         0.3372         0.6217      -125.3419      -68.66631      0.0601902
      2686.0000         0.2322         0.3376         0.6221      -126.2017      -69.52351     0.04828453
      2686.5000         0.2325         0.3381         0.6341      -127.0612      -70.38043     0.03638289
      2687.0000         0.2328         0.3424         0.6464       -127.921      -71.23764     0.02447722
      2687.5000         0.2331         0.3468         0.6586      -128.7363      -72.05035     0.01318953
      2688.0000          0.222         0.3511         0.6581      -129.1711      -72.48257    0.007186466
      2688.5000         0.2022         0.3554          0.637       -129.606      -72.91489    0.001182132
      2689.0000         0.1824         0.3597         0.6159      -129.7808      -73.08711              0
      2689.5000         0.1627         0.3641         0.5877      -129.9131      -73.21682              0
      2690.0000         0.1429         0.3684          0.557      -128.2253      -71.52643     0.02046628
      2690.5000          0.127         0.3781         0.5262      -126.1844      -69.48296     0.04884784
      2691.0000         0.1212         0.3891         0.4955      -123.7552      -67.05116     0.08262274
      2691.5000         0.1153         0.4002         0.4785      -119.5626      -62.85598      0.1408892
      2692.0000         0.1094         0.4113         0.4638        -115.37      -58.66079      0.1991556
      2692.5000          0.142         0.4223         0.4499      -109.0377       -52.3259      0.2871402
      2693.0000         0.1812         0.4334          0.501        -97.887      -41.17262      0.4420469
      2693.5000         0.2205         0.4444         0.5513       -72.3938      -15.67683      0.7961551
      2694.0000         0.2598         0.4555         0.5854        -64.053      -7.333454      0.9120353
      2694.5000         0.2991         0.4702         0.6195       -60.4097      -3.687565      0.9626727
      2695.0000         0.3383         0.4858         0.6536       -58.0059      -1.281181      0.9960947
      2695.5000         0.3752         0.5015         0.6839       -56.8007    -0.07339859              1
      2696.0000          0.411         0.5238         0.7136        -56.917     -0.1871109              1
      2696.5000         0.4468         0.5462         0.7302       -57.4377     -0.7052231              1
      2697.0000         0.4668         0.5671         0.7413       -57.9585      -1.223438      0.9968967
      2697.5000         0.4716         0.5859         0.7527       -58.4792      -1.741554      0.9897006
      2698.0000         0.4765         0.6047         0.7643       -58.0048      -1.264568      0.9963254
      2698.5000         0.4813         0.6235          0.776       -56.3291      0.4137154              1
      2699.0000         0.4862         0.6423         0.7876       -54.7455       1.999901              1
      2699.5000         0.5055         0.6611         0.8028        -53.669       3.078987              1
      2700.0000         0.5266         0.6815         0.8185       -52.5931       4.157471              1
      2700.5000         0.5478         0.7073         0.8341       -51.8066       4.946556              1
      2701.0000         0.5689         0.7331         0.8498       -52.0141       4.741642              1
      2701.5000         0.6091         0.7589         0.8514       -52.2216       4.536728              1
      2702.0000         0.6697         0.7847         0.8471       -52.7385       4.022415              1
      2702.5000         0.7302         0.8105         0.8428       -53.4695       3.293995              1
      2703.0000         0.7907         0.8361         0.8366       -54.2003       2.565784              1
      2703.5000         0.8598         0.8592         0.8294       -54.9314       1.837269              1
