#------------------------------------------------------------------------------
# Created by    : vladimir.rabinovich
# Created on    : 09/19/2023 17:22:55
#------------------------------------------------------------------------------
~Version Information Section
VERS.           2.0     :   CWLS log ASCII Standard - VERSION 2.0
WRAP.           NO      :   One line per depth step
~Well Information Section
#MNEM       .UNIT                                         VALUE :DESCRIPTION
#------------------------------------------------------------------------------
STRT        .FT                                            1640 :START DEPTH
STOP        .FT                                            9504 :STOP DEPTH
STEP        .FT                                             0.5 :STEP      
NULL        .                                           -999.25 :NULL      
COMP        .                        UNION OIL CO OF CALIFORNIA :COMPANY   
WELL        .                                       DROUGHT H P :WELL      
FLD         .                                           WILDCAT :FIELD     
LOC         .                                                   :LOCATION  
CNTY        .                                          CHAMBERS :LOCATION  
STAT        .                                             TEXAS :STATE     
CTRY        .                                     UNITED STATES :COUNTRY   
SRVC        .                                                   :SERVICE COMPANY
DATE        .                             9/13/2023 11:19:11 AM :LOG DATE  
API         .                                    42071019550000 :API NUMBER
UWI         .                                    42071019550000 :UNIQUE WELL ID
XCOORD      .                                    1177783.835691 :SURFACE X 
YCOORD      .                                  10819467.9364056 :SURFACE Y 
LAT         .                                        29.8039986 :LATITUDE  
LON         .                                       -94.4590755 :LONGITUDE 
ELEV        .FT                                              40 :ELEVATION VALUE
ELEV_TYPE   .                                                DF :ELEVATION REFERENCE TYPE
~Curve Information Section
#MNEM       .UNIT                                      API CODE :CURVE DESCRIPTION
#------------------------------------------------------------------------------
DEPT        .FT                                                 :DEPTH     
LAT         .OHMM                                               :          
LN          .OHMM                                               :          
SN          .OHMM                                               :          
SP          .MV                                                 :          
SP_NORM     .MV                                                 :SP Normalized
VSH_SP      .V/V                                                :Volume of Shale from SP
~A        DEPTH            LAT             LN             SN             SP        SP_NORM         VSH_SP
# ...
      6846.0000         0.4038         0.6558         0.6146       -45.0051      -1.037434       0.999606
      6846.5000         0.4171         0.6486         0.6109       -44.6261      -0.651825              1
      6847.0000         0.4305         0.6413         0.6047       -44.2476     -0.2667198              1
      6847.5000         0.4438          0.634         0.5985       -43.8785      0.1089859              1
      6848.0000         0.4571         0.6268         0.5923       -44.7424     -0.7483063              1
      6848.5000         0.4704         0.6195         0.5861       -45.6063      -1.605598      0.9936253
      6849.0000         0.4803         0.6135         0.5799       -46.4701      -2.462791      0.9846022
      6849.5000         0.4874         0.6165         0.5737       -47.3285      -3.314583      0.9756359
      6850.0000         0.4946         0.6195         0.5662       -48.1857       -4.16518      0.9666823
      6850.5000         0.5017         0.6225         0.5574        -49.043      -5.015873      0.9577277
      6851.0000         0.5088         0.6255         0.5486       -49.8992      -5.865467      0.9487845
      6851.5000         0.5024         0.6318         0.5398       -50.7565       -6.71616      0.9398299
      6852.0000         0.4899         0.6418         0.5311       -51.6104      -7.563454       0.930911
      6852.5000         0.4774         0.6518         0.5318       -52.4644      -8.410847      0.9219911
      6853.0000         0.4649         0.6618         0.5382       -53.3173      -9.257137      0.9130828
      6853.5000         0.4524         0.6717         0.5445       -54.1933      -10.12653      0.9039313
      6854.0000         0.4373         0.6817         0.5508       -55.1596      -11.08622      0.8938292
      6854.5000         0.4206         0.6917         0.5582        -56.126      -12.04602      0.8837261
      6855.0000         0.4039         0.7017         0.5702       -57.1199      -13.03331      0.8733336
      6855.5000         0.3872         0.7117         0.5823       -58.3011      -14.20791      0.8609694
      6856.0000         0.3705         0.7147         0.5943       -58.3309       -14.2311      0.8607253
      6856.5000         0.3543         0.7176         0.6063       -57.5408      -13.43439      0.8691117
      6857.0000         0.3407         0.7205         0.6183        -56.418      -12.30499      0.8810002
      6857.5000         0.3271         0.7234         0.6304       -55.2952      -11.17558      0.8928887
      6858.0000         0.3135         0.7262         0.6361       -54.1558      -10.02957      0.9049519
      6858.5000         0.2999         0.7291         0.6394       -52.8688      -8.735966      0.9185688
      6859.0000         0.2975          0.732         0.6426       -51.5818      -7.442356      0.9321857
      6859.5000         0.3072         0.7294         0.6459       -50.9267      -6.780651       0.939151
      6860.0000         0.3168         0.7243         0.6492       -52.8347      -8.682045      0.9191363
      6860.5000         0.3264         0.7193         0.6525       -55.2841      -11.12484      0.8934228
      6861.0000          0.336         0.7143         0.6557       -55.9761      -11.81023      0.8862081
      6861.5000         0.3504         0.7092          0.659       -56.3574      -12.18493       0.882264
      6862.0000         0.3715         0.7042         0.6623       -55.5354      -11.35632      0.8909861
      6862.5000         0.3925         0.6992         0.6655       -54.7123      -10.52661      0.8997199
      6863.0000         0.4136         0.6941         0.6688       -54.1338      -9.941505      0.9058789
      6863.5000         0.4347         0.6889         0.6643       -53.6154      -9.416496      0.9114053
      6864.0000         0.4557         0.6831         0.6598       -53.0969      -8.891392      0.9169327
      6864.5000         0.4768         0.6772         0.6553       -52.5784      -8.366283      0.9224602
      6865.0000         0.4969         0.6713         0.6508       -52.2231      -8.004375      0.9262697
      6865.5000         0.5109         0.6655         0.6463       -51.8716      -7.646271      0.9300392
      6866.0000         0.5249         0.6596         0.6418       -51.5201      -7.288162      0.9338088
      6866.5000         0.5389         0.6538         0.6373        -51.168      -6.929459      0.9375846
      6867.0000         0.5528         0.6479         0.6328       -50.6143      -6.369152      0.9434826
      6867.5000         0.5668          0.642         0.6283       -50.0507      -5.798946      0.9494848
      6868.0000         0.5808         0.6362         0.6232       -50.1843      -5.925938       0.948148
      6868.5000         0.5809         0.6313         0.6175       -50.3573      -6.092331      0.9463965
      6869.0000         0.5736         0.6276         0.6118         -50.53      -6.258423      0.9446482
      6869.5000         0.5662         0.6239          0.606       -50.3317      -6.053516      0.9468051
      6870.0000         0.5589         0.6203         0.6003       -49.9802      -5.695412      0.9505746
      6870.5000         0.5459         0.6166         0.5945       -49.8474      -5.556004       0.952042
      6871.0000         0.5316         0.6129         0.5888        -50.243      -5.944996      0.9479474
      6871.5000         0.5172         0.6092          0.583       -50.6463      -6.341694      0.9437717
      6872.0000         0.5028         0.6055         0.5773       -51.0501      -6.738884      0.9395907
      6872.5000         0.4885         0.6019         0.5715       -51.1928      -6.874977      0.9381582
      6873.0000         0.4741         0.5982         0.5682       -51.0008      -6.676373      0.9402487
      6873.5000          0.467          0.595         0.5668       -50.7141      -6.383064      0.9433362
      6874.0000         0.4606          0.592         0.5654       -50.0942      -5.756557       0.949931
      6874.5000         0.4542          0.589          0.564        -49.475      -5.130749      0.9565184
      6875.0000         0.4477          0.586         0.5626       -48.8552      -4.504345      0.9631122
      6875.5000         0.4413         0.5829         0.5612       -48.2359      -3.878437      0.9697006
      6876.0000         0.4349         0.5799         0.5599       -47.6425      -3.278431      0.9760165
      6876.5000         0.4284         0.5769         0.5585        -47.155      -2.784321      0.9812177
      6877.0000         0.4238         0.5739         0.5571       -46.6679      -2.290619      0.9864146
      6877.5000         0.4255         0.5709         0.5557       -46.4924      -2.108513      0.9883314
      6878.0000         0.4272         0.5684         0.5544       -46.5347      -2.144203      0.9879557
      6878.5000         0.4289         0.5677          0.555       -46.5768      -2.179699      0.9875821
      6879.0000         0.4306         0.5671         0.5557       -46.4624      -2.058689      0.9888559
      6879.5000         0.4323         0.5664         0.5564       -46.0602      -1.649883      0.9931591
      6880.0000          0.434         0.5658         0.5571        -45.658      -1.241077      0.9974623
      6880.5000         0.4357         0.5651         0.5578       -45.6481      -1.224571      0.9976361
      6881.0000         0.4357         0.5644         0.5584       -45.9764      -1.546261      0.9942499
      6881.5000         0.4322         0.5638         0.5591       -46.3046      -1.867855      0.9908647
      6882.0000         0.4287         0.5631         0.5598       -46.6326      -2.189247      0.9874816
      6882.5000         0.4252         0.5624         0.5605        -46.615      -2.166092      0.9877254
      6883.0000         0.4216         0.5618         0.5609       -46.4387      -1.984436      0.9896375
      6883.5000         0.4181         0.5611          0.559       -46.3232      -1.863579      0.9909097
