#------------------------------------------------------------------------------
# Created by    : vladimir.rabinovich
# Created on    : 09/19/2023 17:22:55
#------------------------------------------------------------------------------
~Version Information Section
VERS.           2.0     :   CWLS log ASCII Standard - VERSION 2.0
WRAP.           NO      :   One line per depth step
~Well Information Section
#MNEM       .UNIT                                         VALUE :DESCRIPTION
#------------------------------------------------------------------------------
STRT        .FT                                            1722 :START DEPTH
STOP        .FT                                            8384 :STOP DEPTH
STEP        .FT                                             0.5 :STEP      
NULL        .                                           -999.25 :NULL      
COMP        .                                   HEBERT HILARY B :COMPANY   
WELL        .                                    REARWIN LEILAW :WELL      
FLD         .                                           WILDCAT :FIELD     
LOC         .                                                   :LOCATION  
CNTY        .                                          CHAMBERS :LOCATION  
STAT        .                                             TEXAS :STATE     
CTRY        .                                     UNITED STATES :COUNTRY   
SRVC        .                                                   :SERVICE COMPANY
DATE        .                             9/13/2023 11:19:11 AM :LOG DATE  
API         .                                    42071022820000 :API NUMBER
UWI         .                                    42071022820000 :UNIQUE WELL ID
XCOORD      .                                  1141949.94059063 :SURFACE X 
YCOORD      .                                  10792730.9347258 :SURFACE Y 
LAT         .                                        29.7291796 :LATITUDE  
LON         .                                       -94.5709084 :LONGITUDE 
ELEV        .FT                                              28 :ELEVATION VALUE
ELEV_TYPE   .                                                DF :ELEVATION REFERENCE TYPE
~Curve Information Section
#MNEM       .UNIT                                      API CODE :CURVE DESCRIPTION
#------------------------------------------------------------------------------
DEPT        .FT                                                 :DEPTH     
LAT         .OHMM                                               :          
LN          .OHMM                                               :          
SN          .OHMM                                               :          
SP          .MV                                                 :          
SP_NORM     .MV                                                 :SP Normalized
VSH_SP      .V/V                                                :Volume of Shale from SP
~A        DEPTH            LAT             LN             SN             SP        SP_NORM         VSH_SP
# ...
      4800.0000         0.7893         0.1251         0.4532       -84.1097      -16.04319      0.8636584
      4800.5000         0.8068         0.1277         0.4698        -86.406      -18.34717      0.8412896
      4801.0000         0.8052         0.1272         0.4864       -90.2091      -22.15796      0.8042917
      4801.5000         0.8035          0.122         0.5445      -102.6869      -34.64344      0.6830734
      4802.0000         0.8019         0.1169         0.6573      -118.4751      -50.43932      0.5297153
      4802.5000         0.8003         0.1117         0.7574      -131.8164      -63.78832      0.4001134
      4803.0000         0.7787         0.1065         0.8522      -145.1667       -77.1463      0.2704242
      4803.5000         0.7542         0.1013         0.9301      -157.9548      -89.94209      0.1461933
      4804.0000         0.7297         0.0953          1.008      -160.4917      -92.48667      0.1214886
      4804.5000          0.689          0.089         1.0605      -165.5994      -97.60205     0.07182475
      4805.0000         0.6392         0.0828         1.0564      -169.3484      -101.3587     0.03535202
      4805.5000         0.5893         0.0765         1.0233      -172.5791      -104.5971    0.003911361
      4806.0000         0.5458         0.0692         0.9901      -173.3264      -105.3521              0
      4806.5000         0.5062          0.056         0.9339      -172.5557      -104.5891    0.003989432
      4807.0000         0.4667         0.0428         0.8725      -170.4685      -102.5096     0.02417874
      4807.5000         0.4271         0.0296         0.8098      -167.7764      -99.82516     0.05024112
      4808.0000         0.4001         0.0195         0.7462      -164.1125      -96.16895     0.08573832
      4808.5000         0.3733         0.0163         0.6827      -160.5029      -92.56704      0.1207084
      4809.0000         0.3645         0.0131         0.6944      -157.2834      -89.35522       0.151891
      4809.5000         0.3699         0.0099         0.7302      -156.1038      -88.18331      0.1632688
      4810.0000         0.3752         0.0067         0.7846      -162.8218      -94.90899     0.09797098
      4810.5000         0.3806         0.0151         0.8451      -166.3303      -98.42519     0.06383315
      4811.0000          0.386          0.029         0.9056      -168.1372      -100.2398     0.04621584
      4811.5000         0.3913         0.0428         0.9681      -169.4968       -101.607     0.03294128
      4812.0000         0.3961         0.0566         1.0322      -170.2498      -102.3677     0.02555595
      4812.5000         0.4008           0.07         1.0963      -169.7668      -101.8924      0.0301707
      4813.0000         0.4056         0.0833         1.1798      -168.4297       -100.563     0.04307756
      4813.5000         0.4103         0.0966         1.2469      -167.0916      -99.23259     0.05599428
      4814.0000          0.417         0.0881         1.1864      -165.9727      -98.12138     0.06678276
      4814.5000         0.4257         0.0757         1.1284      -164.9548      -97.11117     0.07659061
      4815.0000         0.4343         0.0632         1.0872      -164.1414      -96.30545      0.0844131
      4815.5000         0.4429         0.0507         1.0459      -164.5737      -96.74543     0.08014145
      4816.0000         0.4596         0.0398         1.0046      -165.1467      -97.32612      0.0745037
      4816.5000         0.4957         0.0348         0.9707      -165.9226      -98.10971     0.06689601
      4817.0000         0.5317         0.0298         0.9548       -166.699      -98.89379     0.05928358
      4817.5000         0.5622         0.0248         0.9388      -167.4756      -99.67808     0.05166915
      4818.0000         0.5385         0.0198         0.9229      -168.0591      -100.2693     0.04592955
      4818.5000         0.5147         0.0148         0.9128      -168.6067      -100.8245     0.04053838
      4819.0000          0.491         0.0123         0.9056      -169.1121      -101.3376      0.0355569
      4819.5000         0.4656         0.0139         0.8983      -169.4685      -101.7017     0.03202213
      4820.0000         0.4381         0.0155         0.8911      -169.7051       -101.946     0.02965057
      4820.5000         0.4107         0.0172         0.8839      -169.7678      -102.0164     0.02896703
      4821.0000         0.3833         0.0188         0.8835      -169.8303      -102.0866     0.02828565
      4821.5000         0.3559         0.0201          0.887      -169.8928      -102.1568     0.02760426
      4822.0000          0.332         0.0215         0.8978       -169.865      -102.1367     0.02779951
      4822.5000         0.3207         0.0228         0.9144      -169.8367       -102.116     0.02799973
      4823.0000         0.3093         0.0242         0.9364      -169.8083      -102.0953     0.02820083
      4823.5000         0.2979         0.0254         0.9584        -169.78      -102.0747     0.02840098
      4824.0000         0.2865         0.0253          0.993      -169.7517      -102.0541     0.02860119
      4824.5000         0.2773         0.0252         1.0359      -169.7292      -102.0393     0.02874497
      4825.0000         0.2774         0.0252         1.0746      -169.7087      -102.0265     0.02886941
      4825.5000         0.2774         0.0251         1.1104       -169.688      -102.0134      0.0289957
      4826.0000         0.2775          0.025         1.1209      -169.7151      -102.0482     0.02865801
      4826.5000         0.2776         0.0249         1.0924      -169.9724      -102.3132     0.02608535
      4827.0000         0.2777         0.0249         1.0502        -170.23      -102.5785     0.02350979
      4827.5000         0.2777         0.0248         0.9856      -170.4878       -102.844     0.02093232
      4828.0000         0.2778         0.0247         0.9295      -170.6213      -102.9852      0.0195614
      4828.5000         0.2779         0.0247         0.9228      -170.6533      -103.0249     0.01917615
      4829.0000         0.2779         0.0246          0.916      -170.6125      -102.9917      0.0194977
      4829.5000          0.278         0.0245         0.9092      -170.4321       -102.819     0.02117453
      4830.0000          0.277         0.0244         0.9341      -170.2517      -102.6463     0.02285144
      4830.5000         0.2757         0.0246         0.9614      -169.6616      -102.0639     0.02850586
      4831.0000         0.2743         0.0299         0.9887      -169.0442      -101.4542     0.03442539
      4831.5000         0.2729         0.0351         1.0296      -168.4268      -100.8445     0.04034498
      4832.0000         0.2716         0.0404         1.0834      -168.0178      -100.4432     0.04424123
      4832.5000         0.2712         0.0455         1.1371      -168.2542      -100.6872     0.04187153
      4833.0000         0.2713         0.0365         1.1845      -169.3562      -101.7969     0.03109786
      4833.5000         0.2714         0.0275         1.2293      -170.4595      -102.9079      0.0203116
      4834.0000         0.2715         0.0185         1.2633      -171.5625      -104.0186    0.009528225
      4834.5000         0.2715         0.0088          1.273      -172.2861      -104.7499     0.00242837
      4835.0000         0.2738        -0.0012         1.2821       -172.967      -105.4385              0
      4835.5000         0.2772        -0.0112         1.2856      -173.6204      -106.0996              0
      4836.0000         0.2805        -0.0213         1.2891      -174.2429      -106.7297              0
      4836.5000         0.2838        -0.0315         1.2926      -174.8591      -107.3536              0
      4837.0000         0.2863        -0.0418         1.2949      -175.3489      -107.8511              0
      4837.5000         0.2864        -0.0485         1.2819      -175.5293      -108.0392              0
