#------------------------------------------------------------------------------
# Created by    : vladimir.rabinovich
# Created on    : 09/19/2023 17:22:55
#------------------------------------------------------------------------------
~Version Information Section
VERS.           2.0     :   CWLS log ASCII Standard - VERSION 2.0
WRAP.           NO      :   One line per depth step
~Well Information Section
#MNEM       .UNIT                                         VALUE :DESCRIPTION
#------------------------------------------------------------------------------
STRT        .FT                                            1640 :START DEPTH
STOP        .FT                                            9504 :STOP DEPTH
STEP        .FT                                             0.5 :STEP      
NULL        .                                           -999.25 :NULL      
COMP        .                        UNION OIL CO OF CALIFORNIA :COMPANY   
WELL        .                                       DROUGHT H P :WELL      
FLD         .                                           WILDCAT :FIELD     
LOC         .                                                   :LOCATION  
CNTY        .                                          CHAMBERS :LOCATION  
STAT        .                                             TEXAS :STATE     
CTRY        .                                     UNITED STATES :COUNTRY   
SRVC        .                                                   :SERVICE COMPANY
DATE        .                             9/13/2023 11:19:11 AM :LOG DATE  
API         .                                    42071019550000 :API NUMBER
UWI         .                                    42071019550000 :UNIQUE WELL ID
XCOORD      .                                    1177783.835691 :SURFACE X 
YCOORD      .                                  10819467.9364056 :SURFACE Y 
LAT         .                                        29.8039986 :LATITUDE  
LON         .                                       -94.4590755 :LONGITUDE 
ELEV        .FT                                              40 :ELEVATION VALUE
ELEV_TYPE   .                                                DF :ELEVATION REFERENCE TYPE
~Curve Information Section
#MNEM       .UNIT                                      API CODE :CURVE DESCRIPTION
#------------------------------------------------------------------------------
DEPT        .FT                                                 :DEPTH     
LAT         .OHMM                                               :          
LN          .OHMM                                               :          
SN          .OHMM                                               :          
SP          .MV                                                 :          
SP_NORM     .MV                                                 :SP Normalized
VSH_SP      .V/V                                                :Volume of Shale from SP
~A        DEPTH            LAT             LN             SN             SP        SP_NORM         VSH_SP
# ...
      6352.0000         0.0916         0.1891         0.5196      -124.8961      -82.92079      0.1376759
      6352.5000         0.0955         0.1917         0.5458      -126.5137      -84.53839      0.1206485
      6353.0000         0.0994         0.1948          0.572      -127.8138      -85.83849      0.1069633
      6353.5000         0.1032         0.2009         0.5982      -129.0215      -87.04619     0.09425065
      6354.0000         0.1071          0.207         0.6121      -130.0969      -88.12158     0.08293071
      6354.5000          0.111         0.2131         0.5818      -130.8904      -88.91508     0.07457805
      6355.0000         0.1148         0.2192         0.5514      -129.6475       -87.6722      0.0876611
      6355.5000         0.1187         0.2253         0.5253      -128.1531       -86.1778      0.1033916
      6356.0000         0.1226         0.2256         0.5204      -126.6613      -84.68599      0.1190948
      6356.5000         0.1297         0.2201         0.5156      -124.8431       -82.8678      0.1382337
      6357.0000         0.1385         0.2147         0.5168      -122.2692       -80.2939      0.1653274
      6357.5000         0.1473         0.2093         0.5607      -119.6952      -77.71989      0.1924222
      6358.0000          0.156          0.203         0.6046      -117.0176       -75.0423      0.2206074
      6358.5000         0.1648         0.1955         0.6485      -114.1482       -72.1729      0.2508116
      6359.0000         0.1736          0.188         0.6969      -110.9572      -68.98189      0.2844012
      6359.5000         0.1863         0.1806         0.7456      -114.3378      -72.36249      0.2488159
      6360.0000         0.2149         0.1731         0.7608      -118.5095      -76.53419      0.2049032
      6360.5000         0.2434         0.1787         0.6909      -120.5591      -78.58379      0.1833286
      6361.0000         0.2542         0.1936         0.6017      -122.3209       -80.3456      0.1647832
      6361.5000         0.2647         0.2084         0.5126      -123.1683      -81.19299      0.1558632
      6362.0000         0.2435         0.2233         0.5286      -122.6195       -80.6442        0.16164
      6362.5000         0.2212         0.2352         0.5501      -120.0125      -78.03719      0.1890822
      6363.0000         0.1989         0.2415         0.5587      -117.4032      -75.42789      0.2165486
      6363.5000         0.1766         0.2478         0.5673      -114.8159      -72.84059      0.2437833
      6364.0000         0.1645         0.2542         0.5708      -112.5681      -70.59279      0.2674443
      6364.5000         0.1536         0.2605         0.5656      -110.3203      -68.34499      0.2911054
      6365.0000         0.1427         0.2668         0.5604      -108.3611      -66.38579      0.3117285
      6365.5000         0.1317         0.2531         0.5553      -106.7083      -64.73299      0.3291264
      6366.0000         0.1208         0.2368         0.5576      -105.4708      -63.49549      0.3421527
      6366.5000          0.148         0.2205         0.6181      -104.9761      -63.00079      0.3473601
      6367.0000         0.1829         0.2042         0.6787      -113.9102      -71.93489      0.2533169
      6367.5000         0.2177         0.1879         0.7312       -119.574      -77.59869       0.193698
      6368.0000         0.2344         0.1804         0.7663      -123.0912      -81.11589      0.1566748
      6368.5000         0.2469         0.1786         0.7521      -124.4365       -82.4612      0.1425137
      6369.0000         0.2594         0.1767         0.7155       -125.447      -83.47169      0.1318769
      6369.5000         0.2367         0.1749          0.657      -126.3622      -84.38689      0.1222433
      6370.0000         0.2135         0.1778         0.5984      -126.9192      -84.94389      0.1163801
      6370.5000         0.1903         0.1893           0.54      -127.4762      -85.50089       0.110517
      6371.0000          0.167         0.2008         0.4915      -127.9597      -85.98439      0.1054275
      6371.5000         0.1437         0.2123         0.4879      -128.0613      -86.08598      0.1043581
      6372.0000         0.1205         0.2238         0.4863      -128.1631      -86.18779      0.1032864
      6372.5000         0.1095         0.2353         0.4956      -127.7709      -85.79559      0.1074148
      6373.0000          0.104         0.2422          0.505      -126.3572       -84.3819      0.1222958
      6373.5000         0.0985         0.2376         0.4848      -124.9457       -82.9704      0.1371537
      6374.0000          0.093         0.2331         0.4626      -123.5331      -81.55779      0.1520233
      6374.5000         0.0876         0.2285         0.4404      -121.6587       -79.6834      0.1717537
      6375.0000         0.0821          0.224          0.421       -119.391       -77.4157      0.1956243
      6375.5000          0.093         0.2163         0.4348      -116.4709      -74.49559      0.2263622
      6376.0000         0.1279         0.2044         0.4493      -112.4072       -70.4319      0.2691379
      6376.5000         0.1628         0.1926         0.4755      -108.0878      -66.11249      0.3146054
      6377.0000         0.1976         0.1808         0.5018      -103.4158      -61.44049      0.3637843
      6377.5000         0.2325          0.169         0.5111       -99.6276      -57.65229      0.4036601
      6378.0000          0.262         0.1623          0.511       -96.7582      -54.78289      0.4338643
      6378.5000         0.2822         0.1595         0.5108       -93.8911      -51.91579      0.4640443
      6379.0000         0.3024         0.1567         0.5055       -91.9606      -49.98529      0.4843653
      6379.5000         0.3226         0.1539          0.499        -95.394      -53.41869      0.4482243
      6380.0000         0.3124         0.1512         0.4986       -99.0568      -57.08149      0.4096685
      6380.5000         0.2764         0.1496         0.5028      -106.6466       -64.6713      0.3297758
      6381.0000         0.2404         0.1589          0.507      -115.4264       -73.4511      0.2373569
      6381.5000         0.2044         0.1683         0.5084      -130.2446      -88.26929     0.08137593
      6382.0000         0.1744         0.1777         0.5043      -135.6482      -93.67288     0.02449598
      6382.5000         0.1512         0.1871         0.5003      -137.4763      -95.50099    0.005252718
      6383.0000          0.128         0.1924         0.4962      -138.2146      -96.23929              0
      6383.5000         0.1048         0.1956         0.4961      -138.9517      -96.97639              0
      6384.0000         0.0816         0.1988         0.4978       -139.447      -97.47169              0
      6384.5000         0.0584         0.2019         0.4994      -139.5154      -97.54008              0
      6385.0000         0.0352         0.2022         0.5011       -139.584      -97.60869              0
      6385.5000         0.0256         0.1981         0.5205      -139.6523      -97.67699              0
      6386.0000         0.0269         0.1941          0.543      -139.6667      -97.69139              0
      6386.5000         0.0282           0.19         0.5656      -139.2568      -97.28149              0
      6387.0000         0.0295         0.1859         0.5839      -138.8472      -96.87189              0
      6387.5000         0.0308         0.1819         0.5962      -138.4377      -96.46239              0
      6388.0000         0.0321         0.1814         0.6086       -137.364      -95.38869    0.006434872
      6388.5000         0.0306         0.1812         0.6254      -135.9888      -94.01349     0.02091064
      6389.0000         0.0277         0.1811         0.6359      -134.6135      -92.63818     0.03538754
      6389.5000         0.0249         0.1809         0.6028      -133.2385      -91.26318     0.04986123
