#------------------------------------------------------------------------------
# Created by    : vladimir.rabinovich
# Created on    : 09/19/2023 17:22:55
#------------------------------------------------------------------------------
~Version Information Section
VERS.           2.0     :   CWLS log ASCII Standard - VERSION 2.0
WRAP.           NO      :   One line per depth step
~Well Information Section
#MNEM       .UNIT                                         VALUE :DESCRIPTION
#------------------------------------------------------------------------------
STRT        .FT                                            1640 :START DEPTH
STOP        .FT                                            9504 :STOP DEPTH
STEP        .FT                                             0.5 :STEP      
NULL        .                                           -999.25 :NULL      
COMP        .                        UNION OIL CO OF CALIFORNIA :COMPANY   
WELL        .                                       DROUGHT H P :WELL      
FLD         .                                           WILDCAT :FIELD     
LOC         .                                                   :LOCATION  
CNTY        .                                          CHAMBERS :LOCATION  
STAT        .                                             TEXAS :STATE     
CTRY        .                                     UNITED STATES :COUNTRY   
SRVC        .                                                   :SERVICE COMPANY
DATE        .                             9/13/2023 11:19:11 AM :LOG DATE  
API         .                                    42071019550000 :API NUMBER
UWI         .                                    42071019550000 :UNIQUE WELL ID
XCOORD      .                                    1177783.835691 :SURFACE X 
YCOORD      .                                  10819467.9364056 :SURFACE Y 
LAT         .                                        29.8039986 :LATITUDE  
LON         .                                       -94.4590755 :LONGITUDE 
ELEV        .FT                                              40 :ELEVATION VALUE
ELEV_TYPE   .                                                DF :ELEVATION REFERENCE TYPE
~Curve Information Section
#MNEM       .UNIT                                      API CODE :CURVE DESCRIPTION
#------------------------------------------------------------------------------
DEPT        .FT                                                 :DEPTH     
LAT         .OHMM                                               :          
LN          .OHMM                                               :          
SN          .OHMM                                               :          
SP          .MV                                                 :          
SP_NORM     .MV                                                 :SP Normalized
VSH_SP      .V/V                                                :Volume of Shale from SP
~A        DEPTH            LAT             LN             SN             SP        SP_NORM         VSH_SP
# ...
      8442.0000          0.932         0.7506         0.6986       -52.1652      -5.095963      0.9568846
      8442.5000         0.9229         0.7492         0.6977       -52.4799      -5.412853      0.9535489
      8443.0000         0.9138         0.7478          0.707       -52.1829      -5.118042      0.9566522
      8443.5000         0.9046         0.7464         0.7176       -51.7724      -4.709732      0.9609502
      8444.0000         0.8955          0.745         0.7282       -51.3619      -4.301422      0.9652482
      8444.5000         0.8863         0.7436         0.7388       -51.0427      -3.984413      0.9685851
      8445.0000         0.8799         0.7422         0.7494       -50.8526      -3.796501      0.9705632
      8445.5000          0.875         0.7408           0.76       -50.6628      -3.608891       0.972538
      8446.0000         0.8701         0.7383         0.7706        -50.473       -3.42128      0.9745128
      8446.5000         0.8652         0.7352         0.7812       -50.2832      -3.233669      0.9764877
      8447.0000         0.8602         0.7321         0.7903       -50.1606      -3.113258      0.9777552
      8447.5000         0.8553          0.729         0.7992         -50.04       -2.99485      0.9790016
      8448.0000         0.8504         0.7259          0.808       -49.9192       -2.87624      0.9802501
      8448.5000         0.8455         0.7229         0.8169       -49.7985      -2.757729      0.9814976
      8449.0000         0.8406         0.7198         0.8257       -49.6306      -2.592014       0.983242
      8449.5000         0.8416         0.7167         0.8345       -49.3654      -2.329002      0.9860105
      8450.0000         0.8427         0.7136         0.8434       -49.0998      -2.065594      0.9887832
      8450.5000         0.8438         0.7129         0.8518       -48.8345      -1.802483      0.9915528
      8451.0000          0.845          0.714           0.86       -48.6141      -1.584274      0.9938498
      8451.5000         0.8461          0.715         0.8682        -48.883      -1.855362      0.9909962
      8452.0000         0.8465         0.7161         0.8592       -49.1521      -2.126652      0.9881405
      8452.5000         0.8429         0.7172           0.85       -49.4213      -2.398041      0.9852838
      8453.0000         0.8392         0.7183         0.8408       -49.6904      -2.669331      0.9824281
      8453.5000         0.8356         0.7193         0.8312       -49.9592      -2.940323      0.9795756
      8454.0000          0.832         0.7172         0.8195       -49.9043      -2.887611      0.9801304
      8454.5000         0.8283         0.7139         0.8079       -49.7817        -2.7672      0.9813979
      8455.0000         0.8247         0.7106         0.7962       -49.6591       -2.64679      0.9826654
      8455.5000         0.8211         0.7074         0.7845       -49.7389      -2.728779      0.9818023
      8456.0000         0.8174         0.7041         0.7728       -50.1273       -3.11937      0.9776909
      8456.5000         0.8139         0.7008         0.7677       -50.5151      -3.509357      0.9735857
      8457.0000         0.8104         0.6975         0.7653       -50.9036      -3.900047      0.9694732
      8457.5000         0.8068         0.6942         0.7629       -51.4418      -4.440437      0.9637849
      8458.0000         0.8033         0.6909         0.7605       -52.0292      -5.030029      0.9575787
      8458.5000         0.7997         0.6877         0.7582       -52.6176      -5.620613       0.951362
      8459.0000         0.7962         0.6844         0.7558       -53.2049      -6.210102      0.9451568
      8459.5000         0.7926         0.6825         0.7529       -52.7002      -5.707592      0.9504464
      8460.0000         0.7909         0.6805         0.7499       -52.1322      -5.141781      0.9564023
      8460.5000         0.7952         0.6786         0.7469       -51.6672       -4.67897       0.961274
      8461.0000         0.7995         0.6766         0.7439       -51.2017       -4.21566      0.9661509
      8461.5000         0.8038         0.6747         0.7409       -50.7366       -3.75275      0.9710237
      8462.0000         0.8081         0.6727          0.738       -50.2717      -3.290043      0.9758943
      8462.5000         0.8124         0.6708          0.735       -49.8061       -2.82663      0.9807723
      8463.0000         0.8167         0.6688         0.7264       -49.6353       -2.65802      0.9825472
      8463.5000         0.8096         0.6668         0.7166       -49.5163       -2.54121      0.9837767
      8464.0000         0.7997         0.6649         0.7067       -49.3973        -2.4244      0.9850063
      8464.5000         0.7899         0.6637         0.6969       -49.2783       -2.30759      0.9862359
      8465.0000           0.78         0.6637          0.687       -49.1593      -2.190781      0.9874654
      8465.5000         0.7702         0.6638         0.6772       -49.0403      -2.073967      0.9886951
      8466.0000         0.7604         0.6638          0.674       -48.9213      -1.957157      0.9899247
      8466.5000         0.7473         0.6638         0.6825       -48.7758      -1.813847      0.9914332
      8467.0000         0.7285         0.6639         0.6911       -48.6232      -1.663437      0.9930165
      8467.5000         0.7097         0.6639         0.6997       -48.4706      -1.513023      0.9945998
      8468.0000         0.6909         0.6639         0.7082        -48.318      -1.362614       0.996183
      8468.5000         0.6721         0.6712         0.7168       -48.1656      -1.212402      0.9977642
      8469.0000         0.6533         0.6791         0.7254       -48.0131      -1.062092      0.9993464
      8469.5000         0.6344         0.6869         0.7345       -47.8604     -0.9115829              1
      8470.0000         0.6156         0.6948         0.7438       -47.7078     -0.7611732              1
      8470.5000         0.6115         0.7027         0.7531       -47.7018     -0.7573624              1
      8471.0000         0.6093         0.7158         0.7624        -47.842     -0.8997498              1
      8471.5000         0.6071         0.7342         0.7717       -47.9822      -1.042141      0.9995564
      8472.0000          0.605         0.7526          0.781       -48.1224      -1.184528      0.9980576
      8472.5000         0.6028         0.7711         0.7903       -48.2629      -1.327221      0.9965556
      8473.0000         0.6006         0.7895         0.7989       -48.4031      -1.469608      0.9950567
      8473.5000         0.6033         0.8065         0.7981       -48.6475      -1.716198      0.9924611
      8474.0000         0.6211         0.8234         0.7973       -49.0248      -2.095688      0.9884664
      8474.5000         0.6391         0.8402         0.7965       -49.4028       -2.47588      0.9844644
      8475.0000          0.657          0.857         0.7957       -49.7808      -2.856068      0.9804624
      8475.5000         0.6748         0.8593         0.7949       -50.1581      -3.235558      0.9764678
      8476.0000         0.6927         0.8538         0.7941       -50.5361      -3.615746      0.9724658
      8476.5000         0.7106         0.8483         0.7933       -50.9141      -3.995937      0.9684638
      8477.0000         0.7266         0.8428         0.7925        -51.292      -4.376022      0.9644629
      8477.5000         0.7357         0.8372         0.7894       -51.5658      -4.652012      0.9615577
      8478.0000         0.7449         0.8317          0.785        -51.835       -4.93261      0.9586041
      8478.5000          0.754         0.8262         0.7806       -52.1038       -5.21376      0.9556446
      8479.0000         0.7632         0.8207         0.7761       -52.3729      -5.495205      0.9526821
      8479.5000         0.7724         0.8176         0.7717       -52.6421      -5.776752      0.9497184
