#------------------------------------------------------------------------------
# Created by    : vladimir.rabinovich
# Created on    : 09/19/2023 17:22:55
#------------------------------------------------------------------------------
~Version Information Section
VERS.           2.0     :   CWLS log ASCII Standard - VERSION 2.0
WRAP.           NO      :   One line per depth step
~Well Information Section
#MNEM       .UNIT                                         VALUE :DESCRIPTION
#------------------------------------------------------------------------------
STRT        .FT                                            1722 :START DEPTH
STOP        .FT                                            8384 :STOP DEPTH
STEP        .FT                                             0.5 :STEP      
NULL        .                                           -999.25 :NULL      
COMP        .                                   HEBERT HILARY B :COMPANY   
WELL        .                                    REARWIN LEILAW :WELL      
FLD         .                                           WILDCAT :FIELD     
LOC         .                                                   :LOCATION  
CNTY        .                                          CHAMBERS :LOCATION  
STAT        .                                             TEXAS :STATE     
CTRY        .                                     UNITED STATES :COUNTRY   
SRVC        .                                                   :SERVICE COMPANY
DATE        .                             9/13/2023 11:19:11 AM :LOG DATE  
API         .                                    42071022820000 :API NUMBER
UWI         .                                    42071022820000 :UNIQUE WELL ID
XCOORD      .                                  1141949.94059063 :SURFACE X 
YCOORD      .                                  10792730.9347258 :SURFACE Y 
LAT         .                                        29.7291796 :LATITUDE  
LON         .                                       -94.5709084 :LONGITUDE 
ELEV        .FT                                              28 :ELEVATION VALUE
ELEV_TYPE   .                                                DF :ELEVATION REFERENCE TYPE
~Curve Information Section
#MNEM       .UNIT                                      API CODE :CURVE DESCRIPTION
#------------------------------------------------------------------------------
DEPT        .FT                                                 :DEPTH     
LAT         .OHMM                                               :          
LN          .OHMM                                               :          
SN          .OHMM                                               :          
SP          .MV                                                 :          
SP_NORM     .MV                                                 :SP Normalized
VSH_SP      .V/V                                                :Volume of Shale from SP
~A        DEPTH            LAT             LN             SN             SP        SP_NORM         VSH_SP
# ...
      8334.0000         0.9242         0.8143         0.7338       -73.0527      -8.855164      0.9300494
      8334.5000         0.9348         0.7828         0.7071       -74.6742      -10.47667      0.9135033
      8335.0000         0.9541         0.7456         0.6803       -74.2632      -10.06567      0.9176973
      8335.5000         0.9765         0.7081         0.6624       -72.7366       -8.53907      0.9332748
      8336.0000         1.0022         0.6708          0.649       -70.7516       -6.55407      0.9535299
      8336.5000         1.0297         0.6277         0.6276       -68.9471      -4.749565      0.9719432
      8337.0000         1.0664         0.5792         0.6045       -67.4657      -3.268166      0.9870595
      8337.5000         1.1159         0.5209         0.5882            -66      -1.802467              1
      8338.0000         1.1632         0.4693         0.5751       -64.5457     -0.3481674              1
      8338.5000         1.2089         0.4275         0.5644       -63.1252       1.072334              1
      8339.0000         1.2401         0.4255         0.5741       -62.0186       2.178932              1
      8339.5000         1.2718         0.4415         0.5991       -60.7224       3.475132              1
      8340.0000         1.3074         0.4603          0.668       -59.0896       5.107933              1
      8340.5000           1.34         0.4683         0.6903       -63.1546       1.042934              1
      8341.0000         1.3205         0.4881         0.6262       -72.8925      -8.694969       0.931684
      8341.5000         1.2344         0.5096          0.549       -78.4885      -14.29097      0.8745819
      8342.0000         1.1383         0.5308         0.4898       -82.1876      -17.99007       0.836836
      8342.5000         1.0305         0.5449         0.4646      -101.3743      -37.17677      0.6410534
      8343.0000         0.9495         0.5555         0.4778      -124.1111      -59.91357      0.4090452
      8343.5000         0.8761         0.5617         0.4955      -128.3137      -64.11617      0.3661615
      8344.0000         0.8186         0.5591         0.5078      -126.8595      -62.66196      0.3810004
      8344.5000         0.7755         0.5484         0.5083      -127.4579      -63.26037      0.3748942
      8345.0000         0.7483         0.5566          0.503      -134.6528      -70.45527      0.3014768
      8345.5000         0.7228         0.5628         0.5106      -146.7393      -82.54177      0.1781452
      8346.0000         0.6988         0.5524         0.5334      -151.7078      -87.51026      0.1274463
      8346.5000         0.6774         0.5427         0.5666      -154.3635      -90.16596      0.1003473
      8347.0000         0.6614         0.5335         0.6138       -156.405      -92.20747     0.07951565
      8347.5000         0.6454         0.5228         0.6589      -158.0525      -93.85497     0.06270436
      8348.0000          0.637         0.5103         0.6999      -156.8093      -92.61176     0.07539017
      8348.5000         0.6298         0.4964         0.7332      -154.6118      -90.41427     0.09781358
      8349.0000         0.6288         0.4804         0.7543      -152.6448      -88.44727       0.117885
      8349.5000         0.6385         0.4884         0.7394      -150.2173      -86.01977      0.1426554
      8350.0000         0.6483         0.4994         0.6607      -144.9868      -80.78927      0.1960279
      8350.5000         0.6434         0.5101         0.6253      -138.6636      -74.46607      0.2605503
      8351.0000          0.635         0.5205         0.6127      -132.8914      -68.69387      0.3194503
      8351.5000         0.6346         0.5306         0.6271      -131.5071      -67.30956      0.3335759
      8352.0000         0.6395         0.5437         0.6459      -126.6675      -62.46997      0.3829595
      8352.5000         0.6366         0.5602         0.6736      -113.9486      -49.75107      0.5127442
      8353.0000         0.6257         0.5683         0.6983       -99.8206      -35.62307      0.6569074
      8353.5000         0.6165         0.5745         0.7166       -92.3772      -28.17966      0.7328606
      8354.0000         0.6074         0.5749         0.7331       -88.9807      -24.78316      0.7675187
      8354.5000         0.6142         0.5739         0.7322       -88.4551      -24.25757       0.772882
      8355.0000         0.6228          0.566         0.7279        -88.785      -24.58747      0.7695156
      8355.5000         0.6459         0.5578         0.7135       -88.7983      -24.60077      0.7693799
      8356.0000         0.6715         0.5567         0.6991       -86.1082      -21.91067      0.7968299
      8356.5000         0.7095         0.5557         0.6786       -80.8823      -16.68477      0.8501554
      8357.0000         0.7532         0.5548         0.6537       -77.4813      -13.28377      0.8848595
      8357.5000         0.8022          0.553         0.6366       -74.2203      -10.02277       0.918135
      8358.0000         0.8337         0.5483         0.6218       -72.3053      -8.107765      0.9376759
      8358.5000         0.8601         0.5459          0.607       -76.4696      -12.27206       0.895183
      8359.0000         0.8795         0.5488         0.5936       -75.1237      -10.92617      0.9089167
      8359.5000         0.8782         0.5463         0.5888       -73.1364      -8.938866      0.9291952
      8360.0000         0.8635         0.5374          0.582       -85.4034      -21.20586      0.8040218
      8360.5000         0.8374         0.5385         0.5693       -96.5144      -32.31686      0.6906443
      8361.0000         0.8104         0.5449         0.5555      -102.0022      -37.80466      0.6346463
      8361.5000         0.7562         0.5403         0.5404      -104.2424      -40.04487      0.6117871
      8362.0000         0.7041          0.531         0.5418      -106.8711      -42.67357      0.5849636
      8362.5000         0.6664         0.5298         0.5401      -109.7572      -45.55967      0.5555136
      8363.0000         0.6364         0.5289         0.5202      -111.9523      -47.75477      0.5331146
      8363.5000         0.6169         0.5279         0.5107      -114.9287      -50.73117      0.5027432
      8364.0000         0.6029         0.5495         0.5058      -118.3434      -54.14587      0.4678993
      8364.5000         0.5972         0.5705         0.5424      -116.3876      -52.19007      0.4878564
      8365.0000         0.5854         0.5814         0.5921      -110.3082      -46.11066      0.5498912
      8365.5000         0.5664         0.5707         0.6531      -111.6271      -47.42957       0.536433
      8366.0000         0.5519         0.5312         0.7239      -118.0046      -53.80707      0.4713565
      8366.5000         0.5386         0.4969         0.7123      -121.8844      -57.68687      0.4317667
      8367.0000         0.5622         0.4578         0.6407      -118.6731      -54.47557       0.464535
      8367.5000         0.5928         0.4129         0.5617      -107.5531      -43.35557      0.5780044
      8368.0000         0.6374         0.3999          0.489       -87.4631      -23.26556      0.7830045
      8368.5000         0.6948         0.3983         0.4197       -67.2646       -3.06707      0.9891115
      8369.0000         0.7758         0.4022         0.3981       -62.9163       1.281231              1
      8369.5000         0.8272         0.4089         0.3915       -62.0525       2.145031              1
      8370.0000         0.8603         0.4182          0.411       -61.2463       2.951233              1
      8370.5000         0.8637         0.4513         0.4295       -60.6111       3.586433              1
      8371.0000          0.866         0.4714         0.4468       -60.2543       3.943233              1
      8371.5000         0.8678         0.4835         0.4648       -60.4638       3.733734              1
