#------------------------------------------------------------------------------
# Created by    : vladimir.rabinovich
# Created on    : 09/19/2023 17:19:41
#------------------------------------------------------------------------------
~Version Information Section
VERS.           2.0     :   CWLS log ASCII Standard - VERSION 2.0
WRAP.           NO      :   One line per depth step
~Well Information Section
#MNEM       .UNIT                                         VALUE :DESCRIPTION
#------------------------------------------------------------------------------
STRT        .FT                                             149 :START DEPTH
STOP        .FT                                         11018.5 :STOP DEPTH
STEP        .FT                                             0.5 :STEP      
NULL        .                                           -999.25 :NULL      
COMP        .                          STANDARD OIL CO OF TEXAS :COMPANY   
WELL        .                                   JACKSON BERTA N :WELL      
FLD         .                                           WILDCAT :FIELD     
LOC         .                                                   :LOCATION  
CNTY        .                                          CHAMBERS :LOCATION  
STAT        .                                             TEXAS :STATE     
CTRY        .                                     UNITED STATES :COUNTRY   
SRVC        .                                                   :SERVICE COMPANY
DATE        .                             9/13/2023 11:19:11 AM :LOG DATE  
API         .                                    42071023650000 :API NUMBER
UWI         .                                    42071023650000 :UNIQUE WELL ID
XCOORD      .                                  1147650.32957209 :SURFACE X 
YCOORD      .                                  10746494.5600269 :SURFACE Y 
LAT         .                                        29.6022446 :LATITUDE  
LON         .                                       -94.5509971 :LONGITUDE 
ELEV        .FT                                            17.6 :ELEVATION VALUE
ELEV_TYPE   .                                                KB :ELEVATION REFERENCE TYPE
~Curve Information Section
#MNEM       .UNIT                                      API CODE :CURVE DESCRIPTION
#------------------------------------------------------------------------------
DEPT        .FT                                                 :DEPTH     
AM64        .OHMM                                               :          
CILD        .MMHO                                               :          
SN16        .OHMM                                               :          
SP          .MV                                                 :          
SP_NORM     .MV                                                 :SP Normalized
VSH_SP      .V/V                                                :Volume of Shale from SP
~A        DEPTH           AM64           CILD           SN16             SP        SP_NORM         VSH_SP
# ...
      1593.0000         1.1087        -999.25         0.9598       -73.4091       -28.4322     0.05599294
      1593.5000         1.1284        -999.25         0.9598       -74.1583      -29.17912     0.02931731
      1594.0000         1.1552        -999.25         0.9597       -75.0779      -30.09643              0
      1594.5000         1.1546        -999.25         0.9665       -75.6378      -30.65405              0
      1595.0000         1.1814        -999.25         0.9869       -75.6558      -30.66976              0
      1595.5000         1.1809        -999.25         1.0173       -74.6762      -29.68788     0.01114723
      1596.0000         1.1803        -999.25         1.0522       -64.7792      -19.78859      0.3646932
      1596.5000         1.1524        -999.25         1.0741       -56.2883      -11.29541      0.6680211
      1597.0000         1.1519        -999.25         1.1065       -42.9935       2.001675              1
      1597.5000         1.1514        -999.25          1.125       -37.6913        7.30616              1
      1598.0000         1.1508        -999.25         1.1609       -36.4805       8.519241              1
      1598.5000         1.1229        -999.25         1.2009       -36.4963       8.505726              1
      1599.0000         1.1497        -999.25         1.2208       -37.0584       7.945911              1
      1599.5000         1.1876        -999.25         1.2262       -37.0745       7.932091              1
      1600.0000         1.2579        -999.25         1.1936       -37.6364       7.372478              1
      1600.5000         1.2848        -999.25         1.1583       -38.7295       6.281662              1
      1601.0000         1.2568        -999.25         1.0951       -37.6419       7.371544              1
      1601.5000         1.1198        -999.25         1.0708       -37.0986        7.91713              1
      1602.0000         1.0647        -999.25         1.0568       -37.1019       7.916115              1
      1602.5000          1.037        -999.25         1.0436       -37.3228       7.697495              1
      1603.0000         1.0366        -999.25          1.024       -38.1983        6.82428              1
      1603.5000         1.0089        -999.25         1.0034       -38.2009       6.823959              1
      1604.0000         0.9811        -999.25         0.9857       -38.7492       6.277946              1
      1604.5000         0.9534        -999.25         0.9564       -38.9264       6.103031              1
      1605.0000          0.953        -999.25         0.9473       -39.8456       5.186111              1
      1605.5000         0.9253        -999.25         0.9473       -40.5462       4.487797              1
      1606.0000         0.9248        -999.25         0.9472        -40.942        4.09428              1
      1606.5000         0.9244        -999.25         0.9471       -41.6209       3.417664              1
      1607.0000          0.924        -999.25         0.9416       -43.1293       1.911549              1
      1607.5000         0.9509        -999.25         0.9346       -43.7862       1.256931              1
      1608.0000         0.9232        -999.25         0.9196       -45.3166     -0.2711868              1
      1608.5000         0.9228        -999.25         0.8548        -45.319     -0.2713013              1
      1609.0000         0.9223        -999.25         0.7887       -44.7767      0.2732849              1
      1609.5000         0.9219        -999.25         0.7831       -44.1681      0.8841667              1
      1610.0000         0.9215        -999.25         0.7939       -43.1458       1.908749              1
      1610.5000         0.9211        -999.25         0.7993       -43.1481       1.908733              1
      1611.0000         0.9207        -999.25         0.7992       -43.1513       1.907818              1
      1611.5000         0.9355        -999.25         0.8054       -43.7426       1.318802              1
      1612.0000         0.9472        -999.25         0.8154       -46.9749      -1.911213      0.9731996
      1612.5000         0.9468        -999.25         0.8153        -48.068      -3.002033      0.9411167
      1613.0000         0.9464        -999.25         0.8207       -49.1617      -4.093449      0.9090162
      1613.5000          0.946        -999.25         0.8202       -49.7099      -4.639362        0.89296
      1614.0000         0.9456        -999.25         0.8151        -50.258      -5.185181      0.8769065
      1614.5000         0.9451        -999.25          0.815       -50.2608      -5.185696      0.8768913
      1615.0000         0.9447        -999.25         0.8149       -50.8089       -5.73151      0.8608379
      1615.5000         0.9443        -999.25         0.8148       -51.3572      -6.277531      0.8447785
      1616.0000         0.9438        -999.25         0.8202        -50.814      -5.732044      0.8608222
      1616.5000         0.9708        -999.25         0.8256       -50.8173      -5.733063      0.8607923
      1617.0000         0.9703        -999.25          0.839       -50.9945      -5.907978      0.8556477
      1617.5000         0.9852        -999.25         0.8636       -51.3682      -6.279392      0.8447238
      1618.0000         0.9969        -999.25         0.8823       -51.3707      -6.279613      0.8447173
      1618.5000         1.0064        -999.25         0.9016       -51.3737      -6.280327      0.8446963
      1619.0000         1.0234        -999.25         0.9224       -51.9216      -6.825943      0.8286487
      1619.5000          1.023        -999.25          0.945       -51.9246       -6.82666      0.8286276
      1620.0000         1.0225        -999.25          0.947       -51.3814      -6.281178      0.8446712
      1620.5000         1.0221        -999.25         0.9503       -51.3847      -6.282192      0.8446414
      1621.0000         1.0217        -999.25         0.9502       -50.8414       -5.73661      0.8606879
      1621.5000         1.0213        -999.25         0.9501       -51.3902      -6.283127      0.8446139
      1622.0000         1.0208        -999.25           0.95       -52.0034      -6.894039      0.8266459
      1622.5000         0.9932        -999.25         0.9499       -53.5775      -8.465858       0.780416
      1623.0000         0.9927        -999.25         0.9499       -54.1691      -9.055176       0.763083
      1623.5000          0.965        -999.25         0.9498       -56.3102      -11.19399      0.7001768
      1624.0000         0.9646        -999.25         0.9443       -56.3125      -11.19401      0.7001762
      1624.5000         0.9369        -999.25         0.9278       -55.7703      -10.64952      0.7161905
      1625.0000         0.9365        -999.25         0.9155       -55.2267      -10.10364      0.7322459
      1625.5000         0.9087        -999.25         0.8841       -54.1383      -9.012959      0.7643247
      1626.0000         0.9083        -999.25         0.7956       -52.5052      -7.377571      0.8124244
      1626.5000         0.8532        -999.25         0.7804       -50.3912      -5.261288       0.874668
      1627.0000         0.8255        -999.25         0.7793       -48.1471      -3.014904      0.9407381
      1627.5000         0.8251        -999.25         0.7747       -46.0772     -0.9427223              1
      1628.0000         0.7974        -999.25         0.7747       -44.3344      0.8023605              1
      1628.5000         0.7615        -999.25           0.78       -43.2457       1.893345              1
      1629.0000         0.7419        -999.25         0.7854       -42.7033        2.43803              1
      1629.5000         0.7415        -999.25         0.7853       -41.4407       3.702911              1
      1630.0000         0.7138        -999.25         0.7852       -39.9817       5.164196              1
      1630.5000         0.7133        -999.25         0.7851       -39.9842       5.163982              1
