#------------------------------------------------------------------------------
# Created by    : vladimir.rabinovich
# Created on    : 09/19/2023 17:19:41
#------------------------------------------------------------------------------
~Version Information Section
VERS.           2.0     :   CWLS log ASCII Standard - VERSION 2.0
WRAP.           NO      :   One line per depth step
~Well Information Section
#MNEM       .UNIT                                         VALUE :DESCRIPTION
#------------------------------------------------------------------------------
STRT        .FT                                             149 :START DEPTH
STOP        .FT                                         11018.5 :STOP DEPTH
STEP        .FT                                             0.5 :STEP      
NULL        .                                           -999.25 :NULL      
COMP        .                          STANDARD OIL CO OF TEXAS :COMPANY   
WELL        .                                   JACKSON BERTA N :WELL      
FLD         .                                           WILDCAT :FIELD     
LOC         .                                                   :LOCATION  
CNTY        .                                          CHAMBERS :LOCATION  
STAT        .                                             TEXAS :STATE     
CTRY        .                                     UNITED STATES :COUNTRY   
SRVC        .                                                   :SERVICE COMPANY
DATE        .                             9/13/2023 11:19:11 AM :LOG DATE  
API         .                                    42071023650000 :API NUMBER
UWI         .                                    42071023650000 :UNIQUE WELL ID
XCOORD      .                                  1147650.32957209 :SURFACE X 
YCOORD      .                                  10746494.5600269 :SURFACE Y 
LAT         .                                        29.6022446 :LATITUDE  
LON         .                                       -94.5509971 :LONGITUDE 
ELEV        .FT                                            17.6 :ELEVATION VALUE
ELEV_TYPE   .                                                KB :ELEVATION REFERENCE TYPE
~Curve Information Section
#MNEM       .UNIT                                      API CODE :CURVE DESCRIPTION
#------------------------------------------------------------------------------
DEPT        .FT                                                 :DEPTH     
AM64        .OHMM                                               :          
CILD        .MMHO                                               :          
SN16        .OHMM                                               :          
SP          .MV                                                 :          
SP_NORM     .MV                                                 :SP Normalized
VSH_SP      .V/V                                                :Volume of Shale from SP
~A        DEPTH           AM64           CILD           SN16             SP        SP_NORM         VSH_SP
       149.0000          4.153        -999.25        -999.25        -999.25        -999.25        -999.25
       149.5000         4.1802        -999.25        -999.25        -999.25        -999.25        -999.25
       150.0000         4.1843        -999.25        -999.25       -61.6364       6.686584      0.2570462
       150.5000         4.2073        -999.25         3.1336       -61.6364       6.686584      0.2570462
       151.0000          4.264        -999.25         3.2427       -61.6364       6.686584      0.2570462
       151.5000         4.3164        -999.25         3.2155       -61.7922       6.530785      0.2743573
       152.0000          4.371        -999.25         3.2156       -62.1818       6.141182      0.3176464
       152.5000         4.3982        -999.25         3.2157       -62.3201       6.002884      0.3330129
       153.0000         4.4255        -999.25         3.2158       -62.7273       5.595684      0.3782573
       153.5000           4.48        -999.25         3.2431       -62.7273       5.595684      0.3782573
       154.0000         4.5619        -999.25         3.4367       -62.7273       5.595684      0.3782573
       154.5000         4.6798        -999.25         3.9245       -62.7273       5.595684      0.3782573
       155.0000         4.7803        -999.25         4.0377       -62.7273       5.595684      0.3782573
       155.5000         4.8755        -999.25         4.0609       -62.7273       5.595684      0.3782573
       156.0000          5.026        -999.25          4.061       -62.7273       5.595684      0.3782573
       156.5000         5.1125        -999.25         4.0611       -62.7273       5.595684      0.3782573
       157.0000         5.1898        -999.25         4.0609       -62.7273       5.595684      0.3782573
       157.5000         5.2742        -999.25          4.034        -62.702       5.620983      0.3754463
       158.0000         5.3535        -999.25         4.0341       -62.1818       6.141182      0.3176464
       158.5000          5.436        -999.25         4.0615       -62.1489       6.174084      0.3139907
       159.0000         5.5305        -999.25         4.0888       -61.6364       6.686584      0.2570462
       159.5000         5.5718        -999.25          4.207       -61.6364       6.686584      0.2570462
       160.0000         5.5382        -999.25          4.307       -61.6364       6.686584      0.2570462
       160.5000          5.435        -999.25         4.3343       -61.6364       6.686584      0.2570462
       161.0000         5.4076        -999.25         4.3072       -61.6364       6.686584      0.2570462
       161.5000         5.4895        -999.25           4.28       -61.6364       6.686584      0.2570462
       162.0000         5.5785        -999.25         4.2256       -61.3732       6.949783      0.2278019
       162.5000         5.7352        -999.25         4.1099       -61.0909       7.232082      0.1964353
       163.0000         5.8171        -999.25         4.0078       -61.0909       7.232082      0.1964353
       163.5000         5.7897        -999.25         3.8974       -61.0909       7.232082      0.1964353
       164.0000         5.7288        -999.25         3.8586       -61.0909       7.232082      0.1964353
       164.5000         5.5436        -999.25         3.8991       -61.0909       7.232082      0.1964353
       165.0000         5.3492        -999.25         3.9782       -61.6364       6.686584      0.2570462
       165.5000         5.1336        -999.25           4.09       -61.6364       6.686584      0.2570462
       166.0000         4.9149        -999.25         4.2029       -62.1818       6.141182      0.3176464
       166.5000         4.7939        -999.25         4.3354       -62.1818       6.141182      0.3176464
       167.0000         4.7781        -999.25         4.3355       -62.1818       6.141182      0.3176464
       167.5000         4.8519        -999.25         4.3083       -62.1818       6.141182      0.3176464
       168.0000         5.0512        -999.25         4.2812       -62.1818       6.141182      0.3176464
       168.5000         5.1604        -999.25         4.2813       -62.1818       6.141182      0.3176464
       169.0000         5.1876        -999.25         4.2222       -62.1818       6.141182      0.3176464
       169.5000         5.2148        -999.25         4.1452       -62.1818       6.141182      0.3176464
       170.0000         5.1601        -999.25         4.0309       -61.6364       6.686584      0.2570462
       170.5000         5.1018        -999.25         3.3552       -61.6364       6.686584      0.2570462
       171.0000         5.0233        -999.25          3.328       -61.6364       6.686584      0.2570462
       171.5000         4.9383        -999.25         3.3416       -61.0909       7.232082      0.1964353
       172.0000         4.8045        -999.25         3.3555       -61.0909       7.232082      0.1964353
       172.5000         4.7225        -999.25          3.344       -61.0909       7.232082      0.1964353
       173.0000         4.6557        -999.25         3.2739       -61.0401       7.282883      0.1907908
       173.5000          4.613        -999.25         3.2195       -60.5455       7.777481      0.1358354
       174.0000         4.5108        -999.25         3.1923       -60.5455       7.777481      0.1358354
       174.5000         4.3942        -999.25         3.0757       -60.5455       7.777481      0.1358354
       175.0000         4.3668        -999.25         3.0018       -60.5455       7.777481      0.1358354
       175.5000         4.3667        -999.25         3.0019       -60.5455       7.777481      0.1358354
       176.0000         4.3667        -999.25          3.002       -60.5455       7.777481      0.1358354
       176.5000         4.3939        -999.25         3.0372       -60.5455       7.777481      0.1358354
       177.0000         4.4211        -999.25         3.1656       -61.0909       7.232082      0.1964353
       177.5000         4.4757        -999.25         3.2516       -61.0909       7.232082      0.1964353
       178.0000         4.5068        -999.25         3.3838       -61.0909       7.232082      0.1964353
       178.5000         4.6394        -999.25         3.5204       -61.0909       7.232082      0.1964353
       179.0000         4.7486        -999.25         3.6821       -61.0909       7.232082      0.1964353
       179.5000         4.8556        -999.25         3.8745       -61.0909       7.232082      0.1964353
       180.0000         4.9397        -999.25         4.0327       -61.0909       7.232082      0.1964353
       180.5000         4.9774        -999.25         4.1472       -61.0909       7.232082      0.1964353
       181.0000         5.0215        -999.25          4.229       -61.0909       7.232082      0.1964353
       181.5000         5.0214        -999.25         4.2291       -61.6364       6.686584      0.2570462
       182.0000         5.0486        -999.25         4.2292       -62.1818       6.141182      0.3176464
       182.5000         5.0485        -999.25         4.2293       -62.2602       6.062782      0.3263575
       183.0000         5.0211        -999.25         4.2294       -62.7273       5.595684      0.3782573
       183.5000         4.9576        -999.25         4.2295       -62.8664       5.456581      0.3937132
       184.0000          4.857        -999.25         4.2263       -63.2727       5.050282      0.4388576
       184.5000         4.7702        -999.25         4.2024       -63.8182       4.504784      0.4994685
       185.0000         4.6656        -999.25         4.1739       -63.9467       4.376282      0.5137465
       185.5000         4.5832        -999.25         4.1209       -64.3636       3.959381      0.5600688
       186.0000         4.4755        -999.25         4.0937       -64.9091       3.413879      0.6206801
       186.5000         4.3648        -999.25         4.0393       -64.9091       3.413879      0.6206801
