#------------------------------------------------------------------------------
# Created by    : vladimir.rabinovich
# Created on    : 09/19/2023 17:19:41
#------------------------------------------------------------------------------
~Version Information Section
VERS.           2.0     :   CWLS log ASCII Standard - VERSION 2.0
WRAP.           NO      :   One line per depth step
~Well Information Section
#MNEM       .UNIT                                         VALUE :DESCRIPTION
#------------------------------------------------------------------------------
STRT        .FT                                             149 :START DEPTH
STOP        .FT                                         11018.5 :STOP DEPTH
STEP        .FT                                             0.5 :STEP      
NULL        .                                           -999.25 :NULL      
COMP        .                          STANDARD OIL CO OF TEXAS :COMPANY   
WELL        .                                   JACKSON BERTA N :WELL      
FLD         .                                           WILDCAT :FIELD     
LOC         .                                                   :LOCATION  
CNTY        .                                          CHAMBERS :LOCATION  
STAT        .                                             TEXAS :STATE     
CTRY        .                                     UNITED STATES :COUNTRY   
SRVC        .                                                   :SERVICE COMPANY
DATE        .                             9/13/2023 11:19:11 AM :LOG DATE  
API         .                                    42071023650000 :API NUMBER
UWI         .                                    42071023650000 :UNIQUE WELL ID
XCOORD      .                                  1147650.32957209 :SURFACE X 
YCOORD      .                                  10746494.5600269 :SURFACE Y 
LAT         .                                        29.6022446 :LATITUDE  
LON         .                                       -94.5509971 :LONGITUDE 
ELEV        .FT                                            17.6 :ELEVATION VALUE
ELEV_TYPE   .                                                KB :ELEVATION REFERENCE TYPE
~Curve Information Section
#MNEM       .UNIT                                      API CODE :CURVE DESCRIPTION
#------------------------------------------------------------------------------
DEPT        .FT                                                 :DEPTH     
AM64        .OHMM                                               :          
CILD        .MMHO                                               :          
SN16        .OHMM                                               :          
SP          .MV                                                 :          
SP_NORM     .MV                                                 :SP Normalized
VSH_SP      .V/V                                                :Volume of Shale from SP
~A        DEPTH           AM64           CILD           SN16             SP        SP_NORM         VSH_SP
# ...
      3037.0000         1.0109        1081.81         0.9557       -42.2003      -3.690983      0.9519467
      3037.5000         1.0012        1085.85         0.9557        -42.203      -3.693684      0.9518985
      3038.0000         0.9836       1091.323         0.9557       -41.9436      -3.434284      0.9565306
      3038.5000         0.9836       1096.785         0.9558        -41.663      -3.153683      0.9615414
      3039.0000         0.9836        1104.67         0.9558            -41      -2.490685      0.9733806
      3039.5000         0.9836       1113.213         0.9558       -40.5776      -2.068283      0.9809235
      3040.0000         0.9836       1113.187         0.9613       -40.3617      -1.852383      0.9847789
      3040.5000         0.9836       1113.158         0.9613       -40.0376      -1.528286      0.9905663
      3041.0000         0.9836       1113.132         0.9668       -39.4944     -0.9850845              1
      3041.5000         1.0109       1113.104         0.9668       -39.4977     -0.9883842              1
      3042.0000         1.0109       1105.821         0.9669       -39.5003     -0.9909859              1
      3042.5000         1.0109       1091.071         0.9669       -39.5032      -0.993885              1
      3043.0000         1.0109       1073.024         0.9685       -39.5057     -0.9963837              1
      3043.5000         1.0109       1052.554         0.9724       -40.5996      -2.090286      0.9805306
      3044.0000         1.0257       1033.412         0.9792       -41.2789      -2.769585      0.9684003
      3044.5000         1.0383       1008.543         0.9888        -41.696      -3.186684      0.9609521
      3045.0000         1.0523        996.426         0.9943       -41.6984      -3.189083      0.9609092
      3045.5000         1.0656       986.5105         1.0052        -41.156      -2.646683      0.9705949
      3046.0000         1.0661       980.9923         1.0107       -40.6128      -2.103485      0.9802949
      3046.5000         1.0929       986.4557         1.0271       -40.6161      -2.106785       0.980236
      3047.0000         1.0929       986.4324         1.0332       -40.6184      -2.109085      0.9801949
      3047.5000         1.0929       980.9063         1.0489       -40.6215      -2.112183      0.9801396
      3048.0000         1.1111       986.3789         1.0607        -41.759      -3.249683      0.9598271
      3048.5000         1.1336        986.346         1.0817       -43.3543      -4.844986      0.9313396
      3049.0000         1.1749       991.8185         1.0983       -44.6273      -6.117985      0.9086074
      3049.5000         1.2022       991.7856         1.1199       -54.2689      -15.75959      0.7364359
      3050.0000         1.2295       986.2692         1.1308       -54.2711      -15.76178      0.7363967
      3050.5000         1.2418        983.598         1.1684       -54.2738      -15.76448      0.7363485
      3051.0000         1.2568       980.7198         1.2235       -53.7311      -15.22178      0.7460396
      3051.5000         1.2842       967.2798         1.2508       -53.4931      -14.98378      0.7502896
      3052.0000         1.2842        958.687         1.2508       -53.1911      -14.68179      0.7556824
      3052.5000         1.3115       945.4699         1.2639       -52.6479      -14.13858      0.7653824
      3053.0000         1.3115       920.1707         1.2726       -51.8652      -13.35588      0.7793592
      3053.5000         1.3115       905.1826         1.2801       -51.1917      -12.68238       0.791386
      3054.0000         1.3115       881.6542         1.2945       -50.4748      -11.96548      0.8041878
      3054.5000         1.3115       861.6065         1.3017       -49.2113      -10.70198      0.8267503
      3055.0000         1.3115       832.1489         1.3109       -48.2985      -9.789185      0.8430503
      3055.5000         1.3115       807.0556         1.3125       -47.0569      -8.547585      0.8652217
      3056.0000         1.3115        777.149         1.3164       -45.0313      -6.521984      0.9013931
      3056.5000         1.3115       764.8117         1.3164       -43.8114      -5.302086      0.9231771
      3057.0000         1.3388       749.6216         1.3219       -42.8546      -4.345284      0.9402628
      3057.5000         1.3388        744.103         1.3087       -41.6568      -3.147484      0.9616521
      3058.0000         1.3661       755.0613         1.2511       -40.1332      -1.623886      0.9888592
      3058.5000         1.3661       767.8093          1.233       -40.0477      -1.538383       0.990386
      3059.0000         1.3388       798.9625          1.213       -39.5928      -1.083485      0.9985092
      3059.5000         1.3388       820.9186         1.1953        -40.141      -1.631683      0.9887199
      3060.0000         1.3115       826.3846         1.1749       -40.1441      -1.634785      0.9886646
      3060.5000         1.3115       837.7987         1.1641       -40.1464      -1.637085      0.9886235
      3061.0000         1.2842       848.3034         1.1641       -40.6951      -2.185783      0.9788253
      3061.5000         1.2842       848.5139         1.1587       -40.7198      -2.210484      0.9783842
      3062.0000         1.2568       853.7484         1.1587       -41.7915      -3.282185      0.9592467
      3062.5000         1.2512       853.7211         1.1642       -41.7943      -3.284985      0.9591967
      3063.0000         1.2295       856.3446         1.1696       -42.3418      -3.832485      0.9494199
      3063.5000         1.2022       859.1613         1.1697       -42.8901      -4.380783      0.9396289
      3064.0000         1.1749       864.6334         1.1642       -43.9837      -5.474384      0.9201003
      3064.5000         1.1475       870.0959         1.0989       -44.5319      -6.022583       0.910311
      3065.0000         1.1202       875.5675         1.0803       -46.3898      -7.880486      0.8771342
      3065.5000         1.0929       881.0304         1.0717        -48.901      -10.39169      0.8322913
      3066.0000         1.0929       888.4909         1.0697       -51.4799      -12.97058      0.7862396
      3066.5000         1.0929       908.4468         1.0663       -53.2702      -14.76088        0.75427
      3067.0000         1.0929        928.457         1.0591       -55.6295      -17.12019      0.7121395
      3067.5000         1.0958       946.8535         1.0718       -57.6393      -19.12999      0.6762503
      3068.0000         1.1202       966.4156         1.0843       -59.2597      -20.75039      0.6473145
      3068.5000         1.1202       1012.733         1.0936       -69.0993      -30.58998      0.4716075
      3069.0000         1.1202       1061.986         1.0923       -75.6089      -37.09959      0.3553645
      3069.5000         1.0929       1221.469         1.0774       -81.6503      -43.14098      0.2474824
      3070.0000         1.0929       1512.468         1.0157       -86.0216      -47.51228      0.1694235
      3070.5000         1.0929       1886.249         0.8758       -95.8376      -57.32829              0
      3071.0000         1.0929       1922.016         0.8041       -93.3068      -54.79749     0.03933062
      3071.5000         1.0929       1964.812         0.7232       -88.2067      -49.69739      0.1304038
      3072.0000         1.0929       2007.607         0.6899       -84.7382      -46.22888      0.1923414
      3072.5000         1.0656       2072.953         0.6851       -81.6663      -43.15698      0.2471967
      3073.0000         1.0383       2227.249         0.6911       -81.1235      -42.61418      0.2568896
      3073.5000         0.9836       2495.975          0.707       -81.1268      -42.61749      0.2568306
      3074.0000          0.903       2585.302         0.7291        -81.129      -42.61968      0.2567914
      3074.5000         0.8197        2666.25         0.7452       -80.5868      -42.07748      0.2664735
