#------------------------------------------------------------------------------
# Created by    : vladimir.rabinovich
# Created on    : 09/19/2023 17:19:41
#------------------------------------------------------------------------------
~Version Information Section
VERS.           2.0     :   CWLS log ASCII Standard - VERSION 2.0
WRAP.           NO      :   One line per depth step
~Well Information Section
#MNEM       .UNIT                                         VALUE :DESCRIPTION
#------------------------------------------------------------------------------
STRT        .FT                                             149 :START DEPTH
STOP        .FT                                         11018.5 :STOP DEPTH
STEP        .FT                                             0.5 :STEP      
NULL        .                                           -999.25 :NULL      
COMP        .                          STANDARD OIL CO OF TEXAS :COMPANY   
WELL        .                                   JACKSON BERTA N :WELL      
FLD         .                                           WILDCAT :FIELD     
LOC         .                                                   :LOCATION  
CNTY        .                                          CHAMBERS :LOCATION  
STAT        .                                             TEXAS :STATE     
CTRY        .                                     UNITED STATES :COUNTRY   
SRVC        .                                                   :SERVICE COMPANY
DATE        .                             9/13/2023 11:19:11 AM :LOG DATE  
API         .                                    42071023650000 :API NUMBER
UWI         .                                    42071023650000 :UNIQUE WELL ID
XCOORD      .                                  1147650.32957209 :SURFACE X 
YCOORD      .                                  10746494.5600269 :SURFACE Y 
LAT         .                                        29.6022446 :LATITUDE  
LON         .                                       -94.5509971 :LONGITUDE 
ELEV        .FT                                            17.6 :ELEVATION VALUE
ELEV_TYPE   .                                                KB :ELEVATION REFERENCE TYPE
~Curve Information Section
#MNEM       .UNIT                                      API CODE :CURVE DESCRIPTION
#------------------------------------------------------------------------------
DEPT        .FT                                                 :DEPTH     
AM64        .OHMM                                               :          
CILD        .MMHO                                               :          
SN16        .OHMM                                               :          
SP          .MV                                                 :          
SP_NORM     .MV                                                 :SP Normalized
VSH_SP      .V/V                                                :Volume of Shale from SP
~A        DEPTH           AM64           CILD           SN16             SP        SP_NORM         VSH_SP
# ...
     10979.0000         1.2814       2807.312         1.2656       -51.2017     -0.2700233              1
     10979.5000         1.2542       2837.831         1.2787       -51.2025     -0.2708244              1
     10980.0000         1.2496        2873.26         1.3091        -50.658       0.273674              1
     10980.5000         1.2269       2896.942         1.3345       -50.6589      0.2727737              1
     10981.0000         1.1996       2922.724         1.3745       -50.6597      0.2719765              1
     10981.5000         1.1724       2928.224         1.3384       -50.4965      0.4351768              1
     10982.0000         1.1437       2928.232         1.2709       -50.1161      0.8155746              1
     10982.5000         1.0905       2928.238         1.2409       -49.9747       0.956974              1
     10983.0000         1.0359       2911.762         1.2272       -49.3703       1.561375              1
     10983.5000         1.0086       2884.002         1.2258       -49.0278       1.903873              1
     10984.0000         1.0087       2878.807         1.2217       -49.0289       1.902775              1
     10984.5000         1.0087       2878.814         1.2217       -49.1276       1.804073              1
     10985.0000         1.0088       2889.811         1.2271       -49.5761       1.355576              1
     10985.5000         1.0088       2911.795         1.2326       -49.5769       1.354774              1
     10986.0000         1.0088       2949.996          1.238       -50.1234      0.8082733              1
     10986.5000         1.0089       2977.742         1.2254       -50.1241      0.8075752              1
     10987.0000         1.0089       2991.138         1.2161       -50.1252      0.8064766              1
     10987.5000          1.009       3005.228         1.2035       -50.1602      0.7714767              1
     10988.0000          1.009       3010.729         1.1943       -50.6724      0.2592735              1
     10988.5000         1.0091       3010.736         1.1925       -50.6732      0.2584763              1
     10989.0000         1.0091       3010.743         1.1888       -50.9481    -0.01642609              1
     10989.5000         1.0091        3010.75         1.1887       -51.2204     -0.2887268              1
     10990.0000         1.0092       3010.756         1.1942       -51.2213     -0.2896233              1
     10990.5000         1.0366       3010.763         1.1996       -51.7677     -0.8360252              1
     10991.0000         1.0366        3010.77          1.205        -52.314      -1.382324      0.9951605
     10991.5000         1.0366       3010.777         1.2104       -52.3149      -1.383224      0.9951491
     10992.0000         1.0094       3005.288         1.2104       -52.3158      -1.384125      0.9951376
     10992.5000         1.0094       3005.296         1.2084       -52.3167      -1.385025      0.9951262
     10993.0000         1.0095       2998.474         1.2049        -51.772     -0.8403244              1
     10993.5000         1.0095        2994.32         1.1994       -51.7731     -0.8414268              1
     10994.0000         1.0095       2994.327         1.1994       -51.7739     -0.8422241              1
     10994.5000         1.0096       2994.334         1.2015       -51.7749     -0.8432236              1
     10995.0000         1.0096        2994.34         1.2102       -51.2302     -0.2985268              1
     10995.5000         1.0097       2988.853         1.2179       -51.2312     -0.2995262              1
     10996.0000         0.9824        2988.86         1.2211       -51.1108     -0.1791267              1
     10996.5000         0.9824       2988.866         1.2265       -50.6875       0.244175              1
     10997.0000         0.9825       2988.873         1.2319       -50.6884      0.2432747              1
     10997.5000         0.9825       2988.881         1.2319       -51.2348     -0.3031235              1
     10998.0000         0.9826       2983.392         1.2319       -51.2356     -0.3039246              1
     10998.5000         0.9826         2983.4         1.2373       -51.2366      -0.304924              1
     10999.0000         0.9827       2983.405         1.2373       -51.2374     -0.3057251              1
     10999.5000         0.9827       2983.413         1.2372       -51.2385     -0.3068237              1
     11000.0000         0.9827       2983.312         1.2318       -51.8164     -0.8847237              1
     11000.5000         0.9828       2977.931         1.2317       -52.3312      -1.399525      0.9949427
     11001.0000         0.9828       2977.938         1.2317       -52.8773      -1.945625      0.9880301
     11001.5000         0.9829       2977.945         1.2317       -52.8782      -1.946526      0.9880187
     11002.0000         0.9829       2977.951         1.2371       -53.1466      -2.214924      0.9846212
     11002.5000          0.983       2977.958         1.2425       -53.4255      -2.493824      0.9810908
     11003.0000          0.983       2977.965         1.2425       -53.4264      -2.494724      0.9810795
     11003.5000         0.9761       2977.971        -999.25       -52.8817      -1.950024      0.9879744
     11004.0000         0.9558       2972.484        -999.25       -52.8828      -1.951126      0.9879605
     11004.5000         0.9558        2972.49        -999.25       -52.8836      -1.951923      0.9879503
     11005.0000         0.9559       2972.498        -999.25       -52.8846      -1.952927      0.9879376
     11005.5000         0.9597       2972.504        -999.25       -52.8854      -1.953724      0.9879276
     11006.0000         0.9833       2972.511        -999.25       -52.8864      -1.954723      0.9879149
     11006.5000         0.9833       2978.012        -999.25       -52.8872      -1.955524      0.9879047
     11007.0000         0.9834       2978.019        -999.25       -52.3427      -1.411026      0.9947971
     11007.5000         0.9834        -999.25        -999.25       -52.3435      -1.411823       0.994787
     11008.0000         0.9835        -999.25        -999.25        -51.799     -0.8673248              1
     11008.5000         0.9835        -999.25        -999.25       -51.2543     -0.3226242              1
     11009.0000         0.9835        -999.25        -999.25       -50.7099      0.2217751              1
     11009.5000         0.9836        -999.25        -999.25       -50.7107       0.220974              1
     11010.0000        -999.25        -999.25        -999.25       -50.7118      0.2198753              1
     11010.5000        -999.25        -999.25        -999.25       -50.7125      0.2191734              1
     11011.0000        -999.25        -999.25        -999.25       -50.1681      0.7635765              1
     11011.5000        -999.25        -999.25        -999.25       -50.1689      0.7627754              1
     11012.0000        -999.25        -999.25        -999.25       -50.1699       0.761776              1
     11012.5000        -999.25        -999.25        -999.25       -50.1707      0.7609749              1
     11013.0000        -999.25        -999.25        -999.25       -50.1717      0.7599754              1
     11013.5000        -999.25        -999.25        -999.25        -50.183      0.7486763              1
     11014.0000        -999.25        -999.25        -999.25       -50.7188      0.2128754              1
     11014.5000        -999.25        -999.25        -999.25       -50.7197      0.2119751              1
     11015.0000        -999.25        -999.25        -999.25       -50.7206      0.2110748              1
     11015.5000        -999.25        -999.25        -999.25       -50.7215      0.2101746              1
     11016.0000        -999.25        -999.25        -999.25       -51.2678     -0.3361244              1
     11016.5000        -999.25        -999.25        -999.25       -51.2688     -0.3371239              1
