#------------------------------------------------------------------------------
# Created by    : vladimir.rabinovich
# Created on    : 09/19/2023 17:22:55
#------------------------------------------------------------------------------
~Version Information Section
VERS.           2.0     :   CWLS log ASCII Standard - VERSION 2.0
WRAP.           NO      :   One line per depth step
~Well Information Section
#MNEM       .UNIT                                         VALUE :DESCRIPTION
#------------------------------------------------------------------------------
STRT        .FT                                            1722 :START DEPTH
STOP        .FT                                            8384 :STOP DEPTH
STEP        .FT                                             0.5 :STEP      
NULL        .                                           -999.25 :NULL      
COMP        .                                   HEBERT HILARY B :COMPANY   
WELL        .                                    REARWIN LEILAW :WELL      
FLD         .                                           WILDCAT :FIELD     
LOC         .                                                   :LOCATION  
CNTY        .                                          CHAMBERS :LOCATION  
STAT        .                                             TEXAS :STATE     
CTRY        .                                     UNITED STATES :COUNTRY   
SRVC        .                                                   :SERVICE COMPANY
DATE        .                             9/13/2023 11:19:11 AM :LOG DATE  
API         .                                    42071022820000 :API NUMBER
UWI         .                                    42071022820000 :UNIQUE WELL ID
XCOORD      .                                  1141949.94059063 :SURFACE X 
YCOORD      .                                  10792730.9347258 :SURFACE Y 
LAT         .                                        29.7291796 :LATITUDE  
LON         .                                       -94.5709084 :LONGITUDE 
ELEV        .FT                                              28 :ELEVATION VALUE
ELEV_TYPE   .                                                DF :ELEVATION REFERENCE TYPE
~Curve Information Section
#MNEM       .UNIT                                      API CODE :CURVE DESCRIPTION
#------------------------------------------------------------------------------
DEPT        .FT                                                 :DEPTH     
LAT         .OHMM                                               :          
LN          .OHMM                                               :          
SN          .OHMM                                               :          
SP          .MV                                                 :          
SP_NORM     .MV                                                 :SP Normalized
VSH_SP      .V/V                                                :Volume of Shale from SP
~A        DEPTH            LAT             LN             SN             SP        SP_NORM         VSH_SP
# ...
      3926.0000         0.2628        -0.0378         0.6381      -163.5552      -88.35544      0.0714469
      3926.5000         0.2685        -0.0299         0.6919       -159.615      -84.42065      0.1137564
      3927.0000         0.2742        -0.0215         0.7423      -156.7676      -81.57866      0.1443155
      3927.5000         0.2831        -0.0021         0.7668      -154.7988      -79.61527      0.1654272
      3928.0000         0.2934         0.0173         0.7914      -153.2129       -78.0348      0.1824215
      3928.5000         0.3037         0.0368         0.7738      -154.8281       -79.6554      0.1649957
      3929.0000          0.314         0.0492         0.7466      -157.4368      -82.26952      0.1368869
      3929.5000         0.3243         0.0449         0.7408      -159.7971      -84.63524       0.111449
      3930.0000         0.3311         0.0406          0.735       -159.718      -84.56155      0.1122414
      3930.5000         0.3368         0.0367         0.7292      -159.6387      -84.48766      0.1130359
      3931.0000         0.3426         0.0357         0.7212      -159.8577      -84.71207      0.1106229
      3931.5000         0.3484         0.0346         0.7119      -160.8208      -85.68059      0.1002087
      3932.0000         0.3541         0.0336         0.7026      -161.7263      -86.59151     0.09041391
      3932.5000         0.3599         0.0325         0.6933      -162.4744      -87.34502     0.08231165
      3933.0000         0.3629         0.0315         0.7006       -163.113      -87.98904      0.0753867
      3933.5000         0.3629         0.0339         0.7107      -161.9546      -86.83605     0.08778439
      3934.0000         0.3629         0.0387         0.7513      -160.9092      -85.79606     0.09896711
      3934.5000          0.363         0.0435         0.8064       -159.864      -84.75627      0.1101476
      3935.0000          0.363         0.0437         0.8602      -160.1577      -85.05539      0.1069313
      3935.5000         0.3612         0.0379          0.911      -160.5566       -85.4597      0.1025839
      3936.0000         0.3502         0.0316         0.9619      -160.9561      -85.86462     0.09822993
      3936.5000         0.3391          0.018          0.917      -161.1313      -86.04523      0.0962878
      3937.0000          0.328         0.0044         0.8423      -160.8467      -85.76604     0.09928992
      3937.5000          0.317        -0.0092         0.7664      -160.0903      -85.01506      0.1073649
      3938.0000         0.3139        -0.0227         0.6846      -158.9409      -83.87108      0.1196658
      3938.5000         0.3158        -0.0341         0.6029      -154.1184      -79.05398      0.1714626
      3939.0000         0.3176        -0.0452         0.5661      -150.0005      -74.94151      0.2156827
      3939.5000         0.3195        -0.0563         0.5301      -144.8259      -69.77232      0.2712654
      3940.0000         0.3393        -0.0409         0.5819       -142.241      -67.19283      0.2990019
      3940.5000         0.3675        -0.0163         0.6784       -140.467      -65.42424      0.3180189
      3941.0000         0.3957         0.0052          0.789      -138.3584      -63.32106      0.3406337
      3941.5000         0.4241         0.0216         0.8979      -136.1711      -61.13917       0.364095
      3942.0000         0.4529         0.0381         0.9899      -133.9182      -58.89169      0.3882614
      3942.5000         0.4816         0.0545         1.0819       -135.217      -60.19589      0.3742377
      3943.0000         0.5103         0.0523         1.1121       -139.032      -64.01631      0.3331579
      3943.5000         0.5116         0.0461         1.1196      -147.4324      -72.42213      0.2427727
      3944.0000          0.506         0.0399         1.1272      -150.7551      -75.75024      0.2069867
      3944.5000         0.4752         0.0336         1.1347      -153.8301      -78.83065       0.173864
      3945.0000         0.4444         0.0272         1.1785      -156.1887      -81.19468      0.1484443
      3945.5000         0.4136         0.0207         1.2323       -158.429      -83.44038      0.1242969
      3946.0000         0.3832         0.0142         1.2862      -160.7019       -85.7187     0.09979888
      3946.5000         0.3566         0.0077         1.3182      -162.6338      -87.65602     0.07896751
      3947.0000         0.3301         0.0017         1.3458      -164.1194      -89.14703      0.0629352
      3947.5000         0.3036        -0.0016         1.3734      -165.5171      -90.55015     0.04784787
      3948.0000         0.2771        -0.0048         1.3667      -166.7764      -91.81485     0.03424893
      3948.5000         0.2506         -0.008         1.3438      -167.9199      -92.96378     0.02189489
      3949.0000         0.2395        -0.0112          1.317      -168.5002      -93.54948     0.01559694
      3949.5000         0.2295        -0.0084         1.2882      -169.0806      -94.13529    0.009297935
      3950.0000         0.2196        -0.0055         1.2748      -169.6611      -94.72121    0.002997696
      3950.5000         0.2097        -0.0025         1.2614      -170.2415      -95.30703              0
      3951.0000         0.2047         0.0004         1.2481      -170.6101      -95.68105              0
      3951.5000         0.2032         0.0034         1.2433       -170.959      -96.03535              0
      3952.0000         0.2017          0.007          1.239      -171.2529      -96.33467              0
      3952.5000         0.2002         0.0111         1.2347      -171.5466      -96.63378              0
      3953.0000         0.1987         0.0152         1.2304      -171.8406       -96.9332              0
      3953.5000         0.1972         0.0193         1.2261      -172.1345      -97.23252              0
      3954.0000         0.1956         0.0249         1.2218      -172.3516      -97.45502              0
      3954.5000         0.1941         0.0308         1.2458      -172.5447      -97.65353              0
      3955.0000         0.1925         0.0366          1.289      -172.6819      -97.79615              0
      3955.5000         0.1927         0.0425          1.371      -172.5483      -97.66796              0
      3956.0000         0.1968         0.0483          1.453      -172.4148      -97.53988              0
      3956.5000         0.2009          0.047         1.5309      -172.2812       -97.4117              0
      3957.0000         0.2051         0.0432         1.5421      -172.1477      -97.28362              0
      3957.5000         0.2092         0.0282         1.5283      -172.1206      -97.26193              0
      3958.0000         0.2133         0.0129         1.5144      -172.1191      -97.26583              0
      3958.5000         0.2261        -0.0003         1.5012      -172.2317      -97.38386              0
      3959.0000          0.239        -0.0049         1.4917       -172.501      -97.65858              0
      3959.5000         0.2519        -0.0095         1.4823      -172.7703      -97.93327              0
      3960.0000         0.2652        -0.0137         1.4809      -173.0398      -98.20819              0
      3960.5000         0.2828        -0.0168         1.5154      -173.3091       -98.4829              0
      3961.0000         0.3005        -0.0198         1.5498      -173.5786      -98.75782              0
      3961.5000         0.3182        -0.0229         1.5838      -173.8479      -99.03254              0
      3962.0000         0.3359        -0.0259         1.6035      -174.1174      -99.30745              0
      3962.5000         0.3503        -0.0246         1.6232      -174.3867      -99.58217              0
      3963.0000         0.3489        -0.0227         1.6382      -174.6077      -99.80858              0
      3963.5000         0.3475        -0.0208         1.5932       -174.801      -100.0073              0
