#------------------------------------------------------------------------------
# Created by    : vladimir.rabinovich
# Created on    : 09/19/2023 17:19:41
#------------------------------------------------------------------------------
~Version Information Section
VERS.           2.0     :   CWLS log ASCII Standard - VERSION 2.0
WRAP.           NO      :   One line per depth step
~Well Information Section
#MNEM       .UNIT                                         VALUE :DESCRIPTION
#------------------------------------------------------------------------------
STRT        .FT                                             149 :START DEPTH
STOP        .FT                                         11018.5 :STOP DEPTH
STEP        .FT                                             0.5 :STEP      
NULL        .                                           -999.25 :NULL      
COMP        .                          STANDARD OIL CO OF TEXAS :COMPANY   
WELL        .                                   JACKSON BERTA N :WELL      
FLD         .                                           WILDCAT :FIELD     
LOC         .                                                   :LOCATION  
CNTY        .                                          CHAMBERS :LOCATION  
STAT        .                                             TEXAS :STATE     
CTRY        .                                     UNITED STATES :COUNTRY   
SRVC        .                                                   :SERVICE COMPANY
DATE        .                             9/13/2023 11:19:11 AM :LOG DATE  
API         .                                    42071023650000 :API NUMBER
UWI         .                                    42071023650000 :UNIQUE WELL ID
XCOORD      .                                  1147650.32957209 :SURFACE X 
YCOORD      .                                  10746494.5600269 :SURFACE Y 
LAT         .                                        29.6022446 :LATITUDE  
LON         .                                       -94.5509971 :LONGITUDE 
ELEV        .FT                                            17.6 :ELEVATION VALUE
ELEV_TYPE   .                                                KB :ELEVATION REFERENCE TYPE
~Curve Information Section
#MNEM       .UNIT                                      API CODE :CURVE DESCRIPTION
#------------------------------------------------------------------------------
DEPT        .FT                                                 :DEPTH     
AM64        .OHMM                                               :          
CILD        .MMHO                                               :          
SN16        .OHMM                                               :          
SP          .MV                                                 :          
SP_NORM     .MV                                                 :SP Normalized
VSH_SP      .V/V                                                :Volume of Shale from SP
~A        DEPTH           AM64           CILD           SN16             SP        SP_NORM         VSH_SP
# ...
     10257.0000         0.6577       1405.053         0.7995       -38.4544     -0.2825012              1
     10257.5000         0.6831       1416.071         0.7994       -38.7442     -0.5695076              1
     10258.0000         0.6831       1416.156         0.8047       -38.7637     -0.5862045              1
     10258.5000         0.7104       1421.731         0.7992       -39.3277      -1.147411       0.998134
     10259.0000         0.7104       1421.818         0.7936       -39.3478      -1.164715       0.997915
     10259.5000         0.7104        1416.39         0.7941       -39.9113      -1.725418      0.9908175
     10260.0000         0.7377        1416.49         0.8152       -39.9303      -1.741623      0.9906124
     10260.5000         0.7578       1415.839          0.826       -39.9494      -1.757927       0.990406
     10261.0000          0.778       1411.154         0.8259       -39.9684      -1.774128      0.9902009
     10261.5000         0.7923        1404.68         0.8088       -39.9875      -1.790428      0.9899946
     10262.0000         0.7923       1400.329         0.7821       -40.0092      -1.809334      0.9897553
     10262.5000         0.8048       1394.913         0.7929       -40.0256      -1.822937      0.9895831
     10263.0000         0.8197       1389.519         0.8197       -40.0478      -1.842339      0.9893375
     10263.5000         0.8197       1389.271         0.8471       -40.0633      -1.855045      0.9891766
     10264.0000         0.8306       1378.697          0.858       -39.5373      -1.326248      0.9958703
     10264.5000          0.847       1367.775         0.8578       -39.5565      -1.342651      0.9956626
     10265.0000         0.8572       1344.004         0.8577       -39.1299     -0.9132538              1
     10265.5000         0.8743       1263.547         0.8576       -38.5036     -0.2841568              1
     10266.0000         0.8898       1253.958         0.8556       -38.3171    -0.09486008              1
     10266.5000         0.9016       1247.225         0.8519       -37.9962      0.2288361              1
     10267.0000         0.9016       1241.803         0.8447       -37.8474      0.3804321              1
     10267.5000         0.9016       1241.903         0.8354       -37.4889      0.7417297              1
     10268.0000         0.9016       1241.978         0.8353       -37.5079      0.7255249              1
     10268.5000         0.9016       1236.576         0.8297       -37.5293      0.7069244              1
     10269.0000         0.9016       1230.203         0.8133        -37.546      0.6930199              1
     10269.5000         0.9016       1220.247         0.8131       -38.1133      0.1285172              1
     10270.0000         0.9016       1214.832          0.813       -38.1296      0.1150131              1
     10270.5000         0.9016       1247.899         0.8129       -38.6975     -0.4500885              1
     10271.0000         0.9016       1270.103         0.8191       -38.7263     -0.4760933              1
     10271.5000          0.929       1272.801         0.8345       -39.2777      -1.024696      0.9996874
     10272.0000          0.929       1264.617          0.852       -39.8425      -1.586697      0.9925734
     10272.5000          0.929       1264.698         0.8724       -40.4067      -2.148102      0.9854671
     10273.0000          0.929       1264.784         0.8727       -40.4266      -2.165207      0.9852505
     10273.5000          0.929       1262.908         0.8777       -40.4448      -2.180611      0.9850556
     10274.0000         0.9016       1259.451         0.8776       -40.4652      -2.198212      0.9848328
     10274.5000         0.9016       1259.533         0.8774       -40.1332      -1.863419      0.9890707
     10275.0000         0.9016       1259.624         0.8719        -39.413      -1.140419      0.9982225
     10275.5000         0.9016       1259.698         0.8638       -38.8256     -0.5502205              1
     10276.0000         0.9016       1265.285         0.8444       -38.3582    -0.08002472              1
     10276.5000         0.9016       1265.357         0.8311       -37.8307      0.4502716              1
     10277.0000         0.9016       1270.947         0.8224        -36.763       1.520767              1
     10277.5000         0.8743       1271.016         0.8114        -36.779       1.507565              1
     10278.0000         0.8715       1276.609         0.8059       -36.7981       1.491261              1
     10278.5000          0.847       1287.691         0.8057       -36.8171       1.475056              1
     10279.0000          0.847       1298.736         0.8111       -36.8362       1.458755              1
     10279.5000          0.847       1304.315          0.811       -36.8557       1.442051              1
     10280.0000          0.847       1304.396         0.8109       -36.8743        1.42625              1
     10280.5000          0.847       1304.482         0.8162       -37.9853      0.3180466              1
     10281.0000          0.847       1310.055         0.8215       -39.0942     -0.7880592              1
     10281.5000         0.8412       1315.639         0.8214       -39.6603      -1.351364      0.9955524
     10282.0000         0.8197       1351.534         0.8268       -39.1303     -0.8185654              1
     10282.5000         0.8197       1370.751         0.8321       -39.1535     -0.8389664              1
     10283.0000         0.8081       1364.294         0.8429       -39.1704     -0.8530693              1
     10283.5000         0.7923       1354.423         0.8428       -39.1921     -0.8719749              1
     10284.0000         0.7923       1349.007         0.8427       -38.6622     -0.3392792              1
     10284.5000         0.7749       1343.599         0.8426       -38.6853      -0.359581              1
     10285.0000          0.765       1338.185         0.8425       -38.1553       0.173214              1
     10285.5000          0.765       1338.285         0.8365       -38.1785      0.1528091              1
     10286.0000          0.765       1338.352         0.8259       -37.6485      0.6856117              1
     10286.5000         0.7627       1343.929         0.8147       -37.6674      0.6695061              1
     10287.0000         0.7377       1355.003         0.8039       -37.6872       0.652504              1
     10287.5000         0.7377       1360.577         0.8038       -37.7055      0.6369972              1
     10288.0000         0.7377       1366.159         0.8117       -37.7258      0.6194954              1
     10288.5000         0.7377       1371.731         0.8254       -38.2891     0.05899048              1
     10289.0000         0.7377        1382.81          0.844       -38.3099     0.04098892              1
     10289.5000         0.7377       1399.368          0.847       -38.8726     -0.5189133              1
     10290.0000         0.7377       1404.955         0.8469       -39.4395      -1.083015      0.9989492
     10290.5000         0.7377       1405.027         0.8522       -39.4562       -1.09692      0.9987732
     10291.0000         0.7104       1405.122         0.8447       -40.0236      -1.661526      0.9916263
     10291.5000         0.7104       1405.192         0.8302       -40.0922      -1.727329      0.9907933
     10292.0000         0.7104       1405.289         0.8246       -40.6077      -2.240032      0.9843034
     10292.5000         0.7377       1405.357         0.8191       -40.9026      -2.532135      0.9806059
     10293.0000         0.7377        1405.44          0.819       -41.1878      -2.814537      0.9770312
     10293.5000         0.7377       1405.523         0.8188       -41.2072      -2.831139       0.976821
     10294.0000         0.7377       1400.096         0.8322       -41.4552      -3.076344      0.9737172
     10294.5000         0.7377       1400.196         0.8568       -41.7913      -3.409649      0.9694981
