#------------------------------------------------------------------------------
# Created by    : vladimir.rabinovich
# Created on    : 09/19/2023 17:19:41
#------------------------------------------------------------------------------
~Version Information Section
VERS.           2.0     :   CWLS log ASCII Standard - VERSION 2.0
WRAP.           NO      :   One line per depth step
~Well Information Section
#MNEM       .UNIT                                         VALUE :DESCRIPTION
#------------------------------------------------------------------------------
STRT        .FT                                             149 :START DEPTH
STOP        .FT                                         11018.5 :STOP DEPTH
STEP        .FT                                             0.5 :STEP      
NULL        .                                           -999.25 :NULL      
COMP        .                          STANDARD OIL CO OF TEXAS :COMPANY   
WELL        .                                   JACKSON BERTA N :WELL      
FLD         .                                           WILDCAT :FIELD     
LOC         .                                                   :LOCATION  
CNTY        .                                          CHAMBERS :LOCATION  
STAT        .                                             TEXAS :STATE     
CTRY        .                                     UNITED STATES :COUNTRY   
SRVC        .                                                   :SERVICE COMPANY
DATE        .                             9/13/2023 11:19:11 AM :LOG DATE  
API         .                                    42071023650000 :API NUMBER
UWI         .                                    42071023650000 :UNIQUE WELL ID
XCOORD      .                                  1147650.32957209 :SURFACE X 
YCOORD      .                                  10746494.5600269 :SURFACE Y 
LAT         .                                        29.6022446 :LATITUDE  
LON         .                                       -94.5509971 :LONGITUDE 
ELEV        .FT                                            17.6 :ELEVATION VALUE
ELEV_TYPE   .                                                KB :ELEVATION REFERENCE TYPE
~Curve Information Section
#MNEM       .UNIT                                      API CODE :CURVE DESCRIPTION
#------------------------------------------------------------------------------
DEPT        .FT                                                 :DEPTH     
AM64        .OHMM                                               :          
CILD        .MMHO                                               :          
SN16        .OHMM                                               :          
SP          .MV                                                 :          
SP_NORM     .MV                                                 :SP Normalized
VSH_SP      .V/V                                                :Volume of Shale from SP
~A        DEPTH           AM64           CILD           SN16             SP        SP_NORM         VSH_SP
# ...
      5203.0000         0.6298        2153.76         0.9426       -92.7118      -59.17143      0.2445269
      5203.5000         0.6847       2081.875         0.9439       -80.5074      -46.96703      0.4030256
      5204.0000         0.7123       1824.176         1.0298       -72.5244      -38.98403      0.5067009
      5204.5000         0.7945       1663.662         1.0789       -67.9145      -34.37413      0.5665698
      5205.0000         0.8624       1554.945          1.148       -63.2461      -29.70573      0.6271983
      5205.5000         0.9317       1405.778         1.1823       -59.2739      -25.73353      0.6787853
      5206.0000         0.9592       1368.132         1.1804       -54.5133      -20.97293      0.7406113
      5206.5000         0.9595       1344.652         1.1386       -50.6929      -17.15253      0.7902269
      5207.0000         0.9598       1296.703         1.0291       -46.3828      -12.84243      0.8462022
      5207.5000         0.9601        1280.22         0.9642       -44.1419      -10.60153      0.8753048
      5208.0000         0.9563       1274.725         0.8981       -42.3015      -8.761127      0.8992062
      5208.5000         0.9333       1269.231         0.8909       -41.4091      -7.868729      0.9107957
      5209.0000         0.9326       1269.231         0.8988       -40.8611      -7.320728      0.9179126
      5209.5000         0.9065       1269.231          0.923       -40.8581       -7.31773      0.9179516
      5210.0000         0.9068        1270.93         0.9368       -40.8556      -7.315228      0.9179841
      5210.5000         0.9071        1280.22          0.933        -41.398      -7.857628      0.9109399
      5211.0000         0.9074       1292.405          0.904       -42.0804      -8.540028      0.9020776
      5211.5000         0.8803       1318.681         0.8501       -44.1197      -10.57933      0.8755931
      5212.0000         0.8533       1471.829         0.7459        -46.378      -12.83763      0.8462646
      5212.5000         0.8262       1576.923          0.705       -50.6785      -17.13813      0.7904139
      5213.0000         0.7992       1736.778         0.7513       -56.6574      -23.11703      0.7127659
      5213.5000          0.771       1851.912         0.7895        -68.503      -34.96263      0.5589269
      5214.0000         0.7045       1972.527         0.7949       -87.1973      -53.65693      0.3161437
      5214.5000         0.6907       1982.333         0.8003       -92.4858      -58.94543      0.2474619
      5215.0000         0.6534       2054.945         0.8131       -95.9191      -62.37873      0.2028737
      5215.5000         0.6093       2114.792         0.8384      -103.4451      -69.90472      0.1051335
      5216.0000         0.5822       2131.868         0.9145      -104.6411      -71.10072       0.089601
      5216.5000         0.5552       2124.107         0.9691       -102.797      -69.25662      0.1135504
      5217.0000         0.5555       2087.912         1.0389       -99.1807      -65.64034      0.1605151
      5217.5000         0.5831       2053.087         1.1598       -98.6329      -65.09253      0.1676295
      5218.0000         0.5845       1972.527         1.2256      -100.2661      -66.72572      0.1464192
      5218.5000         0.6242       1889.267         1.2859      -102.4927      -68.95233      0.1175022
      5219.0000         0.6659       1789.219         1.3941      -105.1584      -71.61803     0.08288277
      5219.5000         0.6934       1846.154         1.4458      -107.3492      -73.80882     0.05443088
      5220.0000         0.6937       1982.212         1.4942      -108.1149      -74.57452      0.0444867
      5220.5000          0.694       2002.452         1.3763      -108.9802      -75.43983      0.0332489
      5221.0000         0.6943       2020.421         1.2468      -109.1571      -75.61673     0.03095156
      5221.5000         0.6672        2049.45         1.1892      -109.5202      -75.97983       0.026236
      5222.0000         0.6675       2248.162         1.1269      -109.5175      -75.97713     0.02627108
      5222.5000         0.6131       2340.659         1.0773      -109.5144      -75.97403      0.0263113
      5223.0000         0.5861       2400.032         1.0453       -109.512      -75.97163     0.02634242
      5223.5000          0.559       2565.934         1.0069      -109.5089      -75.96854     0.02638264
      5224.0000         0.5404       2654.162         0.9533       -109.458      -75.91763     0.02704373
      5224.5000          0.505       2765.831         0.9087      -108.9579      -75.41753     0.03353862
      5225.0000         0.5052       2818.681         0.8896      -108.9557      -75.41533     0.03356716
      5225.5000         0.5055        2896.79         0.8596      -108.6972      -75.15683     0.03692429
      5226.0000         0.5058       2967.033         0.8316      -108.4047      -74.86433     0.04072293
      5226.5000         0.5061       3008.544         0.8051       -108.402      -74.86163     0.04075801
      5227.0000         0.5063       3016.483         0.7833      -107.8537      -74.31332     0.04787891
      5227.5000         0.5066        2978.51         0.7859      -107.1369      -73.59653     0.05718796
      5228.0000         0.5069       2884.615         0.8922      -106.7572      -73.21683     0.06211913
      5228.5000         0.5345       2769.231         0.9568      -105.6638      -72.12343     0.07631911
      5229.0000         0.5621       2593.406         1.0284      -104.5698      -71.02943     0.09052683
      5229.5000         0.5897        2450.55         1.1132      -104.5675      -71.02713     0.09055675
      5230.0000         0.6173       2276.119         1.2191      -104.5643      -71.02393     0.09059837
      5230.5000         0.6334       2115.385         1.3132      -105.1075      -71.56712     0.08354385
      5231.0000         0.6452       2054.945         1.7912      -106.1951      -72.65472     0.06941917
      5231.5000         0.6454        2109.89          1.813      -107.8293      -74.28893     0.04819578
      5232.0000          0.673       2330.696         1.8292      -109.1621      -75.62173     0.03088656
      5232.5000         0.6733       2791.209         1.5023       -110.551      -77.01064     0.01284889
      5233.0000         0.6735       2903.207          1.244      -110.5484      -77.00803     0.01288278
      5233.5000         0.6192       3016.483         1.0281      -110.5455      -77.00513     0.01292043
      5234.0000         0.5648        3101.07         0.8399      -110.5429      -77.00253     0.01295412
      5234.5000         0.5378        3170.33         0.7338       -109.449      -75.90863     0.02716064
      5235.0000         0.5107       3148.352          0.722       -99.7175      -66.17712      0.1535438
      5235.5000          0.511       3055.957         0.7174       -96.3526      -62.81223      0.1972438
      5236.0000         0.5113       2912.088         0.7117       -96.3502      -62.80983       0.197275
      5236.5000         0.5115       2840.264         0.6956        -96.347      -62.80663      0.1973165
      5237.0000         0.5391       2659.341         0.6846       -96.3447      -62.80433      0.1973463
      5237.5000         0.5667       2564.462         0.7148        -96.342      -62.80163      0.1973814
      5238.0000         0.5943       2428.572         0.7718        -93.612      -60.07163       0.232836
      5238.5000         0.6023       2334.849         0.8406       -90.1796      -56.63923      0.2774126
      5239.0000         0.6496        2170.33         0.8604       -81.6064      -48.06603      0.3887529
      5239.5000         0.6771       2108.786         0.8218        -67.558      -34.01763      0.5711997
      5240.0000         0.6774       2065.934          0.739       -60.8736      -27.33323        0.65801
      5240.5000          0.705       2008.098         0.7392       -55.3784      -21.83803      0.7293763
