#------------------------------------------------------------------------------
# Created by    : vladimir.rabinovich
# Created on    : 09/19/2023 17:19:41
#------------------------------------------------------------------------------
~Version Information Section
VERS.           2.0     :   CWLS log ASCII Standard - VERSION 2.0
WRAP.           NO      :   One line per depth step
~Well Information Section
#MNEM       .UNIT                                         VALUE :DESCRIPTION
#------------------------------------------------------------------------------
STRT        .FT                                             149 :START DEPTH
STOP        .FT                                         11018.5 :STOP DEPTH
STEP        .FT                                             0.5 :STEP      
NULL        .                                           -999.25 :NULL      
COMP        .                          STANDARD OIL CO OF TEXAS :COMPANY   
WELL        .                                   JACKSON BERTA N :WELL      
FLD         .                                           WILDCAT :FIELD     
LOC         .                                                   :LOCATION  
CNTY        .                                          CHAMBERS :LOCATION  
STAT        .                                             TEXAS :STATE     
CTRY        .                                     UNITED STATES :COUNTRY   
SRVC        .                                                   :SERVICE COMPANY
DATE        .                             9/13/2023 11:19:11 AM :LOG DATE  
API         .                                    42071023650000 :API NUMBER
UWI         .                                    42071023650000 :UNIQUE WELL ID
XCOORD      .                                  1147650.32957209 :SURFACE X 
YCOORD      .                                  10746494.5600269 :SURFACE Y 
LAT         .                                        29.6022446 :LATITUDE  
LON         .                                       -94.5509971 :LONGITUDE 
ELEV        .FT                                            17.6 :ELEVATION VALUE
ELEV_TYPE   .                                                KB :ELEVATION REFERENCE TYPE
~Curve Information Section
#MNEM       .UNIT                                      API CODE :CURVE DESCRIPTION
#------------------------------------------------------------------------------
DEPT        .FT                                                 :DEPTH     
AM64        .OHMM                                               :          
CILD        .MMHO                                               :          
SN16        .OHMM                                               :          
SP          .MV                                                 :          
SP_NORM     .MV                                                 :SP Normalized
VSH_SP      .V/V                                                :Volume of Shale from SP
~A        DEPTH           AM64           CILD           SN16             SP        SP_NORM         VSH_SP
# ...
      4481.0000          0.825       1230.692         0.8392       -33.6131     -0.0727272              1
      4481.5000         0.8248       1201.297         0.8501       -34.1649     -0.6245308              1
      4482.0000          0.852       1177.991         0.8979       -35.2604      -1.720028      0.9902699
      4482.5000         0.8519       1151.956         0.9537       -35.2668      -1.726429      0.9901834
      4483.0000         0.8717       1128.045         0.9938       -34.7179      -1.177528       0.997601
      4483.5000         0.9335       1080.637         1.0027       -34.1848     -0.6444283              1
      4484.0000         0.9368       1057.488         1.0027       -33.6458     -0.1054306              1
      4484.5000         0.9686       1042.276         1.0027       -33.1049      0.4354706              1
      4485.0000         1.0166       1042.093         1.0038       -32.5658      0.9745712              1
      4485.5000         1.0743       1039.677         1.0082       -32.5713      0.9690704              1
      4486.0000         1.0968        1042.44         1.0027       -32.0313       1.509071              1
      4486.5000          1.124       1047.988         1.0027       -32.0367        1.50367              1
      4487.0000         1.1512       1048.044         0.9971       -32.0427       1.497669              1
      4487.5000         1.1511       1048.096         0.9891       -32.0476       1.492771              1
      4488.0000         1.1509       1048.154         0.9864       -32.0537       1.486671              1
      4488.5000         1.1508       1048.204         0.9918       -32.0586        1.48177              1
      4489.0000         1.1506       1042.764         0.9973       -32.0648       1.475571              1
      4489.5000         1.1232       1034.808           1.01        -32.138        1.40237              1
      4490.0000         1.0957       1015.407         1.0245       -33.1667      0.3736725              1
      4490.5000         1.0683       990.8212         1.0423       -33.1891      0.3512726              1
      4491.0000         1.0681       960.5714         1.0627       -33.7232     -0.1828308              1
      4491.5000          1.068       954.6329         1.0864       -33.7276     -0.1872292              1
      4492.0000         1.0679       949.6825         1.1063       -33.7331     -0.1927299              1
      4492.5000         1.0684       944.1233         1.1117       -33.4809     0.05947113              1
      4493.0000         1.1084       936.1274         1.1117       -32.9719        0.56847              1
      4493.5000         1.1494       933.3616         1.1117       -32.6586      0.8817711              1
      4494.0000         1.1881       925.6335         1.1278       -32.1178       1.422569              1
      4494.5000         1.2311       916.9864         1.1717       -33.2153      0.3250694              1
      4495.0000         1.2856        904.145         1.1924       -38.0662      -4.525829      0.9523537
      4495.5000         1.3128       889.6263          1.297       -41.9536      -8.413231      0.8998212
      4496.0000         1.3751       875.6232         1.4692        -45.197      -11.65663      0.8559915
      4496.5000         1.5038       829.2967         1.5695        -49.601      -16.06063       0.796478
      4497.0000         1.5914         805.09         1.6142       -51.4324      -17.89203      0.7717294
      4497.5000         1.7221       774.4615         1.7003       -53.9757      -20.43533      0.7373604
      4498.0000         1.7766        757.259         1.7301       -55.1344      -21.59403      0.7217023
      4498.5000         1.8038       747.0902         1.7003       -55.6231      -22.08273      0.7150983
      4499.0000         1.8037       747.9123         1.5656       -56.1731      -22.63273      0.7076658
      4499.5000         1.8035       785.6703         1.3951       -56.1796      -22.63923       0.707578
      4500.0000         1.7485       835.1649         1.3188       -47.3679      -13.82753       0.826655
      4500.5000         1.4548       1024.698          1.297       -38.7273      -5.186928      0.9434199
      4501.0000         1.0929       1186.758         1.1189       -38.7273      -5.186928      0.9434199
      4501.5000         0.9974       1263.641         1.0028       -38.7273      -5.186928      0.9434199
      4502.0000         0.9561       1302.088         0.9401       -38.7273      -5.186928      0.9434199
      4502.5000         0.9016       1324.039         0.8775       -38.7273      -5.186928      0.9434199
      4503.0000          0.847       1351.484         0.8658       -39.2727       -5.73233      0.9360496
      4503.5000          0.847       1359.698         0.8449       -39.8182      -6.277828       0.928678
      4504.0000          0.847       1362.418          0.834       -40.4131       -6.87273      0.9206388
      4504.5000          0.847       1362.391         0.8286       -40.9091      -7.368729      0.9139361
      4505.0000          0.847       1362.363         0.8164       -41.4545      -7.914127      0.9065658
      4505.5000          0.847       1359.588         0.8123       -41.4545      -7.914127      0.9065658
      4506.0000          0.847       1351.319         0.8069       -40.9091      -7.368729      0.9139361
      4506.5000         0.8743       1337.556         0.8069       -40.7928       -7.25243      0.9155077
      4507.0000         0.9016       1329.286         0.8069       -40.2821       -6.74173      0.9224091
      4507.5000         0.9101        1315.53         0.8124       -39.0922       -5.55183      0.9384888
      4508.0000         0.9324       1301.759         0.8309       -38.1818       -4.64143      0.9507915
      4508.5000         0.9563       1277.006         0.8615       -37.6364      -4.096027      0.9581618
      4509.0000          1.015       1230.276          0.958       -36.5455      -3.005131      0.9729036
      4509.5000         1.0929        1189.04         1.0359       -36.5455      -3.005131      0.9729036
      4510.0000         1.1794       1147.803         1.1559       -36.5455      -3.005131      0.9729036
      4510.5000         1.2568       1048.942         1.1947       -36.5455      -3.005131      0.9729036
      4511.0000         1.3713       938.9572         1.2922       -37.3422       -3.80183      0.9621374
      4511.5000         1.5027       867.5012         1.3477       -40.3636      -6.823231      0.9213077
      4512.0000         1.5631       823.5178         1.4938       -44.0455      -10.50513      0.8715523
      4512.5000         1.6393       790.5367         1.5558       -49.0909      -15.55053      0.8033713
      4513.0000         1.7213       746.5399         1.6029       -53.3503      -19.80993      0.7458118
      4513.5000         1.7213       730.0289         1.6631       -56.7273      -23.18693      0.7001767
      4514.0000         1.7213        724.507         1.7283       -59.7708      -26.23043      0.6590483
      4514.5000          1.694       724.4796         1.7714       -66.5455      -33.00513      0.5674982
      4515.0000          1.632       751.9247         1.8101       -74.2299      -40.68953      0.4636551
      4515.5000         1.5301       795.7997         1.8349       -85.0909      -51.55053      0.3168848
      4516.0000         1.3424       889.2325         1.7229       -88.9038      -55.36343       0.265359
      4516.5000         1.0929       1125.214         1.5707       -94.9091      -61.36873      0.1842063
      4517.0000         0.9752       1647.419         1.4396       -98.0178      -64.47743      0.1421969
      4517.5000          0.847       1861.678         1.2761      -100.3636      -66.82323      0.1104969
      4518.0000         0.8017       2125.386         1.1072      -102.2019      -68.66153       0.085655
      4518.5000         0.7377       2394.402         1.0349      -103.6364      -70.09602     0.06626995
