#------------------------------------------------------------------------------
# Created by    : vladimir.rabinovich
# Created on    : 09/19/2023 17:19:41
#------------------------------------------------------------------------------
~Version Information Section
VERS.           2.0     :   CWLS log ASCII Standard - VERSION 2.0
WRAP.           NO      :   One line per depth step
~Well Information Section
#MNEM       .UNIT                                         VALUE :DESCRIPTION
#------------------------------------------------------------------------------
STRT        .FT                                             149 :START DEPTH
STOP        .FT                                         11018.5 :STOP DEPTH
STEP        .FT                                             0.5 :STEP      
NULL        .                                           -999.25 :NULL      
COMP        .                          STANDARD OIL CO OF TEXAS :COMPANY   
WELL        .                                   JACKSON BERTA N :WELL      
FLD         .                                           WILDCAT :FIELD     
LOC         .                                                   :LOCATION  
CNTY        .                                          CHAMBERS :LOCATION  
STAT        .                                             TEXAS :STATE     
CTRY        .                                     UNITED STATES :COUNTRY   
SRVC        .                                                   :SERVICE COMPANY
DATE        .                             9/13/2023 11:19:11 AM :LOG DATE  
API         .                                    42071023650000 :API NUMBER
UWI         .                                    42071023650000 :UNIQUE WELL ID
XCOORD      .                                  1147650.32957209 :SURFACE X 
YCOORD      .                                  10746494.5600269 :SURFACE Y 
LAT         .                                        29.6022446 :LATITUDE  
LON         .                                       -94.5509971 :LONGITUDE 
ELEV        .FT                                            17.6 :ELEVATION VALUE
ELEV_TYPE   .                                                KB :ELEVATION REFERENCE TYPE
~Curve Information Section
#MNEM       .UNIT                                      API CODE :CURVE DESCRIPTION
#------------------------------------------------------------------------------
DEPT        .FT                                                 :DEPTH     
AM64        .OHMM                                               :          
CILD        .MMHO                                               :          
SN16        .OHMM                                               :          
SP          .MV                                                 :          
SP_NORM     .MV                                                 :SP Normalized
VSH_SP      .V/V                                                :Volume of Shale from SP
~A        DEPTH           AM64           CILD           SN16             SP        SP_NORM         VSH_SP
# ...
      6647.0000         0.4563       3977.688         0.8241      -101.1653      -75.92262      0.1581728
      6647.5000         0.4803       3990.013         0.8338       -102.417      -77.18875      0.1439466
      6648.0000         0.4799       4005.268         0.8409      -103.8979      -78.68408      0.1271451
      6648.5000         0.4911       4018.157         0.8556       -104.647       -79.4476      0.1185663
      6649.0000         0.5064       4027.354         0.8741      -104.9941      -79.80913      0.1145042
      6649.5000          0.506       4027.406         0.8828       -106.332      -81.16145     0.09930951
      6650.0000         0.5055       4027.462         0.8964      -107.1813      -82.02517     0.08960484
      6650.5000         0.4778       4005.549         0.9046      -107.1845       -82.0428     0.08940673
      6651.0000         0.4774       3930.803         0.9101      -107.7321      -82.60482     0.08309191
      6651.5000          0.477       3730.931         0.9155      -107.7353      -82.62244     0.08289389
      6652.0000         0.4766       3707.973         0.8992      -108.3629      -83.26447     0.07568017
      6652.5000         0.4762       3698.066         0.7987       -109.377      -84.29299     0.06412369
      6653.0000         0.4758       3692.621         0.7902       -110.049      -84.97942     0.05641106
      6653.5000         0.4754       3687.188         0.7902      -111.0187      -85.96354     0.04535349
      6654.0000         0.4749       3687.242         0.7902      -111.5663      -86.52557     0.03903858
      6654.5000         0.4745       3687.299         0.7783      -109.9331      -84.90678     0.05722715
      6655.0000         0.4741       3673.678         0.7302       -108.635      -83.62312     0.07165039
      6655.5000         0.4737       3659.717         0.6977      -107.7565      -82.75903     0.08135918
      6656.0000         0.4548       3627.032         0.6757      -107.2133      -82.23026     0.08730042
      6656.5000         0.4455       3596.544         0.6812      -107.2165      -82.24789      0.0871024
      6657.0000         0.4452        3550.21         0.6927      -107.2197      -82.26552     0.08690429
      6657.5000         0.4447        3555.76          0.703      -107.8122      -82.87244     0.08008498
      6658.0000         0.4443       3572.303          0.703      -109.4069      -84.48155     0.06200503
      6658.5000         0.4439       3605.402          0.703      -110.0426      -85.13168     0.05470019
      6659.0000         0.4435       3649.334         0.6785      -112.6849      -87.78841     0.02484937
      6659.5000         0.4431        3690.26         0.6431      -115.4146      -90.53253              0
      6660.0000         0.4427       3709.881         0.7242      -115.4175      -90.54986              0
      6660.5000         0.4423        3726.43         0.8174      -113.7833      -88.93008     0.01202153
      6661.0000         0.4693       3725.983         0.8338      -112.6956       -87.8568     0.02408086
      6661.5000         0.4688       3715.549          0.828      -112.1523      -87.32793      0.0300233
      6662.0000         0.4683       3703.566         0.7684        -111.61      -86.80005     0.03595451
      6662.5000          0.468        3682.69         0.7399      -111.6127      -86.81718     0.03576206
      6663.0000         0.4675       3661.458         0.7338      -111.6154       -86.8343     0.03556961
      6663.5000         0.4671       3561.918         0.7477       -112.164      -87.39732     0.02924355
      6664.0000         0.4667       3431.623         0.7738      -113.3113      -88.55905     0.01619043
      6664.5000         0.4663       3303.785         0.8043      -114.8966      -90.15877              0
      6665.0000         0.4659       3111.542         0.8174      -115.5408       -90.8174              0
      6665.5000          0.469       3061.438         0.8229      -116.5383      -91.82932              0
      6666.0000         0.4924       3023.737         0.7956      -116.5407      -91.84615              0
      6666.5000         0.4985       3012.792         0.7902      -116.5437      -91.86357              0
      6667.0000         0.5189       3012.856         0.7903      -116.5462      -91.88049              0
      6667.5000         0.5185       3012.905         0.8011      -116.0034      -91.35212              0
      6668.0000         0.5181       3012.964         0.8005      -114.6884      -90.05154              0
      6668.5000         0.5449       2998.272         0.7902      -113.2816      -88.65916     0.01506557
      6669.0000         0.5173       2969.116         0.7663      -106.1939      -81.58589     0.09454054
      6669.5000         0.5168       2931.995         0.7248       -99.0296      -74.43602      0.1748762
      6670.0000         0.5164       2859.334          0.675       -89.2902      -64.71104      0.2841457
      6670.5000         0.5434       2727.531         0.7357       -87.0485      -62.48376      0.3091712
      6671.0000         0.5429       2653.105         0.8985       -86.5678      -62.01749      0.3144103
      6671.5000         0.5425       2562.804         1.0463       -88.4181      -63.88221      0.2934583
      6672.0000         0.5695       2497.149         1.0841       -90.3917      -65.87024      0.2711209
      6672.5000          0.569       2409.065         1.1173       -91.4851      -66.97806      0.2586735
      6673.0000         0.5686       2286.322         1.1826        -91.488      -66.99538      0.2584789
      6673.5000         0.5682       2139.943         1.2393       -88.3477      -63.86951       0.293601
      6674.0000         0.5767       2028.432         1.2807       -78.9479      -54.48413      0.3990547
      6674.5000         0.5947       1936.754         1.1026       -68.7388      -44.28946      0.5136016
      6675.0000         0.6011       1618.137         0.9482       -65.8623      -41.42738      0.5457598
      6675.5000         0.6213       1535.298         0.9156       -62.5928       -38.1723      0.5823337
      6676.0000         0.6208       1497.366         0.8665       -60.9045      -36.49843      0.6011413
      6676.5000         0.6478        1474.64         0.8495       -54.4163      -30.02465      0.6738803
      6677.0000         0.6473       1459.012         0.7411       -49.7734      -25.39618      0.7258857
      6677.5000         0.6742       1446.732         0.7491       -42.4216       -18.0588      0.8083281
      6678.0000         0.7013       1431.648         0.7849       -35.5375      -11.18912      0.8855155
      6678.5000          0.728       1413.324         0.8447       -34.2449      -9.910948       0.899877
      6679.0000          0.755       1404.281         0.8899       -37.7599      -13.44037      0.8602206
      6679.5000         0.7818       1377.465         0.9428       -44.6141        -20.309       0.783045
      6680.0000         0.7977       1354.941         1.0244       -46.9988      -22.70812      0.7560886
      6680.5000         0.8356       1333.027         1.1172       -48.4376      -24.16134      0.7397602
      6681.0000         0.8703       1309.533         1.1117       -50.3203      -26.05847      0.7184442
      6681.5000         0.9168       1239.729         1.1008       -51.1703      -26.92289      0.7087315
      6682.0000         0.9711       1191.501         1.0988       -50.6275      -26.39452      0.7146683
      6682.5000         1.0379       1135.441         1.0954       -50.0483      -25.82974      0.7210141
      6683.0000         1.0796       1097.673         1.0978       -48.4515      -24.24736      0.7387937
      6683.5000         1.1067       1058.626         1.1117       -47.2036      -23.01389      0.7526529
      6684.0000         1.1606       1034.526         1.1281       -44.0932      -19.91791      0.7874392
      6684.5000          1.163       1009.283         1.1399       -41.3681      -17.20724      0.8178962
