#------------------------------------------------------------------------------
# Created by    : vladimir.rabinovich
# Created on    : 09/19/2023 17:22:55
#------------------------------------------------------------------------------
~Version Information Section
VERS.           2.0     :   CWLS log ASCII Standard - VERSION 2.0
WRAP.           NO      :   One line per depth step
~Well Information Section
#MNEM       .UNIT                                         VALUE :DESCRIPTION
#------------------------------------------------------------------------------
STRT        .FT                                            1640 :START DEPTH
STOP        .FT                                            9504 :STOP DEPTH
STEP        .FT                                             0.5 :STEP      
NULL        .                                           -999.25 :NULL      
COMP        .                        UNION OIL CO OF CALIFORNIA :COMPANY   
WELL        .                                       DROUGHT H P :WELL      
FLD         .                                           WILDCAT :FIELD     
LOC         .                                                   :LOCATION  
CNTY        .                                          CHAMBERS :LOCATION  
STAT        .                                             TEXAS :STATE     
CTRY        .                                     UNITED STATES :COUNTRY   
SRVC        .                                                   :SERVICE COMPANY
DATE        .                             9/13/2023 11:19:11 AM :LOG DATE  
API         .                                    42071019550000 :API NUMBER
UWI         .                                    42071019550000 :UNIQUE WELL ID
XCOORD      .                                    1177783.835691 :SURFACE X 
YCOORD      .                                  10819467.9364056 :SURFACE Y 
LAT         .                                        29.8039986 :LATITUDE  
LON         .                                       -94.4590755 :LONGITUDE 
ELEV        .FT                                              40 :ELEVATION VALUE
ELEV_TYPE   .                                                DF :ELEVATION REFERENCE TYPE
~Curve Information Section
#MNEM       .UNIT                                      API CODE :CURVE DESCRIPTION
#------------------------------------------------------------------------------
DEPT        .FT                                                 :DEPTH     
LAT         .OHMM                                               :          
LN          .OHMM                                               :          
SN          .OHMM                                               :          
SP          .MV                                                 :          
SP_NORM     .MV                                                 :SP Normalized
VSH_SP      .V/V                                                :Volume of Shale from SP
~A        DEPTH            LAT             LN             SN             SP        SP_NORM         VSH_SP
# ...
      9468.0000         0.4872         0.4934         0.4679       -41.2017      0.7736092              1
      9468.5000         0.4769          0.502         0.4674       -41.2688      0.7065086              1
      9469.0000         0.4667         0.5109         0.4673       -41.3357      0.6396065              1
      9469.5000         0.4564         0.5198         0.4671       -41.6416      0.3337059              1
      9470.0000         0.4462         0.5286         0.4706       -41.9535     0.02180862              1
      9470.5000         0.4389         0.5375          0.478       -42.2653     -0.2899933              1
      9471.0000         0.4414         0.5464         0.4853       -42.4742     -0.4988937              1
      9471.5000         0.4439         0.5553         0.4927       -42.4763     -0.5009918              1
      9472.0000         0.4464         0.5641         0.5001       -42.4784     -0.5030937              1
      9472.5000         0.4489          0.573         0.5074       -42.4805     -0.5051918              1
      9473.0000         0.4514         0.5819         0.5148       -42.4826     -0.5072937              1
      9473.5000         0.4585         0.5864         0.5231       -42.2752     -0.2998924              1
      9474.0000         0.4668         0.5854         0.5316       -41.9711    0.004207611              1
      9474.5000         0.4751         0.5844         0.5401       -41.6675      0.3078079              1
      9475.0000         0.4833         0.5834         0.5486       -41.3634       0.611908              1
      9475.5000         0.4916         0.5824          0.557       -41.0593       0.916008              1
      9476.0000         0.5134         0.5815         0.5655       -40.7557       1.219608              1
      9476.5000         0.5394         0.5805          0.574       -40.5229       1.452408              1
      9477.0000         0.5655         0.5795         0.5825        -40.525       1.450306              1
      9477.5000         0.5915         0.5793          0.585       -40.5271       1.448208              1
      9478.0000         0.6144         0.5802         0.5834       -40.5292       1.446106              1
      9478.5000         0.6361         0.5812         0.5818       -40.5314       1.443909              1
      9479.0000         0.6577         0.5821         0.5802       -40.5334       1.441906              1
      9479.5000         0.6794         0.5831         0.5786       -40.6468       1.328506              1
      9480.0000         0.7011         0.5841          0.577       -40.7625       1.212807              1
      9480.5000         0.7042          0.585         0.5754       -40.8782       1.097107              1
      9481.0000         0.7055          0.586         0.5738       -40.9938      0.9815063              1
      9481.5000         0.7068         0.5869         0.5722       -41.1096      0.8657074              1
      9482.0000          0.708         0.5879         0.5711       -41.2251       0.750206              1
      9482.5000         0.7093         0.5889         0.5736       -41.3408      0.6345062              1
      9483.0000         0.7106         0.5898          0.576       -41.4565      0.5188065              1
      9483.5000          0.712         0.5908         0.5785       -41.5436      0.4317093              1
      9484.0000         0.7134         0.5916         0.5809       -41.5591      0.4162064              1
      9484.5000         0.7148         0.5915         0.5834       -41.5747      0.4006081              1
      9485.0000         0.7161         0.5914         0.5858       -41.5902      0.3851089              1
      9485.5000         0.7282         0.5913         0.5883       -41.6058      0.3695068              1
      9486.0000         0.7423         0.5912         0.5907       -41.6213      0.3540077              1
      9486.5000         0.7564         0.5911         0.5932       -41.6368      0.3385086              1
      9487.0000         0.7705          0.591         0.5956       -41.6523      0.3230057              1
      9487.5000         0.7846         0.5909         0.5977       -41.6679      0.3074074              1
      9488.0000         0.7954         0.5908         0.5926       -41.6835      0.2918091              1
      9488.5000         0.8013         0.5907         0.5875        -41.699      0.2763062              1
      9489.0000         0.8073         0.5906         0.5823       -41.7327      0.2426071              1
      9489.5000         0.8132         0.5905         0.5772       -41.7715      0.2038078              1
      9490.0000         0.8191         0.5904         0.5721       -41.8104      0.1649094              1
      9490.5000          0.825         0.5887          0.567       -41.8492      0.1261063              1
      9491.0000         0.8238         0.5848         0.5618       -41.8881     0.08720779              1
      9491.5000          0.817         0.5808         0.5617       -41.9269     0.04840851              1
      9492.0000         0.8102         0.5769         0.5616       -41.9658    0.009506226              1
      9492.5000         0.8034          0.573         0.5615       -42.0046    -0.02929306              1
      9493.0000         0.7966         0.5691         0.5614       -42.0435    -0.06819153              1
      9493.5000         0.7898         0.5651         0.5613       -42.0823     -0.1069908              1
      9494.0000         0.7801         0.5612         0.5612       -42.1212     -0.1458931              1
      9494.5000         0.7642         0.5573         0.5611       -42.1561     -0.1807938              1
      9495.0000         0.7484         0.5544         0.5609       -42.1797     -0.2043915              1
      9495.5000         0.7325         0.5586         0.5621       -42.2033      -0.227993              1
      9496.0000         0.7166         0.5628         0.5643       -42.2269     -0.2515907              1
      9496.5000         0.7058         0.5671         0.5664       -42.2505     -0.2751923              1
      9497.0000         0.6956         0.5713         0.5686       -42.2741     -0.2987938              1
      9497.5000         0.6854         0.5755         0.5708       -42.2977     -0.3223915              1
      9498.0000         0.6752         0.5797          0.573       -42.3212     -0.3458939              1
      9498.5000         0.6655         0.5839         0.5752       -42.3448     -0.3694916              1
      9499.0000         0.6654         0.5881         0.5774       -42.3685     -0.3931923              1
      9499.5000         0.6653         0.5923         0.5796        -42.392     -0.4166908              1
      9500.0000         0.6653          0.596         0.5814       -42.4156     -0.4402924              1
      9500.5000         0.6652         0.5986         0.5821       -42.4392     -0.4638939              1
      9501.0000         0.6651         0.6011         0.5828       -42.4573     -0.4819908              1
      9501.5000         0.6621         0.6037         0.5836       -42.4379     -0.4625931              1
      9502.0000         0.6585         0.6062         0.5843       -42.4186     -0.4432907              1
      9502.5000         0.6548         0.6088          0.585       -42.3992      -0.423893              1
      9503.0000         0.6511         0.6113         0.5858       -42.3798     -0.4044914              1
      9503.5000         0.6475         0.6139         0.5865       -42.3604     -0.3850937              1
      9504.0000         0.6438         0.6164         0.5872       -42.3411     -0.3657913              1
