#------------------------------------------------------------------------------
# Created by    : vladimir.rabinovich
# Created on    : 09/19/2023 17:19:41
#------------------------------------------------------------------------------
~Version Information Section
VERS.           2.0     :   CWLS log ASCII Standard - VERSION 2.0
WRAP.           NO      :   One line per depth step
~Well Information Section
#MNEM       .UNIT                                         VALUE :DESCRIPTION
#------------------------------------------------------------------------------
STRT        .FT                                             149 :START DEPTH
STOP        .FT                                         11018.5 :STOP DEPTH
STEP        .FT                                             0.5 :STEP      
NULL        .                                           -999.25 :NULL      
COMP        .                          STANDARD OIL CO OF TEXAS :COMPANY   
WELL        .                                   JACKSON BERTA N :WELL      
FLD         .                                           WILDCAT :FIELD     
LOC         .                                                   :LOCATION  
CNTY        .                                          CHAMBERS :LOCATION  
STAT        .                                             TEXAS :STATE     
CTRY        .                                     UNITED STATES :COUNTRY   
SRVC        .                                                   :SERVICE COMPANY
DATE        .                             9/13/2023 11:19:11 AM :LOG DATE  
API         .                                    42071023650000 :API NUMBER
UWI         .                                    42071023650000 :UNIQUE WELL ID
XCOORD      .                                  1147650.32957209 :SURFACE X 
YCOORD      .                                  10746494.5600269 :SURFACE Y 
LAT         .                                        29.6022446 :LATITUDE  
LON         .                                       -94.5509971 :LONGITUDE 
ELEV        .FT                                            17.6 :ELEVATION VALUE
ELEV_TYPE   .                                                KB :ELEVATION REFERENCE TYPE
~Curve Information Section
#MNEM       .UNIT                                      API CODE :CURVE DESCRIPTION
#------------------------------------------------------------------------------
DEPT        .FT                                                 :DEPTH     
AM64        .OHMM                                               :          
CILD        .MMHO                                               :          
SN16        .OHMM                                               :          
SP          .MV                                                 :          
SP_NORM     .MV                                                 :SP Normalized
VSH_SP      .V/V                                                :Volume of Shale from SP
~A        DEPTH           AM64           CILD           SN16             SP        SP_NORM         VSH_SP
# ...
      7369.0000         0.4474       3063.087          0.685      -116.6807      -88.83498     0.01309016
      7369.5000         0.4477        3280.22         0.7288      -116.1275      -88.27924     0.01933443
      7370.0000         0.4753       3319.958         0.7503      -115.5732      -87.72238     0.02559122
      7370.5000         0.4756       3340.659         0.7668      -115.0202      -87.16685     0.03183318
      7371.0000         0.4759       3347.216         0.7801      -115.5574      -87.70151     0.02582576
      7371.5000         0.4762       3346.154         0.7832      -116.0953      -88.23685     0.01981062
      7372.0000         0.4764       3346.154         0.7832      -116.6319       -88.7709     0.01381006
      7372.5000         0.4767       3346.154         0.7778      -116.5486      -88.68507     0.01477454
      7373.0000          0.477       3365.032         0.6904      -116.0687      -88.20262     0.02019526
      7373.5000         0.4772       3505.494         0.6253      -116.0618      -88.19318     0.02030139
      7374.0000         0.4775       3623.034         0.6058      -116.0521      -88.18093     0.02043898
      7374.5000         0.5052       3681.319         0.5926      -116.0349      -88.16119     0.02066083
      7375.0000         0.5054       3686.813          0.594      -115.4917      -87.61544     0.02679281
      7375.5000         0.5057        3670.33         0.6036      -114.9379       -87.0591     0.03304385
      7376.0000         0.5059       3615.385         0.6091      -114.3844      -86.50305     0.03929155
      7376.5000         0.5062       3547.699         0.6145      -113.8304      -85.94651     0.04554483
      7377.0000         0.5065       3489.011         0.6138      -113.1769      -85.29047     0.05291611
      7377.5000         0.4959       3462.403         0.5982      -112.7228      -84.83382     0.05804692
      7378.0000         0.4797       3439.561         0.5299      -112.0015      -84.10998     0.06618003
      7378.5000           0.48       3415.489         0.4924      -111.0698      -83.17574     0.07667713
      7379.0000         0.4803       3395.604         0.5005       -109.426      -81.52939     0.09517541
      7379.5000         0.4805       3395.604         0.5057      -107.7805      -79.88135      0.1136927
      7380.0000         0.4808       3401.099         0.5057      -103.3399      -75.43819      0.1636158
      7380.5000         0.4811       3420.855         0.5058       -98.4911      -70.58685      0.2181253
      7381.0000         0.4814       3445.055         0.4949       -97.9386      -70.03181      0.2243617
      7381.5000         0.4816       3464.359         0.4609       -99.5654      -71.65607      0.2061116
      7382.0000         0.4819       3483.517         0.4295      -101.2711      -73.35922       0.186975
      7382.5000         0.4822       3490.195         0.4296      -103.3685      -75.45407      0.1634374
      7383.0000         0.4825       3489.011         0.4351      -103.3524      -75.43543      0.1636468
      7383.5000         0.4827       3470.612         0.4405       -99.2986      -71.37909      0.2092237
      7384.0000          0.483       3434.066          0.446       -96.2528      -68.33074      0.2434748
      7384.5000         0.4833        3378.03          0.446       -91.2896      -63.36499      0.2992697
      7385.0000         0.4836       3247.253         0.4461       -84.2361      -56.30895      0.3785511
      7385.5000         0.4838       3167.868         0.4406       -74.5705      -46.64081      0.4871819
      7386.0000         0.4842       3082.417         0.4298       -69.2089      -41.27666      0.5474532
      7386.5000         0.4844       3076.923         0.4125       -76.0708      -48.13602      0.4703818
      7387.0000          0.512       3142.857          0.408       -84.7483      -56.81097      0.3729104
      7387.5000         0.5123       3203.668         0.4324       -89.3398      -61.39993      0.3213491
      7388.0000         0.5399        3293.59         0.4844       -93.4599      -65.51749      0.2750844
      7388.5000         0.5401       3346.154         0.4953        -91.623      -63.67804      0.2957524
      7389.0000         0.5677       3351.648         0.4899       -86.8969      -58.94939      0.3488832
      7389.5000         0.5953       3296.703         0.4735       -77.1744      -49.22435      0.4581534
      7390.0000         0.6338         3189.7         0.4546       -62.8803       -34.9277      0.6187899
      7390.5000         0.6779       3043.956         0.4518       -46.6916      -18.73646      0.8007139
      7391.0000         0.7328       2111.526         0.4542       -32.8636      -4.905918      0.9561133
      7391.5000         0.7604        1719.78         0.6208        -26.857       1.103228              1
      7392.0000         0.7966        1504.47         0.7199       -22.4851       5.477673              1
      7392.5000         0.8429        1390.11         0.7353       -22.4767       5.488617              1
      7393.0000         0.8705       1343.067         0.7335       -23.2363       4.731562              1
      7393.5000         0.8981       1302.198         0.7299       -24.6419       3.328506              1
      7394.0000          0.953       1273.408         0.7354       -26.1035        1.86945              1
      7394.5000         0.9806       1252.747         0.7463       -28.4435     -0.4680061              1
      7395.0000         1.0082       1247.253         0.7653       -31.4741      -3.496061      0.9719543
      7395.5000         1.0358       1247.253         0.8554       -34.9723      -6.991716      0.9326773
      7396.0000         1.0634        1253.61         0.9099       -42.3701      -14.38697      0.8495846
      7396.5000         1.0637        1280.22         0.9099       -52.4102      -24.42452      0.7368031
      7397.0000         1.0639       1338.291         0.9092       -58.8575      -30.86928      0.6643901
      7397.5000         1.0369       1456.044         0.8882       -68.2117      -40.22094      0.5593153
      7398.0000         0.9803       1614.427         0.8699       -78.3699      -50.37659      0.4452068
      7398.5000         0.8735       1818.681         0.7138        -87.286      -59.29015      0.3450544
      7399.0000         0.8181       1973.219         0.5985       -94.2992       -66.3008      0.2662831
      7399.5000         0.7375       2187.786         0.5068      -106.2249      -78.22396       0.132315
      7400.0000         0.6557       2555.116         0.5123       -105.561      -77.55751      0.1398033
      7400.5000         0.6159       2807.374         0.5226      -113.1521      -85.14607     0.05453851
      7401.0000         0.5735       3033.352         0.5341      -114.5632      -86.55463     0.03871206
      7401.5000          0.546       3308.954         0.5525      -115.6592      -87.64809     0.02642599
      7402.0000         0.5459       3473.126         0.5723      -115.6651      -87.65144     0.02638836
      7402.5000         0.5184       3589.897         0.5833      -116.2155       -88.1993     0.02023264
      7403.0000         0.5183       3605.208         0.5778      -116.7671      -88.74834     0.01406355
      7403.5000         0.5182         3605.3         0.5375      -116.7719       -88.7506     0.01403826
      7404.0000          0.518       3610.916         0.4961      -116.7782      -88.75436       0.013996
      7404.5000         0.5179       3889.024         0.4846      -116.7827      -88.75632     0.01397396
      7405.0000         0.5451       3990.251         0.4798      -116.7892      -88.76027     0.01392956
      7405.5000         0.5449       4017.809         0.4853      -116.7937      -88.76222     0.01390762
      7406.0000         0.5448       4025.766         0.4908       -115.474      -87.43998     0.02876427
      7406.5000         0.5447       4045.495         0.4963      -114.0774      -86.04083     0.04448503
