#------------------------------------------------------------------------------
# Created by    : vladimir.rabinovich
# Created on    : 09/19/2023 17:22:55
#------------------------------------------------------------------------------
~Version Information Section
VERS.           2.0     :   CWLS log ASCII Standard - VERSION 2.0
WRAP.           NO      :   One line per depth step
~Well Information Section
#MNEM       .UNIT                                         VALUE :DESCRIPTION
#------------------------------------------------------------------------------
STRT        .FT                                            1640 :START DEPTH
STOP        .FT                                            9504 :STOP DEPTH
STEP        .FT                                             0.5 :STEP      
NULL        .                                           -999.25 :NULL      
COMP        .                        UNION OIL CO OF CALIFORNIA :COMPANY   
WELL        .                                       DROUGHT H P :WELL      
FLD         .                                           WILDCAT :FIELD     
LOC         .                                                   :LOCATION  
CNTY        .                                          CHAMBERS :LOCATION  
STAT        .                                             TEXAS :STATE     
CTRY        .                                     UNITED STATES :COUNTRY   
SRVC        .                                                   :SERVICE COMPANY
DATE        .                             9/13/2023 11:19:11 AM :LOG DATE  
API         .                                    42071019550000 :API NUMBER
UWI         .                                    42071019550000 :UNIQUE WELL ID
XCOORD      .                                    1177783.835691 :SURFACE X 
YCOORD      .                                  10819467.9364056 :SURFACE Y 
LAT         .                                        29.8039986 :LATITUDE  
LON         .                                       -94.4590755 :LONGITUDE 
ELEV        .FT                                              40 :ELEVATION VALUE
ELEV_TYPE   .                                                DF :ELEVATION REFERENCE TYPE
~Curve Information Section
#MNEM       .UNIT                                      API CODE :CURVE DESCRIPTION
#------------------------------------------------------------------------------
DEPT        .FT                                                 :DEPTH     
LAT         .OHMM                                               :          
LN          .OHMM                                               :          
SN          .OHMM                                               :          
SP          .MV                                                 :          
SP_NORM     .MV                                                 :SP Normalized
VSH_SP      .V/V                                                :Volume of Shale from SP
~A        DEPTH            LAT             LN             SN             SP        SP_NORM         VSH_SP
# ...
      8936.0000         1.0625          0.991         1.3459       -36.4939       3.886368              1
      8936.5000         1.0536         0.9872         1.3176       -36.6492       3.736225              1
      8937.0000         1.0446         0.9804         1.2707       -36.8046       3.585987              1
      8937.5000         1.0461         0.9736         1.2156         -36.96       3.435745              1
      8938.0000         1.0489         0.9668         1.1605       -37.1154       3.285503              1
      8938.5000         1.0517           0.96         1.1054       -36.7073       3.698765              1
      8939.0000         1.0544         0.9532         1.0619       -36.1201       4.291122              1
      8939.5000         1.0572         0.9464         1.0343       -35.5328       4.883579              1
      8940.0000           1.06         0.9397         1.0162       -34.9465        5.47504              1
      8940.5000         1.0622         0.9408         1.0042       -34.5422       5.884499              1
      8941.0000         1.0487         0.9441         0.9922       -34.2017       6.230156              1
      8941.5000         1.0351         0.9474         0.9882       -33.8612       6.575817              1
      8942.0000         1.0216         0.9508         0.9902       -33.9419       6.500275              1
      8942.5000          1.008         0.9541         0.9921       -34.0566       6.390732              1
      8943.0000         0.9945         0.9574         0.9941       -34.1714       6.281094              1
      8943.5000         0.9809         0.9626          0.996       -34.2861       6.171551              1
      8944.0000         0.9661         0.9678          0.998       -35.4468       5.016006              1
      8944.5000          0.945          0.973         1.0048       -36.7338       3.734165              1
      8945.0000         0.9239         0.9773          1.021        -38.023       2.450127              1
      8945.5000         0.9028         0.9745         1.0373       -39.2858       1.192482              1
      8946.0000         0.8818         0.9718         1.0536       -39.7397      0.7437401              1
      8946.5000         0.8607         0.9691         1.0631       -40.1932      0.2954025              1
      8947.0000         0.8427         0.9663         1.0721       -40.0637      0.4300575              1
      8947.5000         0.8485         0.9636          1.081       -39.7932      0.7057152              1
      8948.0000         0.8544         0.9596         1.0893       -39.5227      0.9813766              1
      8948.5000         0.8602         0.9525         1.0916       -39.2522       1.257034              1
      8949.0000         0.9034         0.9455         1.0939       -39.2667       1.247692              1
      8949.5000         0.9633         0.9384         1.0962       -39.3611       1.158455              1
      8950.0000         1.0234         0.9313         1.0985       -39.4557       1.069012              1
      8950.5000         1.0834         0.9243         1.1008       -39.5504      0.9794693              1
      8951.0000         1.1386         0.9193         1.1107        -39.645      0.8900261              1
      8951.5000         1.1809         0.9143         1.1245       -39.7395      0.8006897              1
      8952.0000         1.1761         0.9098         1.1382       -39.8093      0.7360458              1
      8952.5000         1.1177          0.936         1.1521       -39.6986       0.851902              1
      8953.0000         1.0593         0.9621         1.1627       -39.5878       0.967865              1
      8953.5000         1.0009         0.9883         1.1717        -39.477        1.08382              1
      8954.0000         0.9428         1.0144         1.1806       -39.3662        1.19978              1
      8954.5000         0.9114         1.0241         1.1896       -39.2554       1.315739              1
      8955.0000         0.8799         1.0339          1.195       -38.9728       1.603497              1
      8955.5000         0.8484         1.0436         1.1997        -38.239       2.342457              1
      8956.0000          0.817         1.0534         1.2045        -37.504       3.082615              1
      8956.5000         0.8575         1.0331         1.2092       -36.7701       3.821674              1
      8957.0000         0.9005         1.0043         1.2005       -36.4974       4.099533              1
      8957.5000         0.9435         0.9756         1.1826       -36.2975       4.304592              1
      8958.0000         0.9865         0.9496         1.1647       -36.0972       4.510052              1
      8958.5000         1.0295         0.9259         1.1469       -35.8972       4.715206              1
      8959.0000         1.0702         0.9022          1.123       -35.4424       5.175163              1
      8959.5000         1.0975         0.8785         1.0989       -34.9377       5.685028              1
      8960.0000         1.1248         0.8549         1.0748       -34.4325       6.195385              1
      8960.5000         1.1522         0.8399         1.0507       -32.6083       8.024742              1
      8961.0000         1.1795         0.8289         1.0267       -31.1351       9.503103              1
      8961.5000         1.2068         0.8179         1.0059       -31.8414        8.80196              1
      8962.0000         1.2124         0.8069         0.9932       -32.5477       8.100819              1
      8962.5000         1.1689         0.7961         0.9805       -33.7565       6.897179              1
      8963.0000         1.1254         0.7912         0.9678       -34.9664       5.692436              1
      8963.5000         1.0819         0.7863         0.9745       -36.1763       4.487694              1
      8964.0000         1.0424         0.7814         0.9843       -37.3861       3.283054              1
      8964.5000         1.0144         0.7765          0.994        -36.822       3.852314              1
      8965.0000         0.9864         0.7735         1.0038       -35.5272       5.152271              1
      8965.5000         0.9584         0.7732         1.0135       -34.9355        5.74913              1
      8966.0000         0.9304         0.7729         1.0151       -34.3427       6.347088              1
      8966.5000         0.9123         0.7725         0.9903       -34.5124       6.182545              1
      8967.0000         0.9327         0.7722          0.967       -34.9702       5.729904              1
      8967.5000          0.953         0.7719         0.9496       -35.4286       5.276665              1
      8968.0000         0.9733         0.7746         0.9322       -35.8865       4.823921              1
      8968.5000         0.9937         0.7773         0.9148       -36.3448       4.370781              1
      8969.0000          1.014           0.78         0.8974       -36.7826       3.938141              1
      8969.5000         0.9968         0.7828           0.88       -36.9089       3.816998              1
      8970.0000         0.9685         0.7875         0.8625       -37.0353       3.695755              1
      8970.5000         0.9401          0.796         0.8451       -37.1616       3.574619              1
      8971.0000         0.9118         0.8045          0.826       -37.2881       3.453274              1
      8971.5000         0.8725          0.813         0.8033        -37.255       3.491531              1
      8972.0000         0.8232         0.8215         0.7807       -36.6644       4.087296              1
      8972.5000         0.7739           0.83         0.7581       -36.0727       4.684151              1
      8973.0000         0.7246         0.8387         0.7355       -35.9911       4.770908              1
      8973.5000         0.6753         0.8475         0.7326       -36.6545       4.112667              1
