#------------------------------------------------------------------------------
# Created by    : vladimir.rabinovich
# Created on    : 09/19/2023 17:22:55
#------------------------------------------------------------------------------
~Version Information Section
VERS.           2.0     :   CWLS log ASCII Standard - VERSION 2.0
WRAP.           NO      :   One line per depth step
~Well Information Section
#MNEM       .UNIT                                         VALUE :DESCRIPTION
#------------------------------------------------------------------------------
STRT        .FT                                            1722 :START DEPTH
STOP        .FT                                            8384 :STOP DEPTH
STEP        .FT                                             0.5 :STEP      
NULL        .                                           -999.25 :NULL      
COMP        .                                   HEBERT HILARY B :COMPANY   
WELL        .                                    REARWIN LEILAW :WELL      
FLD         .                                           WILDCAT :FIELD     
LOC         .                                                   :LOCATION  
CNTY        .                                          CHAMBERS :LOCATION  
STAT        .                                             TEXAS :STATE     
CTRY        .                                     UNITED STATES :COUNTRY   
SRVC        .                                                   :SERVICE COMPANY
DATE        .                             9/13/2023 11:19:11 AM :LOG DATE  
API         .                                    42071022820000 :API NUMBER
UWI         .                                    42071022820000 :UNIQUE WELL ID
XCOORD      .                                  1141949.94059063 :SURFACE X 
YCOORD      .                                  10792730.9347258 :SURFACE Y 
LAT         .                                        29.7291796 :LATITUDE  
LON         .                                       -94.5709084 :LONGITUDE 
ELEV        .FT                                              28 :ELEVATION VALUE
ELEV_TYPE   .                                                DF :ELEVATION REFERENCE TYPE
~Curve Information Section
#MNEM       .UNIT                                      API CODE :CURVE DESCRIPTION
#------------------------------------------------------------------------------
DEPT        .FT                                                 :DEPTH     
LAT         .OHMM                                               :          
LN          .OHMM                                               :          
SN          .OHMM                                               :          
SP          .MV                                                 :          
SP_NORM     .MV                                                 :SP Normalized
VSH_SP      .V/V                                                :Volume of Shale from SP
~A        DEPTH            LAT             LN             SN             SP        SP_NORM         VSH_SP
# ...
      5256.0000         0.3079        -0.0288         0.8702      -173.6711       -104.892    0.001048116
      5256.5000         0.2839        -0.0343         0.8042      -173.7915      -105.0012              0
      5257.0000         0.2613        -0.0398         0.7133      -173.9119      -105.1104              0
      5257.5000         0.2397        -0.0454         0.6157      -174.0322      -105.2195              0
      5258.0000          0.218        -0.0509         0.5378      -173.8904      -105.0665              0
      5258.5000         0.1964        -0.0564         0.4941      -173.4277      -104.5926    0.003955508
      5259.0000          0.203        -0.0511         0.4504      -172.6985      -103.8522     0.01114403
      5259.5000         0.2303        -0.0448         0.5208      -171.2634      -102.4059     0.02518589
      5260.0000         0.2575        -0.0386         0.6203      -169.6677      -100.7989     0.04078704
      5260.5000         0.2817        -0.0324         0.7036      -167.7246      -98.84462     0.05976097
      5261.0000         0.3014        -0.0262         0.7869      -165.5632      -96.67201     0.08085425
      5261.5000         0.3212        -0.0199         0.8671      -166.7642      -97.86181     0.06930283
      5262.0000          0.341        -0.0137         0.8212      -169.2651      -100.3515     0.04513113
      5262.5000         0.3596        -0.0075         0.7315       -170.979      -102.0542     0.02860023
      5263.0000          0.336        -0.0013         0.6351      -171.9998      -103.0638     0.01879846
      5263.5000         0.3124         0.0049         0.5387      -172.4045      -103.4572      0.0149782
      5264.0000         0.2888         0.0112         0.4684       -172.748      -103.7895     0.01175208
      5264.5000         0.2652         0.0174         0.4225      -173.0684      -104.0987    0.008750249
      5265.0000         0.2417         0.0236         0.3765      -173.0649       -104.084    0.008893208
      5265.5000         0.2222         0.0298         0.3335      -173.0371       -104.045    0.009271936
      5266.0000          0.217         0.0328         0.3184      -172.9175      -103.9142     0.01054197
      5266.5000         0.2119          0.032         0.3467      -172.6226      -103.6081     0.01351388
      5267.0000         0.2067         0.0313         0.3948      -172.3276      -103.3019     0.01648683
      5267.5000          0.202         0.0306         0.4429      -171.9067      -102.8697     0.02068218
      5268.0000         0.2107         0.0299         0.4808      -170.8687      -101.8205     0.03086868
      5268.5000         0.2194         0.0292          0.514      -169.8308      -100.7714     0.04105429
      5269.0000         0.2281         0.0285         0.5291      -167.8708       -98.8002     0.06019222
      5269.5000         0.2367         0.0277         0.4976       -165.822       -96.7402     0.08019227
      5270.0000         0.2454         0.0253          0.469       -163.926      -94.83297     0.09870903
      5270.5000         0.2529         0.0229         0.4521      -154.6128      -85.50855      0.1892374
      5271.0000         0.2604         0.0205         0.5677      -151.2166      -82.10114       0.222319
      5271.5000          0.268         0.0181         0.6883      -148.9023      -79.77563      0.2448968
      5272.0000         0.2755         0.0157         0.8775      -146.9255      -77.78763      0.2641978
      5272.5000         0.2823         0.0158         1.1134      -148.1152      -78.96611      0.2527562
      5273.0000          0.287         0.0176          1.389      -151.0232      -81.86288      0.2246322
      5273.5000         0.2917         0.0193           1.58      -153.0249      -83.85338       0.205307
      5274.0000         0.2964         0.0211         1.7665      -157.4646      -88.28187       0.162312
      5274.5000         0.3011         0.0228         1.8922       -160.613      -91.41906      0.1318538
      5275.0000         0.2969         0.0234         1.9933      -163.3074      -94.10224      0.1058035
      5275.5000         0.2887         0.0236         1.9079      -165.3047      -96.08833     0.08652111
      5276.0000         0.2805         0.0239         1.7608      -166.9587      -97.73111     0.07057175
      5276.5000         0.2723         0.0241         1.6262      -168.4712      -99.23241     0.05599605
      5277.0000         0.2624         0.0218         1.5091      -169.8489      -100.5989      0.0427292
      5277.5000         0.2485         0.0188         1.4115      -170.5212        -101.26     0.03631103
      5278.0000         0.2347         0.0183         1.3158      -171.1084       -101.836     0.03071883
      5278.5000         0.2208         0.0198         1.2557      -171.2761      -101.9924     0.02919962
      5279.0000         0.2069         0.0212         1.1955      -171.2534      -101.9585     0.02952879
      5279.5000         0.1938         0.0226          1.144      -171.2307      -101.9246     0.02985812
      5280.0000         0.1865          0.024         1.1038      -171.1904      -101.8731     0.03035817
      5280.5000         0.1793         0.0254         1.0635      -171.1326      -101.8041     0.03102823
      5281.0000         0.1721         0.0259         1.0373      -171.0747       -101.735     0.03169917
      5281.5000         0.1649         0.0247         1.0311      -171.0166      -101.6657     0.03237219
      5282.0000         0.1582         0.0235         1.0248      -170.9587      -101.5965     0.03304321
      5282.5000         0.1554         0.0223         1.0186      -170.8352      -101.4618     0.03435102
      5283.0000         0.1526         0.0212         1.0123      -170.6538      -101.2692     0.03622118
      5283.5000         0.1588         0.0193         0.9992      -170.4727      -101.0769     0.03808823
      5284.0000         0.1733         0.0159          0.967      -170.2915      -100.8845     0.03995625
      5284.5000         0.1878         0.0126         0.9041      -170.0461      -100.6279     0.04244773
      5285.0000         0.2023         0.0093         0.8413      -169.4744       -100.045     0.04810711
      5285.5000          0.207         0.0075         0.7721      -168.9021      -99.46146     0.05377227
      5286.0000         0.2034         0.0092         0.7011      -168.3066      -98.85474     0.05966268
      5286.5000         0.1998         0.0109         0.6271      -167.6768      -98.21374     0.06588604
      5287.0000         0.1961         0.0126         0.5521      -166.8296      -97.35532     0.07422016
      5287.5000         0.1919         0.0143          0.448      -165.2314       -95.7459     0.08984561
      5288.0000         0.1872         0.0171         0.3622      -163.4155      -93.91879      0.1075846
      5288.5000         0.1825         0.0227         0.2847      -160.8831      -91.37518      0.1322798
      5289.0000         0.1778         0.0283         0.2029      -156.1667      -86.64757       0.178179
      5289.5000         0.1731          0.034          0.131      -150.8657      -81.33536      0.2297538
      5290.0000         0.2039         0.0394         0.2104       -132.896      -63.35443      0.4043259
      5290.5000         0.2362         0.0445          0.315      -103.9374      -34.38463      0.6855862
      5291.0000         0.2684         0.0495          0.618      -113.1943      -43.63031      0.5958222
      5291.5000         0.2975         0.0532         0.7748      -122.4604       -52.8852      0.5059689
      5292.0000         0.3217         0.0535         0.9281      -131.7175      -62.13108      0.4162031
      5292.5000         0.3459         0.0537          1.079      -140.9746      -71.37697      0.3264372
      5293.0000           0.37         0.0448         1.2374      -146.1135      -76.50465      0.2766539
      5293.5000         0.3685         0.0343         1.3455       -148.511      -78.89095       0.253486
