#------------------------------------------------------------------------------
# Created by    : vladimir.rabinovich
# Created on    : 09/19/2023 17:22:55
#------------------------------------------------------------------------------
~Version Information Section
VERS.           2.0     :   CWLS log ASCII Standard - VERSION 2.0
WRAP.           NO      :   One line per depth step
~Well Information Section
#MNEM       .UNIT                                         VALUE :DESCRIPTION
#------------------------------------------------------------------------------
STRT        .FT                                            1640 :START DEPTH
STOP        .FT                                            9504 :STOP DEPTH
STEP        .FT                                             0.5 :STEP      
NULL        .                                           -999.25 :NULL      
COMP        .                        UNION OIL CO OF CALIFORNIA :COMPANY   
WELL        .                                       DROUGHT H P :WELL      
FLD         .                                           WILDCAT :FIELD     
LOC         .                                                   :LOCATION  
CNTY        .                                          CHAMBERS :LOCATION  
STAT        .                                             TEXAS :STATE     
CTRY        .                                     UNITED STATES :COUNTRY   
SRVC        .                                                   :SERVICE COMPANY
DATE        .                             9/13/2023 11:19:11 AM :LOG DATE  
API         .                                    42071019550000 :API NUMBER
UWI         .                                    42071019550000 :UNIQUE WELL ID
XCOORD      .                                    1177783.835691 :SURFACE X 
YCOORD      .                                  10819467.9364056 :SURFACE Y 
LAT         .                                        29.8039986 :LATITUDE  
LON         .                                       -94.4590755 :LONGITUDE 
ELEV        .FT                                              40 :ELEVATION VALUE
ELEV_TYPE   .                                                DF :ELEVATION REFERENCE TYPE
~Curve Information Section
#MNEM       .UNIT                                      API CODE :CURVE DESCRIPTION
#------------------------------------------------------------------------------
DEPT        .FT                                                 :DEPTH     
LAT         .OHMM                                               :          
LN          .OHMM                                               :          
SN          .OHMM                                               :          
SP          .MV                                                 :          
SP_NORM     .MV                                                 :SP Normalized
VSH_SP      .V/V                                                :Volume of Shale from SP
~A        DEPTH            LAT             LN             SN             SP        SP_NORM         VSH_SP
# ...
      2172.0000         0.2351         0.3248         0.7794        -120.34       -69.3011     0.05137359
      2172.5000         0.2233         0.3263         0.7523      -120.3817      -69.31456     0.05118667
      2173.0000         0.2115         0.3278         0.7264      -120.5033      -69.40791     0.04989009
      2173.5000         0.2157         0.3293         0.7139      -120.6248      -69.50117     0.04859479
      2174.0000         0.2217         0.3309         0.7014      -120.7463      -69.59442      0.0472997
      2174.5000         0.2276         0.3324         0.7048      -120.8842      -69.70409     0.04577658
      2175.0000         0.2336         0.3339         0.7639       -121.397      -70.18864      0.0390466
      2175.5000         0.2395         0.3354          0.823      -121.9099      -70.67329     0.03231536
      2176.0000         0.2455         0.3374         0.8567      -122.4227      -71.15785     0.02558539
      2176.5000         0.2514         0.3396         0.8602      -122.9355      -71.64241     0.01885541
      2177.0000         0.2531         0.3418          0.849      -123.3834      -72.06207     0.01302687
      2177.5000         0.2516         0.3441         0.8184         -123.7      -72.35042    0.009021971
      2178.0000         0.2502         0.3463         0.7878      -123.9427      -72.56488    0.006043328
      2178.5000         0.2488         0.3485         0.7571      -123.3624      -71.95633     0.01449543
      2179.0000         0.2474         0.3508         0.7265      -122.7822      -71.34789     0.02294593
      2179.5000          0.246          0.353         0.6978      -122.2021      -70.73955     0.03139517
      2180.0000         0.2445         0.3552         0.6908      -121.6221       -70.1313     0.03984303
      2180.5000         0.2431         0.3575         0.6838      -121.2554      -69.73636     0.04532835
      2181.0000         0.2417         0.3597         0.6768      -121.1683      -69.62101     0.04693042
      2181.5000         0.2422         0.3619         0.6699      -121.0814      -69.50587     0.04852962
      2182.0000         0.2439          0.364          0.673      -120.9945      -69.39073     0.05012872
      2182.5000         0.2455          0.364         0.6762      -120.9075      -69.27548     0.05172941
      2183.0000         0.2471         0.3639         0.6793      -120.8688      -69.20854     0.05265914
      2183.5000         0.2488         0.3639         0.6825      -120.8691       -69.1806     0.05304718
      2184.0000         0.2504         0.3638         0.6819      -120.8695      -69.15276     0.05343395
      2184.5000          0.252         0.3638         0.6784      -120.8699      -69.12491     0.05382071
      2185.0000         0.2537         0.3638         0.6749      -120.8702      -69.09697     0.05420876
      2185.5000         0.2553         0.3637         0.6713      -120.8152      -69.01372     0.05536503
      2186.0000         0.2574         0.3628         0.6761      -120.6025      -68.77278     0.05871137
      2186.5000         0.2647         0.3565         0.6892        -120.39      -68.53203     0.06205516
      2187.0000          0.272         0.3503         0.7024      -120.1775      -68.29129     0.06539875
      2187.5000         0.2793         0.3441         0.7129      -119.9648      -68.05035     0.06874519
      2188.0000         0.2867         0.3392         0.7161      -119.1809       -67.2382     0.08002493
      2188.5000          0.294         0.3348         0.7185      -117.5195      -65.54856      0.1034922
      2189.0000         0.3013         0.3304         0.7022      -115.0947      -63.09552      0.1375622
      2189.5000         0.3118          0.326         0.6859      -112.3459      -60.31847      0.1761323
      2190.0000         0.3381         0.3215         0.6696      -109.5183      -57.46263      0.2157968
      2190.5000         0.3643         0.3166          0.662      -105.9371      -53.85319      0.2659279
      2191.0000         0.3906         0.3116         0.6546      -100.2529      -48.14074      0.3452675
      2191.5000         0.4157         0.3066         0.6472       -94.2458      -42.10539      0.4290918
      2192.0000         0.4407         0.3015         0.6424       -93.7809      -41.61226      0.4359409
      2192.5000         0.4624          0.296         0.6587       -97.4475      -45.25061      0.3854081
      2193.0000         0.4472         0.2902         0.6749      -101.5824      -49.35727      0.3283713
      2193.5000         0.4262         0.2843         0.7114      -106.2678      -54.01442      0.2636886
      2194.0000         0.3879         0.2784         0.7689      -110.5049      -58.22328      0.2052322
      2194.5000         0.3496         0.2942         0.8071      -114.1493      -61.83944      0.1550078
      2195.0000         0.3113         0.3128          0.827      -116.3799      -64.04179      0.1244195
      2195.5000          0.273         0.3313         0.8469      -118.0394      -65.67305      0.1017632
      2196.0000         0.2346         0.3498         0.8528      -119.2522       -66.8576     0.08531104
      2196.5000         0.2249         0.3683         0.8255      -119.5852      -67.16235     0.08107843
      2197.0000          0.225         0.3869         0.7983      -119.2671      -66.81602     0.08588865
      2197.5000         0.2252         0.4054         0.7602      -118.6166      -66.13728     0.09531561
      2198.0000         0.2253         0.4239         0.7073      -117.0302      -64.52263      0.1177413
      2198.5000         0.2255         0.4251         0.6584      -115.4432      -62.90739      0.1401752
      2199.0000         0.2393          0.423         0.6352      -112.7732      -60.20914      0.1776508
      2199.5000         0.2695         0.4209         0.6121      -109.4961       -56.9038      0.2235583
      2200.0000         0.2997         0.4118         0.5911      -106.0636      -53.44305      0.2716242
      2200.5000         0.3298         0.3919         0.6047      -102.5457      -49.89691      0.3208762
      2201.0000           0.36         0.3719         0.6183       -98.8391      -46.16207       0.372749
      2201.5000         0.3902          0.352         0.6319       -93.2261      -40.52082      0.4510997
      2202.0000         0.4158          0.332         0.6455       -90.8384      -38.10488      0.4846544
      2202.5000         0.4056         0.3136         0.6591       -92.6356      -39.87384      0.4600856
      2203.0000         0.3955         0.3122         0.6752       -94.4329      -41.64289      0.4355153
      2203.5000         0.3854         0.3107            0.7       -96.2301      -43.41185      0.4109465
      2204.0000         0.3753         0.3093         0.7248       -98.0273      -45.18081      0.3863777
      2204.5000         0.3651         0.3079         0.7495      -100.9022      -48.02746      0.3468408
      2205.0000          0.355         0.3208         0.7743      -104.1948      -51.29182      0.3015025
      2205.5000         0.3449         0.3423         0.7986      -107.6528      -54.72158       0.253867
      2206.0000         0.3347         0.3637         0.8076      -112.7177      -59.75823      0.1839135
      2206.5000          0.305         0.3852         0.8166      -116.4664      -63.47869      0.1322405
      2207.0000         0.2706         0.3963         0.8256      -118.7341      -65.71814       0.101137
      2207.5000         0.2361          0.401         0.8345      -119.5873      -66.54311     0.08967908
      2208.0000         0.2016         0.4058         0.8381      -119.9539      -66.88146     0.08497969
      2208.5000         0.1715         0.4105         0.8189      -120.1625      -67.06181     0.08247481
      2209.0000           0.18         0.4153         0.7997      -120.2628      -67.13387     0.08147398
      2209.5000         0.1885         0.4004         0.7805      -119.4545      -66.29733     0.09309271
