#------------------------------------------------------------------------------
# Created by    : vladimir.rabinovich
# Created on    : 09/19/2023 17:22:55
#------------------------------------------------------------------------------
~Version Information Section
VERS.           2.0     :   CWLS log ASCII Standard - VERSION 2.0
WRAP.           NO      :   One line per depth step
~Well Information Section
#MNEM       .UNIT                                         VALUE :DESCRIPTION
#------------------------------------------------------------------------------
STRT        .FT                                            1722 :START DEPTH
STOP        .FT                                            8384 :STOP DEPTH
STEP        .FT                                             0.5 :STEP      
NULL        .                                           -999.25 :NULL      
COMP        .                                   HEBERT HILARY B :COMPANY   
WELL        .                                    REARWIN LEILAW :WELL      
FLD         .                                           WILDCAT :FIELD     
LOC         .                                                   :LOCATION  
CNTY        .                                          CHAMBERS :LOCATION  
STAT        .                                             TEXAS :STATE     
CTRY        .                                     UNITED STATES :COUNTRY   
SRVC        .                                                   :SERVICE COMPANY
DATE        .                             9/13/2023 11:19:11 AM :LOG DATE  
API         .                                    42071022820000 :API NUMBER
UWI         .                                    42071022820000 :UNIQUE WELL ID
XCOORD      .                                  1141949.94059063 :SURFACE X 
YCOORD      .                                  10792730.9347258 :SURFACE Y 
LAT         .                                        29.7291796 :LATITUDE  
LON         .                                       -94.5709084 :LONGITUDE 
ELEV        .FT                                              28 :ELEVATION VALUE
ELEV_TYPE   .                                                DF :ELEVATION REFERENCE TYPE
~Curve Information Section
#MNEM       .UNIT                                      API CODE :CURVE DESCRIPTION
#------------------------------------------------------------------------------
DEPT        .FT                                                 :DEPTH     
LAT         .OHMM                                               :          
LN          .OHMM                                               :          
SN          .OHMM                                               :          
SP          .MV                                                 :          
SP_NORM     .MV                                                 :SP Normalized
VSH_SP      .V/V                                                :Volume of Shale from SP
~A        DEPTH            LAT             LN             SN             SP        SP_NORM         VSH_SP
# ...
      2178.0000         0.5451         0.0984         1.0613      -156.3638      -58.57462      0.1680202
      2178.5000         0.5532         0.1033         1.0134      -153.9856       -56.2065      0.2028455
      2179.0000         0.5612         0.1081         0.9986      -151.7041       -53.9351      0.2362486
      2179.5000         0.5692         0.1129         1.0506      -149.6501      -51.89118      0.2663062
      2180.0000          0.571         0.1207         1.1125      -149.2698      -51.52097      0.2717504
      2180.5000         0.5712         0.1356         1.1719      -149.7966      -52.05786       0.263855
      2181.0000         0.5713         0.1506         1.1255      -150.3237      -52.59505      0.2559552
      2181.5000         0.5715         0.1655         1.0777      -150.8616      -53.14304      0.2478965
      2182.0000         0.5712         0.1804         0.9535      -151.2117      -53.50322      0.2425997
      2182.5000         0.5583         0.1877         0.8294      -150.8196       -53.1212      0.2482176
      2183.0000         0.5454         0.1943         0.7111      -150.4275       -52.7392      0.2538354
      2183.5000         0.5325         0.2009         0.6009      -150.8147      -53.13647       0.247993
      2184.0000         0.5196         0.2074         0.5296      -152.1162      -54.44806       0.228705
      2184.5000          0.507          0.214         0.4583       -153.447      -55.78896      0.2089858
      2185.0000         0.4984         0.2197         0.3919      -155.8237      -58.17574      0.1738861
      2185.5000         0.4899         0.2234         0.3899      -157.7949      -60.15704      0.1447495
      2186.0000         0.4813         0.2272         0.4399      -158.7412      -61.11341      0.1306851
      2186.5000         0.4727         0.2309         0.4899      -158.7322      -61.11449      0.1306692
      2187.0000         0.4646         0.2352         0.5451       -157.998      -60.39039      0.1413178
      2187.5000         0.4612         0.2405         0.6088      -156.8218      -59.22427      0.1584667
      2188.0000         0.4579         0.2458         0.6725      -155.3406      -57.75317      0.1801005
      2188.5000         0.4545         0.2592         0.7116      -153.6965      -56.11916      0.2041301
      2189.0000         0.4511         0.2791          0.661      -151.9619      -54.39464      0.2294906
      2189.5000         0.4478         0.3012         0.6104      -148.4956      -50.93843      0.2803172
      2190.0000         0.4444         0.3271          0.524      -146.1865       -48.6394      0.3141264
      2190.5000         0.4577         0.3531         0.4291      -141.6475       -44.1105      0.3807279
      2191.0000         0.4724         0.3866         0.3373      -130.4492      -32.92229      0.5452605
      2191.5000         0.4871         0.4253         0.2503      -120.9562      -23.43937      0.6847152
      2192.0000         0.5018         0.4641         0.2393      -111.4633      -13.95656      0.8241683
      2192.5000         0.5164         0.4936         0.2847      -104.2433      -6.746651      0.9301963
      2193.0000         0.5323         0.5171         0.3302       -95.6785       1.808067              1
      2193.5000         0.5482         0.5406         0.3756       -93.0006       4.475876              1
      2194.0000         0.5641         0.5572         0.4172       -93.2021        4.26429              1
      2194.5000           0.58         0.5501         0.4564        -93.714        3.74231              1
      2195.0000          0.596         0.5431         0.4947        -94.226       3.220222              1
      2195.5000         0.6117          0.536         0.5045       -94.7377       2.698433              1
      2196.0000         0.6217         0.5289         0.5142       -95.3679       2.058151              1
      2196.5000         0.6316         0.5199         0.5242       -96.0834       1.332558              1
      2197.0000         0.6415         0.5044         0.5382       -96.7987      0.6071701              1
      2197.5000         0.6515         0.4889         0.5522       -97.8895      -0.493721              1
      2198.0000         0.6614         0.4734         0.5662       -98.9928      -1.607101              1
      2198.5000         0.6599         0.4579         0.5803      -100.3636      -2.987991      0.9854707
      2199.0000         0.6565          0.451         0.5943      -101.7495      -4.383972      0.9649416
      2199.5000         0.6532         0.4489         0.6149      -104.8335      -7.478065      0.9194402
      2200.0000         0.6499         0.4468         0.6366      -110.9047      -13.55935      0.8300096
      2200.5000         0.6403          0.453         0.6582      -114.0314      -16.69614      0.7838802
      2201.0000          0.628         0.4696         0.6799      -115.1312      -17.80603      0.7675584
      2201.5000         0.6157         0.4862         0.7165      -115.6906      -18.37551      0.7591836
      2202.0000         0.6033         0.5207         0.7555      -116.0471       -18.7421      0.7537927
      2202.5000          0.591         0.5587          0.788      -116.4033      -19.10838      0.7484061
      2203.0000         0.5865         0.5967         0.8132       -118.115      -20.83017      0.7230858
      2203.5000          0.591         0.6306          0.804      -120.0095      -22.73476      0.6950771
      2204.0000         0.5956         0.6518          0.755      -122.0585      -24.79385      0.6647964
      2204.5000         0.5973         0.6731         0.6576      -121.4315      -24.17694      0.6738685
      2205.0000         0.5902         0.6943         0.5518      -119.0662      -21.82172      0.7085041
      2205.5000         0.5832         0.7155         0.4574      -114.9562      -17.72181      0.7687969
      2206.0000         0.5753         0.7374         0.4102      -106.9398      -9.715492      0.8865369
      2206.5000         0.5646         0.7593         0.3816      -100.2448      -3.030579      0.9848444
      2207.0000          0.554         0.7813         0.3832       -96.4462      0.7579346              1
      2207.5000         0.5433         0.7982         0.3847       -95.0049       2.189148              1
      2208.0000         0.5338         0.7983         0.3862        -93.851       3.332962              1
      2208.5000         0.5294         0.7983         0.3877       -92.8345       4.339363              1
      2209.0000          0.525         0.7983         0.3882       -91.8691       5.294678              1
      2209.5000         0.5206         0.7984          0.387       -91.0762       6.077492              1
      2210.0000         0.5504         0.7984         0.3858       -91.4462       5.697411              1
      2210.5000         0.5814         0.7984         0.3845       -92.5996        4.53392              1
      2211.0000         0.6125         0.7985         0.3833       -93.7529       3.370537              1
      2211.5000         0.6444         0.7985          0.382       -95.0106       2.102753              1
      2212.0000         0.6763         0.7986         0.3747        -96.321      0.7822647              1
      2212.5000         0.7083         0.8016         0.3653       -97.0754     0.01776886              1
      2213.0000         0.7402         0.8068         0.3559       -97.6035     -0.5204163              1
      2213.5000         0.7721         0.8119         0.3466       -97.8625      -0.789505              1
      2214.0000         0.7846         0.8171         0.3396       -98.1309      -1.067986              1
      2214.5000         0.7962          0.822         0.3327       -98.4279      -1.375076              1
      2215.0000         0.8078         0.8268         0.3259       -98.7247      -1.681961              1
      2215.5000         0.8194         0.8315          0.319       -99.3656      -2.332947      0.9951037
