#------------------------------------------------------------------------------
# Created by    : vladimir.rabinovich
# Created on    : 09/19/2023 17:22:55
#------------------------------------------------------------------------------
~Version Information Section
VERS.           2.0     :   CWLS log ASCII Standard - VERSION 2.0
WRAP.           NO      :   One line per depth step
~Well Information Section
#MNEM       .UNIT                                         VALUE :DESCRIPTION
#------------------------------------------------------------------------------
STRT        .FT                                            1722 :START DEPTH
STOP        .FT                                            8384 :STOP DEPTH
STEP        .FT                                             0.5 :STEP      
NULL        .                                           -999.25 :NULL      
COMP        .                                   HEBERT HILARY B :COMPANY   
WELL        .                                    REARWIN LEILAW :WELL      
FLD         .                                           WILDCAT :FIELD     
LOC         .                                                   :LOCATION  
CNTY        .                                          CHAMBERS :LOCATION  
STAT        .                                             TEXAS :STATE     
CTRY        .                                     UNITED STATES :COUNTRY   
SRVC        .                                                   :SERVICE COMPANY
DATE        .                             9/13/2023 11:19:11 AM :LOG DATE  
API         .                                    42071022820000 :API NUMBER
UWI         .                                    42071022820000 :UNIQUE WELL ID
XCOORD      .                                  1141949.94059063 :SURFACE X 
YCOORD      .                                  10792730.9347258 :SURFACE Y 
LAT         .                                        29.7291796 :LATITUDE  
LON         .                                       -94.5709084 :LONGITUDE 
ELEV        .FT                                              28 :ELEVATION VALUE
ELEV_TYPE   .                                                DF :ELEVATION REFERENCE TYPE
~Curve Information Section
#MNEM       .UNIT                                      API CODE :CURVE DESCRIPTION
#------------------------------------------------------------------------------
DEPT        .FT                                                 :DEPTH     
LAT         .OHMM                                               :          
LN          .OHMM                                               :          
SN          .OHMM                                               :          
SP          .MV                                                 :          
SP_NORM     .MV                                                 :SP Normalized
VSH_SP      .V/V                                                :Volume of Shale from SP
~A        DEPTH            LAT             LN             SN             SP        SP_NORM         VSH_SP
# ...
      5674.0000         0.2175         0.0055         1.2277      -168.3184      -97.64098     0.02407167
      5674.5000         0.2227         0.0013         1.1061      -164.7739       -94.1058     0.06014485
      5675.0000         0.2279        -0.0029         0.9978      -160.8896      -90.23085      0.0996852
      5675.5000         0.2331        -0.0035         0.9125      -159.5618      -88.91238      0.1131389
      5676.0000         0.2383        -0.0035         0.8716      -160.8413      -90.20122     0.09998757
      5676.5000         0.2419        -0.0034         0.9069      -162.3281      -91.69735     0.08472092
      5677.0000          0.243        -0.0033         0.9678      -163.8889      -93.26749     0.06869904
      5677.5000          0.244        -0.0032          1.045      -166.1863      -95.57423     0.04516096
      5678.0000          0.245        -0.0032         1.1222      -168.7681      -98.16537     0.01872074
      5678.5000         0.2461         -0.002         1.1688      -170.8059      -100.2125              0
      5679.0000         0.2471        -0.0002         1.2008      -172.4587      -101.8746              0
      5679.5000         0.2482         0.0016         1.1987      -173.1526      -102.5779              0
      5680.0000         0.2492         0.0034         1.1918      -173.3938      -102.8284              0
      5680.5000         0.2505         0.0033         1.1849      -173.3008      -102.7448              0
      5681.0000         0.2518         0.0009         1.1781      -173.1638      -102.6171              0
      5681.5000         0.2531        -0.0015         1.1712      -173.0266      -102.4892              0
      5682.0000         0.2544        -0.0039         1.1643      -172.8896      -102.3616              0
      5682.5000         0.2557        -0.0063         1.1741      -172.9485      -102.4298              0
      5683.0000         0.2569        -0.0087         1.1922      -173.0896      -102.5802              0
      5683.5000          0.257        -0.0077         1.2102      -173.2307      -102.7307              0
      5684.0000          0.257        -0.0048         1.2282      -173.4041      -102.9134              0
      5684.5000         0.2571        -0.0018         1.2433      -173.8279      -103.3465              0
      5685.0000         0.2572         0.0011         1.2568      -174.2512      -103.7792              0
      5685.5000         0.2573          0.004         1.2704      -174.6753      -104.2126              0
      5686.0000         0.2573         0.0052         1.2839      -175.0986      -104.6453              0
      5686.5000         0.2574         0.0052         1.2975      -175.4309      -104.9869              0
      5687.0000         0.2575         0.0053         1.2683      -175.6787       -105.244              0
      5687.5000         0.2576         0.0054         1.2325      -175.9263       -105.501              0
      5688.0000         0.2576         0.0055         1.1967      -176.1736      -105.7576              0
      5688.5000         0.2577         0.0055         1.1433      -176.0823      -105.6756              0
      5689.0000         0.2578         0.0055         1.1127      -175.8662      -105.4689              0
      5689.5000         0.2578         0.0009         1.1128      -175.6497      -105.2617              0
      5690.0000         0.2594        -0.0036         1.1129      -175.4336      -105.0549              0
      5690.5000         0.2617        -0.0082         1.1129       -175.217      -104.8477              0
      5691.0000          0.264        -0.0127         1.1115      -174.9492      -104.5892              0
      5691.5000         0.2664        -0.0173         1.1056      -174.6648      -104.3142              0
      5692.0000         0.2687        -0.0219         1.0997      -174.3804      -104.0391              0
      5692.5000          0.271        -0.0226         1.0714      -174.0959      -103.7639              0
      5693.0000         0.2736        -0.0226         1.0392      -173.8113      -103.4887              0
      5693.5000          0.277        -0.0225          1.004      -173.5269      -103.2136              0
      5694.0000         0.2804        -0.0224         0.9682      -173.2981      -102.9941              0
      5694.5000         0.2839        -0.0224         0.9558      -173.2988      -103.0042              0
      5695.0000         0.2873        -0.0223         0.9475      -173.2996      -103.0143              0
      5695.5000         0.2907        -0.0208         0.9297      -173.3777      -103.1018              0
      5696.0000         0.2942        -0.0174         0.9118      -173.5681      -103.3015              0
      5696.5000         0.2913         -0.014         0.8983      -173.7585      -103.5012              0
      5697.0000         0.2871        -0.0105         0.8873      -173.9492      -103.7013              0
      5697.5000         0.2828        -0.0071         0.8767       -174.052      -103.8134              0
      5698.0000         0.2785        -0.0037         0.8768      -174.0999      -103.8706              0
      5698.5000         0.2742        -0.0002         0.8768      -174.1477      -103.9278              0
      5699.0000         0.2699         0.0008         0.8933      -174.1953      -103.9847              0
      5699.5000         0.2669         0.0019         0.9132      -174.2332       -104.032              0
      5700.0000         0.2689          0.003          0.933      -173.9763      -103.7844              0
      5700.5000          0.271          0.004         0.9529      -173.7197      -103.5371              0
      5701.0000          0.273         0.0051         0.9812      -173.4634      -103.2902              0
      5701.5000          0.275         0.0062         0.9516      -173.2065      -103.0426              0
      5702.0000         0.2771         0.0106          0.889      -172.8181      -102.6635              0
      5702.5000         0.2791         0.0202         0.8301      -172.3284      -102.1832              0
      5703.0000         0.2789         0.0299          0.784      -171.8394      -101.7035              0
      5703.5000         0.2753         0.0396         0.7874      -171.3462      -101.2197              0
      5704.0000         0.2717         0.0492         0.8017      -170.8474      -100.7302              0
      5704.5000         0.2682         0.0545         0.8159      -170.3486      -100.2407              0
      5705.0000         0.2646         0.0597         0.8369      -169.9597      -99.86115     0.00141681
      5705.5000          0.261         0.0649         0.8594      -169.8022      -99.71299    0.002928675
      5706.0000         0.2581         0.0701          0.882      -169.8772      -99.79733    0.002068111
      5706.5000          0.258         0.0754         0.9043      -170.1763      -100.1058              0
      5707.0000         0.2578         0.0803         0.8947      -170.4758      -100.4146              0
      5707.5000         0.2577         0.0851          0.885      -170.7749       -100.723              0
      5708.0000         0.2576         0.0899         0.8754      -171.0742      -101.0317              0
      5708.5000         0.2575         0.0947         0.8588      -171.0112       -100.978              0
      5709.0000         0.2574         0.0966         0.8421      -170.7747      -100.7508              0
      5709.5000         0.2573         0.0827         0.8269      -170.4941      -100.4796              0
      5710.0000          0.256         0.0689          0.814      -170.0872       -100.082              0
      5710.5000         0.2529         0.0521         0.8011      -169.6804      -99.68456    0.003218748
      5711.0000         0.2498         0.0329         0.7927      -169.2737      -99.28719    0.007273538
      5711.5000         0.2467         0.0137         0.7874      -168.8716      -98.89442     0.01128138
