#------------------------------------------------------------------------------
# Created by    : vladimir.rabinovich
# Created on    : 09/19/2023 17:22:55
#------------------------------------------------------------------------------
~Version Information Section
VERS.           2.0     :   CWLS log ASCII Standard - VERSION 2.0
WRAP.           NO      :   One line per depth step
~Well Information Section
#MNEM       .UNIT                                         VALUE :DESCRIPTION
#------------------------------------------------------------------------------
STRT        .FT                                            1640 :START DEPTH
STOP        .FT                                            9504 :STOP DEPTH
STEP        .FT                                             0.5 :STEP      
NULL        .                                           -999.25 :NULL      
COMP        .                        UNION OIL CO OF CALIFORNIA :COMPANY   
WELL        .                                       DROUGHT H P :WELL      
FLD         .                                           WILDCAT :FIELD     
LOC         .                                                   :LOCATION  
CNTY        .                                          CHAMBERS :LOCATION  
STAT        .                                             TEXAS :STATE     
CTRY        .                                     UNITED STATES :COUNTRY   
SRVC        .                                                   :SERVICE COMPANY
DATE        .                             9/13/2023 11:19:11 AM :LOG DATE  
API         .                                    42071019550000 :API NUMBER
UWI         .                                    42071019550000 :UNIQUE WELL ID
XCOORD      .                                    1177783.835691 :SURFACE X 
YCOORD      .                                  10819467.9364056 :SURFACE Y 
LAT         .                                        29.8039986 :LATITUDE  
LON         .                                       -94.4590755 :LONGITUDE 
ELEV        .FT                                              40 :ELEVATION VALUE
ELEV_TYPE   .                                                DF :ELEVATION REFERENCE TYPE
~Curve Information Section
#MNEM       .UNIT                                      API CODE :CURVE DESCRIPTION
#------------------------------------------------------------------------------
DEPT        .FT                                                 :DEPTH     
LAT         .OHMM                                               :          
LN          .OHMM                                               :          
SN          .OHMM                                               :          
SP          .MV                                                 :          
SP_NORM     .MV                                                 :SP Normalized
VSH_SP      .V/V                                                :Volume of Shale from SP
~A        DEPTH            LAT             LN             SN             SP        SP_NORM         VSH_SP
# ...
      7378.0000         0.7181         0.6522         0.6554       -48.4362      -0.327198              1
      7378.5000         0.7198          0.649         0.6462        -48.183    -0.09231949              1
      7379.0000         0.7215         0.6459          0.637       -48.0746   -0.002243042              1
      7379.5000         0.7231         0.6427         0.6293       -48.1873     -0.1332626              1
      7380.0000         0.7248         0.6396         0.6282       -48.2998     -0.2640839              1
      7380.5000         0.7264         0.6364         0.6272       -48.8712     -0.8538017              1
      7381.0000         0.7276         0.6361         0.6261       -49.6788      -1.679722      0.9928451
      7381.5000          0.724          0.636          0.625       -50.5626      -2.581841       0.983349
      7382.0000         0.7203         0.6359          0.624       -51.4462      -3.483765      0.9738551
      7382.5000         0.7167         0.6357         0.6229         -52.33      -4.385883      0.9643591
      7383.0000          0.713         0.6356         0.6218       -53.2137      -5.287903      0.9548642
      7383.5000         0.7094         0.6354         0.6206       -54.0963       -6.18882      0.9453809
      7384.0000         0.7057         0.6353         0.6193         -54.98      -7.090843      0.9358858
      7384.5000         0.7021         0.6342         0.6179       -56.0764      -8.205563       0.924152
      7385.0000         0.6984         0.6322         0.6166       -57.3854      -9.532883      0.9101802
      7385.5000         0.6947         0.6301         0.6152       -58.6945       -10.8603      0.8962073
      7386.0000         0.6909         0.6281         0.6139       -60.3253      -12.50942      0.8788482
      7386.5000         0.6872          0.626         0.6116       -62.6988      -14.90125      0.8536711
      7387.0000         0.6835          0.624          0.609       -62.4509      -14.67167      0.8560877
      7387.5000         0.6798         0.6219         0.6063       -61.5275      -13.76659      0.8656149
      7388.0000          0.676           0.62         0.6037       -60.4476      -12.70501      0.8767894
      7388.5000         0.6723         0.6207          0.601       -59.3688      -11.64453      0.8879523
      7389.0000         0.6686         0.6214         0.5984        -58.289      -10.58305      0.8991258
      7389.5000         0.6649         0.6222          0.597       -57.2092      -9.521568      0.9102993
      7390.0000          0.661         0.6229         0.5956       -56.1293      -8.459984      0.9214739
      7390.5000         0.6568         0.6236         0.5942       -55.0494      -7.398407      0.9326484
      7391.0000         0.6525         0.6243         0.5928       -54.2924      -6.659725       0.940424
      7391.5000         0.6482          0.625         0.5914       -53.7371      -6.122746      0.9460763
      7392.0000          0.644         0.6257         0.5909       -53.1812      -5.585163      0.9517351
      7392.5000         0.6397         0.6269         0.5917       -52.6253      -5.047588      0.9573938
      7393.0000         0.6354         0.6282         0.5925       -52.0694      -4.510006      0.9630526
      7393.5000         0.6319         0.6296         0.5934       -51.5135      -3.972427      0.9687113
      7394.0000           0.63         0.6309         0.5942       -50.9576      -3.434849        0.97437
      7394.5000         0.6281         0.6322          0.595       -50.5706      -3.066166      0.9782509
      7395.0000         0.6262         0.6322         0.5959       -50.3085      -2.822388       0.980817
      7395.5000         0.6243          0.632         0.5969       -50.0466      -2.578808       0.983381
      7396.0000         0.6224         0.6319         0.5992       -49.7846      -2.335129       0.985946
      7396.5000         0.6205         0.6317         0.6015       -49.6692      -2.238049      0.9869679
      7397.0000         0.6185         0.6316         0.6038       -49.8295      -2.416668      0.9850877
      7397.5000         0.6168         0.6332         0.6061       -49.9901      -2.595589      0.9832043
      7398.0000         0.6156         0.6355         0.6084       -50.1505      -2.774311      0.9813231
      7398.5000         0.6145         0.6377         0.6107        -50.311      -2.953129      0.9794407
      7399.0000         0.6133           0.64         0.6131       -50.4714      -3.131851      0.9775594
      7399.5000         0.6121         0.6423         0.6154       -50.4894      -3.168167      0.9771772
      7400.0000         0.6109         0.6446         0.6176       -50.4926       -3.18969      0.9769506
      7400.5000         0.6097         0.6469         0.6199       -50.4958      -3.211208      0.9767241
      7401.0000          0.609         0.6492         0.6221       -50.4991       -3.23283      0.9764965
      7401.5000         0.6088         0.6518         0.6243       -50.3791      -3.131153      0.9775668
      7402.0000         0.6087         0.6581         0.6265       -50.1788      -2.949169      0.9794824
      7402.5000         0.6085         0.6645         0.6287       -49.9783      -2.766991      0.9814001
      7403.0000         0.6084         0.6708         0.6309       -49.7777      -2.584709      0.9833189
      7403.5000         0.6083         0.6771         0.6331       -49.6423      -2.467632      0.9845513
      7404.0000         0.6081         0.6835         0.6353       -49.5938       -2.43745      0.9848689
      7404.5000          0.608         0.6898         0.6348       -49.5453      -2.407272      0.9851866
      7405.0000         0.6078         0.6961         0.6329       -48.8645      -1.744789      0.9921601
      7405.5000          0.611         0.6997          0.631       -47.8287      -0.727314              1
      7406.0000         0.6142         0.7005         0.6291       -46.8436      0.2394676              1
      7406.5000         0.6174         0.7012         0.6272       -45.9181       1.146648              1
      7407.0000         0.6206          0.702         0.6252       -45.8178        1.22863              1
      7407.5000         0.6238         0.7027         0.6233       -46.5759      0.4522057              1
      7408.0000          0.627         0.7035         0.6214       -47.3329     -0.3231125              1
      7408.5000         0.6302         0.7042           0.62        -48.091      -1.099533      0.9989523
      7409.0000         0.6334         0.7045         0.6198       -48.8491      -1.875954      0.9907795
      7409.5000         0.6364         0.7005         0.6196       -49.6061      -2.651272      0.9826182
      7410.0000         0.6392         0.6964         0.6194       -50.3565      -3.419994      0.9745263
      7410.5000         0.6421         0.6924         0.6192       -51.1058      -4.187614      0.9664462
      7411.0000         0.6449         0.6884         0.6201       -51.8561      -4.956234      0.9583554
      7411.5000         0.6477         0.6844         0.6309       -51.1454      -4.263855      0.9656436
      7412.0000         0.6506         0.6812         0.6416       -50.2209      -3.357677      0.9751824
      7412.5000         0.6534         0.6788         0.6523       -49.7014      -2.856495       0.980458
      7413.0000         0.6563         0.6763          0.663       -49.2298      -2.403217      0.9852293
      7413.5000         0.6591         0.6739         0.6737       -48.7582      -1.949936      0.9900007
      7414.0000         0.6618         0.6715         0.6845       -48.2866      -1.496655      0.9947721
      7414.5000         0.6642          0.669         0.6952        -47.815      -1.043373      0.9995434
      7415.0000         0.6666         0.6695         0.7054       -47.3434     -0.5900955              1
      7415.5000         0.6689         0.6901         0.7145        -47.317      -0.582016              1
