#------------------------------------------------------------------------------
# Created by    : vladimir.rabinovich
# Created on    : 09/19/2023 17:19:41
#------------------------------------------------------------------------------
~Version Information Section
VERS.           2.0     :   CWLS log ASCII Standard - VERSION 2.0
WRAP.           NO      :   One line per depth step
~Well Information Section
#MNEM       .UNIT                                         VALUE :DESCRIPTION
#------------------------------------------------------------------------------
STRT        .FT                                             149 :START DEPTH
STOP        .FT                                         11018.5 :STOP DEPTH
STEP        .FT                                             0.5 :STEP      
NULL        .                                           -999.25 :NULL      
COMP        .                          STANDARD OIL CO OF TEXAS :COMPANY   
WELL        .                                   JACKSON BERTA N :WELL      
FLD         .                                           WILDCAT :FIELD     
LOC         .                                                   :LOCATION  
CNTY        .                                          CHAMBERS :LOCATION  
STAT        .                                             TEXAS :STATE     
CTRY        .                                     UNITED STATES :COUNTRY   
SRVC        .                                                   :SERVICE COMPANY
DATE        .                             9/13/2023 11:19:11 AM :LOG DATE  
API         .                                    42071023650000 :API NUMBER
UWI         .                                    42071023650000 :UNIQUE WELL ID
XCOORD      .                                  1147650.32957209 :SURFACE X 
YCOORD      .                                  10746494.5600269 :SURFACE Y 
LAT         .                                        29.6022446 :LATITUDE  
LON         .                                       -94.5509971 :LONGITUDE 
ELEV        .FT                                            17.6 :ELEVATION VALUE
ELEV_TYPE   .                                                KB :ELEVATION REFERENCE TYPE
~Curve Information Section
#MNEM       .UNIT                                      API CODE :CURVE DESCRIPTION
#------------------------------------------------------------------------------
DEPT        .FT                                                 :DEPTH     
AM64        .OHMM                                               :          
CILD        .MMHO                                               :          
SN16        .OHMM                                               :          
SP          .MV                                                 :          
SP_NORM     .MV                                                 :SP Normalized
VSH_SP      .V/V                                                :Volume of Shale from SP
~A        DEPTH           AM64           CILD           SN16             SP        SP_NORM         VSH_SP
# ...
      2315.0000         0.6322        -999.25         0.6294        -73.853      -29.71098      0.2638209
      2315.5000         0.6324        -999.25         0.5877       -73.8436      -29.71292      0.2637714
      2316.0000         0.6598        -999.25         0.5766       -73.8308      -29.71146      0.2638087
      2316.5000           0.66        -999.25         0.5631       -73.2764      -29.16839      0.2777335
      2317.0000         0.6601        -999.25         0.5604       -73.2654      -29.16874      0.2777247
      2317.5000         0.6602        -999.25         0.5471       -73.2542      -29.16887      0.2777213
      2318.0000         0.6604        -999.25         0.5385       -73.7908       -29.7168      0.2636717
      2318.5000         0.6605        -999.25         0.5385       -74.8684      -30.80574      0.2357502
      2319.0000         0.6606        -999.25         0.5385       -75.4049      -31.35358      0.2217032
      2319.5000         0.6335        -999.25         0.5384       -75.3916      -31.35161      0.2217535
      2320.0000         0.6063        -999.25         0.5384       -74.7271      -30.69844      0.2385014
      2320.5000         0.6064        -999.25         0.5398       -72.0966      -28.07929      0.3056593
      2321.0000         0.6066        -999.25         0.5493       -66.8773      -22.87132      0.4391969
      2321.5000         0.6067        -999.25         0.5558       -57.8926      -13.89796      0.6692832
      2322.0000         0.6068        -999.25          0.571       -56.2473      -12.26399      0.7111797
      2322.5000          0.607        -999.25         0.5826       -54.8865      -10.91453      0.7457812
      2323.0000         0.6071        -999.25         0.5927       -52.9524      -8.991768      0.7950829
      2323.5000         0.6073        -999.25         0.6095       -52.1864      -8.237103      0.8144333
      2324.0000         0.6074        -999.25         0.6308       -51.2938      -7.355839      0.8370298
      2324.5000         0.6075        -999.25         0.6417       -50.1927      -6.266075      0.8649724
      2325.0000         0.6077        -999.25         0.6471       -49.6353      -5.720013       0.878974
      2325.5000         0.6078        -999.25         0.6471       -48.4222      -4.518246      0.9097885
      2326.0000         0.6079        -999.25         0.6525       -46.3403      -2.447685      0.9628798
      2326.5000         0.6081        -999.25         0.6416       -45.1144       -1.23312      0.9940225
      2327.0000         0.6355        -999.25         0.6287       -43.5908      0.2791405              1
      2327.5000         0.6357        -999.25         0.6143       -43.0364      0.8222084              1
      2328.0000         0.6631        -999.25         0.6088       -43.8325     0.01477051              1
      2328.5000         0.6633        -999.25         0.6033       -45.1961      -1.360165       0.990765
      2329.0000         0.6907        -999.25         0.5965       -46.7015      -2.876904      0.9518743
      2329.5000         0.6909        -999.25         0.5924       -48.4466      -4.633339      0.9068375
      2330.0000         0.7183        -999.25         0.5934       -50.9452      -7.143276      0.8424801
      2330.5000         0.7185        -999.25         0.5978       -53.3335      -9.542912       0.780951
      2331.0000         0.7186        -999.25         0.6087       -55.1886      -11.40935      0.7330937
      2331.5000         0.7323        -999.25         0.6195       -56.5855      -12.81758      0.6969851
      2332.0000         0.7462        -999.25         0.6304       -56.5745      -12.81792      0.6969764
      2332.5000         0.7737        -999.25         0.6358       -53.8345      -10.08926      0.7669421
      2333.0000         0.7954        -999.25         0.6358       -51.0655      -7.331593      0.8376515
      2333.5000         0.8127        -999.25         0.6358       -48.3763      -4.653728      0.9063147
      2334.0000         0.8287        -999.25         0.6357       -45.6216      -1.910366      0.9766573
      2334.5000         0.8289        -999.25         0.6334       -45.8261      -2.126202       0.971123
      2335.0000          0.829        -999.25         0.6302       -47.2357      -3.547138      0.9346887
      2335.5000         0.8291        -999.25         0.6302       -49.0279      -5.350674      0.8884442
      2336.0000         0.8293        -999.25         0.6356       -51.0317       -7.36581      0.8367741
      2336.5000         0.8294        -999.25         0.6411       -52.7753      -9.120747      0.7917757
      2337.0000         0.8295        -999.25         0.6519       -53.7382      -10.09499      0.7667952
      2337.5000         0.8297        -999.25          0.675       -54.3413      -10.70942      0.7510405
      2338.0000         0.8298        -999.25         0.7173       -54.8073      -11.18676      0.7388011
      2338.5000           0.83        -999.25         0.7336       -54.7964      -11.18719        0.73879
      2339.0000         0.8028        -999.25         0.7336       -54.7855      -11.18763      0.7387787
      2339.5000         0.8029        -999.25         0.7335       -54.2288      -10.64227      0.7527624
      2340.0000         0.8031        -999.25          0.728            -54       -10.4248      0.7583385
      2340.5000         0.8032        -999.25         0.7223       -53.6612      -10.09734      0.7667349
      2341.0000         0.8033        -999.25         0.7171       -53.6509      -10.09838      0.7667083
      2341.5000         0.8035        -999.25         0.7062        -53.639      -10.09781      0.7667229
      2342.0000         0.8036        -999.25         0.6873       -53.6291      -10.09925       0.766686
      2342.5000         0.7764        -999.25         0.6734       -54.1622      -10.64368       0.752726
      2343.0000         0.7766        -999.25         0.6679       -54.1527      -10.64552       0.752679
      2343.5000         0.7767        -999.25         0.6625       -55.2309      -11.73505      0.7247422
      2344.0000         0.7634        -999.25          0.657       -55.7675      -12.28299      0.7106925
      2344.5000         0.7497        -999.25         0.6515       -56.0265      -12.55333      0.7037608
      2345.0000         0.7498        -999.25         0.6515       -56.8364      -13.37457      0.6827034
      2345.5000         0.7499        -999.25         0.6515       -57.3727       -13.9222      0.6686615
      2346.0000         0.7501        -999.25          0.646       -57.3594      -13.92024      0.6687118
      2346.5000         0.7502        -999.25          0.646       -57.3491      -13.92127      0.6686853
      2347.0000         0.7503        -999.25         0.6405       -56.7917      -13.37521      0.6826869
      2347.5000         0.7505        -999.25         0.6404       -56.2364      -12.83125      0.6966347
      2348.0000         0.7506        -999.25          0.635       -54.5877      -11.19388      0.7386184
      2348.5000         0.7234        -999.25         0.6295       -52.3225      -8.940018      0.7964098
      2349.0000         0.6962        -999.25         0.6238       -51.8382      -8.467056       0.808537
      2349.5000         0.6691        -999.25         0.6076       -52.3994      -9.039593      0.7938566
      2350.0000         0.6692        -999.25         0.6076       -53.7273      -10.37883      0.7595173
      2350.5000         0.6693        -999.25         0.6021       -55.0798      -11.74266      0.7245471
      2351.0000         0.6695        -999.25         0.6021       -55.6164       -12.2906      0.7104973
      2351.5000         0.6696        -999.25         0.6075        -55.603      -12.28854      0.7105502
      2352.0000         0.6971        -999.25          0.613       -55.5927      -12.28957      0.7105237
      2352.5000         0.6972        -999.25         0.6275       -55.0354      -11.74361      0.7245228
