#------------------------------------------------------------------------------
# Created by    : vladimir.rabinovich
# Created on    : 09/19/2023 17:19:41
#------------------------------------------------------------------------------
~Version Information Section
VERS.           2.0     :   CWLS log ASCII Standard - VERSION 2.0
WRAP.           NO      :   One line per depth step
~Well Information Section
#MNEM       .UNIT                                         VALUE :DESCRIPTION
#------------------------------------------------------------------------------
STRT        .FT                                             149 :START DEPTH
STOP        .FT                                         11018.5 :STOP DEPTH
STEP        .FT                                             0.5 :STEP      
NULL        .                                           -999.25 :NULL      
COMP        .                          STANDARD OIL CO OF TEXAS :COMPANY   
WELL        .                                   JACKSON BERTA N :WELL      
FLD         .                                           WILDCAT :FIELD     
LOC         .                                                   :LOCATION  
CNTY        .                                          CHAMBERS :LOCATION  
STAT        .                                             TEXAS :STATE     
CTRY        .                                     UNITED STATES :COUNTRY   
SRVC        .                                                   :SERVICE COMPANY
DATE        .                             9/13/2023 11:19:11 AM :LOG DATE  
API         .                                    42071023650000 :API NUMBER
UWI         .                                    42071023650000 :UNIQUE WELL ID
XCOORD      .                                  1147650.32957209 :SURFACE X 
YCOORD      .                                  10746494.5600269 :SURFACE Y 
LAT         .                                        29.6022446 :LATITUDE  
LON         .                                       -94.5509971 :LONGITUDE 
ELEV        .FT                                            17.6 :ELEVATION VALUE
ELEV_TYPE   .                                                KB :ELEVATION REFERENCE TYPE
~Curve Information Section
#MNEM       .UNIT                                      API CODE :CURVE DESCRIPTION
#------------------------------------------------------------------------------
DEPT        .FT                                                 :DEPTH     
AM64        .OHMM                                               :          
CILD        .MMHO                                               :          
SN16        .OHMM                                               :          
SP          .MV                                                 :          
SP_NORM     .MV                                                 :SP Normalized
VSH_SP      .V/V                                                :Volume of Shale from SP
~A        DEPTH           AM64           CILD           SN16             SP        SP_NORM         VSH_SP
# ...
      8813.0000          0.753       1379.641         0.7527       -41.1201     -0.3359184              1
      8813.5000         0.7535        1368.87         0.7528        -42.395      -1.607605      0.9917891
      8814.0000         0.7541       1363.402         0.7528       -43.2762      -2.485584      0.9799246
      8814.5000         0.7819       1363.435         0.7528       -44.5868      -3.792969      0.9622572
      8815.0000         0.7825        1364.52         0.7529       -45.9777      -5.180653      0.9435047
      8815.5000         0.7831       1368.984         0.7529       -47.3245      -6.524239      0.9253481
      8816.0000         0.8109       1381.501         0.7475       -48.6926      -7.889122      0.9069037
      8816.5000         0.8115       1396.511         0.7475       -49.2115      -8.404804      0.8999351
      8817.0000          0.812       1407.526         0.7475       -49.1985      -8.388592      0.9001542
      8817.5000         0.8126       1407.555         0.7475       -48.6381      -7.824974      0.9077706
      8818.0000          0.813       1407.581         0.7495       -47.5361      -6.719757       0.922706
      8818.5000         0.8136       1391.126          0.753       -45.8851      -5.065544      0.9450602
      8819.0000         0.8141       1369.181         0.7585       -45.2088      -4.386028      0.9542429
      8819.5000          0.842       1357.561         0.7647       -43.1321       -2.30611      0.9823499
      8820.0000         0.8425       1325.279         0.7749        -41.484     -0.6547966              1
      8820.5000         0.8546       1302.559         0.7858       -40.9245    -0.09207916              1
      8821.0000          0.871       1275.883         0.7913       -40.9124    -0.07676315              1
      8821.5000         0.8715        1262.47         0.8029       -40.8988    -0.05994797              1
      8822.0000          0.872       1242.971         0.8077       -41.1132     -0.2711296              1
      8822.5000         0.8726       1237.498         0.8154       -43.6003      -2.755013      0.9762836
      8823.0000         0.8457       1232.035         0.8241        -46.296      -5.447498      0.9398987
      8823.5000          0.819       1218.952         0.8296       -48.4997       -7.64798      0.9101624
      8824.0000         0.7923       1215.607         0.8405       -51.1955      -10.34056      0.8737761
      8824.5000         0.7928       1215.634         0.8541       -52.3189      -11.46075      0.8586385
      8825.0000         0.7934       1226.678         0.8678       -53.3536      -12.49223      0.8446996
      8825.5000         0.7939        1270.64         0.8679       -53.8868      -13.02222      0.8375376
      8826.0000         0.7853       1293.105         0.8624       -53.3259       -12.4581      0.8451608
      8826.5000         0.7677       1314.651          0.857       -52.1102      -11.23919      0.8616326
      8827.0000         0.7682       1315.599         0.8512       -50.5729      -9.698669      0.8824504
      8827.5000         0.7687         1320.2         0.8407        -49.396      -8.518555      0.8983979
      8828.0000         0.7621       1314.727         0.8299       -48.9108       -8.03014      0.9049981
      8828.5000         0.7382       1309.265         0.8299       -47.8078      -6.923923       0.919947
      8829.0000         0.7157       1309.291         0.8299       -47.7942      -6.907108      0.9201742
      8829.5000         0.7163        1309.32         0.8408       -47.2363      -6.345993      0.9277568
      8830.0000         0.7168       1303.847         0.8474        -47.223      -6.329472      0.9279801
      8830.5000         0.7174       1301.275         0.8627       -47.2103      -6.313557      0.9281952
      8831.0000         0.7179       1298.413         0.8682       -47.1972      -6.297241      0.9284157
      8831.5000         0.7186       1292.946         0.8736       -47.1818      -6.278625      0.9286672
      8832.0000         0.7471       1287.479         0.8861       -47.1712      -6.264809      0.9288539
      8832.5000         0.7743       1281.387         0.9009       -47.1561      -6.246494      0.9291014
      8833.0000          0.802       1271.055         0.9136       -47.1451      -6.232277      0.9292936
      8833.5000          0.811       1259.024         0.9228       -47.1304      -6.214363      0.9295356
      8834.0000         0.8461       1243.637         0.9228        -47.119      -6.199745      0.9297332
      8834.5000         0.8857       1231.142         0.9283       -47.1046      -6.182129      0.9299712
      8835.0000         0.9063       1210.725         0.9283        -47.093      -6.167313      0.9301714
      8835.5000         0.9141       1197.803         0.9229       -46.5334        -5.6045       0.937777
      8836.0000         0.9419       1194.295         0.9097       -46.5214      -5.589283      0.9379827
      8836.5000         0.9425       1196.728         0.8957       -45.9623      -5.026966      0.9455816
      8837.0000         0.9519       1210.834         0.8823       -45.1507      -4.212151      0.9565926
      8837.5000         0.9709        1227.35         0.8685       -44.8456      -3.903835       0.960759
      8838.0000         0.9714       1233.195         0.8522       -44.0364      -3.091415      0.9717376
      8838.5000         0.9894       1249.383         0.8522       -43.1836      -2.235401      0.9833054
      8839.0000         0.9998       1261.973         0.8523       -42.6226      -1.671185        0.99093
      8839.5000         1.0004        1276.91         0.8552       -42.0666      -1.111969      0.9984869
      8840.0000          1.001       1271.437         0.8632        -41.506     -0.5481529              1
      8840.5000         1.0015       1265.973         0.8663       -41.4951     -0.5340347              1
      8841.0000          1.002        1267.66         0.8687       -41.3034      -0.339119              1
      8841.5000         1.0026       1271.525         0.8687       -40.9235      0.0439949              1
      8842.0000         1.0032        1279.15         0.8688       -40.9091     0.06161118              1
      8842.5000         0.9763       1293.557         0.8688       -40.5559       0.418026              1
      8843.0000         0.9496       1299.079         0.8688       -40.3379      0.6392441              1
      8843.5000         0.9472       1304.628         0.8621        -40.326      0.6543579              1
      8844.0000         0.9233       1315.623         0.8525       -40.8576      0.1259727              1
      8844.5000         0.9239        1321.14         0.8386       -40.8454      0.1413879              1
      8845.0000         0.8971       1326.666         0.8253       -40.8323      0.1577072              1
      8845.5000         0.8886        1326.69         0.8254       -40.8193      0.1739197              1
      8846.0000         0.8708       1326.721         0.8254       -41.3516     -0.3361511              1
      8846.5000          0.844       1326.745         0.8254       -41.3387     -0.2969551              1
      8847.0000         0.8446       1326.773         0.8254       -41.3257     -0.2576599              1
      8847.5000         0.8328       1326.801         0.8255       -41.3126     -0.2182655              1
      8848.0000         0.8184        1326.83         0.8364       -41.2996     -0.1789703              1
      8848.5000         0.8189       1322.984         0.8473       -41.2847     -0.1377792              1
      8849.0000         0.7921       1315.896         0.8474       -41.2735     -0.1002846              1
      8849.5000         0.7928       1299.445         0.8474        -41.259     -0.0594902              1
      8850.0000         0.7923       1293.782          0.842       -41.2475      -0.021698              1
      8850.5000         0.7665       1277.522         0.8256       -41.2344     0.01769638              1
