#------------------------------------------------------------------------------
# Created by    : vladimir.rabinovich
# Created on    : 09/19/2023 17:22:55
#------------------------------------------------------------------------------
~Version Information Section
VERS.           2.0     :   CWLS log ASCII Standard - VERSION 2.0
WRAP.           NO      :   One line per depth step
~Well Information Section
#MNEM       .UNIT                                         VALUE :DESCRIPTION
#------------------------------------------------------------------------------
STRT        .FT                                            1722 :START DEPTH
STOP        .FT                                            8384 :STOP DEPTH
STEP        .FT                                             0.5 :STEP      
NULL        .                                           -999.25 :NULL      
COMP        .                                   HEBERT HILARY B :COMPANY   
WELL        .                                    REARWIN LEILAW :WELL      
FLD         .                                           WILDCAT :FIELD     
LOC         .                                                   :LOCATION  
CNTY        .                                          CHAMBERS :LOCATION  
STAT        .                                             TEXAS :STATE     
CTRY        .                                     UNITED STATES :COUNTRY   
SRVC        .                                                   :SERVICE COMPANY
DATE        .                             9/13/2023 11:19:11 AM :LOG DATE  
API         .                                    42071022820000 :API NUMBER
UWI         .                                    42071022820000 :UNIQUE WELL ID
XCOORD      .                                  1141949.94059063 :SURFACE X 
YCOORD      .                                  10792730.9347258 :SURFACE Y 
LAT         .                                        29.7291796 :LATITUDE  
LON         .                                       -94.5709084 :LONGITUDE 
ELEV        .FT                                              28 :ELEVATION VALUE
ELEV_TYPE   .                                                DF :ELEVATION REFERENCE TYPE
~Curve Information Section
#MNEM       .UNIT                                      API CODE :CURVE DESCRIPTION
#------------------------------------------------------------------------------
DEPT        .FT                                                 :DEPTH     
LAT         .OHMM                                               :          
LN          .OHMM                                               :          
SN          .OHMM                                               :          
SP          .MV                                                 :          
SP_NORM     .MV                                                 :SP Normalized
VSH_SP      .V/V                                                :Volume of Shale from SP
~A        DEPTH            LAT             LN             SN             SP        SP_NORM         VSH_SP
      1722.0000        -999.25        -0.4014        -0.1694       -99.3505      -3.054207       0.984497
      1722.5000        -999.25         -0.394         0.0666       -101.165      -4.868706      0.9578131
      1723.0000        -999.25         -0.314          0.295      -103.4847      -7.188408      0.9236999
      1723.5000        -999.25          0.053         0.5604      -119.3027       -23.0064      0.6910824
      1724.0000        -999.25         0.6258         0.9489      -131.2917      -34.99541      0.5147734
      1724.5000        -999.25         0.7517         1.4148      -136.9612       -40.6649      0.4313985
      1725.0000        -999.25         0.8048          1.831       -139.147      -42.85071      0.3992543
      1725.5000        -999.25         0.8506         1.8921      -140.2476      -43.95131       0.383069
      1726.0000        -999.25         0.8868         1.9318       -141.438      -45.14171      0.3655631
      1726.5000        -999.25          0.912         1.9031       -142.082      -45.80931      0.3557454
      1727.0000        -999.25         0.9372         1.8722      -141.8684      -45.68731      0.3575396
      1727.5000        -999.25         0.9571         1.8342      -141.6069      -45.51742       0.360038
      1728.0000        -999.25          0.965         1.7963      -142.4109      -46.41302      0.3468674
      1728.5000        -999.25         0.9728         1.7584      -143.7769      -47.87062      0.3254321
      1729.0000        -999.25         0.9807         1.6992      -145.3564      -49.54172      0.3008571
      1729.5000        -999.25         0.9897         1.6336      -147.6677      -51.94461      0.2655204
      1730.0000        -999.25         0.9998         1.5681      -148.9702      -53.33872      0.2450188
      1730.5000        -999.25         1.0099         1.5102      -148.7864      -53.24653      0.2463746
      1731.0000        -999.25           1.02         1.4288      -148.6025      -53.15421      0.2477322
      1731.5000        -999.25         1.0324          1.353      -148.1685      -52.81183      0.2527672
      1732.0000        -999.25         1.0544         1.2976      -147.3289      -52.06383      0.2637672
      1732.5000        -999.25         1.0764         1.2069      -146.1636      -50.99013       0.279557
      1733.0000        -999.25         1.0985         1.1219      -144.0847      -49.00283      0.3087819
      1733.5000        -999.25         1.1222         1.0368       -136.126      -41.13573      0.4244745
      1734.0000        -999.25         1.1516         0.9455      -126.8921      -31.99342      0.5589203
      1734.5000        -999.25         1.1809         0.8529      -123.3126      -28.50553      0.6102128
      1735.0000        -999.25         1.2092         0.7668      -109.0214      -14.30593      0.8190304
      1735.5000        -999.25         1.2349         0.7389      -102.9283      -8.304428      0.9072878
      1736.0000        -999.25         1.2606         0.7432      -100.9735      -6.441238      0.9346877
      1736.5000        -999.25         1.2862         0.7676       -99.9922      -5.551537      0.9477715
      1737.0000        -999.25         1.3121         0.7921      -100.8507      -6.501633      0.9337995
      1737.5000        -999.25         1.3383         0.8166      -101.7094      -7.451935      0.9198245
      1738.0000        -999.25         1.3645          0.841      -102.5679      -8.402039      0.9058524
      1738.5000        -999.25         1.3907         0.8528      -103.3512      -9.276932      0.8929863
      1739.0000        -999.25          1.414         0.8628      -103.9164      -9.933739      0.8833274
      1739.5000        -999.25         1.4241         0.8728      -102.9939      -9.102837      0.8955465
      1740.0000        -999.25         1.4342         0.8828      -102.2412      -8.441742      0.9052685
      1740.5000        -999.25         1.4455         0.8928      -101.4885      -7.780647      0.9149905
      1741.0000        -999.25         1.4567         0.8973       -100.682      -7.065742      0.9255038
      1741.5000        -999.25          1.468         0.8998      -100.1355       -6.61084      0.9321935
      1742.0000        -999.25         1.4792         0.9022      -101.7451       -8.31205      0.9071757
      1742.5000        -999.25          1.491         0.9034       -103.274      -9.932549      0.8833449
      1743.0000        -999.25         1.5033         0.9037      -104.8499      -11.60004      0.8588229
      1743.5000        -999.25         1.5156         0.9039      -107.0795      -13.92125      0.8246875
      1744.0000         0.7153         1.5279         0.9041      -108.6908      -15.62415      0.7996448
      1744.5000         0.7333          1.536         0.9043      -109.1666      -16.19155      0.7913007
      1745.0000          0.749          1.534         0.8932      -108.0997      -15.21626      0.8056433
      1745.5000         0.7517         1.5319         0.8821      -106.9713      -14.17945      0.8208904
      1746.0000         0.7501         1.5296          0.871      -104.5593      -11.85905      0.8550139
      1746.5000         0.7485         1.5253         0.8325       -97.0966      -4.487961      0.9634123
      1747.0000         0.7468         1.5209         0.7877       -94.2953      -1.778259              1
      1747.5000         0.7422         1.5166          0.743       -92.4064     0.01904297              1
      1748.0000         0.7355         1.5123         0.6982       -90.9906       1.343239              1
      1748.5000         0.7288         1.5032         0.6771       -89.8082       2.434044              1
      1749.0000         0.7232         1.4853         0.6613       -88.8346        3.31604              1
      1749.5000         0.7193         1.4674         0.6454       -89.1199       2.939133              1
      1750.0000         0.7154         1.4496          0.637       -89.4052       2.562241              1
      1750.5000         0.7114         1.4317          0.652       -89.6904        2.18544              1
      1751.0000         0.7109         1.4283          0.667       -89.9757       1.808533              1
      1751.5000          0.711         1.4252          0.682       -90.2611       1.431534              1
      1752.0000         0.7228         1.4221          0.697       -90.5464       1.054634              1
      1752.5000         0.7484         1.4191          0.712       -90.8317      0.6777267              1
      1753.0000         0.7718         1.4192         0.7041       -90.9105      0.5073318              1
      1753.5000         0.7927         1.4215         0.6937       -90.9448      0.3814316              1
      1754.0000         0.8137         1.4237         0.6833       -90.9791      0.2555237              1
      1754.5000         0.8371         1.4253         0.6575       -91.0096      0.1334305              1
      1755.0000         0.8615         1.4152         0.6177       -90.7999      0.2515335              1
      1755.5000         0.8823          1.405         0.5779       -90.5901      0.3697205              1
      1756.0000          0.896         1.3949          0.538       -90.3802      0.4880219              1
      1756.5000         0.9098         1.3848         0.5097       -90.1704      0.6062241              1
      1757.0000         0.9222         1.3736         0.4821       -89.9607      0.7243195              1
      1757.5000         0.9281         1.3623         0.4582       -89.7871      0.8063202              1
      1758.0000         0.9341          1.351         0.4413       -89.6635      0.8383255              1
      1758.5000           0.94         1.3397         0.4244       -89.5397      0.8705139              1
      1759.0000         0.9459         1.3324         0.4074       -89.4159      0.9027176              1
      1759.5000         0.9502          1.329         0.3942       -89.2921      0.9349213              1
