#------------------------------------------------------------------------------
# Created by    : vladimir.rabinovich
# Created on    : 09/19/2023 17:22:55
#------------------------------------------------------------------------------
~Version Information Section
VERS.           2.0     :   CWLS log ASCII Standard - VERSION 2.0
WRAP.           NO      :   One line per depth step
~Well Information Section
#MNEM       .UNIT                                         VALUE :DESCRIPTION
#------------------------------------------------------------------------------
STRT        .FT                                            1722 :START DEPTH
STOP        .FT                                            8384 :STOP DEPTH
STEP        .FT                                             0.5 :STEP      
NULL        .                                           -999.25 :NULL      
COMP        .                                   HEBERT HILARY B :COMPANY   
WELL        .                                    REARWIN LEILAW :WELL      
FLD         .                                           WILDCAT :FIELD     
LOC         .                                                   :LOCATION  
CNTY        .                                          CHAMBERS :LOCATION  
STAT        .                                             TEXAS :STATE     
CTRY        .                                     UNITED STATES :COUNTRY   
SRVC        .                                                   :SERVICE COMPANY
DATE        .                             9/13/2023 11:19:11 AM :LOG DATE  
API         .                                    42071022820000 :API NUMBER
UWI         .                                    42071022820000 :UNIQUE WELL ID
XCOORD      .                                  1141949.94059063 :SURFACE X 
YCOORD      .                                  10792730.9347258 :SURFACE Y 
LAT         .                                        29.7291796 :LATITUDE  
LON         .                                       -94.5709084 :LONGITUDE 
ELEV        .FT                                              28 :ELEVATION VALUE
ELEV_TYPE   .                                                DF :ELEVATION REFERENCE TYPE
~Curve Information Section
#MNEM       .UNIT                                      API CODE :CURVE DESCRIPTION
#------------------------------------------------------------------------------
DEPT        .FT                                                 :DEPTH     
LAT         .OHMM                                               :          
LN          .OHMM                                               :          
SN          .OHMM                                               :          
SP          .MV                                                 :          
SP_NORM     .MV                                                 :SP Normalized
VSH_SP      .V/V                                                :Volume of Shale from SP
~A        DEPTH            LAT             LN             SN             SP        SP_NORM         VSH_SP
# ...
      4382.0000         0.7996         1.0775         0.6884       -65.3893       5.465462              1
      4382.5000         0.8543         1.0526         0.7375       -65.4426       5.409691              1
      4383.0000         0.9091         1.0624         0.7865       -65.6165       5.233322              1
      4383.5000         0.9649         1.0897         0.8394       -66.1962       4.651161              1
      4384.0000         1.0216         1.1452         0.8939       -66.7764       4.068489              1
      4384.5000         1.0782         1.2007         0.9485       -68.3676       2.474823              1
      4385.0000         1.1348         1.2563         0.9896       -70.2028      0.6371613              1
      4385.5000         1.1891         1.3068         1.0295       -72.2349      -1.397415              1
      4386.0000         1.2415         1.3371         1.0547       -74.8235       -3.98848      0.9806944
      4386.5000         1.2941         1.3144         1.0293       -77.8889      -7.056343      0.9509093
      4387.0000         1.3481         1.2917         0.9865       -80.3921      -9.562012      0.9265824
      4387.5000         1.4043         1.2707         0.9437       -83.1472      -12.31958      0.8998099
      4388.0000         1.4605         1.2497          0.901       -85.5773      -14.75214      0.8761927
      4388.5000         1.4462         1.2287         0.8804       -87.5676       -16.7449      0.8568456
      4389.0000         1.4176          1.216         0.8685       -89.3691      -18.54888      0.8393313
      4389.5000         1.3889         1.2096         0.8566       -90.8153      -19.99754      0.8252665
      4390.0000         1.3602         1.2112         0.8462       -91.8807      -21.06541       0.814899
      4390.5000         1.3316         1.2263         0.8463       -91.5806      -20.76778      0.8177886
      4391.0000         1.3413         1.2415         0.8464       -90.7495      -19.93914      0.8258336
      4391.5000          1.376         1.2566         0.8465       -89.7582      -18.95031      0.8354339
      4392.0000         1.4107         1.2717         0.8466       -88.6224      -17.81698      0.8464371
      4392.5000         1.4454          1.278         0.8467        -87.625      -16.82204      0.8560967
      4393.0000         1.4675         1.2781         0.8445       -86.8649      -16.06441      0.8634524
      4393.5000         1.4823         1.2782         0.8401       -86.1041      -15.30608      0.8708147
      4394.0000          1.497         1.2485         0.8357       -85.4552      -14.65965      0.8770908
      4394.5000         1.4916          1.198         0.8313       -85.8888      -15.09571      0.8728572
      4395.0000         1.4748         1.1412         0.8269       -86.3223      -15.53168      0.8686244
      4395.5000         1.4579         1.0543         0.8137       -86.7555      -15.96735      0.8643947
      4396.0000          1.441         0.9673          0.797        -86.722      -15.93631       0.864696
      4396.5000         1.4239          0.912         0.7804       -85.8944      -15.11118       0.872707
      4397.0000         1.3986         0.8586         0.7988       -85.0673      -14.28654      0.8807132
      4397.5000         1.3732         0.8077         0.8311       -84.2396      -13.46131      0.8887252
      4398.0000         1.3562         0.7746         0.9132       -83.4435      -12.66767      0.8964304
      4398.5000         1.3704         0.7415         0.9991       -84.1503      -13.37695      0.8895442
      4399.0000         1.3846         0.7083          1.085        -84.554      -13.78311      0.8856009
      4399.5000          1.417         0.6749         1.1799       -84.5122      -13.74377      0.8859828
      4400.0000         1.4609         0.6415         1.2813       -85.0476      -14.28165      0.8807607
      4400.5000         1.5048         0.6107         1.3457       -86.8401      -16.07661      0.8633338
      4401.0000         1.5323         0.5855         1.2897       -88.1198      -17.35877      0.8508857
      4401.5000         1.5423         0.5603         1.2236       -88.0228      -17.26424      0.8518035
      4402.0000         1.5376         0.5351         1.1555       -87.5873      -16.83121      0.8560076
      4402.5000         1.4984         0.5167         1.1488       -87.1519      -16.39828      0.8602109
      4403.0000         1.4604         0.4989         1.2302       -86.4943      -15.74315      0.8665714
      4403.5000         1.4328         0.4888         1.3115       -85.6166      -14.86791      0.8750688
      4404.0000         1.4052          0.486         1.4212       -91.2054      -20.45918      0.8207847
      4404.5000         1.3936         0.4876         1.5452       -93.7559      -23.01215      0.7959986
      4405.0000         1.3979         0.5196         1.6692      -100.6403      -29.89901      0.7291358
      4405.5000         1.4023         0.5516         1.7984      -107.5403      -36.80148      0.6621216
      4406.0000         1.3962         0.5836         1.9003      -114.4448      -43.70844      0.5950637
      4406.5000         1.3216         0.6134         1.9573       -121.345      -50.61111      0.5280474
      4407.0000          1.259         0.6431         1.8168      -126.3322      -55.60078      0.4796041
      4407.5000         1.1964         0.6729         1.3192      -132.6284      -61.89944       0.418452
      4408.0000         1.1338         0.6808         1.0435      -134.2432      -63.51671      0.4027504
      4408.5000         1.0602          0.683         0.8441      -131.4094      -60.68537      0.4302391
      4409.0000         0.9675         0.6853         0.6579      -126.8596      -56.13804       0.474388
      4409.5000         0.8919         0.6852          0.544      -113.3383      -42.61922      0.6056387
      4410.0000         0.8163         0.6768         0.4135       -93.3489      -22.63228      0.7996866
      4410.5000         0.7407         0.6684         0.3375       -76.5439      -5.829742       0.962818
      4411.0000          0.662         0.6599         0.3677       -66.5245       4.187187              1
      4411.5000         0.5845         0.6515         0.3979       -65.8542       4.855019              1
      4412.0000         0.5486         0.6435         0.4282       -65.4508       5.255959              1
      4412.5000         0.5426         0.6369         0.4585       -66.3502       4.354088              1
      4413.0000         0.5743         0.6304         0.5121        -67.892       2.809822              1
      4413.5000          0.606         0.6242         0.5658       -70.3074      0.3919525              1
      4414.0000         0.6426          0.627         0.6175       -71.9177       -1.22081              1
      4414.5000         0.6847         0.6298         0.6262       -73.1633       -2.46888      0.9954478
      4415.0000         0.7268         0.6429         0.6349       -73.5873      -2.895348      0.9913073
      4415.5000         0.7689         0.6864         0.6437       -74.0112      -3.321709      0.9871679
      4416.0000         0.8053         0.7298         0.6255       -74.2466      -3.559578      0.9848585
      4416.5000         0.8366         0.7719         0.5937       -74.4752      -3.790642      0.9826151
      4417.0000          0.868         0.8019         0.5555        -73.957       -3.27491      0.9876223
      4417.5000         0.8786         0.8318         0.5162       -72.4271      -1.747482              1
      4418.0000         0.8827         0.8396          0.477       -70.3726      0.3045578              1
      4418.5000         0.8566         0.8454         0.4377       -68.6184        2.05629              1
      4419.0000         0.8296         0.8411         0.3939       -67.4309       3.241318              1
      4419.5000         0.8027         0.8164         0.3493       -66.6937       3.976051              1
