#------------------------------------------------------------------------------
# Created by    : vladimir.rabinovich
# Created on    : 09/19/2023 17:22:21
#------------------------------------------------------------------------------
~Version Information Section
VERS.           2.0     :   CWLS log ASCII Standard - VERSION 2.0
WRAP.           NO      :   One line per depth step
~Well Information Section
#MNEM       .UNIT                                         VALUE :DESCRIPTION
#------------------------------------------------------------------------------
STRT        .FT                                            1894 :START DEPTH
STOP        .FT                                            9318 :STOP DEPTH
STEP        .FT                                             0.5 :STEP      
NULL        .                                           -999.25 :NULL      
COMP        .                                     DOMINION CORP :COMPANY   
WELL        .                                ST OF TEXAS TR 171 :WELL      
FLD         .                                           WILDCAT :FIELD     
LOC         .                                                   :LOCATION  
CNTY        .                                         GALVESTON :LOCATION  
STAT        .                                             TEXAS :STATE     
CTRY        .                                     UNITED STATES :COUNTRY   
SRVC        .                                                   :SERVICE COMPANY
DATE        .                             9/13/2023 11:19:11 AM :LOG DATE  
API         .                                    42167302850000 :API NUMBER
UWI         .                                    42167302850000 :UNIQUE WELL ID
XCOORD      .                                   1122951.0390836 :SURFACE X 
YCOORD      .                                  10723931.5138252 :SURFACE Y 
LAT         .                                        29.5392679 :LATITUDE  
LON         .                                       -94.6277178 :LONGITUDE 
ELEV        .FT                                              33 :ELEVATION VALUE
ELEV_TYPE   .                                                KB :ELEVATION REFERENCE TYPE
~Curve Information Section
#MNEM       .UNIT                                      API CODE :CURVE DESCRIPTION
#------------------------------------------------------------------------------
DEPT        .FT                                                 :DEPTH     
CALN        .IN                                                 :          
DPSS        .%                                                  :          
DRHO        .G/CM3                                              :          
DT          .US/FT                                              :          
GRN         .GAPI                                               :          
ILD         .OHMM                                               :          
NPSS        .%                                                  :Neutron Porosity Sandstone
RHOB        .G/CM3                                              :          
SFL         .OHMM                                               :          
SP          .MV                                                 :          
SP_NORM     .MV                                                 :SP Normalized
VSH_SP      .V/V                                                :Volume of Shale from SP
~A        DEPTH           CALN           DPSS           DRHO             DT            GRN            ILD           NPSS           RHOB            SFL             SP        SP_NORM         VSH_SP
# ...
      4907.5000        13.1048        22.4322          0.007       115.8229         54.032         0.9934        38.6902         2.2765         0.8146          -75.6      -3.237045       0.962084
      4908.0000        13.5022        22.7919         -0.006       120.9847        53.7274         0.9412        39.3469          2.251         0.7701            -76      -3.641533      0.9552283
      4908.5000        13.5017        24.4032          -0.01        127.476        54.0202         0.8919        40.3699          2.222         0.6937          -76.4      -4.046013      0.9483727
      4909.0000        13.5011        26.1156         -0.004       135.0119        54.6128         0.8919        42.5812          2.192         0.6451          -77.2      -4.850494      0.9347374
      4909.5000        14.4712        28.1983          0.002            142        54.9071          0.908        44.1135          2.196         0.6629          -78.4      -6.054977      0.9143224
      4910.0000        13.0404        27.5998          0.007          141.6         54.902         0.9405        44.9988          2.206         0.6937          -79.2      -6.859459      0.9006872
      4910.5000        12.7253        27.5433          0.013          131.8        54.2944          0.974        45.7816          2.174         0.7135          -79.2      -6.863945      0.9006111
      4911.0000        12.7251        28.6869          0.018       125.2941        54.5845         0.9826        48.7248          2.149         0.8447          -79.6      -7.268425      0.8937555
      4911.5000        12.2923        30.9676          0.017          115.4        54.5749              1        49.8678          2.148         1.0757          -79.2       -6.87291      0.9004592
      4912.0000        12.1538        30.6107           0.01            112        54.2663         1.0184        48.5508          2.155         1.2111          -79.2      -6.877388      0.9003832
      4912.5000        12.2712        30.0137          0.001            116        52.4653         0.9913        44.6018          2.194         0.9322          -79.2      -6.881874      0.9003072
      4913.0000        12.7437        28.5847          -0.01       125.4902        49.4747         0.9404        42.6635          2.232         0.7272          -78.4      -6.086365      0.9137904
      4913.5000        11.9934        25.7957         -0.008          142.4        47.6821         0.8838        40.5198         2.2843            0.7            -78      -5.690842      0.9204942
      4914.0000        11.7939        22.9511          0.014          154.6        49.4657          0.822        39.9828         2.2961          0.651          -77.2      -4.895325      0.9339775
      4914.5000        11.8129        22.8361          0.036          155.8        54.5173         0.7774        42.6724          2.242         0.5838            -76      -3.699806      0.9542406
      4915.0000        12.1092        25.5724           0.05          152.6        59.8559         0.7272        48.9288           2.15         0.5428          -74.4      -2.104294      0.9812831
      4915.5000          11.95        29.6752          0.032          150.2        63.1753         0.7203        54.8718         2.1225         0.5378          -73.2     -0.9087753              1
      4916.0000        11.7118        32.4349          0.021          148.4        64.6805         0.7412        55.0548         2.1294         0.5578            -72      0.2867432              1
      4916.5000        11.6913         32.198          0.018          146.4        64.3662         0.7924        54.3978         2.1304         0.5629            -70       2.282257              1
      4917.0000        11.4341         31.961          0.011          144.8        64.0512         0.8601        52.3933         2.1225         0.5892          -68.8       3.477768              1
      4917.5000        11.3351        32.5639         -0.002          141.4        63.1268         0.9322        51.2782         2.1147         0.6222          -68.4       3.873291              1
      4918.0000        11.3151        32.9268          -0.01          136.8        60.6771         0.9913        50.9268         2.1137         0.6812          -68.4       3.868805              1
      4918.5000        11.1967        32.6899          0.004            131        57.6898         1.0562        50.5698         2.1294         0.7412          -68.4       3.864326              1
      4919.0000        10.9186         32.213          0.017       125.2941        55.6135         1.1259        49.3128         2.1451            0.8          -70.4        1.85984              1
      4919.5000        11.0196        31.3155          0.022       121.1765        53.8358         1.1892        46.3761          2.161         0.8146          -72.4     -0.1446457              1
      4920.0000        11.4119        30.1788          0.019            120        51.4732         1.1784        44.4694          2.178            0.8          -73.2     -0.9491196              1
      4920.5000        11.2745        29.1171          0.013          119.6        48.5382         1.1466        42.5294          2.194         0.7849          -73.2     -0.9536057              1
      4921.0000        11.1569        28.1736          0.027            119        47.3765         1.1157          40.98           2.21         0.7849          -73.2     -0.9580841              1
      4921.5000        11.9804        27.3461         0.0657            119        45.9206         1.0855          41.46          2.218         0.7627            -74      -1.762573       0.987075
      4922.0000           12.8        27.1073          0.051       120.3922        45.6412         1.0659        44.6471          2.186         0.7272          -74.4      -2.167061      0.9802193
      4922.5000        13.4706           28.7          0.027       122.1569        46.2441         1.0184          45.54          2.171         0.6937          -74.8      -2.571541      0.9733637
      4923.0000        13.1961        29.5859          0.013       125.2941        48.0235         1.0184          45.84          2.222         0.6874          -75.6      -3.376022      0.9597284
      4923.5000          12.42        27.3355          0.026       126.8627        49.5088         1.0184          45.36          2.249         0.6874          -76.8      -4.580513      0.9393134
      4924.0000        11.5098        24.7741          0.014       121.7647        50.9941         1.0277        44.8824          2.226            0.7          -77.2      -4.984985      0.9324579
      4924.5000        11.0196        26.4983          0.007          115.8        50.1265         1.0562        44.8824          2.189         0.7555          -76.4      -4.189476      0.9459411
      4925.0000        11.8431        29.1092           0.02       106.8627        49.8471         1.1055          45.24          2.187         0.8447          -75.6      -3.393951      0.9594246
      4925.5000           12.3        28.1575          0.044       102.9412        49.8618         1.1466        44.8235           2.22         0.8919          -74.8      -2.598442      0.9729078
      4926.0000          12.52        26.3727         0.0578           99.8        49.8765         1.1892        43.7059          2.229         0.9487          -74.8      -2.602928      0.9728317
      4926.5000          12.46        26.1925          0.038           98.4        51.3618         1.2222          39.84          2.246         0.9655          -75.2      -3.007401      0.9659762
      4927.0000        11.9412        23.2846         0.0549           98.4        52.2588         1.2447        38.1765          2.303         0.9826          -75.6      -3.411888      0.9591205
      4927.5000          12.26        21.7323         0.0627       100.9804        52.5676         1.2561        37.4118         2.2941              1          -76.8      -4.616371      0.9387056
