#------------------------------------------------------------------------------
# Created by    : vladimir.rabinovich
# Created on    : 09/19/2023 17:22:21
#------------------------------------------------------------------------------
~Version Information Section
VERS.           2.0     :   CWLS log ASCII Standard - VERSION 2.0
WRAP.           NO      :   One line per depth step
~Well Information Section
#MNEM       .UNIT                                         VALUE :DESCRIPTION
#------------------------------------------------------------------------------
STRT        .FT                                            1894 :START DEPTH
STOP        .FT                                            9318 :STOP DEPTH
STEP        .FT                                             0.5 :STEP      
NULL        .                                           -999.25 :NULL      
COMP        .                                     DOMINION CORP :COMPANY   
WELL        .                                ST OF TEXAS TR 171 :WELL      
FLD         .                                           WILDCAT :FIELD     
LOC         .                                                   :LOCATION  
CNTY        .                                         GALVESTON :LOCATION  
STAT        .                                             TEXAS :STATE     
CTRY        .                                     UNITED STATES :COUNTRY   
SRVC        .                                                   :SERVICE COMPANY
DATE        .                             9/13/2023 11:19:11 AM :LOG DATE  
API         .                                    42167302850000 :API NUMBER
UWI         .                                    42167302850000 :UNIQUE WELL ID
XCOORD      .                                   1122951.0390836 :SURFACE X 
YCOORD      .                                  10723931.5138252 :SURFACE Y 
LAT         .                                        29.5392679 :LATITUDE  
LON         .                                       -94.6277178 :LONGITUDE 
ELEV        .FT                                              33 :ELEVATION VALUE
ELEV_TYPE   .                                                KB :ELEVATION REFERENCE TYPE
~Curve Information Section
#MNEM       .UNIT                                      API CODE :CURVE DESCRIPTION
#------------------------------------------------------------------------------
DEPT        .FT                                                 :DEPTH     
CALN        .IN                                                 :          
DPSS        .%                                                  :          
DRHO        .G/CM3                                              :          
DT          .US/FT                                              :          
GRN         .GAPI                                               :          
ILD         .OHMM                                               :          
NPSS        .%                                                  :Neutron Porosity Sandstone
RHOB        .G/CM3                                              :          
SFL         .OHMM                                               :          
SP          .MV                                                 :          
SP_NORM     .MV                                                 :SP Normalized
VSH_SP      .V/V                                                :Volume of Shale from SP
~A        DEPTH           CALN           DPSS           DRHO             DT            GRN            ILD           NPSS           RHOB            SFL             SP        SP_NORM         VSH_SP
# ...
      5399.5000        11.9425        29.2768        -0.0061       124.4074        55.8062         0.4348        40.6758         2.1873         0.7478       -88.4277      -23.16726      0.6242837
      5400.0000        12.4202        28.1395         -0.002       125.6022        59.1004         0.4556        40.9788         2.1961         0.7773       -84.8079      -19.55127      0.6855717
      5400.5000        12.4397        28.0212         -0.014       127.5958        60.9184         0.4774          41.46            2.2         0.7343        -80.788      -15.53519      0.7536409
      5401.0000             12        27.6038         -0.018       129.7844         62.449         0.5004          41.52          2.209         0.7139       -76.0408      -10.79179      0.8340374
      5401.5000        11.9804        27.0076          0.001        131.547        63.3673         0.5192          41.82          2.216         0.6945       -70.9062      -5.660995      0.9210001
      5402.0000        12.1594        26.8334         0.0029       131.5387        63.6735         0.5338        42.2353          2.206          0.664       -66.5486      -1.307213       0.994793
      5402.5000        12.2787        27.0733         -0.009       131.5304        65.5102          0.539        42.8824          2.202         0.6291        -64.546      0.6915817              1
      5403.0000        12.2785        27.0762         -0.001       133.6907        66.4286         0.5392        44.5294          2.206         0.6294       -64.9054      0.3283615              1
      5403.5000        12.4371        27.4367          0.002       136.4475        66.4286         0.5444        45.5435         2.1921         0.6412       -66.0549     -0.8249435              1
      5404.0000        12.5558        28.1539         0.0039       140.5954        64.2857         0.5496        46.4512         2.1723         0.6243       -66.4164      -1.190254      0.9967753
      5404.5000        12.6743        29.2266         0.0108       144.7589        60.3061         0.5651        46.6947         2.1516         0.5969       -65.1968     0.02553558              1
      5405.0000        13.3469          30.54         0.0039       147.7257           56.1         0.5972        47.9079         2.1129         0.5864       -63.9747       1.243828              1
      5405.5000        14.2968           33.3        -0.0101       144.5515           52.2         0.6309        49.6344         2.0881         0.5974       -63.5427       1.672012              1
      5406.0000        14.6524          34.44        -0.0091       140.9884           49.8         0.6725         51.714         2.0901         0.6198       -63.9032       1.307709              1
      5406.5000        14.2962           34.5        -0.0041       136.8232           48.3          0.717        51.5361         2.1039         0.6789       -64.2644      0.9426956              1
      5407.0000        13.9603          33.84              0       133.2429             48         0.7575        50.2897         2.1266         0.7371       -65.8188     -0.6155167              1
      5407.5000         13.244          32.58         -0.003       130.0532             48         0.8073        47.8007         2.1414         0.7576       -66.5805       -1.38102       0.993542
      5408.0000        12.2363          31.38        -0.0061       126.4987             48         0.8601        45.7314         2.1453         0.7178       -66.1489     -0.9532394              1
      5408.5000        12.5115           30.9        -0.0092       122.1641           48.6         0.9171        44.4118         2.1344         0.7377       -64.9193      0.2725601              1
      5409.0000        13.2218           31.5        -0.0092       117.6059           49.2         0.9348        44.1176         2.1611         0.7718       -65.2833    -0.09526062              1
      5409.5000        13.7204        29.8233         0.0118       118.0029           49.5         0.9349        43.5294          2.215         0.7858       -67.2459      -2.061668      0.9820056
      5410.0000        13.3003        27.2342         0.0176       120.1962           50.7         0.9351          41.58          2.233          0.772       -68.8125       -3.63208      0.9553885
      5410.5000        12.8627          25.62         0.0069       121.1765        50.3968         0.9089        39.3616          2.196          0.745       -70.8121       -5.63549      0.9214324
      5411.0000          13.48        27.6471         0.0108          119.2        50.3914         0.8844        39.2444          2.174         0.7652       -72.0323      -6.859497      0.9006865
      5411.5000          16.02        28.9412         0.0088          115.8        51.2837         0.8608             42          2.202            0.8       -73.6525      -8.483505      0.8731609
      5412.0000          16.28        28.3529         0.0049          110.6        53.3699         0.8148        42.4118          2.225         0.8224       -76.4727      -11.30752      0.8252963
      5412.5000          16.04          26.52         0.0049          111.4        55.1533         0.7319        40.9249          2.247         0.8455       -79.6929      -14.53153       0.770652
      5413.0000        12.8824          24.42         0.0078            113        56.9332         0.6629        36.5324           2.26         0.8457       -84.1131      -18.95554      0.6956689
      5413.5000        12.3725        23.7647          0.001          114.8        56.9213         0.5946        35.4039           2.25         0.8459       -90.1333      -24.97955      0.5935669
      5414.0000        12.4706           24.6         -0.002          116.4        56.0163         0.5329        35.0472          2.232         0.8382       -97.3535      -32.20356      0.4711261
      5414.5000         12.902          25.56        -0.0061          117.2        53.9233         0.4908        35.5241          2.213         0.8075      -100.9545      -35.80836      0.4100277
      5415.0000        12.3137        27.0588              0          117.2        50.6458         0.4642         36.475          2.188         0.7789      -101.7584      -36.61608      0.3963376
      5415.5000        11.7028        28.4118         -0.002            116        47.6717         0.4431        37.1293          2.164          0.772       -99.8101      -34.67159      0.4292952
      5416.0000        11.7818         31.032        -0.0163          113.8        45.8897         0.4269        37.4279         2.1363         0.7789       -96.6303      -31.49561      0.4831253
      5416.5000        12.0784        31.7622        -0.0184          114.2        45.5925         0.4229        37.3697           2.15          0.772      -100.2455      -35.11461      0.4217863
      5417.0000        12.0392        30.5474        -0.0194            116        45.8879         0.4349        36.9538          2.173         0.7384      -104.5822      -39.45512      0.3482184
      5417.5000        11.8011        29.0588        -0.0184          118.8        45.2957         0.4431        36.4177          2.176         0.7254      -107.3465      -42.22323      0.3013012
      5418.0000        12.0196        28.6471        -0.0112       120.9804         44.104         0.4642        36.5376         2.1353         0.7517      -106.5822      -41.46274      0.3141909
      5418.5000        12.5882        32.9896        -0.0051       121.9608        42.6082         0.4729        38.9898          2.095         0.7929      -106.2059      -41.09026      0.3205041
      5419.0000        12.9804        34.5259        -0.0163       121.9608        42.3066         0.4817        40.5849          2.067         0.7789      -105.4416      -40.32976      0.3333939
      5419.5000        12.1176        35.8822        -0.0245       120.3922        43.5021         0.4862             42          2.088         0.8078      -103.8931      -38.78507       0.359575
