#------------------------------------------------------------------------------
# Created by    : vladimir.rabinovich
# Created on    : 09/19/2023 17:22:21
#------------------------------------------------------------------------------
~Version Information Section
VERS.           2.0     :   CWLS log ASCII Standard - VERSION 2.0
WRAP.           NO      :   One line per depth step
~Well Information Section
#MNEM       .UNIT                                         VALUE :DESCRIPTION
#------------------------------------------------------------------------------
STRT        .FT                                            1894 :START DEPTH
STOP        .FT                                            9318 :STOP DEPTH
STEP        .FT                                             0.5 :STEP      
NULL        .                                           -999.25 :NULL      
COMP        .                                     DOMINION CORP :COMPANY   
WELL        .                                ST OF TEXAS TR 171 :WELL      
FLD         .                                           WILDCAT :FIELD     
LOC         .                                                   :LOCATION  
CNTY        .                                         GALVESTON :LOCATION  
STAT        .                                             TEXAS :STATE     
CTRY        .                                     UNITED STATES :COUNTRY   
SRVC        .                                                   :SERVICE COMPANY
DATE        .                             9/13/2023 11:19:11 AM :LOG DATE  
API         .                                    42167302850000 :API NUMBER
UWI         .                                    42167302850000 :UNIQUE WELL ID
XCOORD      .                                   1122951.0390836 :SURFACE X 
YCOORD      .                                  10723931.5138252 :SURFACE Y 
LAT         .                                        29.5392679 :LATITUDE  
LON         .                                       -94.6277178 :LONGITUDE 
ELEV        .FT                                              33 :ELEVATION VALUE
ELEV_TYPE   .                                                KB :ELEVATION REFERENCE TYPE
~Curve Information Section
#MNEM       .UNIT                                      API CODE :CURVE DESCRIPTION
#------------------------------------------------------------------------------
DEPT        .FT                                                 :DEPTH     
CALN        .IN                                                 :          
DPSS        .%                                                  :          
DRHO        .G/CM3                                              :          
DT          .US/FT                                              :          
GRN         .GAPI                                               :          
ILD         .OHMM                                               :          
NPSS        .%                                                  :Neutron Porosity Sandstone
RHOB        .G/CM3                                              :          
SFL         .OHMM                                               :          
SP          .MV                                                 :          
SP_NORM     .MV                                                 :SP Normalized
VSH_SP      .V/V                                                :Volume of Shale from SP
~A        DEPTH           CALN           DPSS           DRHO             DT            GRN            ILD           NPSS           RHOB            SFL             SP        SP_NORM         VSH_SP
# ...
      3431.5000          12.44        23.6471         0.0028          122.2             52          0.899        34.5882          2.248          1.055       -86.2225      -9.467354      0.8271968
      3432.0000          12.36           24.3         0.0077          122.2             51         0.9065        33.8235          2.252         1.0545       -86.2025      -9.450577      0.8275393
      3432.5000          12.34        23.5294         0.0077          122.6           50.4         0.9061        33.1176          2.247          1.035       -86.1825      -9.433807      0.8278815
      3433.0000          12.36          24.12         0.0007            123           50.8         0.9057           32.7          2.246         1.0345       -85.7743      -9.028831      0.8361463
      3433.5000          12.46          24.48        -0.0044          123.6           51.8         0.9053          32.46          2.252          1.034       -85.3621      -8.619858      0.8444927
      3434.0000           12.7          24.18        -0.0004          124.6           53.4         0.9129             33          2.254         1.0336         -84.95      -8.210983      0.8528371
      3434.5000          12.86        23.9412        -0.0014          126.4             54         0.9205             34          2.255         0.9961       -84.5378      -7.802017      0.8611833
      3435.0000          12.76        23.8235        -0.0005            130           55.8         0.9447        35.4118           2.24         0.9364       -83.3413      -6.608742      0.8855359
      3435.5000          12.64          24.78         0.0034       133.3333           57.4         0.9443          37.92           2.21         0.8717       -81.3605      -4.631165      0.9258946
      3436.0000        13.3922          25.98         0.0133       139.6078             59         0.9439        40.4706         2.1961         0.8252       -80.1673      -3.441193      0.9501798
      3436.5000        13.8235          27.24         0.0232            147           59.8         0.9435          43.08         2.1824         0.7877       -79.3469      -2.624023      0.9668567
      3437.0000          12.76          27.66         0.0401          153.2           59.6          0.943          44.16          2.204         0.7724       -78.5265      -1.806854      0.9835336
      3437.5000          12.78           26.7         0.0271          156.2             59         0.9426          43.98         2.1843         0.7647       -78.5061      -1.789688      0.9838839
      3438.0000           12.9          27.42         0.0112          155.2           59.2         0.9422          44.22         2.1735         0.7571       -78.0898       -1.37661      0.9923141
      3438.5000          12.96          29.22         0.0321          154.6           59.8         0.9418          44.64         2.1931         0.7567       -78.4694      -1.759438      0.9845013
      3439.0000          12.96          27.48         0.0539          153.8           60.4         0.9414          45.12          2.202         0.7564        -78.049       -1.34227      0.9930149
      3439.5000          12.94             27          0.046          153.8           60.6          0.941          45.78         2.1902          0.756       -77.2286     -0.5250931              1
      3440.0000          12.86          28.02          0.037          153.8           60.6         0.9488           46.5         2.1804         0.7343       -77.2082     -0.5079193              1
      3440.5000          12.82          28.62          0.043          153.4           60.4         0.9573           46.8         2.1912         0.7205       -77.2017     -0.5046463              1
      3441.0000          12.86           27.6         0.0598          153.2           60.4         0.9577          46.92          2.208          0.714       -77.2045     -0.5106735              1
      3441.5000          12.96          26.52         0.0569          153.4             60         0.9837          46.98         2.1961         0.7281       -77.2073     -0.5167007              1
      3442.0000        13.0784          27.18          0.044          153.6           59.8         0.9842          47.04          2.205         0.7568       -76.8115     -0.1241302              1
      3442.5000        13.0588          27.36          0.031          152.2             59         0.9675          46.44          2.197         0.7942       -76.8147     -0.1305542              1
      3443.0000        13.0588          27.36          0.018          150.2           57.4          0.951           46.2         2.1783         0.7945       -76.8178     -0.1368866              1
      3443.5000         13.098          28.14          0.008          149.2           57.2         0.9186          46.92         2.1566         0.7949       -76.0262      0.6514816              1
      3444.0000         13.098          29.46          0.003          150.2           57.2          0.895          47.82         2.1397         0.7729       -76.4272      0.2472534              1
      3444.5000        13.0588        30.6544          0.001          150.8             57         0.8714             48         2.1248         0.7372       -77.6205     -0.9492722              1
      3445.0000        13.0784        31.6046         -0.002          150.6           56.2         0.8408        48.1176         2.1188         0.7376       -79.6038      -2.935799      0.9604939
      3445.5000        13.3529         32.078         -0.005          149.8           54.8         0.8111           47.1         2.1277         0.7593       -82.3777      -5.712929      0.9038178
      3446.0000        13.3529        31.8387         -0.009          147.2           54.4         0.7817          43.56         2.1316         0.7892       -87.9334      -11.27186      0.7903702
      3446.5000          12.94        31.4221         -0.007          142.4           51.8         0.7673         40.511         2.1188         0.8342       -94.6913      -18.03298      0.6523881
      3447.0000          12.68        31.9534         -0.001       136.4706           50.4         0.7389        39.8537          2.102         0.8422       -99.0779      -22.42281      0.5627998
      3447.5000        13.3922        32.9568         -0.016       130.3922           49.6         0.7253          40.15         2.1148         0.9381      -100.2936      -23.64174      0.5379237
      3448.0000        13.5882        32.4222         -0.016          122.8           50.4         0.7257        39.4313         2.1711         1.0735      -100.3134      -23.66476      0.5374538
      3448.5000          12.58           29.4          -0.01       116.2745           52.2          0.726        36.7082          2.221         1.1448       -99.1349      -22.48949      0.5614389
      3449.0000          11.94           25.5         -0.002        117.451           53.6         0.7404         35.581          2.219         1.0745       -96.3607      -19.71852      0.6179894
      3449.5000          11.94          26.46          0.003          124.2           55.2         0.7622        37.2959          2.179         0.9398       -92.3827      -15.74374      0.6991073
      3450.0000          12.24          28.44          0.002       132.1569           56.4         0.7847        39.3011         2.1461         0.8369       -88.7965      -12.16078       0.772229
      3450.5000        12.8201        30.6457         -0.008          143.8         57.806         0.7847        42.5382         2.1314         0.8144       -84.8091      -8.176605      0.8535387
      3451.0000        13.6089        31.1147         -0.007          151.4        59.0159         0.7844        46.0153         2.1451         0.7844       -80.8307      -4.201439      0.9346645
      3451.5000        13.7863        30.2873          0.006          155.6        60.8236          0.755        47.5123          2.165         0.7479       -79.2648      -2.638763      0.9665558
