#------------------------------------------------------------------------------
# Created by    : vladimir.rabinovich
# Created on    : 09/19/2023 17:22:21
#------------------------------------------------------------------------------
~Version Information Section
VERS.           2.0     :   CWLS log ASCII Standard - VERSION 2.0
WRAP.           NO      :   One line per depth step
~Well Information Section
#MNEM       .UNIT                                         VALUE :DESCRIPTION
#------------------------------------------------------------------------------
STRT        .FT                                            1894 :START DEPTH
STOP        .FT                                            9318 :STOP DEPTH
STEP        .FT                                             0.5 :STEP      
NULL        .                                           -999.25 :NULL      
COMP        .                                     DOMINION CORP :COMPANY   
WELL        .                                ST OF TEXAS TR 171 :WELL      
FLD         .                                           WILDCAT :FIELD     
LOC         .                                                   :LOCATION  
CNTY        .                                         GALVESTON :LOCATION  
STAT        .                                             TEXAS :STATE     
CTRY        .                                     UNITED STATES :COUNTRY   
SRVC        .                                                   :SERVICE COMPANY
DATE        .                             9/13/2023 11:19:11 AM :LOG DATE  
API         .                                    42167302850000 :API NUMBER
UWI         .                                    42167302850000 :UNIQUE WELL ID
XCOORD      .                                   1122951.0390836 :SURFACE X 
YCOORD      .                                  10723931.5138252 :SURFACE Y 
LAT         .                                        29.5392679 :LATITUDE  
LON         .                                       -94.6277178 :LONGITUDE 
ELEV        .FT                                              33 :ELEVATION VALUE
ELEV_TYPE   .                                                KB :ELEVATION REFERENCE TYPE
~Curve Information Section
#MNEM       .UNIT                                      API CODE :CURVE DESCRIPTION
#------------------------------------------------------------------------------
DEPT        .FT                                                 :DEPTH     
CALN        .IN                                                 :          
DPSS        .%                                                  :          
DRHO        .G/CM3                                              :          
DT          .US/FT                                              :          
GRN         .GAPI                                               :          
ILD         .OHMM                                               :          
NPSS        .%                                                  :Neutron Porosity Sandstone
RHOB        .G/CM3                                              :          
SFL         .OHMM                                               :          
SP          .MV                                                 :          
SP_NORM     .MV                                                 :SP Normalized
VSH_SP      .V/V                                                :Volume of Shale from SP
~A        DEPTH           CALN           DPSS           DRHO             DT            GRN            ILD           NPSS           RHOB            SFL             SP        SP_NORM         VSH_SP
# ...
      3923.5000          11.64          29.76         -0.004       103.1077        48.9796         0.5785              0          2.186         1.3512      -111.8367      -34.42055       0.381101
      3924.0000           11.5          28.02         -0.013       106.5571        46.9388         0.5527              0         2.2108         1.0855      -111.8367      -34.41776      0.3811525
      3924.5000          11.32        25.4118          -0.02       111.9773         45.102         0.5139              0          2.251         0.9624      -110.6122      -33.19047      0.4038802
      3925.0000          11.28           23.1         -0.013       116.1359        42.6531         0.4472              0          2.292            0.9      -111.4286      -34.00407      0.3888134
      3925.5000           11.3          21.84         -0.005       119.3124        42.6531         0.3964              0          2.283         0.8838      -113.4694      -36.04209      0.3510724
      3926.0000          11.38          22.62         -0.003       121.8937        44.0816         0.3559              0         2.2431         0.8524      -116.7347       -39.3046      0.2906555
      3926.5000          11.58        24.5882         -0.009       124.6667        45.7143         0.3282              0         2.2049         0.8073      -119.1837      -41.75082      0.2453552
      3927.0000          11.86        26.8235         -0.004       127.0404        45.9184         0.3138              0          2.173         0.7584      -120.7949      -43.35922        0.21557
      3927.5000        12.0196          28.68          0.006       128.0289        44.0816          0.311              0         2.1382         0.7189      -121.1935      -43.75503      0.2082402
      3928.0000        12.5882          31.08         -0.004       128.0308        41.2245         0.3166              0          2.102            0.7      -120.3982      -42.95695      0.2230195
      3928.5000           13.4          33.48         -0.006       127.2459        39.8039         0.3282              0           2.08            0.7       -117.551      -40.10696      0.2757971
      3929.0000        14.1961          34.86         -0.016       125.6765        40.8163         0.3559              0          2.062         0.7584      -112.6531      -35.20626      0.3665507
      3929.5000        14.6275          35.52         -0.012       124.5018        41.8367         0.3859              0          2.067         0.8447      -108.9796      -31.52998      0.4346301
      3930.0000        14.6471          35.16         -0.006       122.7419        42.8571         0.4269              0           2.08         0.9352      -107.3469      -29.89449      0.4649169
      3930.5000         14.549          34.08         -0.007       121.3733        44.4898         0.4816              0          2.098         1.0181      -106.5429       -29.0877      0.4798574
      3931.0000           13.8          32.64         -0.005       120.9819        45.9184         0.5182           0.06         2.1324         1.0651      -106.5633      -29.10531      0.4795313
      3931.5000        12.2353           30.9         -0.003       121.5726        47.7551         0.5421           0.18          2.152         1.0744      -106.9918      -29.53101      0.4716479
      3932.0000        12.0196             30         -0.015       122.7547        48.5714         0.5468            0.3         2.1471         1.0545      -107.8286      -30.36503      0.4562032
      3932.5000        12.1765           30.6          -0.02       124.3329        48.1633         0.5367            0.3         2.1373          1.007       -107.849      -30.38264      0.4558771
      3933.0000           11.9          31.14         -0.017       124.7314        46.9388          0.522          -0.12           2.15         0.9878      -108.6857      -31.21655      0.4404343
      3933.5000        12.1373          29.88         -0.013       124.1441        45.9184         0.5031          -0.12          2.154         0.9502      -109.9306      -32.45866      0.4174322
      3934.0000        12.5098          30.12         -0.004       123.9507        45.9184         0.4845          -0.12         2.1412         0.8808      -111.1755      -33.70077      0.3944302
      3934.5000        12.6078           31.2         -0.003       122.3728        46.3265         0.4666          -0.12         2.1157         0.8724      -112.0122      -34.53468      0.3789873
      3935.0000          11.94          32.52          -0.01       120.9897        46.5306         0.4578          -0.12         2.1088         0.8958      -113.2571      -35.77679      0.3559853
      3935.5000           11.9          32.76         -0.016       117.8231        46.1224         0.4534          -0.12          2.102         0.9128      -113.6857       -36.2026         0.3481
      3936.0000        12.4118           33.3         -0.018       114.8596         45.102          0.449          -0.12          2.062         0.9037      -113.7061      -36.22021      0.3477738
      3936.5000          13.46          35.46         -0.018       114.0747        43.6735         0.4529          -0.12         2.0343         0.9119      -113.3184      -35.82972      0.3550052
      3937.0000        14.8039        37.1176         -0.023       119.2107        43.0612         0.4485          -0.12         2.0245         0.9562      -112.9306      -35.43913      0.3622383
      3937.5000          15.64        37.5882         -0.025       123.5804        43.2653         0.4525          -0.12          2.084         0.9836      -111.7265      -34.23225       0.384588
      3938.0000           15.9          35.04         -0.027       127.1689        44.2857         0.4738          -0.12           2.09         0.9553      -110.5224      -33.02535      0.4069379
      3938.5000          15.92           33.6         -0.016       130.7535        44.4898         0.4916          -0.12          2.094         0.9015       -108.502      -31.00217      0.4444043
      3939.0000        14.8824          33.72         -0.009       133.5142         45.102         0.5191          -0.12          2.081         0.8304       -104.849      -27.34637      0.5121042
      3939.5000        12.4314          34.38         -0.013       133.9132         45.102         0.5531          -0.12          2.069         0.8152      -100.3796      -22.87418      0.5949225
      3940.0000        12.3725        36.0588          -0.02       131.5653        44.6939         0.5947              0              2         0.7653        -94.395       -16.8868      0.7058001
      3940.5000        12.4114        37.5892         -0.018       129.0006        44.4867         0.6569           0.42          1.984         0.7384       -89.6101      -12.09911       0.794461
      3941.0000             16        40.2028         -0.023       128.6023        45.7045         0.7254            0.9          1.954            0.8       -86.0308      -8.517014       0.860796
      3941.5000          16.16        41.8803         -0.016       129.6011        47.9388         0.7789           1.14          2.001         0.8601       -85.6509      -8.134331      0.8678828
      3942.0000          16.82        37.6528              0       129.2029        53.9634         0.8447           1.02         2.1382         0.9174       -85.2709      -7.751534      0.8749716
      3942.5000        13.8362         31.034          0.017       125.8197        57.9541         0.8759            0.9         2.2155         0.9087       -85.2909      -7.768753      0.8746527
      3943.0000        12.2705        25.4197          0.005       123.0387        59.1444         0.8759           1.32         2.2382         0.8759        -84.911      -7.386063      0.8817396
      3943.5000        12.3882        25.0066          0.001       120.4629        57.5343         0.8295            2.1         2.2362         0.8447       -85.3309      -7.803169      0.8740154
