#------------------------------------------------------------------------------
# Created by    : vladimir.rabinovich
# Created on    : 09/19/2023 17:22:21
#------------------------------------------------------------------------------
~Version Information Section
VERS.           2.0     :   CWLS log ASCII Standard - VERSION 2.0
WRAP.           NO      :   One line per depth step
~Well Information Section
#MNEM       .UNIT                                         VALUE :DESCRIPTION
#------------------------------------------------------------------------------
STRT        .FT                                            1894 :START DEPTH
STOP        .FT                                            9318 :STOP DEPTH
STEP        .FT                                             0.5 :STEP      
NULL        .                                           -999.25 :NULL      
COMP        .                                     DOMINION CORP :COMPANY   
WELL        .                                ST OF TEXAS TR 171 :WELL      
FLD         .                                           WILDCAT :FIELD     
LOC         .                                                   :LOCATION  
CNTY        .                                         GALVESTON :LOCATION  
STAT        .                                             TEXAS :STATE     
CTRY        .                                     UNITED STATES :COUNTRY   
SRVC        .                                                   :SERVICE COMPANY
DATE        .                             9/13/2023 11:19:11 AM :LOG DATE  
API         .                                    42167302850000 :API NUMBER
UWI         .                                    42167302850000 :UNIQUE WELL ID
XCOORD      .                                   1122951.0390836 :SURFACE X 
YCOORD      .                                  10723931.5138252 :SURFACE Y 
LAT         .                                        29.5392679 :LATITUDE  
LON         .                                       -94.6277178 :LONGITUDE 
ELEV        .FT                                              33 :ELEVATION VALUE
ELEV_TYPE   .                                                KB :ELEVATION REFERENCE TYPE
~Curve Information Section
#MNEM       .UNIT                                      API CODE :CURVE DESCRIPTION
#------------------------------------------------------------------------------
DEPT        .FT                                                 :DEPTH     
CALN        .IN                                                 :          
DPSS        .%                                                  :          
DRHO        .G/CM3                                              :          
DT          .US/FT                                              :          
GRN         .GAPI                                               :          
ILD         .OHMM                                               :          
NPSS        .%                                                  :Neutron Porosity Sandstone
RHOB        .G/CM3                                              :          
SFL         .OHMM                                               :          
SP          .MV                                                 :          
SP_NORM     .MV                                                 :SP Normalized
VSH_SP      .V/V                                                :Volume of Shale from SP
~A        DEPTH           CALN           DPSS           DRHO             DT            GRN            ILD           NPSS           RHOB            SFL             SP        SP_NORM         VSH_SP
# ...
      4415.5000          16.36          43.26         -0.021          121.6           29.6          0.348          50.46         1.9451         0.8146       -124.544      -47.53687      0.1835636
      4416.0000        15.1716          42.18         -0.016       119.6078             30         0.3513          49.26          1.962          0.822      -124.9253      -47.92304      0.1767887
      4416.5000        15.0326          41.52         -0.011       117.6471           29.2         0.3545        47.7647          1.981         0.8295      -125.3074      -48.31001      0.1699998
      4417.0000             16          40.26         -0.011       119.6078           28.6         0.3545          48.24          1.981         0.8295      -124.8981      -47.90559       0.177095
      4417.5000          16.18          39.54         -0.023          122.8           28.2         0.3545          48.54          1.964          0.822       -124.883      -47.89536      0.1772745
      4418.0000          15.98          40.68         -0.029          126.2           28.4         0.3612          48.78          1.952         0.8073      -124.4696      -47.48682      0.1844418
      4418.5000        15.7966          41.64         -0.028          127.2             29         0.3646          48.72         1.9392         0.7924       -124.454      -47.47609        0.18463
      4419.0000        15.5376          42.54         -0.025            127           29.4         0.3578          48.66         1.9245         0.7924      -124.0393      -47.06626        0.19182
      4419.5000        15.4386          43.44         -0.017            126           29.8         0.3578           48.6          1.951         0.7774      -124.0232      -47.05503       0.192017
      4420.0000        16.0204          42.24         -0.016          125.4           30.2         0.3612          49.68          1.951         0.7627      -124.0071       -47.0438       0.192214
      4420.5000        16.1406          41.46          -0.02            127        30.0059         0.3611        51.3529         1.9235         0.7481      -124.0111      -47.05267      0.1920584
      4421.0000        16.0216          43.44         -0.023          128.4        29.6157         0.3643        52.8824          1.881         0.7336      -122.8312      -45.87764       0.212673
      4421.5000        16.2825        46.8235         -0.037          129.2        28.6255         0.3675        53.6471          1.848         0.7263       -122.851      -45.90231      0.2122402
      4422.0000        17.6835          49.02         -0.037            129        27.8353         0.3742          54.36         1.8333         0.7329      -122.4709      -45.52708      0.2188232
      4422.5000        18.6845          48.48         -0.043          127.8        28.0451         0.3706          55.14         1.8402         0.7538      -122.4907      -45.55175      0.2183903
      4423.0000        19.2057          49.32         -0.046          126.8        29.4569          0.367          55.74         1.8235         0.7607      -122.1106      -45.17652      0.2249733
      4423.5000        18.5667          49.44         -0.044          126.8        30.0667         0.3668          55.56         1.8451         0.7824      -122.1304      -45.20119      0.2245406
      4424.0000        17.2676        47.6471         -0.037          125.8        30.2765         0.3667          54.54         1.9069         0.7973      -121.7503      -44.82595      0.2311237
      4424.5000        16.5486             45         -0.028          123.6        30.8863         0.3665        52.3529          1.959         0.8115      -121.3701      -44.45063      0.2377082
      4425.0000        16.1896          42.06         -0.022          120.6        31.4961         0.3629          50.64              2         0.8185      -121.7939       -44.8793      0.2301878
      4425.5000          15.56             39         -0.017       118.4314        32.1059         0.3661          49.74         2.0255         0.8406      -121.8137      -44.90396      0.2297551
      4426.0000        14.4464        37.7059         -0.012       118.2353        32.9157         0.3626          49.38         2.0461         0.8556      -121.8335      -44.92863      0.2293222
      4426.5000        14.1507        36.4118         -0.008       119.4118        32.1255         0.3624           49.5          2.058         0.8475      -122.2533      -45.35331      0.2218718
      4427.0000        14.2304          35.88         -0.007          121.8        31.3353         0.3589          49.62           2.05         0.8319      -122.6731      -45.77798      0.2144215
      4427.5000         14.172        36.4118         -0.007          124.2        30.9451         0.3521          49.92         2.0431         0.8093      -123.0929      -46.20264      0.2069712
      4428.0000        13.9958        36.5882         -0.009            126        29.9569         0.3487          50.22         2.0431         0.7865      -123.5127      -46.62732      0.1995207
      4428.5000        14.3508        36.5294         -0.013            125        29.1667         0.3518          50.46         2.0333         0.7862      -123.9325      -47.05199      0.1920704
      4429.0000           15.3        37.5294          -0.01          124.4        28.9765         0.3517          50.82         2.0382         0.7858      -124.7524      -47.87675      0.1776008
      4429.5000        16.0386        36.7647         -0.002          123.2        29.5863         0.3482        51.0588         2.0343          0.778      -125.9722      -49.10142      0.1561155
      4430.0000        16.0596        37.1765         -0.015          121.2        30.7961         0.3417        51.0588         2.0225          0.785      -127.1921      -50.32619      0.1346282
      4430.5000        15.2606        37.8824          -0.02            120           31.8         0.3322          50.82         2.0225            0.8         -128.8      -51.93896      0.1063339
      4431.0000        14.3731        38.2353         -0.006       119.6078             32         0.3261          50.58         2.0441         0.8146         -129.6      -52.74384     0.09221341
      4431.5000        14.0983        36.5882         -0.005       119.4118           30.8         0.3261           50.4          2.053         0.7774           -130       -53.1487     0.08511058
      4432.0000        14.2755             36         -0.011       119.0196             30         0.3231          50.16          2.001         0.7483         -129.6      -52.75358     0.09204249
      4432.5000        14.5318        37.7647         -0.016       118.2353           29.4         0.3201          50.04          1.988         0.7203         -129.2      -52.35844     0.09897479
      4433.0000         14.966          39.06         -0.022       117.6471           28.8         0.3231          50.28          1.978            0.7           -128      -51.16331       0.119942
      4433.5000        15.5665           40.2         -0.025       117.8431           28.6         0.3261          50.52          1.969         0.6937         -126.8      -49.96818      0.1409092
      4434.0000        15.6276          40.92         -0.027       118.4314           29.4         0.3385          50.64         1.9412         0.6937         -124.8      -47.97305      0.1759114
      4434.5000          16.04           42.6         -0.027       119.6078             30          0.348        51.4706            1.9         0.7067           -124      -47.17792      0.1898611
      4435.0000          16.16        45.4118         -0.034            121           30.4         0.3578        52.5294          1.875         0.7272         -123.6      -46.78278      0.1967933
      4435.5000          16.42          48.12         -0.041          121.8           30.8         0.3679          54.12         1.8402         0.7483         -123.6      -46.78766      0.1967077
