#------------------------------------------------------------------------------
# Created by    : vladimir.rabinovich
# Created on    : 09/19/2023 17:22:21
#------------------------------------------------------------------------------
~Version Information Section
VERS.           2.0     :   CWLS log ASCII Standard - VERSION 2.0
WRAP.           NO      :   One line per depth step
~Well Information Section
#MNEM       .UNIT                                         VALUE :DESCRIPTION
#------------------------------------------------------------------------------
STRT        .FT                                            1894 :START DEPTH
STOP        .FT                                            9318 :STOP DEPTH
STEP        .FT                                             0.5 :STEP      
NULL        .                                           -999.25 :NULL      
COMP        .                                     DOMINION CORP :COMPANY   
WELL        .                                ST OF TEXAS TR 171 :WELL      
FLD         .                                           WILDCAT :FIELD     
LOC         .                                                   :LOCATION  
CNTY        .                                         GALVESTON :LOCATION  
STAT        .                                             TEXAS :STATE     
CTRY        .                                     UNITED STATES :COUNTRY   
SRVC        .                                                   :SERVICE COMPANY
DATE        .                             9/13/2023 11:19:11 AM :LOG DATE  
API         .                                    42167302850000 :API NUMBER
UWI         .                                    42167302850000 :UNIQUE WELL ID
XCOORD      .                                   1122951.0390836 :SURFACE X 
YCOORD      .                                  10723931.5138252 :SURFACE Y 
LAT         .                                        29.5392679 :LATITUDE  
LON         .                                       -94.6277178 :LONGITUDE 
ELEV        .FT                                              33 :ELEVATION VALUE
ELEV_TYPE   .                                                KB :ELEVATION REFERENCE TYPE
~Curve Information Section
#MNEM       .UNIT                                      API CODE :CURVE DESCRIPTION
#------------------------------------------------------------------------------
DEPT        .FT                                                 :DEPTH     
CALN        .IN                                                 :          
DPSS        .%                                                  :          
DRHO        .G/CM3                                              :          
DT          .US/FT                                              :          
GRN         .GAPI                                               :          
ILD         .OHMM                                               :          
NPSS        .%                                                  :Neutron Porosity Sandstone
RHOB        .G/CM3                                              :          
SFL         .OHMM                                               :          
SP          .MV                                                 :          
SP_NORM     .MV                                                 :SP Normalized
VSH_SP      .V/V                                                :Volume of Shale from SP
~A        DEPTH           CALN           DPSS           DRHO             DT            GRN            ILD           NPSS           RHOB            SFL             SP        SP_NORM         VSH_SP
# ...
      7839.0000        10.9022        25.0774          0.052          119.6        80.7225         0.6165          48.42         2.2284         0.5838       -44.3137       0.866539              1
      7839.5000        10.9614        25.1384          0.041          118.6        81.0127         0.6222          47.94         2.2196         0.5838       -43.9216       1.264847              1
      7840.0000        11.0204        25.7993           0.03          118.2        80.7038         0.6278          49.26         2.2196         0.5838       -44.3137      0.8789558              1
      7840.5000        11.1799        26.1005          0.024       117.7953         80.097         0.6337        49.4415         2.2186         0.5734       -43.9099       1.288963              1
      7841.0000        11.2197        25.9816         0.0181       117.7875        79.1934         0.6398        48.1248         2.2128         0.5685       -43.4983       1.706772              1
      7841.5000        11.2593        26.2819         0.0101       117.5803        80.0869         0.6401         46.568         2.2157         0.5687       -43.0867       2.124577              1
      7842.0000        11.2989        26.2826         0.0062       117.1742        80.3808         0.6346        46.1505         2.2138         0.5848       -43.4594       1.758083              1
      7842.5000        11.3185        26.2235         0.0002       116.9679         79.181         0.6291        45.1336         2.2079         0.6067       -43.8321       1.391594              1
      7843.0000        11.3182        26.5823         0.0013        116.961        78.5801         0.6237        43.8398         2.2039         0.6015       -44.2048       1.025101              1
      7843.5000        11.3775             27         0.0063       117.5502        78.2786          0.624        43.7839            2.2         0.5698       -44.9696      0.2665062              1
      7844.0000             11        27.1185         0.0154       118.3366        77.9776         0.6187        44.7868         2.2168         0.5496       -44.9501      0.2922134              1
      7844.5000        10.8386        26.7025         0.0234       119.3198        77.9747         0.6134        45.1455         2.2178         0.5499       -44.9307      0.3178253              1
      7845.0000        10.8586        26.1085         0.0275       119.3106        77.9718         0.6081        45.5691         2.2178         0.5552       -44.9112      0.3435287              1
      7845.5000        10.8989        26.2281         0.0265       118.9056        78.8587         0.6084         46.112         2.2178         0.5656       -45.2839    -0.02296448              1
      7846.0000        10.9595        25.9323         0.0166        118.106        78.5584         0.6032        46.5949          2.201         0.5659       -45.6565     -0.3893585              1
      7846.5000        11.0197        27.1191         0.0046       117.5054        77.0737         0.5872        47.0779         2.1842         0.5662       -46.4213      -1.147945      0.9980007
      7847.0000        11.0987        28.1328         0.0087       117.6953        76.1838         0.5768        47.2009          2.197         0.5613       -46.4018      -1.122238      0.9983481
      7847.5000         11.138        27.3581         0.0237       118.4762        75.2957         0.5771        46.4239         2.2149         0.5564       -46.3823      -1.096535      0.9986955
      7848.0000        11.1772        26.2911         0.0248       119.4525        74.0857         0.5669        45.8869          2.207         0.5417        -46.359      -1.067028      0.9990942
      7848.5000        11.1967        26.2918         0.0148       120.8312        74.6949          0.562        45.5899         2.1843         0.5178       -45.9474     -0.6492157              1
      7849.0000        11.2752         27.838         0.0089       122.0192        75.5896         0.5572        45.5929         2.1735          0.504       -45.5358      -0.231411              1
      7849.5000        11.2552        28.7975         0.0119       122.6103        75.8836         0.5677        45.2958         2.1735         0.5043       -44.7322      0.5783958              1
      7850.0000         11.255        28.4394          0.017       122.0032        76.1769         0.5784        44.8224         2.1961         0.5045       -44.7127      0.6041031              1
      7850.5000        11.2739        27.2416          0.025       120.3998         76.756         0.5892        44.0588          2.223         0.5629       -44.6962      0.6268082              1
      7851.0000         11.273        26.2389          0.035       118.6253        77.6238         0.6055        43.4706          2.242         0.5681       -44.6812      0.6480217              1
      7851.5000        11.3112        24.6488          0.043       116.6581        78.1974         0.6165        43.1176          2.255         0.5733       -44.6662      0.6692276              1
      7852.0000        11.3494        24.1181           0.05       114.8839        78.7711         0.6278        42.7059          2.269         0.5785       -44.6511      0.6905327              1
      7852.5000        11.3877        23.4027          0.021        114.091        78.7566         0.6335        42.0588          2.258         0.5892         -45.03      0.3178406              1
      7853.0000        11.4455        23.7017          0.031        113.888         78.742         0.6335          41.46           2.27         0.5946       -45.4095    -0.05545044              1
      7853.5000        11.5034        23.2252          0.037       114.6714        78.7274         0.6335          41.04          2.269         0.5527       -46.5792      -1.218945      0.9970413
      7854.0000        11.5024        22.6305          0.026       115.6539        78.7129         0.6335          41.34         2.2371         0.5477       -47.7513      -2.384838       0.981286
      7854.5000        11.3838        24.8899          0.018       116.4406        78.1101         0.6335          41.46         2.2312         0.5378       -48.5302      -3.157532      0.9708441
      7855.0000        11.2064        25.0689           0.01       116.8329        78.9779         0.6335          41.94         2.2025         0.5329       -48.5189      -3.140022      0.9710808
      7855.5000        11.2248        27.1505          0.003       116.6317        78.6663         0.6335        42.2941         2.2104         0.5378       -48.5076      -3.122513      0.9713174
      7856.0000        11.4003        26.6183          0.006        115.835        77.4752         0.6335          41.94         2.2223         0.5785       -49.2896      -3.898308      0.9608337
      7856.5000        11.5954        25.9656          0.015       115.2353        77.7548         0.6335          41.22         2.2194         0.5892        -49.279        -3.8815      0.9610608
      7857.0000        11.7317        26.0868          0.014       115.2305        79.2108         0.6335          40.68         2.2135         0.5785       -49.2684      -3.864693      0.9612879
      7857.5000        11.7307        26.3276          0.002       116.0215        79.4904         0.6335          40.62         2.2007         0.5329       -49.2577      -3.847786      0.9615164
      7858.0000        11.5729         26.987          0.005        116.814        78.0052         0.6278          41.52         2.2077         0.5329       -50.0436      -4.627476      0.9509801
      7858.5000        11.5915        27.3442          0.012       117.2095        77.4024          0.611        42.7059         2.2215         0.5477       -50.4324      -5.010071      0.9458098
      7859.0000        11.6494        26.1549          0.017       117.6057        77.3879            0.6        43.5882         2.2244         0.5428       -50.8219      -5.393364      0.9406302
