#------------------------------------------------------------------------------
# Created by    : vladimir.rabinovich
# Created on    : 09/19/2023 17:22:21
#------------------------------------------------------------------------------
~Version Information Section
VERS.           2.0     :   CWLS log ASCII Standard - VERSION 2.0
WRAP.           NO      :   One line per depth step
~Well Information Section
#MNEM       .UNIT                                         VALUE :DESCRIPTION
#------------------------------------------------------------------------------
STRT        .FT                                            1894 :START DEPTH
STOP        .FT                                            9318 :STOP DEPTH
STEP        .FT                                             0.5 :STEP      
NULL        .                                           -999.25 :NULL      
COMP        .                                     DOMINION CORP :COMPANY   
WELL        .                                ST OF TEXAS TR 171 :WELL      
FLD         .                                           WILDCAT :FIELD     
LOC         .                                                   :LOCATION  
CNTY        .                                         GALVESTON :LOCATION  
STAT        .                                             TEXAS :STATE     
CTRY        .                                     UNITED STATES :COUNTRY   
SRVC        .                                                   :SERVICE COMPANY
DATE        .                             9/13/2023 11:19:11 AM :LOG DATE  
API         .                                    42167302850000 :API NUMBER
UWI         .                                    42167302850000 :UNIQUE WELL ID
XCOORD      .                                   1122951.0390836 :SURFACE X 
YCOORD      .                                  10723931.5138252 :SURFACE Y 
LAT         .                                        29.5392679 :LATITUDE  
LON         .                                       -94.6277178 :LONGITUDE 
ELEV        .FT                                              33 :ELEVATION VALUE
ELEV_TYPE   .                                                KB :ELEVATION REFERENCE TYPE
~Curve Information Section
#MNEM       .UNIT                                      API CODE :CURVE DESCRIPTION
#------------------------------------------------------------------------------
DEPT        .FT                                                 :DEPTH     
CALN        .IN                                                 :          
DPSS        .%                                                  :          
DRHO        .G/CM3                                              :          
DT          .US/FT                                              :          
GRN         .GAPI                                               :          
ILD         .OHMM                                               :          
NPSS        .%                                                  :Neutron Porosity Sandstone
RHOB        .G/CM3                                              :          
SFL         .OHMM                                               :          
SP          .MV                                                 :          
SP_NORM     .MV                                                 :SP Normalized
VSH_SP      .V/V                                                :Volume of Shale from SP
~A        DEPTH           CALN           DPSS           DRHO             DT            GRN            ILD           NPSS           RHOB            SFL             SP        SP_NORM         VSH_SP
# ...
      7347.0000        11.0395          24.24          0.009       106.9175           74.4         0.8471          40.92         2.2477         0.7471       -45.5641        2.23122              1
      7347.5000          10.92           24.3          0.001        104.113           72.6         0.8544        38.0588         2.2557         0.8467       -47.1608      0.6297722              1
      7348.0000           10.8        23.8824         -0.009       100.9151           70.8         0.8541           34.5         2.2738         0.9737       -48.7607     -0.9748726              1
      7348.5000          10.66        22.4706          0.021        97.3404           69.9         0.8537          33.54         2.2908         1.0292       -49.5666      -1.785522      0.9893848
      7349.0000          10.64        21.6471          0.034        96.7594           71.1         0.8456          35.82         2.2679         0.9273       -49.5761      -1.799767      0.9891924
      7349.5000          10.72        22.7647          0.039       101.5739           72.6         0.8376        38.4706         2.2389         0.8078       -49.5857      -1.814114      0.9889985
      7350.0000          10.86          24.84          0.031        105.194           74.4         0.8148          41.76          2.225         0.7191       -48.7957      -1.028862      0.9996099
      7350.5000        10.9594        25.9806          0.024            109        76.1683         0.7931        44.3529          2.222         0.6937       -47.6066      0.1554909              1
      7351.0000        11.0181        25.9217           0.02       111.3747        76.7439         0.7794             44          2.216         0.6751       -47.2197      0.5376472              1
      7351.5000        10.9974        25.8031          0.014       111.1795        76.7309         0.7589        43.7059          2.207         0.6812       -46.4347       1.317898              1
      7352.0000        11.0161        26.5217          0.017       111.1806        76.4227         0.7456        43.3529          2.212         0.6812       -46.4484       1.299454              1
      7352.5000        11.0349        26.7014          0.024       111.9696        76.1138         0.7457        43.2353          2.215         0.6937        -46.462       1.281105              1
      7353.0000        10.9945        26.0454          0.019        112.563        76.9874         0.7459        43.2353          2.206         0.6937       -46.4756       1.262756              1
      7353.5000        10.8934        26.5828          0.014       112.3682        77.5666         0.7461        43.4118          2.201         0.7064       -46.0919       1.641712              1
      7354.0000        10.8124        27.3529          0.017       111.5804         78.147         0.7531        43.8235          2.207         0.7064        -45.312       2.416862              1
      7354.5000        10.8114        26.6431          0.014       110.5932        78.1353         0.7672        43.9412          2.199         0.7064       -45.3267       2.397419              1
      7355.0000        10.8304        26.6434          0.003       110.1979        76.9359         0.7889        43.2353          2.198         0.7065       -44.9452        2.77417              1
      7355.5000        10.7894        27.3529          0.005       110.1981        76.3285         0.8038        42.7647          2.215          0.713       -44.5646       3.150021              1
      7356.0000        10.8084        26.8814          0.012       110.7933         76.315         0.8042          41.88          2.227         0.7131         -44.58       3.129875              1
      7356.5000        10.8474         25.578          0.015       110.7941        76.3014         0.8046          41.34           2.23         0.7065       -44.9903       2.714832              1
      7357.0000        10.8264        25.2243          0.017          109.6        75.6916         0.8049           40.5          2.227         0.7066       -45.0052       2.695183              1
      7357.5000        10.8254        25.4626          0.022          107.2        74.1811         0.8126           39.9          2.229         0.7335       -46.2026       1.493038              1
      7358.0000        10.7644        25.3459          0.027            105        72.6664          0.813        38.8824          2.236         0.7984       -47.7914     -0.1005096              1
      7358.5000        10.7034        24.9931          0.014          102.8        71.1516         0.8208        38.5294          2.231         0.8208       -48.9837      -1.297558       0.995979
      7359.0000        10.7424         25.113          0.011          102.4        69.6369         0.8211        38.3529          2.227         0.8137       -49.7807      -2.099304      0.9851446
      7359.5000        10.7814        25.5864          0.013          103.8        68.1223          0.829        37.8235          2.237         0.7844       -50.9687      -3.292049      0.9690264
      7360.0000        10.7804        25.0583          0.011          104.6        65.7048         0.8294           35.7          2.257         0.7412       -52.9389      -5.266998      0.9423379
      7360.5000          10.72        23.2204          0.005           99.2           63.9         0.8071        32.4018         2.3392         0.7773       -55.6863      -8.019142      0.9051467
      7361.0000          10.56        19.1783          0.003           92.6           61.5         0.7696        27.3576         2.4206         0.8912       -58.4314      -10.76899      0.8679866
      7361.5000           10.5          15.42          0.007        83.7255           60.6         0.7479        23.2818           2.45         1.4263       -59.6078      -11.95014      0.8520252
      7362.0000           10.5        12.0703          0.016        81.5686           64.8         0.7407         23.701          2.397         1.5905       -58.8235      -11.17059      0.8625597
      7362.5000           10.5        14.2235          0.018        86.6667           68.1         0.7405        28.4839         2.3157         1.0465       -56.8627      -9.214535      0.8889928
      7363.0000           10.5        19.3014          0.009           91.6           72.3         0.7615        33.3171          2.277           0.82       -55.2941      -7.650681      0.9101259
      7363.5000          10.44        21.7944          0.006           98.2        75.5961         0.8049         36.196           2.26         0.7756        -54.902      -7.263325      0.9153605
      7364.0000          10.52        23.7618          0.009          101.6        76.7864         0.7898        37.4928           2.27          0.761       -53.7255      -6.091572       0.931195
      7364.5000          10.68        22.5127          0.006          104.8        78.5693         0.7822        37.6133           2.27           0.74       -50.9804      -3.351219      0.9682268
      7365.0000          10.82        22.7519          0.007          106.2        80.0515         0.7676        38.0873          2.267         0.7196       -49.4118      -1.787365      0.9893599
      7365.5000          10.88        22.9906           0.02          107.8        80.3434         0.7674        38.0901          2.277          0.713       -47.8431     -0.2234154              1
      7366.0000          10.92        22.5173          0.034          108.6        80.3381         0.7885         38.093          2.281         0.7463       -47.8431     -0.2281609              1
      7366.5000          10.92        22.1039          0.044          109.2        80.3328           0.81        39.2176          2.289          0.781       -48.2353      -0.625103              1
      7367.0000          10.96        22.1058          0.034          110.2        80.9195         0.8096        41.4406          2.259         0.7667       -49.4118      -1.806355      0.9891033
