#------------------------------------------------------------------------------
# Created by    : vladimir.rabinovich
# Created on    : 09/19/2023 17:22:21
#------------------------------------------------------------------------------
~Version Information Section
VERS.           2.0     :   CWLS log ASCII Standard - VERSION 2.0
WRAP.           NO      :   One line per depth step
~Well Information Section
#MNEM       .UNIT                                         VALUE :DESCRIPTION
#------------------------------------------------------------------------------
STRT        .FT                                            1894 :START DEPTH
STOP        .FT                                            9318 :STOP DEPTH
STEP        .FT                                             0.5 :STEP      
NULL        .                                           -999.25 :NULL      
COMP        .                                     DOMINION CORP :COMPANY   
WELL        .                                ST OF TEXAS TR 171 :WELL      
FLD         .                                           WILDCAT :FIELD     
LOC         .                                                   :LOCATION  
CNTY        .                                         GALVESTON :LOCATION  
STAT        .                                             TEXAS :STATE     
CTRY        .                                     UNITED STATES :COUNTRY   
SRVC        .                                                   :SERVICE COMPANY
DATE        .                             9/13/2023 11:19:11 AM :LOG DATE  
API         .                                    42167302850000 :API NUMBER
UWI         .                                    42167302850000 :UNIQUE WELL ID
XCOORD      .                                   1122951.0390836 :SURFACE X 
YCOORD      .                                  10723931.5138252 :SURFACE Y 
LAT         .                                        29.5392679 :LATITUDE  
LON         .                                       -94.6277178 :LONGITUDE 
ELEV        .FT                                              33 :ELEVATION VALUE
ELEV_TYPE   .                                                KB :ELEVATION REFERENCE TYPE
~Curve Information Section
#MNEM       .UNIT                                      API CODE :CURVE DESCRIPTION
#------------------------------------------------------------------------------
DEPT        .FT                                                 :DEPTH     
CALN        .IN                                                 :          
DPSS        .%                                                  :          
DRHO        .G/CM3                                              :          
DT          .US/FT                                              :          
GRN         .GAPI                                               :          
ILD         .OHMM                                               :          
NPSS        .%                                                  :Neutron Porosity Sandstone
RHOB        .G/CM3                                              :          
SFL         .OHMM                                               :          
SP          .MV                                                 :          
SP_NORM     .MV                                                 :SP Normalized
VSH_SP      .V/V                                                :Volume of Shale from SP
~A        DEPTH           CALN           DPSS           DRHO             DT            GRN            ILD           NPSS           RHOB            SFL             SP        SP_NORM         VSH_SP
# ...
      5871.0000        11.3031        28.6155          0.019          135.6        68.8682         0.7254        48.1152           2.22         0.5892          -61.2      0.4802589              1
      5871.5000        11.2851        27.0522          0.024          133.4        69.4861         0.7063        46.2865          2.223            0.6          -62.4     -0.7227478              1
      5872.0000        11.3071        26.3292          0.011          130.8         70.104         0.6874        45.1071          2.208          0.651            -64      -2.325752      0.9815868
      5872.5000         11.389        27.3461          0.012       126.6667        70.7219          0.669        43.5465          2.216         0.7126          -66.8      -5.128757      0.9426562
      5873.0000        11.5714        26.3232           0.03       122.9412        68.3974         0.6055        41.5632          2.241         0.7189            -70       -8.33176        0.89817
      5873.5000        11.5934        25.2402          0.029            118        64.0192         0.5733        40.3002          2.237          0.745          -75.6      -13.93476      0.8203505
      5874.0000        11.5954        25.3572          0.003          114.4         61.989         0.5527        39.4572          2.226         0.8239            -80      -18.33777      0.7591977
      5874.5000        10.9384        26.0742         -0.002          112.6        61.7242         0.5378        38.2102          2.215         0.8739          -85.6      -23.94077      0.6813781
      5875.0000        10.7246        26.8512          0.002          111.8        61.4594         0.5378        36.6187          2.202         0.8569            -88      -26.34378       0.648003
      5875.5000        10.7266        27.7481          0.007          110.6        60.6061         0.5477        35.6682            2.2         0.8239            -86      -24.34678      0.6757391
      5876.0000        10.7481         27.805          0.017          107.8         61.224         0.5477        35.7852          2.222         0.8159            -82      -20.34979      0.7312529
      5876.5000        10.7501        25.7622          0.023          104.8        61.8419         0.5578        36.4923          2.278            0.9            -80      -18.35279       0.758989
      5877.0000        10.7324        23.1194          0.019          102.4        61.8713         0.5578        36.1953          2.298              1          -78.4       -16.7558      0.7811695
      5877.5000         10.754        21.7361          0.008          103.4        60.7238         0.5578        35.1762         2.3108         1.0659          -77.6       -15.9588      0.7922389
      5878.0000        10.7756        20.8953          0.005            108        59.5682         0.5681        35.9532         2.3206         0.8825          -78.4      -16.76181       0.781086
      5878.5000        10.7972        20.7159          0.016          111.8        59.5982         0.5785        37.8338         2.3059         0.7319          -81.2      -19.56481      0.7421554
      5879.0000        10.8188        21.3071          0.033          111.6        59.3283         0.5892        41.2872           2.29         0.7929          -87.2      -25.56781      0.6587803
      5879.5000        10.8011        22.6845          0.019          106.8        57.2591         0.6335        42.3641           2.26            0.9          -91.6      -29.97082      0.5976275
      5880.0000        10.7638        24.5412          0.012          103.6        51.8912         0.6937        40.0212          2.259         1.0184          -91.6      -29.97382      0.5975858
      5880.5000        10.7064        23.9382          0.017             99        46.5087         0.7789        37.6456            2.3         1.2447          -88.4      -26.77683      0.6419885
      5881.0000        10.7074        21.4151          0.013           92.8         41.724         0.9404        34.6752         2.3402          1.946          -82.8      -21.17984      0.7197245
      5881.5000        10.7084        19.0462          0.022             88         37.239         1.1259         32.049         2.4265         2.5182          -79.6      -17.98284      0.7641273
      5882.0000         10.729        15.2881          0.025           83.8         34.554         1.3512        29.4406          2.457         2.9725            -76      -14.38585      0.8140855
      5882.5000        10.7496        12.3461          0.011           82.6         31.269         1.5213        27.8819          2.467         3.2237          -73.2      -11.58884      0.8529327
      5883.0000        10.7505        11.6832         -0.002           83.8         30.684         1.5352        26.7432          2.467         3.4331            -70      -8.391853      0.8973354
      5883.5000        10.7515        11.6202        -0.0059           86.8         32.199         1.3887        25.9602          2.457         3.2237          -67.2      -5.594856      0.9361826
      5884.0000        10.7525        12.2172        -0.0088           93.4         35.514         1.1784        26.1372         2.4343         2.0943          -63.2      -1.597862      0.9916964
      5884.5000        10.7927        13.8338        -0.0039          106.2         41.229              1        29.4731          2.395         1.2909          -60.8      0.7991333              1
      5885.0000        10.8329        15.8627          0.004            117        46.9436         0.8485        32.7934          2.351         0.9826            -60       1.596127              1
      5885.5000        10.9123        18.7692          0.007       125.4902        53.5603         0.7126        38.7336          2.286         0.8569       -59.2157       2.377426              1
      5886.0000        10.9916        22.5255          0.012          132.8        57.4745         0.6055        41.8452          2.247         0.7929       -58.8235       2.766617              1
      5886.5000        11.1526        25.5822          0.038          138.8        59.8912         0.5477        43.9184          2.256         0.6451       -59.6078       1.979317              1
      5887.0000        11.3735        24.4392          0.025       143.5769        61.9651         0.5092        45.9921          2.232         0.6055          -60.8       0.784111              1
      5887.5000        11.6947        26.4762          0.018       144.1772         62.274         0.4862        47.9564           2.21         0.5838          -61.2      0.3811035              1
      5888.0000        11.8356        27.1902          0.017       141.5929        61.7003         0.4773         49.093          2.205         0.5785          -61.2      0.3781013              1
      5888.5000        12.0766        27.4821           0.01            138        60.8325         0.4817        48.1302          2.204         0.5785          -60.8      0.7750969              1
      5889.0000        12.4576         27.125          0.006          133.6        62.6123         0.4908        46.3312          2.227         0.5733       -59.6078       1.964291              1
      5889.5000        12.7186        25.9242          0.012          131.4        64.6862         0.4908        45.0683          2.243         0.5785       -59.2157        2.35339              1
      5890.0000        12.4396        25.2612          0.021          130.8         66.466            0.5        45.4222          2.209         0.5838       -58.4314       3.134682              1
      5890.5000        12.1606        27.6437          0.008       131.1992         67.069            0.5        46.3774         2.1666         0.5838       -57.6471       3.915977              1
      5891.0000        12.1216        29.1707              0       132.1964        66.4953            0.5        47.2716         2.1538         0.5838       -57.6471       3.912975              1
