#------------------------------------------------------------------------------
# Created by    : vladimir.rabinovich
# Created on    : 09/19/2023 17:22:21
#------------------------------------------------------------------------------
~Version Information Section
VERS.           2.0     :   CWLS log ASCII Standard - VERSION 2.0
WRAP.           NO      :   One line per depth step
~Well Information Section
#MNEM       .UNIT                                         VALUE :DESCRIPTION
#------------------------------------------------------------------------------
STRT        .FT                                            1894 :START DEPTH
STOP        .FT                                            9318 :STOP DEPTH
STEP        .FT                                             0.5 :STEP      
NULL        .                                           -999.25 :NULL      
COMP        .                                     DOMINION CORP :COMPANY   
WELL        .                                ST OF TEXAS TR 171 :WELL      
FLD         .                                           WILDCAT :FIELD     
LOC         .                                                   :LOCATION  
CNTY        .                                         GALVESTON :LOCATION  
STAT        .                                             TEXAS :STATE     
CTRY        .                                     UNITED STATES :COUNTRY   
SRVC        .                                                   :SERVICE COMPANY
DATE        .                             9/13/2023 11:19:11 AM :LOG DATE  
API         .                                    42167302850000 :API NUMBER
UWI         .                                    42167302850000 :UNIQUE WELL ID
XCOORD      .                                   1122951.0390836 :SURFACE X 
YCOORD      .                                  10723931.5138252 :SURFACE Y 
LAT         .                                        29.5392679 :LATITUDE  
LON         .                                       -94.6277178 :LONGITUDE 
ELEV        .FT                                              33 :ELEVATION VALUE
ELEV_TYPE   .                                                KB :ELEVATION REFERENCE TYPE
~Curve Information Section
#MNEM       .UNIT                                      API CODE :CURVE DESCRIPTION
#------------------------------------------------------------------------------
DEPT        .FT                                                 :DEPTH     
CALN        .IN                                                 :          
DPSS        .%                                                  :          
DRHO        .G/CM3                                              :          
DT          .US/FT                                              :          
GRN         .GAPI                                               :          
ILD         .OHMM                                               :          
NPSS        .%                                                  :Neutron Porosity Sandstone
RHOB        .G/CM3                                              :          
SFL         .OHMM                                               :          
SP          .MV                                                 :          
SP_NORM     .MV                                                 :SP Normalized
VSH_SP      .V/V                                                :Volume of Shale from SP
~A        DEPTH           CALN           DPSS           DRHO             DT            GRN            ILD           NPSS           RHOB            SFL             SP        SP_NORM         VSH_SP
# ...
      8310.5000        10.7599           24.9          0.015       126.8627           81.9         0.4556        51.7647          2.245         0.4817        -47.063       -1.64024      0.9913481
      8311.0000        10.6995          24.42           0.01       126.4706           83.4         0.4556        51.1765          2.241         0.4862       -46.6771      -1.256588      0.9965326
      8311.5000        10.6591          24.66          0.003       125.4902           84.3         0.4599          49.68          2.212         0.4862       -45.8974     -0.4791336              1
      8312.0000        10.8194          25.74              0       124.5098           83.7         0.4514          48.72          2.202         0.4817       -45.5096    -0.09358215              1
      8312.5000          11.12          26.64          0.002       124.1176           81.9         0.4349          48.66          2.195         0.4773        -45.909      -0.495224              1
      8313.0000           11.3        27.2941          0.006       124.5098           81.9         0.4269          48.78          2.182         0.4729       -46.3091     -0.8975716              1
      8313.5000          11.22        27.8235          0.009       125.6863           81.3         0.4152          49.08          2.172         0.4599       -46.3154     -0.9061165              1
      8314.0000           11.1        28.8824          0.009       127.8431           80.1         0.4037          49.74          2.161         0.4349       -45.5314     -0.1243629              1
      8314.5000          11.04        29.7647          0.008       129.4118           79.5         0.3929          50.28           2.15         0.4229       -45.1414      0.2633896              1
      8315.0000          11.06          30.18          0.008          130.6           80.1          0.379          50.64          2.164         0.4229       -44.7506       0.651947              1
      8315.5000          11.06        29.2353          0.008            131           80.7          0.379          50.34          2.184          0.419       -45.5479     -0.1476021              1
      8316.0000             11        28.2941           0.01          131.2           79.8          0.379          50.04          2.201         0.4152       -45.1567      0.2413521              1
      8316.5000        10.8987        27.4118          0.011          131.8           79.2         0.3894          49.74          2.216         0.4152       -43.9706       1.425205              1
      8317.0000          11.12           26.4          0.012          130.8           78.9            0.4          49.44          2.232         0.4229       -42.3847       3.008862              1
      8317.5000          11.16          25.38          0.024       129.4118           78.3         0.4113           48.6          2.254         0.4309       -42.3871       3.004215              1
      8318.0000        10.7968        23.5294           0.03       127.8431           75.9         0.4229           47.7          2.273         0.4472       -42.7877       2.601368              1
      8318.5000        10.9187        22.7059           0.03       125.6863        73.7798         0.4349          47.16          2.261         0.4599       -43.1892        2.19762              1
      8319.0000        10.9796        23.5294          0.022       124.1176        71.9464         0.4642           46.5          2.263         0.4729       -42.3943       2.990276              1
      8319.5000        10.7351        22.8235          0.011       123.3333        69.8037         0.4862          45.78          2.246         0.4908       -41.9972       3.385132              1
      8320.0000         10.694          24.24          0.005       123.3333        66.4313         0.5186          45.06           2.24            0.5       -41.9992       3.380886              1
      8320.5000        10.7347          24.66          0.005       122.9412        65.2041         0.5428        44.1176          2.245         0.5046          -42.4       2.977837              1
      8321.0000        10.7959          24.36          0.014       121.5686         64.898         0.5477        43.0588          2.258         0.5046          -42.8       2.575592              1
      8321.5000        10.8367        23.8235          0.023          119.2        65.8163         0.5629          41.88          2.256         0.5186          -42.4       2.973347              1
      8322.0000        10.8571        23.9412          0.024          117.6        68.2653         0.5681          41.88          2.242         0.5378          -43.2       2.171101              1
      8322.5000        10.7551          24.66          0.015          116.2        70.7143         0.5838             43          2.221         0.5527          -43.6       1.768856              1
      8323.0000         10.551          25.56          0.017          116.2        71.9388         0.5785        43.9412          2.218         0.5527            -44       1.366608              1
      8323.5000         10.449          25.92          0.019          118.6         72.551         0.5428        45.8456          2.198         0.5329          -42.8       2.564362              1
      8324.0000        10.3469          26.82          0.015       121.7647        72.8571         0.4954        47.4183          2.179         0.4954          -42.4       2.962116              1
      8324.5000        10.2653        28.1176          0.011       126.4706        77.3797         0.4431        48.6798          2.165         0.4472            -42       3.359871              1
      8325.0000        10.2449        29.1765          0.017          130.2        79.7548         0.4037        50.4056          2.152         0.4113          -41.6       3.757626              1
      8325.5000        10.4082          30.18          0.026          134.8         80.046         0.3559        51.4161         2.1373          0.379          -41.2       4.155376              1
      8326.0000        10.7755          31.56          0.022            139        78.5584         0.3464        50.7035         2.1108         0.3623          -40.4       4.953133              1
      8326.5000         11.079          32.46          0.017          141.8        77.0737         0.3342         49.815         2.1284         0.3495          -40.4       4.950886              1
      8327.0000        10.5306          30.78          0.018          143.6        75.5919         0.3224        49.2835          2.151         0.3464          -40.8       4.548641              1
      8327.5000        11.0197             30          0.014          143.2        75.2957         0.3138        50.2313          2.158         0.3495            -42       3.346394              1
      8328.0000        11.3938        29.5882           0.01          141.4        76.1815         0.3166        50.6455          2.158         0.3623          -43.2       2.144146              1
      8328.5000        11.2951        29.7647          0.004          139.6        76.7705         0.3312        49.5836          2.163         0.3756          -42.8       2.541904              1
      8329.0000        11.1376        29.5294          0.007          136.8        75.5896         0.3402        48.5826          2.182         0.3894            -42       3.339657              1
      8329.5000        11.0982        28.0588          0.014            135        70.4082         0.3527        48.0548          2.199         0.4037            -42        3.33741              1
      8330.0000        11.0588        27.1765           0.02            133        69.4898         0.3824        47.5093           2.21         0.4152            -42       3.335163              1
      8330.5000        11.0196          26.28          0.019            132        68.8776            0.4        46.4694          2.238         0.4229          -42.4       2.932919              1
