#------------------------------------------------------------------------------
# Created by    : vladimir.rabinovich
# Created on    : 09/19/2023 17:22:21
#------------------------------------------------------------------------------
~Version Information Section
VERS.           2.0     :   CWLS log ASCII Standard - VERSION 2.0
WRAP.           NO      :   One line per depth step
~Well Information Section
#MNEM       .UNIT                                         VALUE :DESCRIPTION
#------------------------------------------------------------------------------
STRT        .FT                                            1894 :START DEPTH
STOP        .FT                                            9318 :STOP DEPTH
STEP        .FT                                             0.5 :STEP      
NULL        .                                           -999.25 :NULL      
COMP        .                                     DOMINION CORP :COMPANY   
WELL        .                                ST OF TEXAS TR 171 :WELL      
FLD         .                                           WILDCAT :FIELD     
LOC         .                                                   :LOCATION  
CNTY        .                                         GALVESTON :LOCATION  
STAT        .                                             TEXAS :STATE     
CTRY        .                                     UNITED STATES :COUNTRY   
SRVC        .                                                   :SERVICE COMPANY
DATE        .                             9/13/2023 11:19:11 AM :LOG DATE  
API         .                                    42167302850000 :API NUMBER
UWI         .                                    42167302850000 :UNIQUE WELL ID
XCOORD      .                                   1122951.0390836 :SURFACE X 
YCOORD      .                                  10723931.5138252 :SURFACE Y 
LAT         .                                        29.5392679 :LATITUDE  
LON         .                                       -94.6277178 :LONGITUDE 
ELEV        .FT                                              33 :ELEVATION VALUE
ELEV_TYPE   .                                                KB :ELEVATION REFERENCE TYPE
~Curve Information Section
#MNEM       .UNIT                                      API CODE :CURVE DESCRIPTION
#------------------------------------------------------------------------------
DEPT        .FT                                                 :DEPTH     
CALN        .IN                                                 :          
DPSS        .%                                                  :          
DRHO        .G/CM3                                              :          
DT          .US/FT                                              :          
GRN         .GAPI                                               :          
ILD         .OHMM                                               :          
NPSS        .%                                                  :Neutron Porosity Sandstone
RHOB        .G/CM3                                              :          
SFL         .OHMM                                               :          
SP          .MV                                                 :          
SP_NORM     .MV                                                 :SP Normalized
VSH_SP      .V/V                                                :Volume of Shale from SP
~A        DEPTH           CALN           DPSS           DRHO             DT            GRN            ILD           NPSS           RHOB            SFL             SP        SP_NORM         VSH_SP
# ...
      6363.0000        10.6329        34.0635         -0.024          113.4        47.7836         0.2019         37.807          2.091         0.5428         -129.2      -69.94073     0.04248979
      6363.5000        10.6535        33.8805         -0.021            113        47.4987         0.2019         37.157         2.0911         0.5281         -129.2      -69.94073     0.04248979
      6364.0000        10.7133        33.9974         -0.019          113.2        46.9138         0.2019        36.7423         2.0891         0.5092         -128.8      -69.54074     0.04804526
      6364.5000        10.7927        33.8744         -0.016          113.4        49.6285         0.2019        36.3864         2.0941            0.5         -128.8      -69.54074     0.04804526
      6365.0000         10.676        33.2715         -0.011          112.8        50.8434         0.2019        36.3835         2.1247         0.4954         -128.8      -69.54074     0.04804526
      6365.5000        10.3829        31.6162         -0.015          111.2        51.4584         0.2019        35.9082         2.1535            0.5           -128      -68.74074     0.05915642
      6366.0000        10.2074        30.2602         -0.027          108.2        51.4735         0.2019        34.9453         2.1921         0.5186           -126      -66.74074     0.08693419
      6366.5000        10.1888        27.2024         -0.029          105.4        51.1885         0.2075        33.5024         2.2471         0.5892         -122.4      -63.14074      0.1369341
      6367.0000        10.2682        23.4826         -0.017          103.4        50.6036         0.2495        31.4896          2.326         0.6629         -113.2      -53.94074       0.264712
      6367.5000         10.426        19.1721         -0.012          100.8        51.2187         0.2918         28.696         2.3775            0.6         -103.6      -44.34074      0.3980453
      6368.0000        10.5643          16.49         -0.002           97.4        53.0336         0.3282        27.3733            2.4         0.5946       -91.3352      -32.07594      0.5683897
      6368.5000        10.6241        14.8302         -0.004           91.4        56.6486         0.3623        27.9101           2.32         1.0562       -89.3764      -30.11715      0.5955952
      6369.0000        10.6251        20.0537         -0.009        88.6275        61.1408         0.4113        30.7718          2.264          1.376        -90.566      -31.30674       0.579073
      6369.5000        10.5869         25.024         -0.013        89.0196        64.0969         0.4472        35.2242          2.198         0.9262       -93.3242      -34.06495      0.5407646
      6370.0000        10.5878        27.1212          -0.01           92.8        65.2882         0.4773        37.5897         2.1882         0.7126       -91.7615      -32.50224      0.5624689
      6370.5000        10.6673         27.898              0          102.4        65.0089         0.4817        39.4182          2.201         0.6335       -86.2745      -27.01524      0.6386772
      6371.0000        10.7663        27.2352          0.006          110.4        64.4354         0.4773        40.5552         2.2176         0.6335       -82.7451      -23.48584      0.6876966
      6371.5000        10.9437        26.0324          0.009          113.4        64.4501         0.4817        41.6921         2.2333         0.6629          -79.2      -19.94074      0.7369342
      6372.0000        11.0236        24.8889          0.006          116.6        64.4649            0.5        42.8289         2.2353          0.651          -74.4      -15.14074      0.8036008
      6372.5000        11.0046        25.1259          0.001          117.6        64.7737         0.5378        43.7263         2.2284         0.6451          -71.6      -12.34074      0.8424897
      6373.0000        10.8683        25.6034         -0.004            116        64.4944         0.5838        43.7233         2.2108         0.6629            -70      -10.74074      0.8647119
      6373.5000         10.732        26.3803         -0.005            114         64.215         0.6055        42.8204         2.1941         0.6874            -70      -10.74074      0.8647119
      6374.0000        10.6938        27.5771         -0.005          112.8        63.3473         0.6165         41.737         2.1784         0.7189          -72.8      -13.54074       0.825823
      6374.5000        10.8713        28.5345         -0.005          114.2         63.362         0.6335         41.674         2.1696          0.772          -73.2      -13.94074      0.8202675
      6375.0000        11.1097        29.3713         -0.008          117.4        63.3768          0.651        42.9913         2.1755         0.7584          -69.2      -9.940739      0.8758231
      6375.5000        11.3307        29.0084          -0.01          119.4        62.8032         0.6278        42.8683         2.1892         0.6569          -66.4      -7.140743      0.9147119
      6376.0000        11.0715         28.045         -0.014            120        62.2297         0.6165         40.645         2.2118         0.6335          -65.2      -5.940739      0.9313786
      6376.5000        10.8946        26.8422         -0.014            116        61.9502            0.6        38.7865         2.2324         0.6629          -66.8      -7.540745      0.9091563
      6377.0000        10.6801        25.5193         -0.016          111.4        64.0241         0.5838        37.5483         2.2353         0.7254          -71.6      -12.34074      0.8424897
      6377.5000         10.583        26.1762         -0.014          107.2        66.9804         0.5681        39.1362         2.1804         0.8371          -77.6      -18.34074      0.7591564
      6378.0000         10.486        27.6731         -0.003            108        69.6427         0.5428         40.033         2.1794         0.8524       -83.1373      -23.87804      0.6822494
      6378.5000        10.3889        28.3899         -0.002          112.4        70.8312         0.5281          40.03         2.1882         0.8073       -89.0196      -29.76034      0.6005508
      6379.0000        10.3114         27.967         -0.007            115        72.0227         0.5092        40.6869         2.2078         0.8371       -89.0196      -29.76034      0.6005508
      6379.5000         10.332        26.5242         -0.006            117        72.0375         0.4908        42.3042         2.2225         0.8524       -81.9608      -22.70154      0.6854849
      6380.0000        10.3526        25.9812         -0.004          117.6         71.464         0.4773        44.7013         2.2157         0.7126            -76      -16.74074      0.7718733
      6380.5000        10.3536        26.2182          0.002            119        70.5961          0.464        45.4101         2.2157         0.6688          -71.6      -12.34074      0.8356414
      6381.0000        10.4134        26.2752          0.003       121.3725        70.3166         0.4682        44.9952         2.2206         0.6565          -70.4      -11.14074      0.8530327
      6381.5000        10.4732        25.9722          0.001       125.2941        70.9195         0.4812        43.0721         2.2284         0.6444          -70.4      -11.14074      0.8530327
      6382.0000        10.5526        25.1893         -0.001        127.451        71.2283         0.4945        41.9293         2.2412           0.61          -71.6      -12.34074      0.8356414
      6382.5000        10.4359        24.1063         -0.003       127.2549         71.537         0.5081        41.0265         2.2431          0.638          -72.4      -13.14074      0.8240472
      6383.0000        10.2997        24.3433         -0.008       125.4902        70.9633         0.5172        40.0031         2.2382         0.7045          -73.2      -13.94074      0.8124531
