#------------------------------------------------------------------------------
# Created by    : vladimir.rabinovich
# Created on    : 09/19/2023 17:22:21
#------------------------------------------------------------------------------
~Version Information Section
VERS.           2.0     :   CWLS log ASCII Standard - VERSION 2.0
WRAP.           NO      :   One line per depth step
~Well Information Section
#MNEM       .UNIT                                         VALUE :DESCRIPTION
#------------------------------------------------------------------------------
STRT        .FT                                            1894 :START DEPTH
STOP        .FT                                            9318 :STOP DEPTH
STEP        .FT                                             0.5 :STEP      
NULL        .                                           -999.25 :NULL      
COMP        .                                     DOMINION CORP :COMPANY   
WELL        .                                ST OF TEXAS TR 171 :WELL      
FLD         .                                           WILDCAT :FIELD     
LOC         .                                                   :LOCATION  
CNTY        .                                         GALVESTON :LOCATION  
STAT        .                                             TEXAS :STATE     
CTRY        .                                     UNITED STATES :COUNTRY   
SRVC        .                                                   :SERVICE COMPANY
DATE        .                             9/13/2023 11:19:11 AM :LOG DATE  
API         .                                    42167302850000 :API NUMBER
UWI         .                                    42167302850000 :UNIQUE WELL ID
XCOORD      .                                   1122951.0390836 :SURFACE X 
YCOORD      .                                  10723931.5138252 :SURFACE Y 
LAT         .                                        29.5392679 :LATITUDE  
LON         .                                       -94.6277178 :LONGITUDE 
ELEV        .FT                                              33 :ELEVATION VALUE
ELEV_TYPE   .                                                KB :ELEVATION REFERENCE TYPE
~Curve Information Section
#MNEM       .UNIT                                      API CODE :CURVE DESCRIPTION
#------------------------------------------------------------------------------
DEPT        .FT                                                 :DEPTH     
CALN        .IN                                                 :          
DPSS        .%                                                  :          
DRHO        .G/CM3                                              :          
DT          .US/FT                                              :          
GRN         .GAPI                                               :          
ILD         .OHMM                                               :          
NPSS        .%                                                  :Neutron Porosity Sandstone
RHOB        .G/CM3                                              :          
SFL         .OHMM                                               :          
SP          .MV                                                 :          
SP_NORM     .MV                                                 :SP Normalized
VSH_SP      .V/V                                                :Volume of Shale from SP
~A        DEPTH           CALN           DPSS           DRHO             DT            GRN            ILD           NPSS           RHOB            SFL             SP        SP_NORM         VSH_SP
# ...
      2960.0000        12.4314        25.7059         0.0461       154.9039           56.6         0.9352        42.8815          2.214         0.6874          -77.2       2.712128              1
      2960.5000        12.3525        26.1176         0.0333       156.8627        57.1957            0.9        44.2941          2.191         0.6751       -77.2018       2.706635              1
      2961.0000        11.8986          27.24         0.0333       158.4314        57.9872         0.8759          45.06          2.181         0.6569       -77.2046       2.700142              1
      2961.5000        11.6383          28.44         0.0471            160        58.7772         0.8601          45.72          2.173          0.651       -77.6063       2.294746              1
      2962.0000        11.7174          28.62          0.048       160.9804         59.167         0.8601          47.16          2.162          0.651       -77.6087       2.288651              1
      2962.5000        11.8561          29.22         0.0412       161.9608        58.5606         0.8601          48.36          2.149         0.6569        -77.611       2.282661              1
      2963.0000        11.9945          30.06         0.0402       162.7451        57.9554         0.8601          48.78         2.1471          0.669       -78.4089       1.481071              1
      2963.5000        11.9935           30.3         0.0333       162.9412        56.9541          0.868          48.36         2.1333         0.6812       -78.8079       1.078377              1
      2964.0000        11.9726          30.96         0.0294       163.5294        55.5578         0.8838          47.76         2.1196         0.6937        -79.206        0.67659              1
      2964.5000        11.9518          31.98         0.0333       164.3137        54.5608         0.9087          46.86         2.1059            0.7       -79.2068      0.6720963              1
      2965.0000        12.0499          32.82         0.0127        165.098        54.1601         0.9174          45.96          2.096         0.7063       -79.6038      0.2714081              1
      2965.5000        12.2471          33.54         0.0275       165.4902        53.7601         0.9442          46.44         2.1029            0.7            -80     -0.1284866              1
      2966.0000        12.5636          32.94         0.0235        164.902         53.361         0.9624          48.12         2.1029         0.7126       -80.7843      -0.916481              1
      2966.5000         13.079          33.54         0.0147       162.9412        52.9627         0.9717           49.5          2.085         0.7319       -80.7843     -0.9201736              1
      2967.0000        13.6511           33.9         0.0137       159.4118        52.7624         0.9905          50.46          2.077         0.7189       -80.7843     -0.9238663              1
      2967.5000        12.6021          34.02         0.0275       156.0784        52.9568         0.9905           49.8         2.1382         0.7126       -80.3922     -0.5354538              1
      2968.0000        12.2035          31.92         0.0363       153.7255        53.7416          0.981           48.6          2.168         0.7254       -80.3922     -0.5391464              1
      2968.5000         12.123          29.88         0.0431       152.7451        54.5249         0.9624          47.76          2.195         0.7126            -80     -0.1506424              1
      2969.0000        12.3017           28.2         0.0333        152.549        55.1101         0.9442          47.04          2.216         0.6937       -79.6069      0.2387619              1
      2969.5000        12.4408             27         0.0451        152.549        55.6941         0.9262          46.62          2.222         0.6874       -79.2146      0.6273727              1
      2970.0000        12.6401        25.9412           0.05       151.7647        55.4923         0.9174          46.26          2.212         0.6874       -79.2154      0.6228867              1
      2970.5000          12.78        26.2353          0.051        150.202        54.7059         0.9089          46.14          2.202          0.669       -79.2157      0.6188965              1
      2971.0000           12.8        26.8824         0.0451       148.4471         52.549         0.9093        44.8824          2.192         0.6751       -79.2157      0.6152039              1
      2971.5000          12.84          27.48         0.0392       145.9078        50.7843         0.9011             43          2.183            0.7       -80.3932     -0.5659943              1
      2972.0000         13.098          28.74         0.0402       144.1529        50.1961         0.9015          40.92          2.175         0.7257       -81.1806      -1.357086      0.9927125
      2972.5000        13.2941          28.68         0.0373       142.5941        50.1961         0.8938          39.96          2.156         0.7525       -83.1515      -3.331673      0.9524149
      2973.0000        13.7255          29.52         0.0353       142.4078        49.3966         0.8942          39.78         2.1422         0.7596       -84.3375       -4.52137      0.9281353
      2973.5000        13.9216          30.42         0.0353       142.4176        47.3829         0.8865          39.66         2.1294         0.7529       -85.9207      -6.108261      0.8957497
      2974.0000         13.902          31.38         0.0314       141.8392        45.1637          0.871          39.96         2.1039         0.7531       -86.7167      -6.907951      0.8794296
      2974.5000        13.7255          32.64         0.0225       140.2804        43.9475         0.8557          40.98         2.1039         0.7743       -88.7008      -8.895744      0.8388624
      2975.0000        13.7255          33.36         0.0176        137.696        43.9414         0.8484             42          2.096         0.8561       -91.4806      -11.67924      0.7820564
      2975.5000        13.8431          33.42         0.0049        132.506        44.3395         0.8721        43.1765          2.099         0.9295       -95.0585      -15.26083      0.7089626
      2976.0000        13.8824          33.24              0       126.9771        44.3338         0.8965             44         2.1275         1.0092       -99.0401      -19.24612      0.6276303
      2976.5000        13.6078          31.86         -0.006       123.0641        45.1392         0.9217        43.7059          2.172         1.0955      -100.2488      -20.45851      0.6028875
      2977.0000           12.8           29.7         -0.021        118.936        45.5397         0.9559          41.94          2.183         1.2561      -101.0574      -21.27081      0.5863101
      2977.5000          12.36          28.02         -0.005        115.346        45.1294              1          40.14          2.205         1.4402      -103.4412      -23.65829      0.5375858
      2978.0000          12.12        26.9412         -0.012        112.556        43.4981         1.0467        38.6471          2.226         1.6364      -104.2451      -24.46589      0.5211043
      2978.5000        11.7255        25.4118         -0.018        111.966        41.6613         1.0955           35.4         2.2853         1.6665      -104.2606      -24.48508      0.5207127
      2979.0000        11.1765          22.74         -0.022        109.576        41.0422         1.1157          31.62           2.31         1.7284       -103.883      -24.11118      0.5283434
      2979.5000        11.2549        20.4706         -0.008        107.786         41.033         1.1259          29.52          2.319         2.0181      -103.1136      -23.34547        0.54397
      2980.0000        11.6078        20.0588              0        109.796        41.2279         1.1055          28.98          2.314         2.1496      -103.1301      -23.36565      0.5435581
