#------------------------------------------------------------------------------
# Created by    : vladimir.rabinovich
# Created on    : 09/19/2023 17:22:21
#------------------------------------------------------------------------------
~Version Information Section
VERS.           2.0     :   CWLS log ASCII Standard - VERSION 2.0
WRAP.           NO      :   One line per depth step
~Well Information Section
#MNEM       .UNIT                                         VALUE :DESCRIPTION
#------------------------------------------------------------------------------
STRT        .FT                                            1894 :START DEPTH
STOP        .FT                                            9318 :STOP DEPTH
STEP        .FT                                             0.5 :STEP      
NULL        .                                           -999.25 :NULL      
COMP        .                                     DOMINION CORP :COMPANY   
WELL        .                                ST OF TEXAS TR 171 :WELL      
FLD         .                                           WILDCAT :FIELD     
LOC         .                                                   :LOCATION  
CNTY        .                                         GALVESTON :LOCATION  
STAT        .                                             TEXAS :STATE     
CTRY        .                                     UNITED STATES :COUNTRY   
SRVC        .                                                   :SERVICE COMPANY
DATE        .                             9/13/2023 11:19:11 AM :LOG DATE  
API         .                                    42167302850000 :API NUMBER
UWI         .                                    42167302850000 :UNIQUE WELL ID
XCOORD      .                                   1122951.0390836 :SURFACE X 
YCOORD      .                                  10723931.5138252 :SURFACE Y 
LAT         .                                        29.5392679 :LATITUDE  
LON         .                                       -94.6277178 :LONGITUDE 
ELEV        .FT                                              33 :ELEVATION VALUE
ELEV_TYPE   .                                                KB :ELEVATION REFERENCE TYPE
~Curve Information Section
#MNEM       .UNIT                                      API CODE :CURVE DESCRIPTION
#------------------------------------------------------------------------------
DEPT        .FT                                                 :DEPTH     
CALN        .IN                                                 :          
DPSS        .%                                                  :          
DRHO        .G/CM3                                              :          
DT          .US/FT                                              :          
GRN         .GAPI                                               :          
ILD         .OHMM                                               :          
NPSS        .%                                                  :Neutron Porosity Sandstone
RHOB        .G/CM3                                              :          
SFL         .OHMM                                               :          
SP          .MV                                                 :          
SP_NORM     .MV                                                 :SP Normalized
VSH_SP      .V/V                                                :Volume of Shale from SP
~A        DEPTH           CALN           DPSS           DRHO             DT            GRN            ILD           NPSS           RHOB            SFL             SP        SP_NORM         VSH_SP
# ...
      9294.5000         10.451        25.7142         0.0421       133.9549        97.4161         0.3087        40.8441          2.196         0.3172            -40     -0.4938278              1
      9295.0000        10.8039        26.8512         0.0163       133.9588           83.4         0.3112        40.4263          2.204         0.3228            -40     -0.4938278              1
      9295.5000        10.9608        26.9082         0.0114       133.9628        71.4706         0.3139         40.603          2.165         0.3286       -41.1888      -1.682629      0.9907753
      9296.0000          11.12        28.4052         0.0045       133.9667        74.4118         0.3194        41.1945         2.1412         0.3344       -41.9833      -2.477127      0.9800388
      9296.5000          11.24        29.8422         0.0026       133.9706        98.0399         0.3221        41.8442           2.15         0.3341       -42.7794      -3.273228      0.9692807
      9297.0000        10.7059         30.973         0.0036       133.9746        128.048         0.3248        42.0792          2.193         0.3339       -41.9873      -2.481129      0.9799848
      9297.5000            9.3        29.4162         0.0066       133.9785       132.5316         0.3245        41.2472          2.209         0.3558       -40.3979     -0.8917274              1
      9298.0000           9.58        27.4932         0.0116       133.9825       132.8429         0.3243        40.4179          2.187         0.3589       -39.6061    -0.09992599              1
      9298.5000             10        26.8902         0.0067       133.9864       133.1548        -999.25        40.7706          2.165        -999.25       -39.6065     -0.1003265              1
      9299.0000        10.1176        28.4472         0.0038       133.9904       133.4674        -999.25        41.7123         2.1235        -999.25       -39.2138      0.2923737              1
      9299.5000        10.1569        30.3637         0.0009       133.7947       133.7805        -999.25        42.9642          2.093        -999.25       -39.2146      0.2915726              1
      9300.0000            9.9        32.5802         -0.003       133.7985       133.7944        -999.25        43.4412         2.0353        -999.25            -40     -0.4938278              1
      9300.5000         9.6402        35.0583         -0.007          133.8       133.8007        -999.25          43.92         2.0196        -999.25       -39.6196     -0.1134262              1
      9301.0000         9.1813        37.1981         -0.011          133.8       133.8019        -999.25          44.22         2.0039        -999.25       -38.4609       1.045273              1
      9301.5000         8.2967        38.7529         -0.014          133.8       133.8031        -999.25          44.58          1.998        -999.25       -37.2998       2.206371              1
      9302.0000         8.2389        39.4617        -0.0181          133.6       133.8043        -999.25          44.34         1.9892        -999.25       -37.7105       1.795673              1
      9302.5000         8.2006        40.0501        -0.0201          133.6        -999.25        -999.25          43.08         1.9814        -999.25       -38.5159      0.9902725              1
      9303.0000         8.2016        40.1665        -0.0231          133.6        -999.25        -999.25        38.6851         1.9863        -999.25       -39.7172     -0.2110291              1
      9303.5000         8.2026        40.2831        -0.0191          133.6        -999.25        -999.25        33.4543         1.9814        -999.25       -40.1316     -0.6254272              1
      9304.0000         8.2036        39.6296        -0.0141          133.6        -999.25        -999.25          28.44         1.9971        -999.25       -40.1516     -0.6454277              1
      9304.5000         8.2045        39.4493        -0.0232          133.4        -999.25        -999.25        23.4118         1.9804        -999.25       -39.7763     -0.2701263              1
      9305.0000         8.2055         40.575        -0.0242          133.8        -999.25        -999.25          25.26         1.9814        -999.25       -40.1919     -0.6857262              1
      9305.5000         8.1869        40.0977        -0.0192          133.8        -999.25        -999.25        35.2272         1.9892        -999.25       -40.2079     -0.7017288              1
      9306.0000          8.129        39.9768        -0.0172            134        -999.25        -999.25        38.9654         1.9971        -999.25       -40.6231      -1.116928      0.9984199
      9306.5000         8.1692         40.094        -0.0172          134.2        -999.25        -999.25        39.4388         1.9931        -999.25       -41.0374      -1.531227      0.9928213
      9307.0000         8.2291        40.2113        -0.0213          134.2        -999.25        -999.25        39.6747         1.9833        -999.25       -40.6617      -1.155529      0.9978983
      9307.5000           8.23        40.6273        -0.0223            134        -999.25        -999.25        39.9112         1.9784        -999.25       -40.6809      -1.174728      0.9976388
      9308.0000         8.2114         40.387        -0.0183          133.8        -999.25        -999.25        40.0883         1.9824        -999.25       -40.7001      -1.193928      0.9973794
      9308.5000         8.1928        40.0864        -0.0132          133.8        -999.25        -999.25        40.3854         1.9912        -999.25       -40.7193      -1.213127      0.9971199
      9309.0000         8.1938        39.9648        -0.0092          133.8        -999.25        -999.25        40.6233         1.9931        -999.25       -40.7384      -1.232227      0.9968618
      9309.5000         8.1947        39.7232        -0.0102          133.8        -999.25        -999.25        40.9215         1.9931        -999.25       -40.7575      -1.251328      0.9966037
      9310.0000         8.2153         39.481        -0.0143          133.8        -999.25        -999.25        41.2203         1.9931        -999.25       -40.7766      -1.270428      0.9963456
      9310.5000         8.2152        39.6596        -0.0194        133.794        -999.25        -999.25        41.3986         1.9931        -999.25       -40.3922     -0.8860283              1
      9311.0000         8.2144        39.8986        -0.0225        133.784        -999.25        -999.25        41.7556         1.9901        -999.25            -40     -0.4938278              1
      9311.5000         8.2136        39.7181        -0.0256        133.774        -999.25        -999.25        41.9922         1.9881        -999.25            -40     -0.4938278              1
      9312.0000         8.2129        39.9566        -0.0277        133.764        -999.25        -999.25        42.2892         1.9851        -999.25       -40.3922     -0.8860283              1
      9312.5000         8.2318        40.4931        -0.0247        133.754        -999.25        -999.25        42.5262          1.983        -999.25       -40.3922     -0.8860283              1
      9313.0000          8.231        40.6706        -0.0197        133.744        -999.25        -999.25        42.7632         1.9908        -999.25            -40     -0.4938278              1
      9313.5000         8.2303        40.1325        -0.0158        133.734        -999.25        -999.25        42.8802         1.9957        -999.25            -40     -0.4938278              1
      9314.0000         8.2295        39.4764        -0.0138        133.724        -999.25        -999.25        42.9972         1.9917        -999.25       -40.7843       -1.27813      0.9962415
      9314.5000         8.2288        39.5949        -0.0119        133.714        -999.25        -999.25        43.0542         1.9897        -999.25       -40.7843       -1.27813      0.9962415
