#------------------------------------------------------------------------------
# Created by    : vladimir.rabinovich
# Created on    : 09/19/2023 17:22:21
#------------------------------------------------------------------------------
~Version Information Section
VERS.           2.0     :   CWLS log ASCII Standard - VERSION 2.0
WRAP.           NO      :   One line per depth step
~Well Information Section
#MNEM       .UNIT                                         VALUE :DESCRIPTION
#------------------------------------------------------------------------------
STRT        .FT                                            1894 :START DEPTH
STOP        .FT                                            9318 :STOP DEPTH
STEP        .FT                                             0.5 :STEP      
NULL        .                                           -999.25 :NULL      
COMP        .                                     DOMINION CORP :COMPANY   
WELL        .                                ST OF TEXAS TR 171 :WELL      
FLD         .                                           WILDCAT :FIELD     
LOC         .                                                   :LOCATION  
CNTY        .                                         GALVESTON :LOCATION  
STAT        .                                             TEXAS :STATE     
CTRY        .                                     UNITED STATES :COUNTRY   
SRVC        .                                                   :SERVICE COMPANY
DATE        .                             9/13/2023 11:19:11 AM :LOG DATE  
API         .                                    42167302850000 :API NUMBER
UWI         .                                    42167302850000 :UNIQUE WELL ID
XCOORD      .                                   1122951.0390836 :SURFACE X 
YCOORD      .                                  10723931.5138252 :SURFACE Y 
LAT         .                                        29.5392679 :LATITUDE  
LON         .                                       -94.6277178 :LONGITUDE 
ELEV        .FT                                              33 :ELEVATION VALUE
ELEV_TYPE   .                                                KB :ELEVATION REFERENCE TYPE
~Curve Information Section
#MNEM       .UNIT                                      API CODE :CURVE DESCRIPTION
#------------------------------------------------------------------------------
DEPT        .FT                                                 :DEPTH     
CALN        .IN                                                 :          
DPSS        .%                                                  :          
DRHO        .G/CM3                                              :          
DT          .US/FT                                              :          
GRN         .GAPI                                               :          
ILD         .OHMM                                               :          
NPSS        .%                                                  :Neutron Porosity Sandstone
RHOB        .G/CM3                                              :          
SFL         .OHMM                                               :          
SP          .MV                                                 :          
SP_NORM     .MV                                                 :SP Normalized
VSH_SP      .V/V                                                :Volume of Shale from SP
~A        DEPTH           CALN           DPSS           DRHO             DT            GRN            ILD           NPSS           RHOB            SFL             SP        SP_NORM         VSH_SP
# ...
      2468.0000        15.0356        35.1732         -0.002        163.244        46.2314         0.8653        48.8532          2.063         0.6876            -86       -6.37027      0.8779484
      2468.5000        15.3966        35.7102        -0.0059        162.034        44.2804          0.832        49.0902          2.053         0.6875          -87.2      -7.566956       0.850751
      2469.0000        15.5176        36.1835        -0.0029        160.424        44.8784         0.7929        48.8472          2.053         0.6937          -88.4      -8.763641      0.8235536
      2469.5000        15.4186        36.0042          0.008        158.614        45.0843         0.7517        48.4242          2.066         0.7063          -89.6      -9.960327      0.7963562
      2470.0000        15.2996        35.2812           0.02        157.604        45.4863         0.7126        48.4212          2.083         0.7063          -90.4      -10.75702      0.7782496
      2470.5000          15.34          34.38          0.032          158.2        46.2745         0.6751          48.72          2.089         0.6874          -92.4      -12.75371      0.7328703
      2471.0000           15.6           33.9           0.04          158.6         47.451         0.6451          48.84          2.093         0.6751          -94.4      -14.75039      0.6874912
      2471.5000           15.5          33.48          0.036          156.6        49.2157            0.6           48.6          2.089         0.6629          -97.2      -17.54707      0.6239302
      2472.0000          14.48          34.26          0.028          152.8        49.8039         0.5629           48.6          2.078         0.6812      -100.7843      -21.12807      0.5425439
      2472.5000          14.48          34.92          0.031          148.6        49.8039         0.5477          48.66          2.088         0.7063      -103.1373      -23.47775       0.489142
      2473.0000        13.7843          33.96           0.04          145.2        49.2157         0.5378          48.48         2.1147         0.7126      -102.3529      -22.69003      0.5070447
      2473.5000          12.22        32.4118          0.049          142.6        47.6471         0.5329          48.12         2.1461         0.7384            -98      -18.33382      0.6060495
      2474.0000          12.22        30.5294          0.046          141.4        47.0588         0.5329        47.3529          2.149         0.7652          -93.2      -13.53051      0.7152157
      2474.5000           12.6        30.5882          0.028          142.2        47.2549         0.5428        45.5882          2.153         0.7254          -89.6        -9.9272      0.7971091
      2475.0000        13.3529        30.4706          0.033            144        48.0392         0.5733           43.8          2.166         0.6937          -88.4      -8.723885      0.8244572
      2475.5000        13.3725          29.22          0.014          145.2        49.4118         0.6055           41.1           2.15         0.6874          -89.2      -9.520569      0.8063507
      2476.0000        13.2353          29.76           0.01            145           51.4         0.6165           39.9          2.173         0.7063            -90      -10.31726      0.7882441
      2476.5000        13.2353          29.52          0.047          142.6           55.4            0.6          39.84          2.195         0.7584          -90.8      -11.11395      0.7701374
      2477.0000        13.4118          28.08          0.061          139.2           59.4         0.5785          39.84          2.194          0.832            -92      -12.31063      0.7429402
      2477.5000        13.5882             27          0.047            136           63.2         0.5281          39.84          2.184         0.8739          -94.4      -14.70732      0.6884699
      2478.0000        13.7843           27.9           0.03          136.6           66.4         0.4823          39.72          2.178         0.8739            -98      -18.30401      0.6067271
      2478.5000          12.88           28.5          0.017          138.4           68.8          0.437        38.7647          2.183         0.8569      -101.9608       -22.2615      0.5167841
      2479.0000          12.84          28.44          0.013            141             68         0.4179        37.1176          2.188         0.8402      -105.8824      -26.17978      0.4277323
      2479.5000          12.82          27.78          0.013          143.2           64.8          0.407        36.7059          2.185         0.7929       -107.451      -27.74506      0.3921576
      2480.0000           12.8          28.02          0.006          144.6             57         0.4108        37.4118          2.165         0.7652      -105.4902      -25.78095      0.4367965
      2480.5000        12.8206        28.8582         -0.002        145.794         49.222          0.422        37.9984         2.1451         0.7321           -100      -20.28745       0.561649
      2481.0000        12.8216        30.2894        -0.0039        147.784        41.5975         0.4616        38.4659         2.1186         0.7068            -92      -12.28413      0.7435426
      2481.5000        13.1594        32.3451          0.008        152.174         37.452         0.5006        37.3455          2.098         0.7008          -84.4      -4.680817      0.9163451
      2482.0000        13.7878        33.3491          0.008        156.764         36.272         0.5638        36.8127           2.09         0.7074          -79.2      0.5224991              1
      2482.5000        14.3046        33.8261          0.006        160.954         37.892         0.6524        37.5749          2.098         0.7269            -76       3.725807              1
      2483.0000        14.3856         33.403          0.006        161.544        40.4992         0.7535        38.3952         2.1098         0.7402          -75.2       4.529129              1
      2483.5000        14.6466        32.5097          0.005        160.934        43.2457          0.858           41.2         2.1235         0.7472          -74.4       5.332436              1
      2484.0000        15.7676        31.8013          0.001        160.124        45.0136            0.9         42.937         2.1167         0.7475          -74.4       5.335747              1
      2484.5000        15.1286         32.269        -0.0039        158.514        45.8059         0.9334        43.8939          2.098         0.7412          -74.4       5.339058              1
      2485.0000        14.2496        33.4509        -0.0078        156.904        45.4312         0.9595        44.1309          2.095         0.7416          -74.8       4.942375              1
      2485.5000        14.2706        33.6285        -0.0059        155.694        45.6394         0.9686        44.2485          2.102         0.7688          -75.2       4.545692              1
      2486.0000        14.4316        33.2055         -0.001        154.684        45.8472         0.9689        44.7855         2.1108          0.776            -76       3.749001              1
      2486.5000        14.5726        32.7278          0.001        153.674        46.8294         0.9783        45.7279         2.1147         0.7764          -76.4        3.35231              1
      2487.0000        15.9876        32.3718        -0.0029        152.664        47.6161         0.9786        46.1955         2.1186         0.7767          -77.6       2.155632              1
      2487.5000        16.5692        32.0747         -0.002        150.654        47.0481         0.9609        44.6564         2.1363          0.784          -79.2      0.5589447              1
      2488.0000        16.0112        31.3069          0.004        148.244        45.9019         0.9085        43.8733         2.1461         0.8058          -80.4     -0.6377487              1
