#------------------------------------------------------------------------------
# Created by    : vladimir.rabinovich
# Created on    : 09/19/2023 17:22:21
#------------------------------------------------------------------------------
~Version Information Section
VERS.           2.0     :   CWLS log ASCII Standard - VERSION 2.0
WRAP.           NO      :   One line per depth step
~Well Information Section
#MNEM       .UNIT                                         VALUE :DESCRIPTION
#------------------------------------------------------------------------------
STRT        .FT                                            1894 :START DEPTH
STOP        .FT                                            9318 :STOP DEPTH
STEP        .FT                                             0.5 :STEP      
NULL        .                                           -999.25 :NULL      
COMP        .                                     DOMINION CORP :COMPANY   
WELL        .                                ST OF TEXAS TR 171 :WELL      
FLD         .                                           WILDCAT :FIELD     
LOC         .                                                   :LOCATION  
CNTY        .                                         GALVESTON :LOCATION  
STAT        .                                             TEXAS :STATE     
CTRY        .                                     UNITED STATES :COUNTRY   
SRVC        .                                                   :SERVICE COMPANY
DATE        .                             9/13/2023 11:19:11 AM :LOG DATE  
API         .                                    42167302850000 :API NUMBER
UWI         .                                    42167302850000 :UNIQUE WELL ID
XCOORD      .                                   1122951.0390836 :SURFACE X 
YCOORD      .                                  10723931.5138252 :SURFACE Y 
LAT         .                                        29.5392679 :LATITUDE  
LON         .                                       -94.6277178 :LONGITUDE 
ELEV        .FT                                              33 :ELEVATION VALUE
ELEV_TYPE   .                                                KB :ELEVATION REFERENCE TYPE
~Curve Information Section
#MNEM       .UNIT                                      API CODE :CURVE DESCRIPTION
#------------------------------------------------------------------------------
DEPT        .FT                                                 :DEPTH     
CALN        .IN                                                 :          
DPSS        .%                                                  :          
DRHO        .G/CM3                                              :          
DT          .US/FT                                              :          
GRN         .GAPI                                               :          
ILD         .OHMM                                               :          
NPSS        .%                                                  :Neutron Porosity Sandstone
RHOB        .G/CM3                                              :          
SFL         .OHMM                                               :          
SP          .MV                                                 :          
SP_NORM     .MV                                                 :SP Normalized
VSH_SP      .V/V                                                :Volume of Shale from SP
~A        DEPTH           CALN           DPSS           DRHO             DT            GRN            ILD           NPSS           RHOB            SFL             SP        SP_NORM         VSH_SP
# ...
      1976.0000        -999.25        -999.25        -999.25           57.2             30        -999.25        59.9755        -999.25        -999.25        -999.25        -999.25        -999.25
      1976.5000        -999.25        -999.25        -999.25           57.2        29.2059        -999.25        59.9785        -999.25        -999.25        -999.25        -999.25        -999.25
      1977.0000        -999.25        -999.25        -999.25           57.6         28.609         1959.3        59.9814        -999.25        -999.25        -70.528       8.484344              1
      1977.5000        -999.25        -999.25        -999.25           59.8        29.2043       1960.256        59.9843        -999.25        -999.25        -71.708       7.304344              1
      1978.0000        -999.25        -999.25        -999.25           64.6        28.8053       1961.022        59.9872        -999.25        -999.25        -72.888       6.124344              1
      1978.5000        -999.25        -999.25        -999.25             69        28.0069        1961.98        54.4699        -999.25        -999.25        -74.468       4.544342              1
      1979.0000        -999.25        -999.25        -999.25        86.2228        28.0049       1962.938        52.1692        -999.25        -999.25        -76.448       2.564346              1
      1979.5000        -999.25        -999.25        -999.25        115.814        27.4038       1963.705        50.3958        -999.25        -999.25        -78.828      0.1843414              1
      1980.0000        -999.25        -999.25        -999.25        132.604        26.4017       1964.665        49.3188        -999.25        -999.25        -81.208      -2.195656      0.9693422
      1980.5000        -999.25        -999.25        -999.25       123.9149           25.6         5.1386          49.02        -999.25        -999.25        -85.988      -6.975655      0.8467781
      1981.0000        -999.25        -999.25        -999.25       126.2596           25.4         3.0544          49.44        -999.25         0.2036        -90.368      -11.35565      0.7344705
      1981.5000        -999.25        -999.25        -999.25        136.974           25.6              2          49.56        -999.25         0.2036        -98.748      -19.73566      0.5195985
      1982.0000         10.551          22.74        -0.2686        141.564             26         2.3177          49.68         2.2471         0.3322      -106.9882      -27.97585      0.3083115
      1982.5000        10.5918        24.5294        -0.1441        114.354           27.2         2.8386          50.22          2.278         0.6629       -112.851      -33.83865      0.1579832
      1983.0000        10.6939           22.5        -0.0225         96.744           29.2         1.7443          50.34          2.308         1.0955      -115.1843      -36.17196      0.0981549
      1983.5000        11.0784        20.4706          0.069        130.534        32.1569         0.8485          50.22          2.282         1.2001      -113.9882      -34.97585      0.1288243
      1984.0000        11.7647           22.8          0.036        163.324        33.9216         0.7189           47.1          2.161         1.2792      -112.0078      -32.99545      0.1796038
      1984.5000          12.46          30.54          0.028        153.714        34.3137            0.8        44.4706          2.155         1.3267      -109.6353      -30.62296       0.240437
      1985.0000          12.72          30.24          0.013        144.104         35.098         0.9322          41.64          2.169         1.3512      -106.8706      -27.85825      0.3113268
      1985.5000           12.5          29.34         -0.001        136.494        35.2941         0.9826          41.22          2.187         1.2909      -105.2824      -26.27006      0.3520498
      1986.0000           12.5          28.02        -0.0088        135.884        35.8824         0.8739          40.56          2.198         1.0467      -104.4784      -25.46606      0.3726652
      1986.5000          12.54          27.42        -0.0098        145.074        35.8824         0.7859          40.26           2.18         0.9655      -104.0667      -25.05436      0.3832216
      1987.0000           12.6          28.02              0        153.064        35.6863         0.7517          40.92          2.148         0.9322      -103.6549      -24.64256      0.3937806
      1987.5000          12.64          30.18          0.006        161.054        34.7059         0.7254          45.18         2.0007          0.957       -102.851      -23.83865      0.4143935
      1988.0000           14.4          34.38        -0.0127        169.044        33.1373            0.7          49.74         1.9478          0.974      -116.1647      -37.15236     0.07301643
      1988.5000         15.451          39.36        -0.0225        172.034        31.7647            0.7        52.8235         1.9068         0.9159      -102.8118      -23.79945      0.4153986
      1989.0000           14.9        44.4118        -0.0353        172.024           29.8         0.6937          54.54         1.8529         0.8485      -102.0078      -22.99545       0.436014
      1989.5000          14.06          47.58        -0.0441        168.614           28.6         0.6937           55.8          1.819         0.8079      -105.5176      -26.50526      0.3460191
      1990.0000           14.4           50.1         -0.053        164.804           28.4         0.6937          56.88          1.772         0.8402      -105.8902      -26.87785      0.3364653
      1990.5000             16        53.9412         -0.068        157.194        28.7947         0.7002        58.7647         1.7167         0.8828      -104.6969      -25.68456      0.3670627
      1991.0000          17.76        57.2353         -0.063        150.584        29.5845         0.6879             60          1.701         0.8919      -104.6819      -25.66956      0.3674473
      1991.5000        18.7381        57.5294         -0.054        151.174        30.1708         0.6945             60         1.7334          0.825      -104.6668      -25.65446      0.3678344
      1992.0000          17.06          55.02        -0.0451        159.764        30.5545         0.7137             60         1.7932         0.7872      -104.6517      -25.63936      0.3682216
      1992.5000          15.98             53        -0.0352        168.154        30.3482         0.7269             60         1.8132         0.7805      -105.0305      -26.01816      0.3585088
      1993.0000          16.56          50.46         -0.047        172.944        30.3386         0.7272             60         1.7793         0.7878      -105.0158      -26.00346      0.3588857
      1993.5000           17.7        52.4706        -0.0619        171.334        29.9342          0.734        59.9412         1.7237         0.8185       -105.001      -25.98866      0.3592653
      1994.0000             18        57.2353        -0.0629        162.724        29.7253         0.7475        59.9412         1.7099         0.8434       -104.196      -25.18365      0.3799063
      1994.5000        18.2776        57.1765        -0.0421        155.314        29.7156         0.7412        59.9412         1.7694          0.869      -103.3894      -24.37705      0.4005884
      1995.0000        18.1783        52.9412        -0.0213        148.104        30.6977         0.7549          56.94         1.8698         0.9038       -102.977      -23.96465      0.4111627
      1995.5000           17.8          49.14        -0.0054        142.694          33.66          0.762          50.88           1.95         0.9448      -102.1676      -23.15526      0.4319164
      1996.0000           17.5        44.5882         0.0036        144.084        35.2401         0.7489          49.26              2         0.9206      -101.7533      -22.74096      0.4425395
