#------------------------------------------------------------------------------
# Created by    : vladimir.rabinovich
# Created on    : 09/19/2023 17:22:21
#------------------------------------------------------------------------------
~Version Information Section
VERS.           2.0     :   CWLS log ASCII Standard - VERSION 2.0
WRAP.           NO      :   One line per depth step
~Well Information Section
#MNEM       .UNIT                                         VALUE :DESCRIPTION
#------------------------------------------------------------------------------
STRT        .FT                                            1894 :START DEPTH
STOP        .FT                                            9318 :STOP DEPTH
STEP        .FT                                             0.5 :STEP      
NULL        .                                           -999.25 :NULL      
COMP        .                                     DOMINION CORP :COMPANY   
WELL        .                                ST OF TEXAS TR 171 :WELL      
FLD         .                                           WILDCAT :FIELD     
LOC         .                                                   :LOCATION  
CNTY        .                                         GALVESTON :LOCATION  
STAT        .                                             TEXAS :STATE     
CTRY        .                                     UNITED STATES :COUNTRY   
SRVC        .                                                   :SERVICE COMPANY
DATE        .                             9/13/2023 11:19:11 AM :LOG DATE  
API         .                                    42167302850000 :API NUMBER
UWI         .                                    42167302850000 :UNIQUE WELL ID
XCOORD      .                                   1122951.0390836 :SURFACE X 
YCOORD      .                                  10723931.5138252 :SURFACE Y 
LAT         .                                        29.5392679 :LATITUDE  
LON         .                                       -94.6277178 :LONGITUDE 
ELEV        .FT                                              33 :ELEVATION VALUE
ELEV_TYPE   .                                                KB :ELEVATION REFERENCE TYPE
~Curve Information Section
#MNEM       .UNIT                                      API CODE :CURVE DESCRIPTION
#------------------------------------------------------------------------------
DEPT        .FT                                                 :DEPTH     
CALN        .IN                                                 :          
DPSS        .%                                                  :          
DRHO        .G/CM3                                              :          
DT          .US/FT                                              :          
GRN         .GAPI                                               :          
ILD         .OHMM                                               :          
NPSS        .%                                                  :Neutron Porosity Sandstone
RHOB        .G/CM3                                              :          
SFL         .OHMM                                               :          
SP          .MV                                                 :          
SP_NORM     .MV                                                 :SP Normalized
VSH_SP      .V/V                                                :Volume of Shale from SP
~A        DEPTH           CALN           DPSS           DRHO             DT            GRN            ILD           NPSS           RHOB            SFL             SP        SP_NORM         VSH_SP
# ...
      6855.0000        12.8812        21.2375          0.033       110.1961         72.551         0.7398        43.2171         2.2708         0.6393       -54.6466     -0.5444641              1
      6855.5000        12.9604        22.6643          0.027       111.5686        71.3265         0.7196        44.3469         2.2579         0.6165       -54.2649     -0.1700325              1
      6856.0000        13.0196        23.4988          0.018       113.1373        71.3265         0.6937          45.66          2.248         0.6055       -54.2792      -0.191597              1
      6856.5000        12.9603        24.2153          0.012       113.9216        71.9388         0.6812          46.62          2.244         0.6055       -53.8964      0.1839371              1
      6857.0000        12.7417        24.5139          0.012       114.1176        71.6327         0.6812           46.2          2.248         0.6055       -53.9104       0.162674              1
      6857.5000        12.7414        24.1616          0.038        112.549        71.9388         0.6812          45.12         2.2539         0.6165       -53.9243      0.1415062              1
      6858.0000         12.781        23.8078          0.016       110.3922        72.8571         0.6751        44.2911          2.244         0.6335       -54.3365     -0.2779541              1
      6858.5000        12.8007        24.6393          0.042          109.2        73.7755         0.6751        43.4065         2.2618          0.651       -55.1481      -1.096825       0.998533
      6859.0000        12.7606        23.4542          0.027          108.8        73.1633         0.6812        42.8184          2.243          0.669       -55.9614      -1.917385      0.9861002
      6859.5000        12.0813        24.7617          0.026          109.6        70.7143         0.6812        42.8205          2.224         0.6874       -56.7763      -2.739552      0.9736432
      6860.0000        11.8631        26.5881          0.022       111.7647        68.2653         0.6812        43.4111          2.195          0.719       -57.5929      -3.563416      0.9611604
      6860.5000        11.8425        28.0812          0.016       111.5686        66.1133         0.6751             44          2.164         0.6751          -58.8      -4.777782      0.9427609
      6861.0000        11.8416          30.06          0.003          105.8        63.9551          0.669        43.1176         2.1451         0.6812          -59.6      -5.585045      0.9305296
      6861.5000        11.8014          30.48         -0.008          100.4        61.4908         0.6569        40.4442          2.179         0.8838       -61.1567      -7.149014      0.9068331
      6862.0000        11.6239        26.5385          -0.02           94.8        59.9449         0.6569        37.0626         2.2804         1.0855       -61.9297      -7.929279      0.8950109
      6862.5000        11.4857        22.5068         -0.017           91.4        59.0356         0.6569          32.94          2.345            0.9       -62.7042      -8.711044       0.883166
      6863.0000        11.4651        18.1775         -0.004             93        60.2204         0.6569          30.12          2.338         0.7517       -61.5468      -7.560909      0.9005923
      6863.5000        11.5033        19.1842          0.002            100        61.7357         0.6569          32.46          2.302         0.7384            -60      -6.021374      0.9239186
      6864.0000        11.5416        22.0945          0.001          104.4        64.4755         0.6751        36.4742         2.2667         0.7319          -57.6      -3.628639      0.9601721
      6864.5000         11.619        22.9887         -0.005          106.6        66.6031         0.6812        38.1952         2.2745         0.7189          -55.2      -1.235905      0.9964257
      6865.0000        11.8729        23.1085         -0.005            108        68.7306         0.6937        39.0882         2.2725         0.6751          -53.6      0.3568306              1
      6865.5000        12.4693        22.4564         -0.004          108.4        69.3276         0.7063        40.2189         2.2598         0.6278          -53.6      0.3495674              1
      6866.0000        12.9884        23.4069              0          109.2        66.8633         0.7319        41.1103         2.2657         0.6451          -54.8     -0.8577003              1
      6866.5000        13.2229         23.526         0.0059          109.8         64.399         0.7517        41.3482         2.2588         0.6751          -56.4      -2.464966      0.9778035
      6867.0000        13.0847        23.5264         0.0168          109.2        61.6286         0.7789        41.1713         2.2569         0.6874          -57.2      -3.272232      0.9655722
      6867.5000        12.8254        23.7043         0.0246          107.4        60.3888         0.8146        40.5808          2.248         0.6874          -57.6      -3.679497      0.9594015
      6868.0000        12.6245        24.1792         0.0148            105        60.3735         0.8447        39.7553         2.2578            0.7          -56.8      -2.886761      0.9714127
      6868.5000        12.8834        23.7639         0.0059          102.2        60.3582          0.868        39.1079         2.2686         0.7063            -56      -2.094028      0.9834238
      6869.0000        12.8824        23.1156         0.0059            100        60.3429         0.8838        38.4541         2.2725         0.7126          -55.2      -1.301292      0.9954349
      6869.5000        12.8414        22.5275         0.0069           98.8        59.7261            0.9        38.0371         2.2686         0.7254          -55.2      -1.308559      0.9953249
      6870.0000        13.1965         22.882         0.0078           98.4        59.4175         0.8919        38.0992         2.2627         0.7584          -54.4     -0.5158234              1
      6870.5000        13.5294        23.3544         0.0088           99.2        60.3061         0.8601        38.7618         2.2618         0.7929          -52.8       1.076912              1
      6871.0000        13.4118        23.0032         0.0108            101         62.449         0.8295        39.4163         2.2863         0.7517          -50.8       3.069649              1
      6871.5000           12.6        22.0616         0.0127            103        64.5918            0.8        40.7725         2.2833         0.7063          -49.6       4.262383              1
      6872.0000        13.1765        22.0627         0.0088          105.2        65.8163         0.7652        42.3046         2.2775         0.7063          -48.4       5.455116              1
      6872.5000             13        22.5364         0.0059            107        65.8163         0.7319        43.3663         2.2745         0.6937          -47.6       6.247852              1
      6873.0000          12.86        22.3013              0          109.2        65.5102            0.7        43.7222         2.2588          0.669          -47.2       6.640587              1
      6873.5000          12.94        23.7826         -0.005       111.5686        64.2857         0.6874        44.1957          2.234         0.6451          -47.2        6.63332              1
      6874.0000        13.1373         25.273          0.002       113.3333        63.9796         0.6751        44.9633          2.227         0.6393          -47.2       6.626053              1
      6874.5000        13.3725        25.6317         0.0167       115.6863        63.9796         0.6629         46.557          2.239         0.6335          -47.6       6.218792              1
      6875.0000        13.5294        24.8603         0.0333       116.6667        66.1224         0.6751        47.6006           2.24         0.6451          -48.4       5.411522              1
