#------------------------------------------------------------------------------
# Created by    : vladimir.rabinovich
# Created on    : 09/19/2023 17:22:21
#------------------------------------------------------------------------------
~Version Information Section
VERS.           2.0     :   CWLS log ASCII Standard - VERSION 2.0
WRAP.           NO      :   One line per depth step
~Well Information Section
#MNEM       .UNIT                                         VALUE :DESCRIPTION
#------------------------------------------------------------------------------
STRT        .FT                                            1894 :START DEPTH
STOP        .FT                                            9318 :STOP DEPTH
STEP        .FT                                             0.5 :STEP      
NULL        .                                           -999.25 :NULL      
COMP        .                                     DOMINION CORP :COMPANY   
WELL        .                                ST OF TEXAS TR 171 :WELL      
FLD         .                                           WILDCAT :FIELD     
LOC         .                                                   :LOCATION  
CNTY        .                                         GALVESTON :LOCATION  
STAT        .                                             TEXAS :STATE     
CTRY        .                                     UNITED STATES :COUNTRY   
SRVC        .                                                   :SERVICE COMPANY
DATE        .                             9/13/2023 11:19:11 AM :LOG DATE  
API         .                                    42167302850000 :API NUMBER
UWI         .                                    42167302850000 :UNIQUE WELL ID
XCOORD      .                                   1122951.0390836 :SURFACE X 
YCOORD      .                                  10723931.5138252 :SURFACE Y 
LAT         .                                        29.5392679 :LATITUDE  
LON         .                                       -94.6277178 :LONGITUDE 
ELEV        .FT                                              33 :ELEVATION VALUE
ELEV_TYPE   .                                                KB :ELEVATION REFERENCE TYPE
~Curve Information Section
#MNEM       .UNIT                                      API CODE :CURVE DESCRIPTION
#------------------------------------------------------------------------------
DEPT        .FT                                                 :DEPTH     
CALN        .IN                                                 :          
DPSS        .%                                                  :          
DRHO        .G/CM3                                              :          
DT          .US/FT                                              :          
GRN         .GAPI                                               :          
ILD         .OHMM                                               :          
NPSS        .%                                                  :Neutron Porosity Sandstone
RHOB        .G/CM3                                              :          
SFL         .OHMM                                               :          
SP          .MV                                                 :          
SP_NORM     .MV                                                 :SP Normalized
VSH_SP      .V/V                                                :Volume of Shale from SP
~A        DEPTH           CALN           DPSS           DRHO             DT            GRN            ILD           NPSS           RHOB            SFL             SP        SP_NORM         VSH_SP
# ...
      8802.5000        10.8627        23.8072          0.027          134.2           80.4         0.3416        49.2864          2.249         0.3714       -48.1813      -5.144989      0.9439867
      8803.0000        10.3333        24.3385          0.014          135.4           81.3         0.3385        49.2256          2.263         0.3714       -48.1697      -5.135956      0.9441087
      8803.5000        10.7647        23.8017          0.008          134.4           82.5         0.3353        49.5198           2.27         0.3679       -47.3686      -4.337421      0.9548997
      8804.0000             11        22.9649          0.007          132.6           84.3         0.3322        49.9332          2.272         0.3679        -46.566      -3.537392      0.9657109
      8804.5000        10.9804        22.6656          0.009          131.2           86.7         0.3322        50.2288          2.269         0.3679       -45.3664      -2.340359       0.981887
      8805.0000             11        22.8422          0.008          130.6           88.8         0.3292        49.6342          2.266         0.3679       -43.7685     -0.7450256              1
      8805.5000          11.16        23.0778          0.018          130.8        90.5944         0.3201        48.8007          2.273         0.3679       -42.9599     0.06100464              1
      8806.0000          11.08        22.8386          0.036          131.2         90.595         0.3201        47.9656            2.3         0.3646       -42.5464      0.4719391              1
      8806.5000          11.04        21.4148          0.046          131.8        90.2978         0.3201        47.1331           2.31         0.3612       -42.1321      0.8836708              1
      8807.0000          11.02        20.4634           0.02          132.8           89.7         0.3172        47.3678           2.26         0.3578       -42.1143      0.8989029              1
      8807.5000          11.04        22.7149           0.01          133.2           86.7         0.3172        48.7919          2.266         0.3513       -41.6987       1.311935              1
      8808.0000          11.06        23.5994          0.007          133.4           83.1         0.3085        49.9247          2.269          0.348       -42.0788      0.9292679              1
      8808.5000          11.14        22.9476          0.007          133.2           80.7         0.3056        50.8804          2.269          0.348       -42.4596      0.5459023              1
      8809.0000           11.3        23.0636          0.005            133           80.4         0.3028        51.1179          2.261          0.348       -42.4421       0.560833              1
      8809.5000          11.36        23.3561          0.003            133           81.9         0.2973        51.2356          2.257          0.348       -41.6257       1.374664              1
      8810.0000           11.3        23.6481          0.005            133           83.7          0.292        51.4119          2.257          0.348       -40.8077       2.190098              1
      8810.5000          11.28        23.6471           0.02          133.6           84.9         0.2894        51.9412          2.275          0.348          -40.8       2.195232              1
      8811.0000          11.24        23.0588          0.019          133.8           84.6         0.2894        52.1765          2.269          0.348            -40       2.992664              1
      8811.5000          11.24        22.8824          0.012          133.8           83.4         0.2946        51.8824           2.26         0.3448            -40       2.990093              1
      8812.0000          11.24        23.2353           0.01          133.8           83.1         0.2894        51.5882          2.256         0.3353          -40.4       2.587524              1
      8812.5000          11.24        23.5294          0.017            134           83.7         0.2894        51.1176          2.261         0.3353          -40.8       2.184959              1
      8813.0000           11.1        23.4706          0.031          134.4           86.4          0.292          50.64          2.257         0.3353          -40.8       2.182392              1
      8813.5000        10.6667        23.5294          0.015            135           88.8            0.3          49.56         2.2451         0.3385          -40.8       2.179825              1
      8814.0000        10.3922          24.18          0.007          135.6             90         0.3056           48.6         2.2333         0.3448            -40       2.977257              1
      8814.5000        10.1961          25.08          0.007            136           89.4         0.3142        47.8235         2.2314         0.3578            -40       2.974689              1
      8815.0000        10.1373          25.32          0.004            136           87.6         0.3231          48.06         2.2284         0.3578          -40.8       2.172123              1
      8815.5000        10.1373          25.38          0.003            136           86.7         0.3322             48         2.2186          0.348            -42      0.9695549              1
      8816.0000        10.0588           25.8          0.005          135.4           86.1         0.3385        47.3529         2.2275          0.348          -41.2       1.766987              1
      8816.5000             10           25.8          0.011          134.6           86.1          0.348        47.0588         2.2461         0.3545          -41.2        1.76442              1
      8817.0000            9.9          24.84          0.011          133.6           84.9         0.3578             47          2.254         0.3679          -41.6       1.361855              1
      8817.5000           9.88        23.8824          0.005          132.6           83.4         0.3679        47.5882          2.249         0.3783          -41.6       1.359283              1
      8818.0000           9.96          24.18          0.004          131.4           82.2         0.3783        47.4118          2.262          0.389          -41.2       1.756714              1
      8818.5000        10.0784        23.7059          0.004          130.2           81.6          0.389        46.7647          2.273            0.4          -40.8       2.154148              1
      8819.0000        10.1961        22.9412          0.002          129.6           81.6         0.3963        45.7059           2.27         0.4075          -41.2       1.751579              1
      8819.5000        10.2745        23.1176          0.003          129.2           80.7            0.4        45.2353          2.275         0.4075          -42.4      0.5490112              1
      8820.0000        10.3137        22.9412          0.001          129.4           80.4         0.3963        45.4706          2.276            0.4          -42.4      0.5464439              1
      8820.5000        10.3536         22.293        -0.0049       129.7942        81.3089         0.3891        46.1161           2.26         0.3964          -42.4      0.5438766              1
      8821.0000        10.3938        23.1752          0.002        130.584        81.9238         0.3857        46.5244         2.2841         0.3893          -42.4      0.5413094              1
      8821.5000         10.434        22.3486          0.008        130.574        81.9386         0.3859         46.698         2.2891         0.3931          -41.6       1.338745              1
      8822.0000         10.435        21.4616          0.014        130.764        81.9535         0.3722        47.1069         2.2822          0.397          -41.2       1.736176              1
      8822.5000        10.4359        22.4635          0.024        131.154        83.7683         0.3556        49.1262         2.2992         0.3972          -40.8        2.13361              1
