#------------------------------------------------------------------------------
# Created by    : vladimir.rabinovich
# Created on    : 09/19/2023 17:22:46
#------------------------------------------------------------------------------
~Version Information Section
VERS.           2.0     :   CWLS log ASCII Standard - VERSION 2.0
WRAP.           NO      :   One line per depth step
~Well Information Section
#MNEM       .UNIT                                         VALUE :DESCRIPTION
#------------------------------------------------------------------------------
STRT        .FT                                             992 :START DEPTH
STOP        .FT                                            8489 :STOP DEPTH
STEP        .FT                                             0.5 :STEP      
NULL        .                                           -999.25 :NULL      
COMP        .                                       GAELIC CORP :COMPANY   
WELL        .                                     PHELAN MICKEY :WELL      
FLD         .                                           WILDCAT :FIELD     
LOC         .                                                   :LOCATION  
CNTY        .                                         JEFFERSON :LOCATION  
STAT        .                                             TEXAS :STATE     
CTRY        .                                     UNITED STATES :COUNTRY   
SRVC        .                                                   :SERVICE COMPANY
DATE        .                             9/13/2023 11:18:46 AM :LOG DATE  
API         .                                    42245313790000 :API NUMBER
UWI         .                                    42245313790000 :UNIQUE WELL ID
XCOORD      .                                  1260103.88271883 :SURFACE X 
YCOORD      .                                     10773431.3746 :SURFACE Y 
LAT         .                                         29.679995 :LATITUDE  
LON         .                                       -94.1979967 :LONGITUDE 
ELEV        .FT                                              19 :ELEVATION VALUE
ELEV_TYPE   .                                                KB :ELEVATION REFERENCE TYPE
~Curve Information Section
#MNEM       .UNIT                                      API CODE :CURVE DESCRIPTION
#------------------------------------------------------------------------------
DEPT        .FT                                                 :DEPTH     
DPSS        .V/V                                                :          
DRHO        .G/CM3                                              :          
DT          .US/FT                                              :          
GR_NORM     .GAPI                                               :GammaRay Normalized
GRN         .GAPI                                               :          
ILD         .OHMM                                               :          
NPSS        .V/V                                                :Neutron Porosity Sandstone
RHOB        .G/CM3                                              :          
SFL         .OHMM                                               :          
SP          .MV                                                 :          
SP_NORM     .MV                                                 :SP Normalized
TENN        .LB                                                 :          
VSH_GR      .V/V                                                :Volume of Shale from GR
VSH_SP      .V/V                                                :Volume of Shale from SP
~A        DEPTH           DPSS           DRHO             DT        GR_NORM            GRN            ILD           NPSS           RHOB            SFL             SP        SP_NORM           TENN         VSH_GR         VSH_SP
# ...
      7958.0000         0.2917              0       103.6715       29.64777        40.6301         0.1816          0.329         2.1694         0.7163      -115.0495      -105.2848       3295.491              0              0
      7958.5000         0.2917          0.003       104.0664       32.00275         42.598         0.1832         0.3249         2.1699         1.0084      -114.8515      -105.0734       3295.831              0              0
      7959.0000         0.2938         0.0055       104.0643       34.71989        44.8667         0.1849         0.3189         2.1634         1.0751      -114.8515      -105.0601       3296.171     0.03659342              0
      7959.5000         0.2967         0.0069       103.8641       35.76351        45.7454         0.1849         0.3147         2.1594         1.0463      -114.6535      -104.8487       3296.511     0.05879812    0.001454793
      7960.0000         0.2997         0.0035       103.8622       34.12637        44.3975         0.1849         0.3117          2.155          0.764      -114.4554      -104.6372       3296.884     0.02396523    0.003488101
      7960.5000         0.3036              0       103.8614       33.36787        43.7794         0.1841         0.3081         2.1466         0.5069      -114.0635       -104.232       3297.305     0.00782711     0.00738474
      7961.0000         0.3099         -0.003       104.0594       33.15418        43.6138         0.1816         0.3081         2.1407         0.4954       -113.674      -103.8291       3297.788    0.003280477     0.01125827
      7961.5000         0.3078        -0.0016       104.2574       34.76391        44.9627          0.175          0.312         2.1431         0.5257      -112.8876      -103.0294       3298.271     0.03753005     0.01894826
      7962.0000         0.3052         0.0004       104.6535       36.50571        46.4213         0.1702         0.3169          2.148         0.5305      -112.8939      -103.0223       3298.802     0.07458959     0.01901612
      7962.5000         0.3019         0.0004       105.0495       36.11829        46.1114         0.1663         0.3196          2.153         0.3272      -113.0987      -103.2138       3299.285     0.06634659     0.01717523
      7963.0000         0.2998        -0.0031       105.4455       33.02759        43.5562         0.1625         0.3184         2.1569         0.2601      -113.3037      -103.4054       3299.768   0.0005870576     0.01533252
      7963.5000         0.2989        -0.0092       105.8416       28.81455        40.0688         0.1603         0.3136         2.1599         0.2565      -112.7142      -102.8026       3300.251              0     0.02112917
      7964.0000         0.2971        -0.0082       106.4356       25.51423        37.3395         0.1603         0.3142         2.1629         0.2891      -110.9321      -101.0071       3300.782              0     0.03839324
      7964.5000          0.293        -0.0047       106.1386        24.5772        36.5731         0.1633         0.3214         2.1668         0.2972      -108.5511      -98.61275       3301.265              0     0.06141582
      7965.0000         0.2883        -0.0032       105.0495       26.18404        37.9196         0.1702         0.3301         2.1772         0.2986       -104.974       -95.0223       3301.748              0     0.09593941
      7965.5000         0.2823        -0.0023       104.6535       28.87805        40.1691         0.1799         0.3278         2.1881         0.3155      -100.9953      -91.03024       3302.231              0      0.1343246
      7966.0000         0.2752        -0.0008       105.0495       31.20667        42.1151         0.1954         0.3182          2.198         0.4037       -98.4092      -88.43079       3302.762              0      0.1593193
      7966.5000         0.2666         0.0007       104.3564       33.34999        43.9072         0.2296         0.3032         2.2163         0.4908       -96.4224      -86.43063       3303.245    0.007446695      0.1785516
      7967.0000         0.2564         0.0016           97.8       34.58685        44.9464         0.2736         0.2925         2.2342         0.5428       -95.6297      -85.62458       3303.729     0.03376283      0.1863021
      7967.5000         0.2316         0.0056        88.5149       35.80433        45.9695         0.3317         0.2738         2.2853            0.7       -95.6318      -85.61333       3304.211     0.05966649      0.1864103
      7968.0000         0.1829         0.0164         80.396       35.77316        45.9555         0.3874         0.2504         2.3583          0.964        -95.634      -85.60217       3304.743     0.05900346      0.1865176
      7968.5000         0.1224         0.0298           73.9       35.56188        45.7919         0.4289         0.2272         2.4388         1.4484       -95.2394      -85.19422       3305.226     0.05450813      0.1904402
      7969.0000         0.1188         0.0651           74.7       36.42346        46.5194         0.4773         0.2141         2.4528         1.7576       -94.0522      -83.99367       3305.708     0.07283954       0.201984
      7969.5000          0.157         0.0625           79.3       38.17923        47.9896         0.5115         0.2373         2.4015         1.4017       -94.0551      -83.98321       3306.191      0.1101963      0.2020845
      7970.0000         0.2013         0.0456         89.901       38.32793         48.125         0.5115         0.2709         2.3178         1.2659       -96.2367      -86.15146       3306.723      0.1133603       0.181236
      7970.5000         0.2508         0.0223             96       37.05005        47.0755          0.484         0.3024         2.2257         1.3443         -100.4      -90.30141       3306.931     0.08617134      0.1413326
      7971.0000          0.281         0.0035           98.8       35.77445        46.0279          0.441         0.3066         2.1866         1.4017           -104      -93.88805       3306.931      0.0590309      0.1068457
      7971.5000         0.2881        -0.0059           99.4       34.67861        45.1296         0.3752         0.3075         2.1713         1.3574           -107      -96.87469        3297.03     0.03571514     0.07812794
      7972.0000         0.2899        -0.0083           98.8       33.57338        44.2235         0.3169         0.3123         2.1713         1.0242         -108.6      -98.46133        3297.03     0.01219956     0.06287178
      7972.5000         0.2905        -0.0048           97.9        32.8279        43.6162         0.2674         0.3207         2.1708         0.8833         -108.2      -98.04798        3297.03              0     0.06684633
      7973.0000            0.3        -0.0007       102.0792       30.99788        42.1081         0.2255         0.3348         2.1525         0.7685           -107      -96.83463        3297.03              0     0.07851322
      7973.5000          0.324         0.0033       105.0495       28.80751        40.3007         0.1954         0.3609         2.1196         0.6636         -106.2      -96.02127        3297.03              0     0.08633394
      7974.0000         0.3451         0.0053       106.9307       26.97845        38.7934         0.1841         0.4075         2.0861         0.5629           -107      -96.80792        3297.03              0     0.07876997
      7974.5000         0.3594         0.0014       108.7129       27.67761         39.386         0.1734         0.4443         2.0554         0.3752           -109      -98.79456        3297.03              0     0.05966766
      7975.0000         0.3541         -0.003       109.1089       31.80822        42.8287         0.1679         0.4389         2.0604         0.3287         -111.6      -101.3812        3297.03              0     0.03479606
      7975.5000         0.3386        -0.0079       109.1089       37.53252        47.5951         0.1694         0.3989         2.0832         0.3857         -113.6      -103.3679        3297.03     0.09643652     0.01569366
