#------------------------------------------------------------------------------
# Created by    : vladimir.rabinovich
# Created on    : 09/19/2023 17:20:52
#------------------------------------------------------------------------------
~Version Information Section
VERS.           2.0     :   CWLS log ASCII Standard - VERSION 2.0
WRAP.           NO      :   One line per depth step
~Well Information Section
#MNEM       .UNIT                                         VALUE :DESCRIPTION
#------------------------------------------------------------------------------
STRT        .FT                                            1558 :START DEPTH
STOP        .FT                                           11266 :STOP DEPTH
STEP        .FT                                             0.5 :STEP      
NULL        .                                           -999.25 :NULL      
COMP        .                               MEREDITH & CO ET AL :COMPANY   
WELL        .                                 GRINNELL TEXAS CO :WELL      
FLD         .                                           WILDCAT :FIELD     
LOC         .                                                   :LOCATION  
CNTY        .                                         JEFFERSON :LOCATION  
STAT        .                                             TEXAS :STATE     
CTRY        .                                     UNITED STATES :COUNTRY   
SRVC        .                                                   :SERVICE COMPANY
DATE        .                             9/13/2023 11:19:11 AM :LOG DATE  
API         .                                    42245015300000 :API NUMBER
UWI         .                                    42245015300000 :UNIQUE WELL ID
XCOORD      .                                  1358778.50439977 :SURFACE X 
YCOORD      .                                  10877447.4356243 :SURFACE Y 
LAT         .                                        29.9685419 :LATITUDE  
LON         .                                       -93.8897358 :LONGITUDE 
ELEV        .FT                                              14 :ELEVATION VALUE
ELEV_TYPE   .                                                DF :ELEVATION REFERENCE TYPE
~Curve Information Section
#MNEM       .UNIT                                      API CODE :CURVE DESCRIPTION
#------------------------------------------------------------------------------
DEPT        .FT                                                 :DEPTH     
ASN         .OHMM                                               :          
LN          .OHMM                                               :          
SP          .MV                                                 :          
SP_NORM     .MV                                                 :SP Normalized
VSH_SP      .V/V                                                :Volume of Shale from SP
~A        DEPTH            ASN             LN             SP        SP_NORM         VSH_SP
# ...
     10578.0000         0.4702         0.4465       -19.2699      -1.832726      0.9845791
     10578.5000         0.4698         0.4485       -19.3168      -1.877642      0.9837474
     10579.0000         0.4694         0.4504       -19.2888      -1.847658      0.9843026
     10579.5000         0.4731         0.4523       -19.2571      -1.813976      0.9849263
     10580.0000         0.4849         0.4542       -18.8668      -1.421694      0.9921908
     10580.5000         0.4966          0.456       -18.7599      -1.312809      0.9942073
     10581.0000         0.5084         0.4578       -19.7136      -2.264526      0.9765828
     10581.5000         0.5201         0.4596       -20.6672      -3.216145      0.9589603
     10582.0000         0.5226         0.4615       -21.6209       -4.16786      0.9413359
     10582.5000         0.5241         0.4633       -22.5746      -5.119577      0.9237115
     10583.0000         0.5254         0.4651        -23.308      -5.850994      0.9101668
     10583.5000         0.5248         0.4736       -23.8619      -6.402912      0.8999461
     10584.0000         0.5242         0.4832        -24.351      -6.890028      0.8909254
     10584.5000         0.5236         0.4927       -24.3872      -6.924244      0.8902918
     10585.0000         0.5231         0.5023       -24.4236       -6.95866      0.8896545
     10585.5000         0.5291         0.5118       -24.4598       -6.99288      0.8890207
     10586.0000         0.5525         0.5214       -24.4854      -7.016495      0.8885834
     10586.5000         0.5758           0.53       -24.4209      -6.950012      0.8898146
     10587.0000         0.5964         0.5359       -24.3563      -6.883429      0.8910476
     10587.5000         0.6134         0.5417       -24.2918      -6.816946      0.8922788
     10588.0000         0.6305         0.5475       -24.6482      -7.171362      0.8857155
     10588.5000         0.6475         0.5617       -25.0551      -7.576279       0.878217
     10589.0000         0.6561         0.5808       -25.4619      -7.981096      0.8707204
     10589.5000         0.6626          0.595       -25.8689      -8.386112      0.8632202
     10590.0000         0.6691         0.6024       -26.2758      -8.791031      0.8557217
     10590.5000         0.6677         0.6097       -26.7669      -9.280146       0.846664
     10591.0000         0.6642         0.6171       -27.2724      -9.783663      0.8373396
     10591.5000         0.6582         0.6205       -27.7767      -10.28598      0.8280374
     10592.0000         0.6515         0.6212       -28.1805       -10.6878      0.8205963
     10592.5000         0.6449          0.622       -28.2208      -10.72611      0.8198867
     10593.0000         0.6382         0.6228       -27.9639      -10.46723      0.8246809
     10593.5000         0.6316         0.6235       -27.2779      -9.779247      0.8374214
     10594.0000         0.6249         0.6243       -26.5907      -9.090065       0.850184
     10594.5000         0.6183         0.6251       -25.9046      -8.401981      0.8629262
     10595.0000         0.6075         0.6258       -25.1459      -7.641298       0.877013
     10595.5000         0.5938         0.6266       -24.3431      -6.836514      0.8919164
     10596.0000           0.58         0.6208       -23.5403      -6.031733      0.9068198
     10596.5000         0.5663           0.61       -22.7375      -5.226948      0.9217232
     10597.0000         0.5498         0.5993       -21.9348      -4.422264      0.9366248
     10597.5000         0.5333         0.5886        -21.132      -3.617481      0.9515281
     10598.0000         0.5168         0.5779       -20.6276      -3.111099      0.9609056
     10598.5000         0.5077         0.5695       -20.1827      -2.664215      0.9691812
     10599.0000         0.5092         0.5612       -19.7378      -2.217333      0.9774568
     10599.5000         0.5107         0.5529       -19.8386      -2.316149      0.9756269
     10600.0000          0.508         0.5446       -20.0514      -2.526964      0.9717229
     10600.5000         0.5025         0.5363       -20.2645      -2.738083      0.9678133
     10601.0000          0.497          0.528       -20.4773        -2.9489      0.9639093
     10601.5000         0.4915         0.5226       -20.6312      -3.100817       0.961096
     10602.0000          0.486         0.5174       -20.7702      -3.237833      0.9585586
     10602.5000         0.4805         0.5122       -20.9092      -3.374851      0.9560212
     10603.0000         0.4757          0.507       -21.0045      -3.468166      0.9542932
     10603.5000          0.472         0.5018       -20.8781      -3.339783      0.9566707
     10604.0000         0.4683         0.4966       -20.7515      -3.211199      0.9590518
     10604.5000         0.4645         0.4914       -20.6248      -3.082518      0.9614348
     10605.0000         0.4608         0.4862       -20.4985      -2.954235      0.9638104
     10605.5000         0.4571          0.481       -20.3719      -2.825651      0.9661916
     10606.0000         0.4534         0.4758       -20.3552      -2.806967      0.9665377
     10606.5000         0.4497         0.4692       -20.3789      -2.828686      0.9661354
     10607.0000         0.4459         0.4626       -20.4026      -2.850401      0.9657333
     10607.5000         0.4422         0.4559       -20.2873      -2.733118      0.9679052
     10608.0000         0.4385         0.4492       -19.8468      -2.290634      0.9760994
     10608.5000         0.4348         0.4425       -19.4074      -1.849253      0.9842731
     10609.0000         0.4311         0.4359       -18.9681      -1.407969      0.9924451
     10609.5000         0.4273         0.4306       -18.5287     -0.9665852              1
     10610.0000         0.4264         0.4292       -18.2614     -0.6973019              1
     10610.5000         0.4279         0.4278       -18.0736     -0.5075188              1
     10611.0000         0.4295         0.4264       -17.8856     -0.3175354              1
     10611.5000          0.431         0.4251       -17.6978     -0.1277523              1
     10612.0000         0.4325         0.4237       -17.5561     0.01593018              1
     10612.5000         0.4341         0.4223       -17.5472     0.02681541              1
     10613.0000         0.4356         0.4209       -17.5383     0.03769684              1
     10613.5000         0.4371         0.4195       -17.5294     0.04858017              1
     10614.0000         0.4387         0.4181       -17.5205      0.0594635              1
     10614.5000          0.443         0.4167       -17.5117     0.07024765              1
     10615.0000         0.4487         0.4153       -17.4833      0.1006298              1
     10615.5000         0.4544         0.4139       -17.4283      0.1576118              1
     10616.0000         0.4601         0.4158       -17.3731      0.2147961              1
     10616.5000         0.4658         0.4227        -17.318      0.2718792              1
     10617.0000         0.4715         0.4295       -17.2628      0.3290615              1
     10617.5000         0.4772         0.4363       -17.2078      0.3860455              1
     10618.0000         0.4828         0.4431       -17.1526      0.4432297              1
     10618.5000         0.4885         0.4499       -17.0975      0.5003128              1
     10619.0000         0.4951         0.4567       -17.0423      0.5574951              1
     10619.5000         0.5023         0.4635       -17.2617      0.3400784              1
     10620.0000         0.5095         0.4703        -17.493      0.1107616              1
     10620.5000         0.5168         0.4772       -17.7242      -0.118454              1
     10621.0000          0.524          0.484       -17.9555     -0.3477726              1
     10621.5000         0.5305         0.4908       -18.1868     -0.5770893              1
