#------------------------------------------------------------------------------
# Created by    : vladimir.rabinovich
# Created on    : 09/19/2023 17:20:51
#------------------------------------------------------------------------------
~Version Information Section
VERS.           2.0     :   CWLS log ASCII Standard - VERSION 2.0
WRAP.           NO      :   One line per depth step
~Well Information Section
#MNEM       .UNIT                                         VALUE :DESCRIPTION
#------------------------------------------------------------------------------
STRT        .FT                                            1818 :START DEPTH
STOP        .FT                                            9030 :STOP DEPTH
STEP        .FT                                             0.5 :STEP      
NULL        .                                           -999.25 :NULL      
COMP        .                               CONCHO PETROLEUM CO :COMPANY   
WELL        .                                  J E BROUSSARD JR :WELL      
FLD         .                                           WILDCAT :FIELD     
LOC         .                                                   :LOCATION  
CNTY        .                                         JEFFERSON :LOCATION  
STAT        .                                             TEXAS :STATE     
CTRY        .                                     UNITED STATES :COUNTRY   
SRVC        .                                                   :SERVICE COMPANY
DATE        .                             9/13/2023 11:19:11 AM :LOG DATE  
API         .                                    42245021900000 :API NUMBER
UWI         .                                    42245021900000 :UNIQUE WELL ID
XCOORD      .                                  1213918.99973078 :SURFACE X 
YCOORD      .                                  10884047.8383225 :SURFACE Y 
LAT         .                                         29.982808 :LATITUDE  
LON         .                                       -94.3475252 :LONGITUDE 
ELEV        .FT                                              35 :ELEVATION VALUE
ELEV_TYPE   .                                                GL :ELEVATION REFERENCE TYPE
~Curve Information Section
#MNEM       .UNIT                                      API CODE :CURVE DESCRIPTION
#------------------------------------------------------------------------------
DEPT        .FT                                                 :DEPTH     
ASN         .OHMM                                               :          
LAT         .OHMM                                               :          
LN          .OHMM                                               :          
SP          .MV                                                 :          
SP_NORM     .MV                                                 :SP Normalized
VSH_SP      .V/V                                                :Volume of Shale from SP
~A        DEPTH            ASN            LAT             LN             SP        SP_NORM         VSH_SP
# ...
      5656.0000         0.6828          0.411         0.6362       -69.0909      -16.03014      0.8167056
      5656.5000         0.6453         0.4276         0.6356            -64       -10.9279      0.8789281
      5657.0000         0.6079         0.4268          0.635       -59.3066      -6.223148      0.9363031
      5657.5000         0.5904         0.4259         0.6344       -53.7649     -0.6700974              1
      5658.0000         0.6313          0.425         0.6339       -53.4241     -0.3179474              1
      5658.5000         0.6921         0.4241         0.6333       -52.3924      0.7251053              1
      5659.0000         0.7631         0.4057         0.6327       -50.3262       2.802654              1
      5659.5000         0.7765         0.3873         0.6321       -48.2638       4.876404              1
      5660.0000         0.7967         0.3864         0.6316       -48.6186       4.532955              1
      5660.5000         0.7627         0.3684         0.6316       -51.3793       1.783607              1
      5661.0000         0.7627         0.3509         0.6316       -54.4828      -1.308544      0.9962373
      5661.5000         0.7559         0.3509         0.6316       -57.2414      -4.055798      0.9627342
      5662.0000         0.7559         0.3509         0.6316       -60.3636      -7.166645       0.924797
      5662.5000         0.7492         0.3684         0.6316            -60      -6.791695      0.9293696
      5663.0000          0.739          0.386         0.6491       -59.3103      -6.090641       0.937919
      5663.5000         0.7186         0.4211         0.6491       -58.2759      -5.044895       0.950672
      5664.0000         0.6847         0.4561         0.6491       -56.8966       -3.65424      0.9676312
      5664.5000         0.6881         0.4912         0.6667       -58.2759      -5.022194      0.9509488
      5665.0000         0.6949         0.5263         0.6667       -59.6552      -6.390141      0.9342666
      5665.5000         0.6983         0.5614         0.6667       -61.4545      -8.178089      0.9124624
      5666.0000         0.6949         0.5965         0.6842            -68      -14.71224      0.8327776
      5666.5000         0.6881          0.614         0.6842       -68.3636      -15.06449      0.8284818
      5667.0000          0.678         0.6316         0.6842       -61.0909      -7.780441      0.9173117
      5667.5000         0.6644          0.614         0.7018       -59.6552      -6.333389      0.9349587
      5668.0000         0.6576          0.614         0.7018       -61.0909       -7.75774      0.9175885
      5668.5000         0.6508         0.5965         0.7018       -62.5455      -9.200989      0.8999879
      5669.0000         0.6441         0.5965         0.7193            -64      -10.64414      0.8823885
      5669.5000         0.6441         0.5965         0.7193       -58.6207      -5.253487      0.9481282
      5670.0000          0.661         0.5789         0.7193       -57.2414      -3.862839      0.9650874
      5670.5000         0.6745          0.561         0.7364       -54.1379     -0.7479897              1
      5671.0000         0.6879         0.5776         0.7355       -51.0345       2.366764              1
      5671.5000         0.7114         0.5943         0.7346       -48.9655       4.447113              1
      5672.0000         0.7282         0.5934         0.7512       -48.2759       5.148064              1
      5672.5000         0.7484         0.5925         0.7503        -47.931       5.504314              1
      5673.0000         0.7618         0.6092         0.7494       -47.5862       5.860466              1
      5673.5000         0.7718         0.6083         0.7485       -47.5862       5.871815              1
      5674.0000         0.7818          0.625         0.7476       -47.2414       6.227966              1
      5674.5000         0.7884         0.6417         0.7292       -46.8966       6.584118              1
      5675.0000          0.795         0.6408         0.7108       -46.8966       6.595467              1
      5675.5000         0.7948         0.6575         0.6923       -48.6207       4.882717              1
      5676.0000         0.7947         0.6566         0.6914       -53.7931     -0.2783318              1
      5676.5000         0.7877         0.6732          0.673       -57.5862      -4.060081      0.9626819
      5677.0000         0.7774         0.6899         0.6721       -64.7273      -11.18983      0.8757337
      5677.5000         0.7636          0.689         0.6536       -68.3636      -14.81478      0.8315271
      5678.0000         0.7431         0.7232         0.6352            -68      -14.43983      0.8360996
      5678.5000         0.7023         0.7575         0.6167       -62.1818      -8.610279      0.9071917
      5679.0000         0.6614         0.8092         0.5983       -55.8621      -2.279228      0.9843997
      5679.5000         0.6342         0.8785         0.5974       -48.9655       4.628719              1
      5680.0000         0.6035         0.9303         0.5789       -44.8276       8.777973              1
      5680.5000          0.593         0.9825         0.5614       -44.1379       9.479019              1
      5681.0000         0.5825         1.0526         0.5614       -44.1379       9.490372              1
      5681.5000         0.5789         1.1053         0.5439       -44.8276       8.812023              1
      5682.0000         0.5825         1.1404         0.5263       -45.5172       8.133774              1
      5682.5000         0.6034         1.1404         0.5088       -46.5517       7.110622              1
      5683.0000         0.6375         1.1053         0.4912       -47.5862       6.087475              1
      5683.5000         0.6375         1.0702         0.4912       -48.9655       4.719524              1
      5684.0000         0.6341         1.0526         0.4737            -50       3.696377              1
      5684.5000         0.6137         1.0351         0.4561       -51.0345       2.673225              1
      5685.0000          0.593         1.0175         0.4561        -52.069       1.650074              1
      5685.5000         0.5719         0.9826         0.4561       -53.4483      0.2821274              1
      5686.0000         0.5439         0.9305         0.4561        -57.931      -4.189224       0.961107
      5686.5000         0.5158         0.8959         0.4561       -69.0909      -15.33777      0.8251492
      5687.0000         0.5018         0.8093         0.4561       -81.3559      -27.59143      0.6757143
      5687.5000         0.5158         0.7228         0.4561       -93.2203      -39.44447       0.531165
      5688.0000         0.5263         0.6365         0.4561      -104.9123      -51.12512       0.388718
      5688.5000         0.5404         0.5504         0.4561      -117.8947      -64.09617      0.2305345
      5689.0000         0.5544         0.4989         0.4386      -118.5965      -64.78662      0.2221144
      5689.5000         0.5263         0.4476         0.4211      -109.1228      -55.30157      0.3377857
      5690.0000         0.4947         0.3963         0.4211        -99.661      -45.82842      0.4533119
      5690.5000         0.4667          0.414         0.4208       -94.9237      -41.07977      0.5112223
      5691.0000         0.4667         0.4146         0.4203       -69.8455      -15.99022      0.8171925
      5691.5000         0.5018         0.4323         0.4198       -72.0455      -18.17887      0.7905016
      5692.0000         0.5333         0.4327         0.4369       -74.6091      -20.73112      0.7593766
      5692.5000         0.5509         0.4332         0.4364       -76.8091      -22.91977      0.7326858
      5693.0000         0.5579         0.4337         0.4359       -79.3727      -25.47202      0.7015607
      5693.5000         0.5614         0.4171          0.453       -81.8051      -27.89307      0.6720358
