#------------------------------------------------------------------------------
# Created by    : vladimir.rabinovich
# Created on    : 09/19/2023 17:22:46
#------------------------------------------------------------------------------
~Version Information Section
VERS.           2.0     :   CWLS log ASCII Standard - VERSION 2.0
WRAP.           NO      :   One line per depth step
~Well Information Section
#MNEM       .UNIT                                         VALUE :DESCRIPTION
#------------------------------------------------------------------------------
STRT        .FT                                             992 :START DEPTH
STOP        .FT                                            8489 :STOP DEPTH
STEP        .FT                                             0.5 :STEP      
NULL        .                                           -999.25 :NULL      
COMP        .                                       GAELIC CORP :COMPANY   
WELL        .                                     PHELAN MICKEY :WELL      
FLD         .                                           WILDCAT :FIELD     
LOC         .                                                   :LOCATION  
CNTY        .                                         JEFFERSON :LOCATION  
STAT        .                                             TEXAS :STATE     
CTRY        .                                     UNITED STATES :COUNTRY   
SRVC        .                                                   :SERVICE COMPANY
DATE        .                             9/13/2023 11:18:46 AM :LOG DATE  
API         .                                    42245313790000 :API NUMBER
UWI         .                                    42245313790000 :UNIQUE WELL ID
XCOORD      .                                  1260103.88271883 :SURFACE X 
YCOORD      .                                     10773431.3746 :SURFACE Y 
LAT         .                                         29.679995 :LATITUDE  
LON         .                                       -94.1979967 :LONGITUDE 
ELEV        .FT                                              19 :ELEVATION VALUE
ELEV_TYPE   .                                                KB :ELEVATION REFERENCE TYPE
~Curve Information Section
#MNEM       .UNIT                                      API CODE :CURVE DESCRIPTION
#------------------------------------------------------------------------------
DEPT        .FT                                                 :DEPTH     
DPSS        .V/V                                                :          
DRHO        .G/CM3                                              :          
DT          .US/FT                                              :          
GR_NORM     .GAPI                                               :GammaRay Normalized
GRN         .GAPI                                               :          
ILD         .OHMM                                               :          
NPSS        .V/V                                                :Neutron Porosity Sandstone
RHOB        .G/CM3                                              :          
SFL         .OHMM                                               :          
SP          .MV                                                 :          
SP_NORM     .MV                                                 :SP Normalized
TENN        .LB                                                 :          
VSH_GR      .V/V                                                :Volume of Shale from GR
VSH_SP      .V/V                                                :Volume of Shale from SP
~A        DEPTH           DPSS           DRHO             DT        GR_NORM            GRN            ILD           NPSS           RHOB            SFL             SP        SP_NORM           TENN         VSH_GR         VSH_SP
# ...
      6194.0000         0.2257         0.0798       114.9881       61.45437           63.3         0.8209         0.4269         2.2739         0.8247       -12.9198      -6.520239       2709.298      0.6054121      0.9342828
      6194.5000         0.2406          0.058       113.9039       61.09318             63         0.7555         0.4141         2.2512         0.8555       -17.1022      -10.70689       2739.628      0.5977272      0.8844418
      6195.0000         0.2433          0.042       109.2436       57.48127             60         0.6985         0.3956         2.2493         0.9293       -22.2846      -15.89354       2779.902      0.5208781       0.822696
      6195.5000         0.2346         0.0226       106.3353       52.47467        55.8416         0.6428         0.3741         2.2616         1.0471       -26.6702      -20.28339        2760.13      0.4143547      0.7704358
      6196.0000         0.2331         0.0167       105.2375       50.86544         54.505         0.5865         0.3579         2.2661         1.1802       -29.2618      -22.87924       2740.396      0.3801158      0.7395328
      6196.5000         0.2388         0.0157       106.5496       54.97797        57.9208         0.5603          0.346         2.2563         1.2132       -29.2671      -22.88879       2720.702      0.4676163      0.7394192
      6197.0000         0.2391         0.0252       108.9645       59.82902          61.95         0.5452         0.3457         2.2543         1.1586       -27.0872      -20.71314       2721.003      0.5708302      0.7653197
      6197.5000         0.2314         0.0455       111.0621       62.53795           64.2         0.5452         0.3535         2.2672         0.9251       -23.9167      -17.54689       2721.277      0.6284671      0.8030131
      6198.0000         0.2236          0.068       112.6512       61.27378          63.15         0.5553         0.3624         2.2806          0.779       -21.7416      -15.37605       2711.605      0.6015698      0.8288566
      6198.5000         0.2236          0.068       112.3591       57.84246           60.3         0.5603         0.3774         2.2811         0.7824       -22.1474       -15.7861       2711.888      0.5285629       0.823975
      6199.0000         0.2281         0.0495       108.9864       56.05083        58.8119         0.5629         0.3789         2.2752         0.9293       -24.9325      -18.57545       2722.094      0.4904432      0.7907685
      6199.5000         0.2242         0.0341       104.0887       56.76599        59.4059         0.5553         0.3657         2.2792         1.1012       -29.6956       -23.3428       2722.366      0.5056594      0.7340143
      6200.0000         0.2177         0.0272        99.6952       61.09318             63         0.5452         0.3413         2.2906         1.2991         -33.86      -27.51145       2722.637      0.5977272      0.6843875
      6200.5000         0.2165         0.0243        99.4002       65.96928          67.05         0.5402         0.3159         2.2921         1.4908       -36.2417       -29.8974       2712.871       0.701474      0.6559833
      6201.0000         0.2299         0.0233          102.4       71.02596          71.25          0.545          0.318         2.2718         1.4703       -33.6742      -27.33415       2693.069      0.8090629      0.6864982
      6201.5000         0.2383         0.0258          107.4       78.58064        77.5248         0.5524          0.338         2.2594         1.1955       -28.1289       -21.7931       2673.267      0.9698009      0.7524631
      6202.0000         0.2368         0.0352       113.6698       86.09054        83.7624         0.5676         0.3699         2.2599         0.9856       -21.1902      -14.85865       2693.069              1      0.8350161
      6202.5000         0.2341         0.0442       118.3358       95.38846        91.4851         0.5885         0.4052         2.2644         0.7711       -14.6124      -8.285101       2683.168              1      0.9132726
      6203.0000         0.2344         0.0407       121.8227       97.89187        93.5644         0.6244         0.4371         2.2629         0.6811       -10.6261      -4.303051       2693.069              1       0.960678
      6203.5000          0.238         0.0382       124.4182       95.74616        91.7822         0.6656         0.4661         2.2584         0.6873        -8.6372      -2.318403        2702.97              1      0.9843047
      6204.0000          0.238         0.0393       125.1185       89.84548        86.8812         0.7263         0.4798         2.2589         0.7065        -8.6428      -2.328254       2722.772              1      0.9841875
      6204.5000         0.2345         0.0403       124.0256       90.38185        87.3267         0.7963         0.4951         2.2644         0.7296        -9.2458      -2.935504       2722.772              1      0.9769583
      6205.0000         0.2321         0.0383       119.2517       95.38846        91.4851         0.8694         0.4969         2.2678          0.757       -10.4458      -4.139754       2722.772              1       0.962622
      6205.5000         0.2309         0.0314        114.877       95.56736        91.6337         0.8855         0.4726         2.2698         0.7927       -11.6441      -5.342306       2712.871              1      0.9483059
      6206.0000         0.2267         0.0289       112.3899       92.70636        89.2574         0.8894         0.4384         2.2743           0.83       -12.4436      -6.146056       2712.871              1      0.9387375
      6206.5000         0.2208         0.0389       112.5903       87.87855        85.2475         0.8974         0.4193         2.2842          0.865       -12.4472      -6.153906        2702.97              1       0.938644
      6207.0000         0.2223         0.0478       115.7815       85.19647        83.0198         0.8769         0.4327         2.2842         0.8453       -12.4513      -6.162257       2693.069              1      0.9385446
      6207.5000          0.236         0.0504       120.2707       84.66011        82.5743         0.7535         0.4535         2.2688          0.757        -14.639      -8.354208       2693.069              1      0.9124499
      6208.0000         0.2518         0.0424       123.7485       83.58723        81.6832          0.635         0.4798         2.2356         0.6683       -22.5942      -16.31366       2693.069              1      0.8176945
      6208.5000         0.2691         0.0329       123.7518       77.68657        76.7822         0.4958         0.4763            2.2         0.6005       -33.3771      -27.10081        2702.97      0.9507781       0.689276
      6209.0000          0.286         0.0255       121.9705       66.87225           67.8         0.3964         0.4562         2.1703         0.6319        -53.854      -47.58196       2712.871      0.7206863      0.4454529
      6209.5000         0.3027         0.0175       119.8928       56.03759        58.8009         0.2972         0.4262         2.1446         0.6967        -65.396      -59.12822       2712.871      0.4901615      0.3079974
      6210.0000         0.3219          0.013       119.6976       46.64817        51.0022         0.2507         0.4059          2.125         0.7296       -74.7966      -68.53306       2742.574      0.2903866       0.196035
      6210.5000         0.3288          0.008       119.7001       44.29248        49.0456         0.2153         0.4014         2.1049         0.5552       -76.2051      -69.94582       2732.529      0.2402655      0.1792165
      6211.0000         0.3237         0.0045       119.7002       48.79858        52.7883         0.2065         0.4002         2.1118         0.4147       -67.4154      -61.16036        2722.35        0.33614      0.2838052
      6211.5000         0.3087          0.005       119.1012       58.18078         60.581         0.2045         0.3945         2.1397         0.4459       -55.4711      -49.22031       2722.078      0.5357612      0.4259486
