#------------------------------------------------------------------------------
# Created by    : vladimir.rabinovich
# Created on    : 09/19/2023 17:22:46
#------------------------------------------------------------------------------
~Version Information Section
VERS.           2.0     :   CWLS log ASCII Standard - VERSION 2.0
WRAP.           NO      :   One line per depth step
~Well Information Section
#MNEM       .UNIT                                         VALUE :DESCRIPTION
#------------------------------------------------------------------------------
STRT        .FT                                             992 :START DEPTH
STOP        .FT                                            8489 :STOP DEPTH
STEP        .FT                                             0.5 :STEP      
NULL        .                                           -999.25 :NULL      
COMP        .                                       GAELIC CORP :COMPANY   
WELL        .                                     PHELAN MICKEY :WELL      
FLD         .                                           WILDCAT :FIELD     
LOC         .                                                   :LOCATION  
CNTY        .                                         JEFFERSON :LOCATION  
STAT        .                                             TEXAS :STATE     
CTRY        .                                     UNITED STATES :COUNTRY   
SRVC        .                                                   :SERVICE COMPANY
DATE        .                             9/13/2023 11:18:46 AM :LOG DATE  
API         .                                    42245313790000 :API NUMBER
UWI         .                                    42245313790000 :UNIQUE WELL ID
XCOORD      .                                  1260103.88271883 :SURFACE X 
YCOORD      .                                     10773431.3746 :SURFACE Y 
LAT         .                                         29.679995 :LATITUDE  
LON         .                                       -94.1979967 :LONGITUDE 
ELEV        .FT                                              19 :ELEVATION VALUE
ELEV_TYPE   .                                                KB :ELEVATION REFERENCE TYPE
~Curve Information Section
#MNEM       .UNIT                                      API CODE :CURVE DESCRIPTION
#------------------------------------------------------------------------------
DEPT        .FT                                                 :DEPTH     
DPSS        .V/V                                                :          
DRHO        .G/CM3                                              :          
DT          .US/FT                                              :          
GR_NORM     .GAPI                                               :GammaRay Normalized
GRN         .GAPI                                               :          
ILD         .OHMM                                               :          
NPSS        .V/V                                                :Neutron Porosity Sandstone
RHOB        .G/CM3                                              :          
SFL         .OHMM                                               :          
SP          .MV                                                 :          
SP_NORM     .MV                                                 :SP Normalized
TENN        .LB                                                 :          
VSH_GR      .V/V                                                :Volume of Shale from GR
VSH_SP      .V/V                                                :Volume of Shale from SP
~A        DEPTH           DPSS           DRHO             DT        GR_NORM            GRN            ILD           NPSS           RHOB            SFL             SP        SP_NORM           TENN         VSH_GR         VSH_SP
# ...
      4682.0000        -999.25        -999.25       130.4163        -999.25        -999.25         0.9174        -999.25        -999.25          0.789        -6.8356       4.698874        -999.25        -999.25              1
      4682.5000        -999.25        -999.25       130.3212        -999.25        -999.25         0.9174        -999.25        -999.25         0.8146        -6.6455        4.87632        -999.25        -999.25              1
      4683.0000        -999.25        -999.25       129.3257        -999.25        -999.25         0.9174        -999.25        -999.25         0.8447        -6.8554       4.653767        -999.25        -999.25              1
      4683.5000        -999.25        -999.25       128.5277        -999.25        -999.25         0.9174        -999.25        -999.25         0.8919        -6.8653       4.631212        -999.25        -999.25              1
      4684.0000        -999.25        -999.25       127.9301        -999.25        -999.25         0.9174        -999.25        -999.25         0.9487        -6.2752       5.208658        -999.25        -999.25              1
      4684.5000        -999.25        -999.25       128.1349        -999.25        -999.25         0.9174        -999.25        -999.25         0.9578        -5.8851       5.586104        -999.25        -999.25              1
      4685.0000        -999.25        -999.25       129.2442        -999.25        -999.25         0.9174        -999.25        -999.25         0.9578         -5.495        5.96355        -999.25        -999.25              1
      4685.5000        -999.25        -999.25       130.6459        -999.25        -999.25         0.9174        -999.25        -999.25         0.9262        -5.3059       6.139995        -999.25        -999.25              1
      4686.0000        -999.25        -999.25       131.9353        -999.25        -999.25         0.9174        -999.25        -999.25          0.868        -5.3158       6.117441        -999.25        -999.25              1
      4686.5000        -999.25        -999.25       133.2222        -999.25        -999.25         0.9174        -999.25        -999.25         0.8146        -5.3257       6.094887        -999.25        -999.25              1
      4687.0000        -999.25        -999.25       133.9148        -999.25        -999.25         0.9174        -999.25        -999.25         0.8146        -5.3356       6.072332        -999.25        -999.25              1
      4687.5000        -999.25        -999.25       133.7187        -999.25        -999.25         0.9174        -999.25        -999.25         0.8258        -5.3455       6.049779        -999.25        -999.25              1
      4688.0000        -999.25        -999.25       133.1291        -999.25        -999.25         0.9174        -999.25        -999.25         0.8447        -5.3554       6.027225        -999.25        -999.25              1
      4688.5000        -999.25        -999.25       132.4423        -999.25        -999.25         0.9174        -999.25        -999.25          0.864        -5.3653        6.00467        -999.25        -999.25              1
      4689.0000        -999.25        -999.25       131.6586        -999.25        -999.25         0.9174        -999.25        -999.25         0.8838        -5.5752       5.782116        -999.25        -999.25              1
      4689.5000        -999.25        -999.25       131.1709        -999.25        -999.25         0.9174        -999.25        -999.25         0.8919        -5.9851       5.359562        -999.25        -999.25              1
      4690.0000        -999.25        -999.25       131.9593        -999.25        -999.25         0.9043        -999.25        -999.25         0.8879         -6.395       4.937007        -999.25        -999.25              1
      4690.5000        -999.25        -999.25       133.3343        -999.25        -999.25         0.8919        -999.25        -999.25         0.8563        -6.8033       4.516053        -999.25        -999.25              1
      4691.0000        -999.25        -999.25       134.6114        -999.25        -999.25         0.8838        -999.25        -999.25         0.8295        -7.2096       4.097099        -999.25        -999.25              1
      4691.5000        -999.25        -999.25       135.6935        -999.25        -999.25         0.8798        -999.25        -999.25         0.8036        -7.6155       3.678545        -999.25        -999.25              1
      4692.0000        -999.25        -999.25        136.482        -999.25        -999.25         0.8798        -999.25        -999.25         0.7818        -8.4203       2.861092        -999.25        -999.25              1
      4692.5000        -999.25        -999.25       136.5834        -999.25        -999.25         0.8759        -999.25        -999.25         0.7927        -8.8251       2.443637        -999.25        -999.25              1
      4693.0000        -999.25        -999.25       136.0951        -999.25        -999.25         0.8759        -999.25        -999.25            0.8        -9.0302       2.225883        -999.25        -999.25              1
      4693.5000        -999.25        -999.25       135.4096        -999.25        -999.25         0.8838        -999.25        -999.25         0.8109        -9.0356       2.207829        -999.25        -999.25              1
      4694.0000        -999.25        -999.25       134.9202        -999.25        -999.25         0.8919        -999.25        -999.25          0.822        -9.0411       2.189674        -999.25        -999.25              1
      4694.5000        -999.25        -999.25       133.9381        -999.25        -999.25         0.9042        -999.25        -999.25         0.8295        -9.0466       2.171519        -999.25        -999.25              1
      4695.0000        -999.25        -999.25       132.6595        -999.25        -999.25         0.9257        -999.25        -999.25         0.8485         -9.052       2.153465        -999.25        -999.25              1
      4695.5000        -999.25        -999.25       130.9855        -999.25        -999.25          0.952        -999.25        -999.25         0.8838        -9.0574       2.135411        -999.25        -999.25              1
      4696.0000        -999.25        -999.25       129.6987        -999.25        -999.25         0.9789        -999.25        -999.25         0.9212        -9.0629       2.117257        -999.25        -999.25              1
      4696.5000        -999.25        -999.25       128.2936        -999.25        -999.25         0.9787        -999.25        -999.25         0.9342        -9.2671       1.900402        -999.25        -999.25              1
      4697.0000          0.204         0.0296       128.2945       78.62177        77.7529         0.9695         0.4505         2.3135         0.9169        -9.6697       1.485149       2076.066      0.9706758              1
      4697.5000         0.2076         0.0296       128.2953       78.64308        77.7676         0.9648         0.4499         2.3095            0.9        -10.072       1.070195       2095.161      0.9711294              1
      4698.0000         0.2139          0.028       128.8975       78.66656        77.7838         0.9647         0.4457         2.3001         0.8838       -10.6723      0.4572401        2114.18       0.971629              1
      4698.5000         0.2174         0.0245        129.399       77.16584        76.7485         0.9645         0.4468         2.2922         0.8601       -11.0736     0.04328632       2123.236      0.9396988              1
      4699.0000         0.2189         0.0215       130.0989       75.44771        75.5632         0.9644         0.4533         2.2897         0.8333       -11.6729     -0.5686684       2182.239      0.9031428              1
      4699.5000         0.2177         0.0215       130.1979       72.42495        73.4779         0.9642         0.4673         2.2901         0.8109        -11.677     -0.5854225       2181.344      0.8388287              1
