#------------------------------------------------------------------------------
# Created by    : vladimir.rabinovich
# Created on    : 09/19/2023 17:20:51
#------------------------------------------------------------------------------
~Version Information Section
VERS.           2.0     :   CWLS log ASCII Standard - VERSION 2.0
WRAP.           NO      :   One line per depth step
~Well Information Section
#MNEM       .UNIT                                         VALUE :DESCRIPTION
#------------------------------------------------------------------------------
STRT        .FT                                            1028 :START DEPTH
STOP        .FT                                            9325 :STOP DEPTH
STEP        .FT                                             0.5 :STEP      
NULL        .                                           -999.25 :NULL      
COMP        .                     HUNT LAMAR TRUST ESTATE ET AL :COMPANY   
WELL        .                                   BROUSSARD TRUST :WELL      
FLD         .                                           WILDCAT :FIELD     
LOC         .                                                   :LOCATION  
CNTY        .                                         JEFFERSON :LOCATION  
STAT        .                                             TEXAS :STATE     
CTRY        .                                     UNITED STATES :COUNTRY   
SRVC        .                                                   :SERVICE COMPANY
DATE        .                             9/13/2023 11:19:11 AM :LOG DATE  
API         .                                    42245021920000 :API NUMBER
UWI         .                                    42245021920000 :UNIQUE WELL ID
XCOORD      .                                  1218474.36862613 :SURFACE X 
YCOORD      .                                   10882715.986693 :SURFACE Y 
LAT         .                                        29.9792918 :LATITUDE  
LON         .                                       -94.3330868 :LONGITUDE 
ELEV        .FT                                              36 :ELEVATION VALUE
ELEV_TYPE   .                                                DF :ELEVATION REFERENCE TYPE
~Curve Information Section
#MNEM       .UNIT                                      API CODE :CURVE DESCRIPTION
#------------------------------------------------------------------------------
DEPT        .FT                                                 :DEPTH     
ASN         .OHMM                                               :          
LAT         .OHMM                                               :          
LN          .OHMM                                               :          
SP          .MV                                                 :          
SP_NORM     .MV                                                 :SP Normalized
VSH_SP      .V/V                                                :Volume of Shale from SP
~A        DEPTH            ASN            LAT             LN             SP        SP_NORM         VSH_SP
# ...
      5436.0000         0.7625         0.6991          0.354       -70.5357      -11.27644      0.8961976
      5436.5000         0.7554         0.6991          0.354       -71.9643      -12.70504      0.8817672
      5437.0000         0.7411         0.7168         0.3628       -73.3929      -14.13364       0.867337
      5437.5000         0.7339         0.7611         0.3717       -74.8214      -15.56215      0.8529076
      5438.0000         0.6929         0.8319         0.3894       -75.8929      -16.63364      0.8420845
      5438.5000         0.6107         0.9027         0.3982       -75.8929      -16.63364      0.8420845
      5439.0000         0.6089         0.9823         0.3982       -75.5357      -16.27644      0.8456925
      5439.5000         0.6911         0.9912         0.3894       -74.8214      -15.56215      0.8529076
      5440.0000         0.7732         0.9823         0.3716        -71.965      -12.70574      0.8817602
      5440.5000         0.8553         0.8319         0.3543       -69.4608      -10.20154      0.9070551
      5441.0000         0.9374         0.6814         0.3283       -69.2773      -10.01804      0.9089087
      5441.5000         1.0194         0.6018         0.3199       -69.2725      -10.01324      0.9089572
      5442.0000         1.1139         0.6018         0.3026       -73.2026      -13.94334      0.8692592
      5442.5000         1.1281         0.6814         0.2854       -77.1365      -17.87724      0.8295228
      5443.0000         1.1334         0.7611         0.2769       -81.4125      -22.15324      0.7863309
      5443.5000         1.1333          0.823         0.2774       -87.5888      -28.32954       0.723944
      5444.0000         1.1332          0.823         0.2867       -93.7596      -34.50034      0.6616127
      5444.5000         1.1314          0.823          0.296      -103.1189      -43.85964      0.5670744
      5445.0000         1.1241         0.7876         0.2964      -109.5117      -50.25245      0.5025005
      5445.5000         1.1133          0.708          0.288      -115.7318      -56.47254      0.4396713
      5446.0000         1.0311         0.6726         0.2708      -121.9643      -62.70504      0.3767167
      5446.5000         0.8994         0.6195         0.2535      -128.3929      -69.13364      0.3117814
      5447.0000         0.7679         0.5133         0.2451      -133.9286      -74.66934      0.2558652
      5447.5000         0.6571         0.4513         0.2367      -138.9286      -79.66934      0.2053602
      5448.0000         0.5699         0.4071         0.2195      -143.6908      -84.43153      0.1572572
      5448.5000         0.5274         0.3628         0.2199       -148.608      -89.34874      0.1075885
      5449.0000         0.4407         0.3186         0.2115      -149.4821      -90.22284      0.0987592
      5449.5000         0.3643         0.2566         0.2031      -149.4779      -90.21864     0.09880158
      5450.0000           0.35         0.3717         0.1947      -134.8214      -75.56213      0.2468471
      5450.5000         0.3447         0.4603         0.1947      -119.2941      -60.03484      0.4036885
      5451.0000         0.3304         0.4605         0.1858      -119.3025      -60.04324      0.4036036
      5451.5000         0.3429         0.4607          0.177      -126.4463      -67.18704       0.331444
      5452.0000         0.3501          0.452          0.177      -133.5826      -74.32333      0.2593603
      5452.5000         0.3768         0.3902         0.1681      -140.7018      -81.44254      0.1874491
      5453.0000         0.4177         0.3283         0.1593      -147.7193      -88.46004      0.1165653
      5453.5000         0.4444         0.2663         0.1593      -147.7193      -88.46004      0.1165653
      5454.0000         0.4586         0.2131         0.1593      -147.5439      -88.28464       0.118337
      5454.5000         0.4729         0.2132         0.1593      -146.8421      -87.58284      0.1254259
      5455.0000         0.5031         0.2666         0.1504      -146.1404      -86.88113      0.1325138
      5455.5000         0.5209          0.329         0.1593      -139.1114      -79.85214      0.2035137
      5456.0000         0.6188         0.3914         0.1593      -131.8284      -72.56914      0.2770794
      5456.5000         0.7165          0.445         0.1681      -124.5518      -65.29254      0.3505804
      5457.0000         0.8142         0.5075          0.177      -120.8312      -61.57194      0.3881622
      5457.5000         0.8655         0.5523         0.1858      -120.8395      -61.58024      0.3880784
      5458.0000         0.7539         0.5436         0.1858      -123.6851      -64.42584      0.3593349
      5458.5000         0.6405         0.5261         0.1858      -129.5417      -70.28244      0.3001774
      5459.0000         0.5285         0.4728         0.1858      -135.3933      -76.13403      0.2410704
      5459.5000         0.4143         0.4105         0.1858      -141.2281      -81.96884      0.1821329
      5460.0000         0.3575         0.3482         0.1858      -147.0175      -87.75824      0.1236541
      5460.5000         0.3575         0.3125         0.1858      -153.1579      -93.89864     0.06162994
      5461.0000         0.3611           0.25          0.177      -153.1579      -93.89864     0.06162994
      5461.5000         0.3611         0.2589          0.177      -145.0877      -85.82845       0.143147
      5462.0000         0.3628         0.3571          0.177      -136.8142      -77.55493      0.2267179
      5462.5000         0.5304         0.4643         0.1858      -134.3363      -75.07704       0.251747
      5463.0000         0.6159         0.4643         0.1947      -137.3451      -78.08583      0.2213552
      5463.5000         0.6159         0.4643         0.1947      -140.5263      -81.26704      0.1892218
      5464.0000           0.55         0.3214         0.1947      -143.5088      -84.24954      0.1590955
      5464.5000         0.4161         0.2857         0.1947      -145.2632      -86.00394      0.1413744
      5465.0000         0.3381           0.25         0.1947       -145.614      -86.35474      0.1378309
      5465.5000         0.3239         0.2054         0.1947      -145.7895      -86.53024      0.1360582
      5466.0000         0.3097         0.1607         0.1947      -145.7895      -86.53024      0.1360582
      5466.5000         0.2956         0.1518         0.1947      -145.7895      -86.53024      0.1360582
      5467.0000         0.2779         0.1518         0.1947      -145.7895      -86.53024      0.1360582
      5467.5000         0.2743         0.2857         0.1947      -145.2632      -86.00394      0.1413744
      5468.0000         0.2743         0.3125         0.1858      -145.0877      -85.82845       0.143147
      5468.5000         0.3009         0.3661         0.1858      -144.9123      -85.65303      0.1449189
      5469.0000         0.3292         0.4107         0.1858      -144.7368      -85.47754      0.1466915
      5469.5000         0.3575         0.4107         0.1858      -144.7368      -85.47754      0.1466915
      5470.0000         0.3858         0.1875          0.177      -144.5614      -85.30214      0.1484632
      5470.5000         0.4018         0.1607         0.1681      -144.2149      -84.95564      0.1519632
      5471.0000         0.4036         0.1518         0.1416      -143.8728      -84.61354      0.1554188
      5471.5000         0.3752         0.1875         0.1327      -142.8289      -83.56964      0.1659632
      5472.0000         0.3469         0.2679         0.1239      -132.7631      -73.50385      0.2676379
      5472.5000         0.3345         0.3482          0.115      -116.5766      -57.31734       0.431138
      5473.0000         0.3451         0.4286         0.1593       -84.5614      -25.30214      0.7545238
      5473.5000         0.3858         0.5089         0.2035       -52.3894       6.869858              1
