#------------------------------------------------------------------------------
# Created by    : vladimir.rabinovich
# Created on    : 09/19/2023 17:19:39
#------------------------------------------------------------------------------
~Version Information Section
VERS.           2.0     :   CWLS log ASCII Standard - VERSION 2.0
WRAP.           NO      :   One line per depth step
~Well Information Section
#MNEM       .UNIT                                         VALUE :DESCRIPTION
#------------------------------------------------------------------------------
STRT        .FT                                            1969 :START DEPTH
STOP        .FT                                            7841 :STOP DEPTH
STEP        .FT                                             0.5 :STEP      
NULL        .                                           -999.25 :NULL      
COMP        .                           NEWFIELD EXPLORATION CO :COMPANY   
WELL        .                                   PHELAN GAS UNIT :WELL      
FLD         .                                          BINDWEED :FIELD     
LOC         .                                                   :LOCATION  
CNTY        .                                         JEFFERSON :LOCATION  
STAT        .                                             TEXAS :STATE     
CTRY        .                                     UNITED STATES :COUNTRY   
SRVC        .                                                   :SERVICE COMPANY
DATE        .                             9/13/2023 11:18:46 AM :LOG DATE  
API         .                                    42245322670000 :API NUMBER
UWI         .                                    42245322670000 :UNIQUE WELL ID
XCOORD      .                                  1272550.81244857 :SURFACE X 
YCOORD      .                                  10898469.5255822 :SURFACE Y 
LAT         .                                        30.0242363 :LATITUDE  
LON         .                                        -94.162774 :LONGITUDE 
ELEV        .FT                                              24 :ELEVATION VALUE
ELEV_TYPE   .                                                KB :ELEVATION REFERENCE TYPE
~Curve Information Section
#MNEM       .UNIT                                      API CODE :CURVE DESCRIPTION
#------------------------------------------------------------------------------
DEPT        .FT                                                 :DEPTH     
AHT20       .OHMM                                               :          
AHT30       .OHMM                                               :          
AHT60       .OHMM                                               :          
AHT90       .OHMM                                               :          
DCAL        .IN                                                 :          
DPHZSS      .V/V                                                :          
DT          .US/FT                                              :          
GR_NORM     .GAPI                                               :GammaRay Normalized
GRR         .GAPI                                               :          
HDRA        .G/CM3                                              :          
NPORSS      .V/V                                                :          
SP          .MV                                                 :          
SP_NORM     .MV                                                 :SP Normalized
TENR        .LB                                                 :          
VSH_GR      .V/V                                                :Volume of Shale from GR
VSH_SP      .V/V                                                :Volume of Shale from SP
~A        DEPTH          AHT20          AHT30          AHT60          AHT90           DCAL         DPHZSS             DT        GR_NORM            GRR           HDRA         NPORSS             SP        SP_NORM           TENR         VSH_GR         VSH_SP
# ...
      6657.0000         0.6935         0.7065         0.6935          0.687           0.64         0.2208          116.8       87.49467          96.15        -0.0173         0.4034       -19.0032      -4.572611       3556.961              1      0.9670178
      6657.5000         0.7229         0.7364         0.7229         0.7163           0.64         0.2189          116.1          87.11          95.85        -0.0183         0.3896       -19.6011      -5.156817       3517.336              1       0.959528
      6658.0000         0.7535         0.7675         0.7535         0.7466           0.62         0.2164          115.9       88.26234          96.75        -0.0172         0.3763       -19.6009      -5.142923        3517.84              1      0.9597061
      6658.5000         0.7675         0.7818         0.7675         0.7605           0.62         0.2152          116.2       90.75953           98.7        -0.0132         0.3739       -19.2014       -4.72973       3518.292              1      0.9650035
      6659.0000         0.7432          0.757         0.7432         0.7364            0.6         0.2177          116.4       94.02522         101.25        -0.0071         0.3841       -18.6017      -4.116335       3518.795              1      0.9728675
      6659.5000         0.7196          0.733         0.7196          0.713           0.58         0.2208          115.8       95.94605         102.75        -0.0011         0.4104       -18.0014      -3.502341       3539.312              1      0.9807392
      6660.0000         0.7229         0.7364         0.7229         0.7163           0.58         0.2091          112.8       94.60077          101.7          0.005         0.4128       -18.6003      -4.087547       3559.808              1      0.9732366
      6660.5000         0.7641         0.7783         0.7641         0.7571           0.58         0.1936       108.9975        91.5264           99.3          0.009         0.3894            -20      -5.473554           3580              1      0.9554673
      6661.0000         0.8348         0.8507         0.8348          0.827           0.58          0.177       106.2924       83.84106           93.3         0.0111         0.3534          -21.8      -7.259859           3580              1      0.9325659
      6661.5000          0.875         0.8916          0.875         0.8669           0.56         0.1758       106.8874       78.07697           88.8         0.0061         0.3272            -23      -8.446166           3580      0.9590844      0.9173568
      6662.0000         0.8235          0.839         0.8235         0.8158            0.5         0.1898       109.3824       80.38203           90.6         0.0002         0.3528          -21.8      -7.232471           3580              1      0.9329171
      6662.5000         0.7613         0.7754         0.7613         0.7543           0.44         0.2058       111.9774       84.60834           93.9        -0.0018         0.3809          -20.8      -6.218777           3580              1      0.9459131
      6663.0000         0.7545         0.7685         0.7545         0.7476           0.36         0.2132       112.6724       89.98737           98.1        -0.0007         0.3965       -19.5989      -5.003983           3560              1      0.9614874
      6663.5000         0.7581         0.7722         0.7581         0.7512           0.28           0.22       111.5673       92.29245           99.9         0.0003         0.3809       -19.5987      -4.990089           3560              1      0.9616655
      6664.0000         0.7832         0.7977         0.7832          0.776            0.3           0.22       111.1623       88.44957           96.9        -0.0006         0.3586          -20.6      -5.977696           3560              1      0.9490039
      6664.5000         0.8053         0.8204         0.8053         0.7979           0.32         0.2193       110.6573       84.03033          93.45        -0.0016         0.3401          -21.8      -7.164001           3560              1      0.9337949
      6665.0000         0.8281         0.8436         0.8281         0.8205           0.38         0.2162       110.0523       77.49773          88.35        -0.0015         0.3407            -23      -8.350308           3560      0.9467601      0.9185858
      6665.5000         0.8169         0.8321         0.8169         0.8094           0.48           0.21       111.7472       73.46275           85.2        -0.0045         0.3436          -23.8      -9.136614           3540      0.8609095       0.908505
      6666.0000         0.7316         0.7452         0.7316         0.7249            0.6         0.2056       114.9422        74.0387          85.65        -0.0134         0.3591          -24.2      -9.522922           3540      0.8731638      0.9035523
      6666.5000         0.6576           0.67         0.6576         0.6515           0.62          0.213       119.9372       74.03829          85.65        -0.0184         0.3886          -23.4      -8.709227           3540      0.8731552      0.9139843
      6667.0000         0.5908         0.6019         0.5908         0.5854           0.58         0.2513       126.9795       72.11666          84.15        -0.0243          0.417          -23.8      -9.095532           3540      0.8322694      0.9090316
      6667.5000         0.5436         0.5512         0.5411         0.5361           0.66          0.292          132.6       67.69742           80.7        -0.0293         0.4566          -26.6      -11.88184           3520      0.7382429      0.8733097
      6668.0000         0.5238         0.5189         0.5094         0.5047           1.12          0.318          134.2        66.9285           80.1        -0.0302         0.4677          -27.6      -12.86814           3520      0.7218831      0.8606648
      6668.5000         0.5047         0.4865         0.4777         0.4733           1.46          0.328          131.5       70.77057           83.1        -0.0262         0.4659          -23.6      -8.854451           3520      0.8036291      0.9121224
      6669.0000         0.5214         0.4843         0.4755         0.4712           1.44         0.2942       125.8636       82.24382          92.55        -0.0171         0.4109       -19.5965      -4.837257           3520              1      0.9636249
      6669.5000         0.5671         0.5413         0.5313         0.5263           0.96         0.2639        119.907        94.6935            105        -0.0121         0.3631       -17.7794      -3.006463           3540              1      0.9870966
      6670.0000         0.6257         0.5916         0.5944         0.5888           0.56         0.2363        119.702         109.69       119.9968         -0.006         0.3667       -16.9704      -2.183769           3580              1       0.997644
      6670.5000         0.6228         0.5861         0.6199         0.6142         0.5205         0.2338       122.1207       120.4929          130.8         -0.004         0.4006       -16.5615      -1.761176       3578.958              1              1
      6671.0000         0.6085         0.5753         0.6142         0.6085         0.4616         0.2429        125.753       123.9425         134.25         -0.005         0.4509       -15.9472      -1.133182       3576.875              1              1
      6671.5000         0.5944         0.5647         0.6028         0.5972         0.4426          0.254       127.7676       117.9422         128.25              0         0.4546       -15.5354     -0.6946335           3575              1              1
      6672.0000         0.5944         0.5467         0.5917         0.5862         0.4035         0.2621       128.8731       111.1919          121.5          0.003         0.4651       -15.5281     -0.6597776       3572.917              1              1
      6672.5000         0.5972         0.5467         0.5781         0.5728         0.3646         0.2627       129.4731       105.1565       115.4649          0.001         0.4676         -15.52     -0.6241236       3570.833              1              1
