#------------------------------------------------------------------------------
# Created by    : vladimir.rabinovich
# Created on    : 09/19/2023 17:20:50
#------------------------------------------------------------------------------
~Version Information Section
VERS.           2.0     :   CWLS log ASCII Standard - VERSION 2.0
WRAP.           NO      :   One line per depth step
~Well Information Section
#MNEM       .UNIT                                         VALUE :DESCRIPTION
#------------------------------------------------------------------------------
STRT        .FT                                            1769 :START DEPTH
STOP        .FT                                           14822 :STOP DEPTH
STEP        .FT                                             0.5 :STEP      
NULL        .                                           -999.25 :NULL      
COMP        .                                      SHELL OIL CO :COMPANY   
WELL        .                                 MCFADDEN CEE CRSS :WELL      
FLD         .                                           WILDCAT :FIELD     
LOC         .                                                   :LOCATION  
CNTY        .                                         JEFFERSON :LOCATION  
STAT        .                                             TEXAS :STATE     
CTRY        .                                     UNITED STATES :COUNTRY   
SRVC        .                                                   :SERVICE COMPANY
DATE        .                             9/13/2023 11:19:11 AM :LOG DATE  
API         .                                    42245030100000 :API NUMBER
UWI         .                                    42245030100000 :UNIQUE WELL ID
XCOORD      .                                  1300794.63996209 :SURFACE X 
YCOORD      .                                  10796706.8159759 :SURFACE Y 
LAT         .                                        29.7451097 :LATITUDE  
LON         .                                       -94.0705183 :LONGITUDE 
ELEV        .FT                                            17.6 :ELEVATION VALUE
ELEV_TYPE   .                                                KB :ELEVATION REFERENCE TYPE
~Curve Information Section
#MNEM       .UNIT                                      API CODE :CURVE DESCRIPTION
#------------------------------------------------------------------------------
DEPT        .FT                                                 :DEPTH     
ASN         .OHMM                                               :          
DT          .US/F                                               :          
ILD         .OHMM                                               :          
SP          .MV                                                 :          
SP_NORM     .MV                                                 :SP Normalized
VSH_SP      .V/V                                                :Volume of Shale from SP
~A        DEPTH            ASN             DT            ILD             SP        SP_NORM         VSH_SP
# ...
      9597.0000         0.7231       138.9634           0.46       -42.9394     -0.9640923              1
      9597.5000         0.7236       141.2443         0.4598       -42.9611     -0.9857941              1
      9598.0000         0.7206       141.6741         0.4593       -42.9828      -1.007492      0.9998471
      9598.5000         0.7159        143.312         0.4579       -43.0045      -1.029194      0.9994042
      9599.0000         0.7114       142.8356         0.4564       -43.0261      -1.050793      0.9989634
      9599.5000         0.7079       142.6806         0.4549       -43.0479      -1.072594      0.9985185
      9600.0000         0.7057       143.6873         0.4537       -43.0695      -1.094193      0.9980777
      9600.5000         0.6985       143.7646         0.4241       -43.0912      -1.115894      0.9976348
      9601.0000         0.6992       142.9822         0.4241        -43.087      -1.111694      0.9977205
      9601.5000            0.7       141.3629         0.4241       -43.0809      -1.105591      0.9978451
      9602.0000         0.6998       140.9724         0.4244       -43.0749      -1.099594      0.9979675
      9602.5000          0.698       140.8203         0.4249       -43.0689      -1.093594      0.9980899
      9603.0000         0.6962       140.6607         0.4253       -43.0629      -1.087593      0.9982124
      9603.5000         0.6944       140.4326         0.4258       -43.0568      -1.081493      0.9983369
      9604.0000         0.6926       140.1879         0.4263       -43.0508      -1.075493      0.9984593
      9604.5000         0.6912       139.5802         0.4268       -43.0448      -1.069492      0.9985818
      9605.0000         0.6898       138.9528         0.4273       -43.0388      -1.063492      0.9987043
      9605.5000         0.6891       138.7278         0.4277       -43.0328      -1.057491      0.9988267
      9606.0000         0.6911       138.5727         0.4282       -43.0689      -1.093594      0.9980899
      9606.5000         0.6931       139.8893         0.4285        -43.141      -1.165691      0.9966186
      9607.0000         0.6945       143.5845         0.4277       -43.2131      -1.237793      0.9951471
      9607.5000         0.6951       142.3676         0.4269       -43.2852      -1.309891      0.9936757
      9608.0000         0.6958       141.5154         0.4261       -43.3575      -1.382191      0.9922002
      9608.5000         0.6964       141.2053         0.4253       -43.4296      -1.454292      0.9907287
      9609.0000          0.697       140.6982         0.4245       -43.5016      -1.526291      0.9892594
      9609.5000         0.6974       139.8881         0.4237       -43.5738      -1.598492      0.9877859
      9610.0000          0.697       139.5314         0.4229        -43.646      -1.670692      0.9863124
      9610.5000         0.6966       139.5779          0.422       -43.7181      -1.742794      0.9848409
      9611.0000         0.6962       142.6397         0.4212       -43.7902      -1.814892      0.9833695
      9611.5000         0.6957       143.9927         0.4203       -43.8538      -1.878494      0.9820715
      9612.0000         0.6948        143.221         0.4194       -43.9003      -1.924992      0.9811226
      9612.5000         0.6939       143.2952         0.4184       -43.9468      -1.971493      0.9801736
      9613.0000          0.693       143.9952         0.4175       -43.9932      -2.017891      0.9792267
      9613.5000         0.6921       144.6891         0.4166       -44.0397      -2.064392      0.9782777
      9614.0000         0.6903       144.7664         0.4156       -44.0862      -2.110893      0.9773287
      9614.5000         0.6883       143.3719         0.4147       -44.1328      -2.157494      0.9763777
      9615.0000         0.6863       141.8145         0.4138       -44.1792      -2.203892      0.9754308
      9615.5000         0.6841       140.2731         0.4144       -44.2257      -2.250393      0.9744818
      9616.0000         0.6814       139.4766         0.4149       -44.2352      -2.259892      0.9742879
      9616.5000         0.6787       139.0334         0.4155       -44.2126      -2.237293      0.9747491
      9617.0000          0.676       141.9829          0.416         -44.19      -2.214691      0.9752104
      9617.5000         0.6746       145.1487         0.4166       -44.1674      -2.192093      0.9756716
      9618.0000         0.6744       147.8632         0.4172       -44.1447      -2.169392      0.9761348
      9618.5000         0.6742       146.6665         0.4177       -44.1221      -2.146793      0.9765961
      9619.0000          0.674       145.6191         0.4179       -44.0995      -2.124191      0.9770573
      9619.5000         0.6748       144.5717         0.4136       -44.0769      -2.101593      0.9775185
      9620.0000         0.6763       143.5243         0.4093       -44.0543      -2.078991      0.9779798
      9620.5000         0.6778       142.4401          0.405       -44.0317      -2.056393      0.9784409
      9621.0000         0.6794       143.0495         0.4007        -44.021      -2.045692      0.9786593
      9621.5000         0.6814       143.6812         0.3964       -44.0147      -2.039394      0.9787879
      9622.0000         0.6844       144.3128         0.3921       -44.0084      -2.033092      0.9789165
      9622.5000         0.6874       143.8076         0.3944       -44.0021      -2.026794       0.979045
      9623.0000         0.6919       142.9767         0.3995       -43.9957      -2.020393      0.9791756
      9623.5000         0.6966       142.1459         0.4045       -43.9894      -2.014091      0.9793043
      9624.0000         0.7015        141.315         0.4095       -43.9831      -2.007793      0.9794328
      9624.5000         0.7066       140.8119          0.428       -43.9767      -2.001392      0.9795634
      9625.0000         0.7117       140.2695         0.4519       -43.9704      -1.995094       0.979692
      9625.5000         0.7185       138.9457         0.4757       -43.9641      -1.988792      0.9798205
      9626.0000         0.7265       137.7904         0.4959        -43.953      -1.977692      0.9800471
      9626.5000         0.7379       138.3404         0.5147       -43.9402      -1.964893      0.9803083
      9627.0000         0.7541       139.0207         0.5334       -43.9274      -1.952091      0.9805695
      9627.5000         0.7862       138.4875         0.5506       -43.9146      -1.939293      0.9808307
      9628.0000         0.8144       136.2648          0.556       -43.9019      -1.926594      0.9810899
      9628.5000         0.8273        134.042         0.5613        -43.889      -1.913692      0.9813532
      9629.0000         0.8267       131.8192         0.5653       -43.8763      -1.900993      0.9816124
      9629.5000         0.8242       129.5964         0.5598       -43.8635      -1.888191      0.9818736
      9630.0000         0.8187        127.022         0.5544       -43.8506      -1.875294      0.9821368
      9630.5000         0.8132       130.4879         0.5489       -43.8379      -1.862591      0.9823961
      9631.0000         0.8104       135.2323         0.5414       -43.8251      -1.849792      0.9826573
      9631.5000         0.8101       134.1696         0.5323       -43.8182      -1.842892      0.9827981
      9632.0000         0.8098       132.9159         0.5232       -43.8134      -1.838093      0.9828961
      9632.5000         0.8011       131.6622          0.514       -43.8086      -1.833294       0.982994
      9633.0000          0.792       131.5175         0.5049       -43.8038      -1.828491       0.983092
      9633.5000         0.7842       133.8826         0.4963        -43.799      -1.823692      0.9831899
      9634.0000         0.7765       138.0972         0.4887       -43.7942      -1.818893      0.9832879
      9634.5000         0.7687       139.0522         0.4811       -43.7894      -1.814091      0.9833859
