#------------------------------------------------------------------------------
# Created by    : vladimir.rabinovich
# Created on    : 09/19/2023 17:20:51
#------------------------------------------------------------------------------
~Version Information Section
VERS.           2.0     :   CWLS log ASCII Standard - VERSION 2.0
WRAP.           NO      :   One line per depth step
~Well Information Section
#MNEM       .UNIT                                         VALUE :DESCRIPTION
#------------------------------------------------------------------------------
STRT        .FT                                            1028 :START DEPTH
STOP        .FT                                            9325 :STOP DEPTH
STEP        .FT                                             0.5 :STEP      
NULL        .                                           -999.25 :NULL      
COMP        .                     HUNT LAMAR TRUST ESTATE ET AL :COMPANY   
WELL        .                                   BROUSSARD TRUST :WELL      
FLD         .                                           WILDCAT :FIELD     
LOC         .                                                   :LOCATION  
CNTY        .                                         JEFFERSON :LOCATION  
STAT        .                                             TEXAS :STATE     
CTRY        .                                     UNITED STATES :COUNTRY   
SRVC        .                                                   :SERVICE COMPANY
DATE        .                             9/13/2023 11:19:11 AM :LOG DATE  
API         .                                    42245021920000 :API NUMBER
UWI         .                                    42245021920000 :UNIQUE WELL ID
XCOORD      .                                  1218474.36862613 :SURFACE X 
YCOORD      .                                   10882715.986693 :SURFACE Y 
LAT         .                                        29.9792918 :LATITUDE  
LON         .                                       -94.3330868 :LONGITUDE 
ELEV        .FT                                              36 :ELEVATION VALUE
ELEV_TYPE   .                                                DF :ELEVATION REFERENCE TYPE
~Curve Information Section
#MNEM       .UNIT                                      API CODE :CURVE DESCRIPTION
#------------------------------------------------------------------------------
DEPT        .FT                                                 :DEPTH     
ASN         .OHMM                                               :          
LAT         .OHMM                                               :          
LN          .OHMM                                               :          
SP          .MV                                                 :          
SP_NORM     .MV                                                 :SP Normalized
VSH_SP      .V/V                                                :Volume of Shale from SP
~A        DEPTH            ASN            LAT             LN             SP        SP_NORM         VSH_SP
# ...
      3232.0000         0.8945         1.3839         0.8393       -65.7658      -4.865555      0.9674369
      3232.5000         0.8582         1.4107         0.8393       -65.9459      -5.048344      0.9653597
      3233.0000         0.8436         1.4375         0.8482       -66.1261      -5.231232      0.9632815
      3233.5000         0.8364         1.4643          0.875       -66.8468      -5.954624      0.9550611
      3234.0000         0.8364            1.5         0.8929       -66.8468      -5.957314      0.9550305
      3234.5000         0.8364            1.5         0.9375       -66.8468      -5.960003          0.955
      3235.0000         0.8436         1.4464         0.9464       -66.8468      -5.962696      0.9549693
      3235.5000         0.9545         1.3929         0.9643       -66.8468      -5.965385      0.9549388
      3236.0000         0.9873         1.3304         0.9732       -66.8468      -5.968075      0.9549083
      3236.5000         1.0105         1.2768         0.9821       -66.4865      -5.610466       0.958972
      3237.0000         1.0316         1.2143         1.0088       -64.5045      -3.631153      0.9814641
      3237.5000         1.0526         1.1607         1.0088       -63.4234      -2.552742      0.9937189
      3238.0000         1.0737         1.0982         1.0088       -61.6216     -0.7536316              1
      3238.5000         1.1018         1.0446         1.0177       -61.4414     -0.5761223              1
      3239.0000         1.1263         1.0357         1.0177       -61.6216     -0.7590141              1
      3239.5000         1.1544         1.0625         1.0177        -61.982      -1.122101              1
      3240.0000          1.193         1.2411         1.0177       -62.1622      -1.304993              1
      3240.5000         1.2108         1.2676         1.0175       -62.3498      -1.495281              1
      3241.0000         1.2126          1.285          1.017       -63.4377      -2.585869      0.9933424
      3241.5000         1.2198         1.3024         1.0255       -64.1648      -3.315662      0.9850493
      3242.0000         1.2198         1.3019          1.025       -65.0711      -4.224648      0.9747199
      3242.5000         1.2198         1.2836         1.0246       -65.9766      -5.132843      0.9643995
      3243.0000         1.2162         1.2743         1.0242       -66.8813      -6.040234      0.9540883
      3243.5000          1.209         1.2649         1.0237       -67.9648      -7.126419      0.9417452
      3244.0000         1.1211         1.2466         1.0233       -68.1497      -7.314007      0.9396136
      3244.5000         1.0965         1.2194         1.0229       -67.4373      -6.604301      0.9476784
      3245.0000         1.0719         1.1921         1.0224       -66.7255      -5.895191      0.9557365
      3245.5000         1.0474         1.1738          1.022        -65.835      -5.007378      0.9658253
      3246.0000         1.0368         1.1555         1.0216       -65.1246      -4.299675      0.9738674
      3246.5000         1.0211         1.1283         1.0211       -64.2357      -3.413464      0.9839379
      3247.0000         1.0211         1.0922         1.0207       -63.5267       -2.70715      0.9919642
      3247.5000         1.0211         1.0649         1.0203       -62.6393      -1.822441              1
      3248.0000         1.0368         1.0377         1.0198       -61.9316      -1.117428              1
      3248.5000         1.0544         1.0016         1.0194       -61.0458     -0.2343178              1
      3249.0000         1.0649         0.9563         1.0189       -60.8756    -0.06680679              1
      3249.5000         1.0667          0.929         1.0185       -60.8841    -0.07799911              1
      3250.0000         1.0614         0.9107         1.0181       -60.8927    -0.08929062              1
      3250.5000         1.0438         0.9018         1.0179       -60.8933    -0.09257889              1
      3251.0000         1.0174         0.9018         1.0178       -61.4295     -0.6314697              1
      3251.5000         0.9889         0.9375         1.0268       -61.7877     -0.9923592              1
      3252.0000         0.9851         0.9732         1.0267       -65.0089      -4.216251      0.9748153
      3252.5000         0.9996         1.0268         1.0267       -64.1154      -3.325439      0.9849382
      3253.0000         1.0153         1.0625         1.0267       -63.7593      -2.972027      0.9889542
      3253.5000         1.0468         1.1339         1.0267        -61.791       -1.00642              1
      3254.0000         1.0783         1.2232         1.0267       -60.7167     0.06518936              1
      3254.5000         1.0782         1.2232         1.0267       -59.8237      0.9555016              1
      3255.0000         1.0799         1.2321         1.0267       -59.8238       0.952713              1
      3255.5000         1.0763         1.2321         1.0355       -59.8238      0.9500237              1
      3256.0000         1.0692         1.2143         1.0355       -59.8239      0.9472351              1
      3256.5000         1.0726         1.1875         1.0355        -59.824      0.9444427              1
      3257.0000         1.0637         1.1607         1.0355       -59.8241      0.9416542              1
      3257.5000         1.0601          1.125         1.0355            -60      0.7630615              1
      3258.0000         1.0565         1.0804         1.0355            -60      0.7603722              1
      3258.5000         1.0547         1.0804         1.0355       -60.1799      0.5777817              1
      3259.0000         1.0546         1.0357         1.0354         -60.18      0.5749931              1
      3259.5000         1.0545         1.0089         1.0443       -60.3602      0.3921051              1
      3260.0000         1.0562         1.0089         1.0443       -60.3604      0.3892136              1
      3260.5000         1.0631         1.0801         1.0442       -60.5405      0.2064247              1
      3261.0000         1.1139         1.1422         1.0442       -60.5405      0.2037315              1
      3261.5000         1.1278         1.2042         1.0442       -60.7207     0.02084351              1
      3262.0000         1.1418         1.2662         1.0442       -60.7207     0.01815414              1
      3262.5000         1.1487         1.3283         1.0442       -60.9009     -0.1647377              1
      3263.0000         1.1504         1.3635         1.0442       -61.0811     -0.3476257              1
      3263.5000         1.1503         1.3809         1.0531       -61.4414     -0.7106133              1
      3264.0000         1.1467         1.4073         1.0531       -61.6216     -0.8935051              1
      3264.5000         1.1413         1.4068         1.0531        -61.982      -1.256592              1
      3265.0000         1.1272         1.3975         1.0531       -62.5225      -1.799786              1
      3265.5000         1.1008         1.3256         1.0531       -63.4234      -2.703377      0.9920071
      3266.0000         1.0972         1.2448         1.0531       -64.3243      -3.606968       0.981739
      3266.5000         1.0936          1.164         1.0531       -64.3243      -3.609657      0.9817085
      3267.0000         1.0935         1.0743         1.0619       -64.3243      -3.612347      0.9816779
      3267.5000         1.0952         1.0739         1.0708       -64.3243      -3.615036      0.9816473
      3268.0000         1.0969         1.0466         1.0885       -63.7838      -3.077221      0.9877589
      3268.5000         1.1371         1.0373         1.0973       -61.8018      -1.097916              1
      3269.0000         1.1616         1.0279         1.1062       -61.2613     -0.5601044              1
      3269.5000         1.1896         1.0542         1.1593       -60.7207    -0.02219391              1
