#------------------------------------------------------------------------------
# Created by    : vladimir.rabinovich
# Created on    : 09/19/2023 17:22:03
#------------------------------------------------------------------------------
~Version Information Section
VERS.           2.0     :   CWLS log ASCII Standard - VERSION 2.0
WRAP.           NO      :   One line per depth step
~Well Information Section
#MNEM       .UNIT                                         VALUE :DESCRIPTION
#------------------------------------------------------------------------------
STRT        .FT                                             959 :START DEPTH
STOP        .FT                                            9240 :STOP DEPTH
STEP        .FT                                             0.5 :STEP      
NULL        .                                           -999.25 :NULL      
COMP        .                                  SAMEDAN OIL CORP :COMPANY   
WELL        .                                            WILBER :WELL      
FLD         .                                     HAMSHIRE WEST :FIELD     
LOC         .                                                   :LOCATION  
CNTY        .                                         JEFFERSON :LOCATION  
STAT        .                                             TEXAS :STATE     
CTRY        .                                     UNITED STATES :COUNTRY   
SRVC        .                                                   :SERVICE COMPANY
DATE        .                             9/13/2023 11:18:46 AM :LOG DATE  
API         .                                    42245321080000 :API NUMBER
UWI         .                                    42245321080000 :UNIQUE WELL ID
XCOORD      .                                  1220512.54732583 :SURFACE X 
YCOORD      .                                  10829820.5318697 :SURFACE Y 
LAT         .                                        29.8338887 :LATITUDE  
LON         .                                       -94.3247224 :LONGITUDE 
ELEV        .FT                                              24 :ELEVATION VALUE
ELEV_TYPE   .                                                KB :ELEVATION REFERENCE TYPE
~Curve Information Section
#MNEM       .UNIT                                      API CODE :CURVE DESCRIPTION
#------------------------------------------------------------------------------
DEPT        .FT                                                 :DEPTH     
CALI        .IN                                                 :          
DPSS        .%                                                  :          
DRHO        .G/CM3                                              :          
GR          .GAPI                                               :          
GR_NORM     .GAPI                                               :GammaRay Normalized
ILD         .OHMM                                               :          
ILM         .OHMM                                               :          
NPSS        .%                                                  :Neutron Porosity Sandstone
SGRD        .OHMM                                               :          
SP          .MV                                                 :          
SP_NORM     .MV                                                 :SP Normalized
TENS        .LB                                                 :          
VSH_GR      .V/V                                                :Volume of Shale from GR
VSH_SP      .V/V                                                :Volume of Shale from SP
~A        DEPTH           CALI           DPSS           DRHO             GR        GR_NORM            ILD            ILM           NPSS           SGRD             SP        SP_NORM           TENS         VSH_GR         VSH_SP
# ...
      9185.0000         8.8498        37.9176        -999.25        -999.25        -999.25         0.9896         1.0554        34.3932         1.1483       -71.1913      -1.149368       4984.469        -999.25      0.9982218
      9185.5000          8.848        37.9831        -999.25        -999.25        -999.25         0.9853         1.0503        34.6962         1.2087       -70.8119     -0.6569901       4965.927        -999.25              1
      9186.0000          8.846        37.9892        -999.25        -999.25        -999.25         0.9809         1.0354        34.4053         1.1531       -69.0303       1.237579       4967.434        -999.25              1
      9186.5000          8.844        38.0553        -999.25        -999.25        -999.25         0.9974         1.0159        33.8768         1.0596       -69.8509       0.529953       4889.239        -999.25              1
      9187.0000         8.8419        38.1214        -999.25        -999.25        -999.25         1.0062         1.0062        33.6446         0.9888       -70.8715     -0.3776703       4970.452        -999.25              1
      9187.5000         8.8399        38.1276        -999.25        -999.25        -999.25         0.9803          1.006        33.5913         0.9319       -71.2901     -0.6832962        4991.91        -999.25              1
      9188.0000         8.8381        38.0131        -999.25        -999.25        -999.25         0.9801         1.0057        33.5973         0.9596       -70.5106      0.2091827       4973.325        -999.25              1
      9188.5000         8.8361        38.0192        -999.25        -999.25        -999.25         0.9799         0.9965         33.247          1.015       -71.1312     -0.2984543       4954.874        -999.25              1
      9189.0000         8.8341        38.0253        -999.25        -999.25        -999.25         0.9797         0.9963        32.9555         1.0734       -71.7518      -0.806076       4996.331        -999.25              1
      9189.5000          8.832        38.0314        -999.25        -999.25        -999.25         0.9961         1.0145        33.9713         1.0731       -71.9704     -0.9116974       5057.816        -999.25              1
      9190.0000           8.83        38.1576        -999.25        -999.25        -999.25         1.0142         1.0334        34.2744         0.9875       -71.9909     -0.8192215       5059.375        -999.25              1
      9190.5000         8.8282         38.283        -999.25        -999.25        -999.25         1.0777          1.098        34.3398         1.0093       -72.2077     -0.9230499       5020.755        -999.25              1
      9191.0000         8.8262         38.409        -999.25        -999.25        -999.25         1.1721         1.1942        34.1081         1.1343       -72.6211       -1.22348       4982.237        -999.25      0.9973395
      9191.5000         8.8243         38.595        -999.25        -999.25        -999.25         1.2511         1.2747        33.9359         1.2927       -73.2338      -1.723206       4983.729        -999.25      0.9913904
      9192.0000         8.8223        38.8411        -999.25        -999.25        -999.25         1.3291         1.3542        33.8825         1.4801       -74.2453      -2.621727       4985.224        -999.25      0.9806937
      9192.5000        -999.25        38.9671        -999.25        -999.25        -999.25         1.4252         1.4521        -999.25         1.5504       -77.0518      -5.315254        4986.72        -999.25      0.9486279
      9193.0000        -999.25        38.8531        -999.25        -999.25        -999.25         1.4721         1.5282        -999.25         1.3853       -78.8583      -7.008774       4988.218        -999.25       0.928467
      9193.5000        -999.25        38.5591        -999.25        -999.25        -999.25         1.4854         1.5711        -999.25         1.2322       -80.4619      -8.499397       4989.717        -999.25      0.9107215
      9194.0000        -999.25        38.2651        -999.25        -999.25        -999.25         1.4039         1.5559        -999.25         1.3028       -82.0631      -9.987633       4991.217        -999.25      0.8930044
      9194.5000        -999.25        38.0912        -999.25        -999.25        -999.25         1.1216         1.3331        -999.25          1.592        -92.017      -19.82855       4992.719        -999.25      0.7758506
      9195.0000        -999.25        38.0972        -999.25        -999.25        -999.25         0.9096         1.0752        -999.25         1.9182       -105.366      -33.06458       4994.223        -999.25      0.6182789
      9195.5000        -999.25        38.1632        -999.25        -999.25        -999.25         0.6824          0.862        -999.25         2.2422      -118.5132       -46.0988       5015.833        -999.25      0.4631095
      9196.0000        -999.25        38.2892        -999.25        -999.25        -999.25         0.5019         0.6822        -999.25         2.2933      -135.0515      -62.52412       4997.234        -999.25        0.26757
      9196.5000        -999.25        38.5352        -999.25        -999.25        -999.25         0.4144         0.5299        -999.25         1.9883      -143.4502      -70.80985       4998.742        -999.25      0.1689303
      9197.0000        -999.25        38.6012        -999.25        -999.25        -999.25          0.348         0.4355        -999.25         1.5742      -147.2719      -74.51858       5000.251        -999.25      0.1247788
      9197.5000        -999.25        38.6072        -999.25        -999.25        -999.25          0.324         0.4084        -999.25         1.2523      -149.8916      -77.02531       4921.179        -999.25     0.09493683
      9198.0000        -999.25        38.3133        -999.25        -999.25        -999.25         0.3134         0.3859        -999.25         1.2005      -150.5113      -77.53204       4962.963        -999.25     0.08890434
      9198.5000        -999.25        38.1993        -999.25        -999.25        -999.25         0.3118         0.3821        -999.25         1.3546       -148.731      -75.63876       4964.457        -999.25      0.1114434
      9199.0000        -999.25        38.2053        -999.25        -999.25        -999.25         0.3394         0.3856        -999.25         1.4521      -146.1507      -72.94548       4965.952        -999.25      0.1435062
      9199.5000        -999.25        38.1514        -999.25        -999.25        -999.25         0.3712         0.4114        -999.25         1.3103      -140.1704       -66.8522       4967.449        -999.25      0.2160452
      9200.0000        -999.25        38.0374        -999.25        -999.25        -999.25         0.4187         0.4566        -999.25          0.927      -122.9943      -49.56313        4948.75        -999.25      0.4218675
      9200.5000        -999.25        37.4418        -999.25        -999.25        -999.25         0.4712         0.5022        -999.25         0.6141      -100.6045      -27.06036       4930.082        -999.25      0.6897576
      9201.0000        -999.25        37.4418        -999.25        -999.25        -999.25         0.5184         0.5525        -999.25         0.7994       -97.2311      -23.57398       4951.845        -999.25      0.7312621
      9201.5000        -999.25        -999.25        -999.25        -999.25        -999.25         0.5703         0.6109        -999.25         1.2724        -111.55      -37.77991       4993.762        -999.25      0.5621439
      9202.0000        -999.25        -999.25        -999.25        -999.25        -999.25         0.6222         0.6671        -999.25         1.7953      -114.5523      -40.66924       5055.803        -999.25      0.5277472
      9202.5000        -999.25        -999.25        -999.25        -999.25        -999.25         0.6921         0.7348        -999.25         1.9428      -114.3789      -40.38286       5037.157        -999.25      0.5311564
