#------------------------------------------------------------------------------
# Created by    : vladimir.rabinovich
# Created on    : 09/19/2023 17:20:52
#------------------------------------------------------------------------------
~Version Information Section
VERS.           2.0     :   CWLS log ASCII Standard - VERSION 2.0
WRAP.           NO      :   One line per depth step
~Well Information Section
#MNEM       .UNIT                                         VALUE :DESCRIPTION
#------------------------------------------------------------------------------
STRT        .FT                                            1017 :START DEPTH
STOP        .FT                                            8855 :STOP DEPTH
STEP        .FT                                             0.5 :STEP      
NULL        .                                           -999.25 :NULL      
COMP        .                               MEREDITH & CO ET AL :COMPANY   
WELL        .                               BROUSSARD J JR ETAL :WELL      
FLD         .                                           WILDCAT :FIELD     
LOC         .                                                   :LOCATION  
CNTY        .                                         JEFFERSON :LOCATION  
STAT        .                                             TEXAS :STATE     
CTRY        .                                     UNITED STATES :COUNTRY   
SRVC        .                                                   :SERVICE COMPANY
DATE        .                             9/13/2023 11:19:11 AM :LOG DATE  
API         .                                    42245021880000 :API NUMBER
UWI         .                                    42245021880000 :UNIQUE WELL ID
XCOORD      .                                  1215343.11980964 :SURFACE X 
YCOORD      .                                  10882366.7587642 :SURFACE Y 
LAT         .                                        29.9782309 :LATITUDE  
LON         .                                       -94.3429645 :LONGITUDE 
ELEV        .FT                                              36 :ELEVATION VALUE
ELEV_TYPE   .                                                DF :ELEVATION REFERENCE TYPE
~Curve Information Section
#MNEM       .UNIT                                      API CODE :CURVE DESCRIPTION
#------------------------------------------------------------------------------
DEPT        .FT                                                 :DEPTH     
ASN         .OHMM                                               :          
LAT         .OHMM                                               :          
LN          .OHMM                                               :          
SP          .MV                                                 :          
SP_NORM     .MV                                                 :SP Normalized
VSH_SP      .V/V                                                :Volume of Shale from SP
~A        DEPTH            ASN            LAT             LN             SP        SP_NORM         VSH_SP
# ...
      1549.0000         2.5009         2.4698         2.2072       -66.5304      -2.810562       0.979736
      1549.5000         2.5298         2.4848         2.2213       -66.2494      -2.540577      0.9864856
      1550.0000         2.5295         2.4852         2.2208       -65.9684      -2.270603      0.9932349
      1550.5000         2.5291         2.4994         2.2205       -65.9701      -2.283325      0.9929169
      1551.0000         2.5141         2.4834          2.235       -65.6716      -1.995846              1
      1551.5000         2.5137         2.4825         2.2495       -65.6716       -2.00687      0.9998282
      1552.0000         2.5134         2.4373         2.2493       -65.3731      -1.719391              1
      1552.5000         2.5129         2.4214         2.2491       -65.6716      -2.028912      0.9992772
      1553.0000         2.5126         2.4059          2.249       -66.2687      -2.637035      0.9840741
      1553.5000         2.5122         2.3901         2.2634       -66.5672      -2.946556      0.9763361
      1554.0000         2.5119         2.3893         2.2632       -67.1642      -3.554577      0.9611356
      1554.5000         2.4968         2.3735         2.2776       -67.7612      -4.162601       0.945935
      1555.0000         2.4965         2.3727         2.2774       -68.3582      -4.770622      0.9307345
      1555.5000         2.4961         2.3569         2.2772       -68.3582      -4.781643      0.9304589
      1556.0000         2.4957         2.3416         2.2916       -67.4627      -3.897167      0.9525708
      1556.5000           2.51         2.3113          2.306       -67.1642      -3.609688      0.9597578
      1557.0000         2.5241         2.3102         2.3057       -66.5672      -3.023708      0.9744073
      1557.5000         2.5383         2.2949         2.3201       -65.9701      -2.437634      0.9890592
      1558.0000         2.5669         2.3083         2.3198       -65.6716      -2.150154      0.9962462
      1558.5000         2.5811         2.3076         2.3342       -65.3731      -1.862675              1
      1559.0000         2.5806         2.3355         2.3484       -65.0746      -1.575199              1
      1559.5000         2.5803         2.3492         2.3627       -65.0746       -1.58622              1
      1560.0000         2.5943          2.406         2.3624       -64.7761       -1.29874              1
      1560.5000         2.5938          2.435         2.3764        -64.488      -1.021664              1
      1561.0000         2.6074         2.4644         2.3756       -63.9087     -0.4533844              1
      1561.5000         2.6211         2.4937         2.3893        -63.622     -0.1777077              1
      1562.0000          2.635         2.5377         2.3887       -63.6396     -0.2063293              1
      1562.5000         2.6487         2.5525         2.3879       -63.6513     -0.2290497              1
      1563.0000         2.6482         2.5676         2.3726       -63.3704      0.0408287              1
      1563.5000         2.6473          2.597         2.3721       -63.3821     0.01810455              1
      1564.0000          2.661         2.5975         2.3712       -63.6981      -0.308918              1
      1564.5000         2.6605         2.6272         2.3559       -63.7098     -0.3316383              1
      1565.0000         2.6452         2.6276         2.3409       -63.7273     -0.3601608              1
      1565.5000         2.6299         2.6281         2.3401        -63.739     -0.3828812              1
      1566.0000         2.6148         2.6431         2.3393        -64.055     -0.7099037              1
      1566.5000          2.585         2.6583         2.3242        -64.371       -1.03693              1
      1567.0000         2.5697         2.6587         2.3089       -64.6811      -1.358047              1
      1567.5000         2.5547         2.6739         2.2791       -64.9971       -1.68507              1
      1568.0000         2.5394         2.6889         2.2641       -65.0088       -1.70779              1
      1568.5000         2.5385         2.6895         2.2343       -65.3248      -2.034813      0.9991297
      1569.0000          2.538         2.7193         2.2045       -65.9333      -2.654331      0.9836417
      1569.5000         2.5372         2.7346         2.1605       -65.9508      -2.682858      0.9829286
      1570.0000         2.5653         2.7497         2.1017       -66.8637      -3.606781      0.9598305
      1570.5000         2.5938         2.7642         1.9994       -67.4722      -4.226299      0.9443425
      1571.0000         2.6219          2.778         1.9409        -68.385      -5.150127      0.9212468
      1571.5000         2.6503         2.7922         1.8531       -68.9936      -5.769745      0.9057564
      1572.0000         2.6639         2.8354          1.809       -70.8016      -7.588764      0.8602809
      1572.5000         2.6634         2.8495         1.7647       -72.6097      -9.407894      0.8148026
      1573.0000          2.648         2.8928         1.6914       -74.1135      -10.92271      0.7769321
      1573.5000         2.6185         2.9216         1.6473       -77.7121      -14.53233      0.6866918
      1574.0000         2.5597         2.8472          1.632       -80.6737      -17.50496      0.6123761
      1574.5000         2.4574         2.8025         1.6169       -82.9376      -19.77988      0.5555031
      1575.0000         2.3844         2.6253         1.6161       -89.1496       -26.0029      0.3999276
      1575.5000         2.2821         2.5068         1.6155       -91.9823      -28.84662      0.3288344
      1576.0000         2.1798         2.4033         1.6002       -95.3782      -32.25354      0.2436615
      1576.5000         2.1503         2.1819         1.5851        -97.079      -33.96537      0.2008658
      1577.0000         2.1494          2.034         1.5408       -99.0668      -35.96419      0.1508953
      1577.5000         2.1634         1.9025         1.5112       -99.9227      -36.83111      0.1292223
      1578.0000         2.1915         1.8002         1.4669      -100.5325      -37.45193      0.1137017
      1578.5000         2.2199         1.8573         1.4081      -100.8484      -37.77885      0.1055288
      1579.0000         2.2625         1.9003         1.3785      -100.8602      -37.80167      0.1049582
      1579.5000         2.2909         1.9574         1.3342      -101.1761       -38.1286     0.09678507
      1580.0000          2.319         2.0003         1.3191      -101.1878      -38.15131     0.09621716
      1580.5000         2.3192         2.0446         1.3049      -101.5038      -38.47834      0.0880415
      1581.0000         2.2911         1.9431          1.291      -101.8139      -38.79947     0.08001337
      1581.5000         2.2919         1.8423         1.2629      -101.8315      -38.82808     0.07929802
      1582.0000         2.2925         1.7846         1.2634      -102.4459      -39.45351     0.06366234
      1582.5000         2.2644         1.7271         1.2788      -103.0544      -40.07302     0.04817438
      1583.0000         2.2359         1.6695         1.2796      -103.3704      -40.40005     0.03999882
      1583.5000         2.2078         1.6262         1.2657      -103.6805      -40.72117     0.03197079
      1584.0000         2.1794         1.5684         1.2521      -103.9965      -41.04819     0.02379522
      1584.5000         2.1802         1.5396         1.2381      -104.0082      -41.07092     0.02322712
      1585.0000         2.1811         1.5255          1.239      -104.0257      -41.09944     0.02251396
      1585.5000         2.1816         1.5258         1.2251       -103.739      -40.82376     0.02940607
      1586.0000           2.11         1.5262         1.2114      -103.4582      -40.55398     0.03615055
      1586.5000         2.0091         1.5412         1.1975      -103.4757       -40.5825     0.03543739
