#------------------------------------------------------------------------------
# Created by    : vladimir.rabinovich
# Created on    : 09/19/2023 17:20:52
#------------------------------------------------------------------------------
~Version Information Section
VERS.           2.0     :   CWLS log ASCII Standard - VERSION 2.0
WRAP.           NO      :   One line per depth step
~Well Information Section
#MNEM       .UNIT                                         VALUE :DESCRIPTION
#------------------------------------------------------------------------------
STRT        .FT                                            1017 :START DEPTH
STOP        .FT                                            8855 :STOP DEPTH
STEP        .FT                                             0.5 :STEP      
NULL        .                                           -999.25 :NULL      
COMP        .                               MEREDITH & CO ET AL :COMPANY   
WELL        .                               BROUSSARD J JR ETAL :WELL      
FLD         .                                           WILDCAT :FIELD     
LOC         .                                                   :LOCATION  
CNTY        .                                         JEFFERSON :LOCATION  
STAT        .                                             TEXAS :STATE     
CTRY        .                                     UNITED STATES :COUNTRY   
SRVC        .                                                   :SERVICE COMPANY
DATE        .                             9/13/2023 11:19:11 AM :LOG DATE  
API         .                                    42245021880000 :API NUMBER
UWI         .                                    42245021880000 :UNIQUE WELL ID
XCOORD      .                                  1215343.11980964 :SURFACE X 
YCOORD      .                                  10882366.7587642 :SURFACE Y 
LAT         .                                        29.9782309 :LATITUDE  
LON         .                                       -94.3429645 :LONGITUDE 
ELEV        .FT                                              36 :ELEVATION VALUE
ELEV_TYPE   .                                                DF :ELEVATION REFERENCE TYPE
~Curve Information Section
#MNEM       .UNIT                                      API CODE :CURVE DESCRIPTION
#------------------------------------------------------------------------------
DEPT        .FT                                                 :DEPTH     
ASN         .OHMM                                               :          
LAT         .OHMM                                               :          
LN          .OHMM                                               :          
SP          .MV                                                 :          
SP_NORM     .MV                                                 :SP Normalized
VSH_SP      .V/V                                                :Volume of Shale from SP
~A        DEPTH            ASN            LAT             LN             SP        SP_NORM         VSH_SP
# ...
      5691.0000         0.9683         0.4348          0.854       -40.5368       1.438507              1
      5691.5000         0.9682         0.3768         0.8676       -40.5043       1.471008              1
      5692.0000          0.968         0.3333         0.8813       -40.4718       1.503506              1
      5692.5000         0.9563         0.3333         0.8952       -40.4501       1.525208              1
      5693.0000         0.9476         0.4203         0.8944       -40.4175       1.557808              1
      5693.5000          0.933         0.4493         0.8938       -40.0935       1.881809              1
      5694.0000         0.9127         0.4638          0.893       -40.3631       1.612209              1
      5694.5000         0.8866         0.4928         0.8921       -40.3303       1.645008              1
      5695.0000          0.872         0.5217         0.8916       -40.2975       1.677807              1
      5695.5000          0.843         0.5362         0.8907       -40.2733       1.702007              1
      5696.0000         0.8514         0.5217         0.8757       -40.2405       1.734806              1
      5696.5000         0.8828         0.5072         0.8604        -39.918       2.057308              1
      5697.0000         0.8826         0.5072          0.845       -39.8961       2.079208              1
      5697.5000         0.8824         0.5507           0.83       -39.5735       2.401806              1
      5698.0000         0.8822         0.6377         0.8147       -39.5407       2.434608              1
      5698.5000         0.8472         0.7101         0.7851       -39.5188       2.456509              1
      5699.0000         0.8267         0.7246         0.7698       -39.7758       2.199509              1
      5699.5000         0.8004         0.7391         0.7545       -39.4531       2.522209              1
      5700.0000         0.7653         0.7536         0.7394       -39.4312       2.544109              1
      5700.5000         0.7333         0.7971         0.7536       -38.8638       3.111507              1
      5701.0000         0.7333         0.7971         0.7681       -38.5971       3.378208              1
      5701.5000         0.7536         0.7971         0.7971       -38.9217       3.053608              1
      5702.0000          0.771         0.7826         0.8116       -38.9449       3.030407              1
      5702.5000         0.7797         0.7536         0.8261       -38.9797       2.995609              1
      5703.0000         0.8058         0.7246         0.8406       -39.0029       2.972408              1
      5703.5000         0.8232         0.6957         0.8406       -39.3275       2.647808              1
      5704.0000         0.8348         0.6812         0.8406       -39.6406       2.334709              1
      5704.5000         0.8377         0.6812         0.8261       -40.2551       1.720207              1
      5705.0000         0.8435         0.6667         0.8261       -41.1482      0.8271065              1
      5705.5000         0.8609         0.6812         0.8116       -42.6281     -0.6527939              1
      5706.0000         0.8725         0.6957         0.7826       -43.8046      -1.829292              1
      5706.5000         0.8957         0.7246         0.7826       -45.5643      -3.588993      0.9796283
      5707.0000         0.9072         0.7391         0.7681       -46.1575      -4.182194      0.9720231
      5707.5000         0.9217         0.7536         0.7536       -46.1813      -4.205994       0.971718
      5708.0000         0.9275         0.7681         0.7536       -45.9096      -3.934292      0.9752014
      5708.5000         0.9362         0.7971         0.7536       -45.3598      -3.384491      0.9822501
      5709.0000          0.942         0.7971         0.7536       -44.8032      -2.827892       0.989386
      5709.5000         0.9304         0.7971         0.7391       -44.5431      -2.567791      0.9927206
      5710.0000         0.9159         0.8116         0.7246       -44.5606      -2.585293      0.9924963
      5710.5000          0.913         0.7971         0.7101       -45.1429      -3.167591      0.9850309
      5711.0000         0.9449         0.7971         0.7101       -46.2857      -4.310394      0.9703795
      5711.5000         0.9652         0.7971         0.6957            -48      -6.024693      0.9484014
      5712.0000         0.9855         0.7971         0.6812       -51.7143      -9.738991      0.9007822
      5712.5000         1.0145         0.8116         0.6812       -55.1429      -13.16759      0.8568258
      5713.0000         1.0377         0.8261         0.6667       -57.4286      -15.45329      0.8275219
      5713.5000         1.0377         0.8116         0.6667       -59.1429      -17.16759      0.8055437
      5714.0000         1.0203         0.7971         0.6522       -59.4286      -17.45329      0.8018808
      5714.5000         1.0435         0.7826         0.6522            -60      -18.02469      0.7945552
      5715.0000         1.0754         0.7681         0.6377        -61.194      -19.21869      0.7792475
      5715.5000         1.0986         0.7536         0.6377       -62.3881      -20.41279      0.7639385
      5716.0000         1.0899         0.7391         0.6232       -64.4776      -22.50229      0.7371501
      5716.5000         1.0551         0.7536         0.6087       -65.6716      -23.69629      0.7218424
      5717.0000         1.0116         0.7681         0.5942       -67.1642      -25.18889      0.7027065
      5717.5000         0.9362         0.7681         0.5797       -67.7612      -25.78589      0.6950527
      5718.0000         0.8667         0.7681         0.5507       -68.0597      -26.08439      0.6912257
      5718.5000          0.829         0.7681         0.5507       -67.7612      -25.78589      0.6950527
      5719.0000         0.7681         0.7681         0.5362       -67.4627      -25.48739      0.6988796
      5719.5000         0.7043         0.7826         0.5362       -68.9552      -26.97989       0.679745
      5720.0000         0.7072         0.7826         0.5217       -77.3134      -35.33809      0.5725886
      5720.5000         0.7942         0.7391         0.5217       -87.0423      -45.06699      0.4478591
      5721.0000         0.8522         0.7101         0.5217       -92.3944      -50.41909      0.3792424
      5721.5000         0.9101         0.6377         0.5217       -99.1549      -57.17959      0.2925693
      5722.0000         0.9971         0.5942         0.5217      -103.4783      -61.50299      0.2371411
      5722.5000         1.0377         0.5362         0.5217      -108.1159      -66.14059      0.1776847
      5723.0000         0.9449         0.4928         0.5362      -111.5942       -69.6189      0.1330911
      5723.5000         0.8667         0.4638         0.5362      -113.3333      -71.35799       0.110795
      5724.0000         0.7797         0.4203         0.5362       -115.942      -73.96669     0.07735012
      5724.5000         0.7391         0.4203         0.5362      -117.3913      -75.41599     0.05876942
      5725.0000         0.6899         0.4058         0.5507      -118.5507      -76.57539     0.04390521
      5725.5000         0.6493         0.3913         0.5507      -119.4203      -77.44499     0.03275651
      5726.0000         0.6029         0.3333         0.5507       -121.194      -79.21869     0.01001681
      5726.5000         0.5765         0.2754         0.5507      -122.9851       -81.0098              0
      5727.0000         0.5382         0.2464         0.5507      -123.2836      -81.30829              0
      5727.5000         0.5353         0.3043         0.5507      -123.2836      -81.30829              0
      5728.0000         0.6203         0.3623         0.5507      -115.3623      -73.38699     0.08478214
      5728.5000         0.6841         0.4493         0.5507      -111.8841       -69.9088      0.1293744
