#------------------------------------------------------------------------------
# Created by    : vladimir.rabinovich
# Created on    : 09/19/2023 17:22:03
#------------------------------------------------------------------------------
~Version Information Section
VERS.           2.0     :   CWLS log ASCII Standard - VERSION 2.0
WRAP.           NO      :   One line per depth step
~Well Information Section
#MNEM       .UNIT                                         VALUE :DESCRIPTION
#------------------------------------------------------------------------------
STRT        .FT                                             959 :START DEPTH
STOP        .FT                                            9240 :STOP DEPTH
STEP        .FT                                             0.5 :STEP      
NULL        .                                           -999.25 :NULL      
COMP        .                                  SAMEDAN OIL CORP :COMPANY   
WELL        .                                            WILBER :WELL      
FLD         .                                     HAMSHIRE WEST :FIELD     
LOC         .                                                   :LOCATION  
CNTY        .                                         JEFFERSON :LOCATION  
STAT        .                                             TEXAS :STATE     
CTRY        .                                     UNITED STATES :COUNTRY   
SRVC        .                                                   :SERVICE COMPANY
DATE        .                             9/13/2023 11:18:46 AM :LOG DATE  
API         .                                    42245321080000 :API NUMBER
UWI         .                                    42245321080000 :UNIQUE WELL ID
XCOORD      .                                  1220512.54732583 :SURFACE X 
YCOORD      .                                  10829820.5318697 :SURFACE Y 
LAT         .                                        29.8338887 :LATITUDE  
LON         .                                       -94.3247224 :LONGITUDE 
ELEV        .FT                                              24 :ELEVATION VALUE
ELEV_TYPE   .                                                KB :ELEVATION REFERENCE TYPE
~Curve Information Section
#MNEM       .UNIT                                      API CODE :CURVE DESCRIPTION
#------------------------------------------------------------------------------
DEPT        .FT                                                 :DEPTH     
CALI        .IN                                                 :          
DPSS        .%                                                  :          
DRHO        .G/CM3                                              :          
GR          .GAPI                                               :          
GR_NORM     .GAPI                                               :GammaRay Normalized
ILD         .OHMM                                               :          
ILM         .OHMM                                               :          
NPSS        .%                                                  :Neutron Porosity Sandstone
SGRD        .OHMM                                               :          
SP          .MV                                                 :          
SP_NORM     .MV                                                 :SP Normalized
TENS        .LB                                                 :          
VSH_GR      .V/V                                                :Volume of Shale from GR
VSH_SP      .V/V                                                :Volume of Shale from SP
~A        DEPTH           CALI           DPSS           DRHO             GR        GR_NORM            ILD            ILM           NPSS           SGRD             SP        SP_NORM           TENS         VSH_GR         VSH_SP
# ...
      4829.0000        13.4725        -999.25        -999.25        45.0182       42.57954         0.3909         0.4444        -999.25         1.2628      -154.0351      -67.25854       2997.582        0.20382      0.2112078
      4829.5000        13.4714        -999.25        -999.25        38.4106       33.58571         0.3393          0.389        -999.25          1.205      -158.4018      -71.63051       2998.589     0.01246197      0.1591606
      4830.0000        13.4504        -999.25        -999.25         34.953       28.88402         0.2907          0.344        -999.25          1.177       -161.596      -74.82998       2959.597              0      0.1210717
      4830.5000        13.4494        -999.25        -999.25        36.1462       30.51937         0.2681         0.2987        -999.25         1.1824      -164.2051      -77.44435       2960.502              0      0.0899482
      4831.0000        13.4684        -999.25        -999.25        38.2386       33.37996          0.245          0.283        -999.25         1.2048      -165.4152      -78.65973       3001.508    0.008084318     0.07547942
      4831.5000        13.4474        -999.25        -999.25        39.5811       35.21877         0.2364         0.2682        -999.25         1.2334      -166.6253       -79.8751       3002.513     0.04720777     0.06101073
      4832.0000        13.4864        -999.25        -999.25        40.9235       37.05742         0.2312         0.2635        -999.25         1.2803      -166.6354      -79.89047       2963.518     0.08632806     0.06082771
      4832.5000        13.5254        -999.25        -999.25        44.2159        41.5531         0.2323         0.2635        -999.25         1.3665      -165.2455      -78.50583       3044.523      0.1819809     0.07731156
      4833.0000        13.5244        -999.25        -999.25        47.9583       46.66195         0.2431          0.266        -999.25          1.445      -163.0556      -76.32121       3045.528      0.2906798       0.103319
      4833.5000        13.5234        -999.25        -999.25        49.0008       48.09197         0.2709         0.2733        -999.25         1.3925      -158.4808      -71.75168       2986.533      0.3211057      0.1577181
      4834.0000        13.5624        -999.25        -999.25        48.8432       47.88676          0.318         0.2873        -999.25         1.1729      -145.2228      -58.49894       2967.538      0.3167395      0.3154888
      4834.5000        13.5615        -999.25        -999.25        55.8856        57.4921         0.3842         0.3242        -999.25         0.7406      -124.8859      -38.16731       3008.543      0.5211086       0.557532
      4835.0000        13.6005        -999.25        -999.25        64.5329       69.28424         0.4554         0.3842        -999.25         0.5471       -109.496      -22.78268       3009.548      0.7720051      0.7406823
      4835.5000        13.5795        -999.25        -999.25        70.4663       77.37849         0.5421         0.4473        -999.25         0.5059      -104.7051      -17.99706       3010.553      0.9442231      0.7976541
      4836.0000        13.5585        -999.25        -999.25        66.0032       71.30671         0.5651         0.5226        -999.25         0.6168      -108.3152      -21.61242       2971.558      0.8150364      0.7546141
      4836.5000        13.4975        -999.25        -999.25        56.3061       58.10321         0.5275         0.5574        -999.25         1.0408      -119.9253      -33.22779       3012.563      0.5341108      0.6163358
      4837.0000        13.4365        -999.25        -999.25        49.0985       48.29184         0.4517         0.5085        -999.25         1.3492      -137.9354      -51.24316       3013.568      0.3253582      0.4018672
      4837.5000        13.4155        -999.25        -999.25        43.0909       40.11557         0.3847         0.4436        -999.25         1.5721      -151.0357      -64.34873       3054.573      0.1513951      0.2458484
      4838.0000        13.3945        -999.25        -999.25        37.3833       32.34807         0.3324         0.3903        -999.25         1.6391      -158.5698      -71.88809       3055.578              0      0.1560941
      4838.5000        13.3934        -999.25        -999.25        35.7258       30.09913          0.284         0.3469        -999.25         1.6017      -163.9657      -77.28927       3016.583              0     0.09179442
      4839.0000        13.3924        -999.25        -999.25        36.4682       31.12025         0.2619         0.3055        -999.25         1.5871      -167.7758      -81.10464       2977.588              0     0.04637337
      4839.5000        13.3914        -999.25        -999.25        37.8106        32.9589          0.255         0.2841        -999.25         1.6319      -168.9859      -82.32001       2978.593              0     0.03190468
      4840.0000        13.4304        -999.25        -999.25         39.153       34.79757         0.2597         0.2754        -999.25         1.6701       -169.796      -83.13538       3019.598     0.03824607     0.02219781
      4840.5000        13.4298        -999.25        -999.25        40.4962       36.63731         0.2643         0.2704        -999.25         1.6393       -170.005      -83.34965           2980     0.07738966     0.01964705
      4841.0000        13.4295        -999.25        -999.25        41.2386       37.65842          0.269         0.2714        -999.25         1.5576      -170.0151      -83.36502           3020     0.09911533     0.01946404
      4841.5000        13.4291        -999.25        -999.25        41.9811       38.67967         0.2737         0.2749        -999.25         1.4936      -169.2252      -82.58039           3060       0.120844     0.02880487
      4842.0000        13.4288        -999.25        -999.25        43.6235        40.9271         0.2772         0.2772        -999.25            1.5      -169.2353      -82.59576           3060      0.1686617     0.02862195
      4842.5000        13.4484        -999.25        -999.25        43.7659       41.13067         0.2758         0.2808        -999.25         1.5561      -170.0453      -83.41103           3060      0.1729929     0.01891636
      4843.0000        13.4481        -999.25        -999.25        41.9583       38.67722         0.2744         0.2806        -999.25         1.5847      -170.6554      -84.02639           3060      0.1207919     0.01159059
      4843.5000        13.4676        -999.25        -999.25        42.4008       39.28969         0.2742         0.2804        -999.25         1.5125      -170.8655      -84.24175           3040      0.1338232    0.009026755
      4844.0000        13.4673        -999.25        -999.25        48.2432       47.25993         0.2752          0.279        -999.25          1.391      -171.0756      -84.45714           3040      0.3034028    0.006462642
      4844.5000        13.4669        -999.25        -999.25        55.5858       57.27433         0.2726         0.2775        -999.25         1.2852      -170.6857       -84.0725           3040      0.5164752     0.01104164
      4845.0000        13.4666        -999.25        -999.25        58.2784       60.95274         0.2712         0.2749        -999.25         1.3271      -170.8957      -84.28777           3020      0.5947391    0.008478891
      4845.5000         13.506        -999.25        -999.25        57.3708       59.72559         0.2698         0.2759        -999.25         1.4896      -170.7058      -84.10313           3020      0.5686296     0.01067697
      4846.0000        13.5056        -999.25        -999.25        53.9131       55.02377         0.2672          0.282        -999.25         1.6645      -170.5159      -83.91851           2980      0.4685908     0.01287488
      4846.5000        13.5251        -999.25        -999.25        52.1055        52.5703         0.2658         0.2856        -999.25         1.7512      -170.1259      -83.53378           3020      0.4163894     0.01745506
