#------------------------------------------------------------------------------
# Created by    : vladimir.rabinovich
# Created on    : 09/19/2023 17:20:51
#------------------------------------------------------------------------------
~Version Information Section
VERS.           2.0     :   CWLS log ASCII Standard - VERSION 2.0
WRAP.           NO      :   One line per depth step
~Well Information Section
#MNEM       .UNIT                                         VALUE :DESCRIPTION
#------------------------------------------------------------------------------
STRT        .FT                                            1028 :START DEPTH
STOP        .FT                                            9325 :STOP DEPTH
STEP        .FT                                             0.5 :STEP      
NULL        .                                           -999.25 :NULL      
COMP        .                     HUNT LAMAR TRUST ESTATE ET AL :COMPANY   
WELL        .                                   BROUSSARD TRUST :WELL      
FLD         .                                           WILDCAT :FIELD     
LOC         .                                                   :LOCATION  
CNTY        .                                         JEFFERSON :LOCATION  
STAT        .                                             TEXAS :STATE     
CTRY        .                                     UNITED STATES :COUNTRY   
SRVC        .                                                   :SERVICE COMPANY
DATE        .                             9/13/2023 11:19:11 AM :LOG DATE  
API         .                                    42245021920000 :API NUMBER
UWI         .                                    42245021920000 :UNIQUE WELL ID
XCOORD      .                                  1218474.36862613 :SURFACE X 
YCOORD      .                                   10882715.986693 :SURFACE Y 
LAT         .                                        29.9792918 :LATITUDE  
LON         .                                       -94.3330868 :LONGITUDE 
ELEV        .FT                                              36 :ELEVATION VALUE
ELEV_TYPE   .                                                DF :ELEVATION REFERENCE TYPE
~Curve Information Section
#MNEM       .UNIT                                      API CODE :CURVE DESCRIPTION
#------------------------------------------------------------------------------
DEPT        .FT                                                 :DEPTH     
ASN         .OHMM                                               :          
LAT         .OHMM                                               :          
LN          .OHMM                                               :          
SP          .MV                                                 :          
SP_NORM     .MV                                                 :SP Normalized
VSH_SP      .V/V                                                :Volume of Shale from SP
~A        DEPTH            ASN            LAT             LN             SP        SP_NORM         VSH_SP
# ...
      9274.0000         1.0857         1.0526         0.7857        -80.354       3.219261              1
      9274.5000         1.0589          1.114         0.7679       -78.5586       4.035538              1
      9275.0000         1.0339         1.1754           0.75       -76.9369       4.678131              1
      9275.5000         1.0071         1.2368           0.75       -74.5946       6.041321              1
      9276.0000         0.9679         1.2544           0.75       -72.4324       7.224396              1
      9276.5000           0.95         1.2719         0.7411        -70.991       7.686691              1
      9277.0000         0.9661         1.1842         0.7321       -69.5495       8.149078              1
      9277.5000         1.0018         1.1579         0.7232        -69.009       7.710457              1
      9278.0000         1.0196         1.1228         0.7054       -68.4685       7.271851              1
      9278.5000         1.0554         1.0965         0.6964       -68.1081       6.653137              1
      9279.0000         1.0607         1.0789         0.6875       -67.5676       6.214523              1
      9279.5000           1.05         1.0614         0.6696       -67.2072        5.59581              1
      9280.0000         0.8911         1.0526         0.6607       -66.8468       4.977097              1
      9280.5000         0.8554         1.0526         0.6518       -66.4865       4.358276              1
      9281.0000         0.8393         1.0526         0.6339       -66.3063       3.559372              1
      9281.5000         0.8214         1.0526          0.625       -65.5856       3.300957              1
      9282.0000         0.8036         1.0439         0.6161        -65.045       2.862442              1
      9282.5000         0.7946         1.0439         0.6161       -64.5045       2.423828              1
      9283.0000         0.8071         1.0439         0.5982       -64.1441       1.805122              1
      9283.5000         0.8232         1.0439         0.5982       -63.7838       1.186302              1
      9284.0000         0.8411         1.0351         0.5893       -63.2432      0.7477913              1
      9284.5000         0.8589         1.0351         0.5893       -62.7027      0.3091736              1
      9285.0000         0.8696         1.0263         0.5714       -62.3423      -0.309536              1
      9285.5000         0.8714         1.0175         0.5714       -61.8018     -0.7481499              1
      9286.0000         0.8643         1.0088         0.5714       -61.4414      -1.366863      0.9953561
      9286.5000         0.8286              1         0.5714       -60.9009      -1.805477      0.9898041
      9287.0000         0.7893         0.9911         0.5625       -60.5405      -2.424191      0.9819723
      9287.5000         0.7857         0.9821         0.5536       -59.8246      -2.687405      0.9786404
      9288.0000         0.7804         0.9643         0.5536       -59.6491      -3.491016      0.9684681
      9288.5000            0.8         0.9554         0.5536       -59.1228      -3.943829      0.9627364
      9289.0000         0.8089         0.9375         0.5536       -58.7719      -4.489029      0.9558351
      9289.5000         0.8036         0.9286         0.5536       -58.2456      -4.270844      0.9585969
      9290.0000         0.7518         0.9196         0.5536       -56.4912      -2.824554      0.9769044
      9290.5000         0.7501         0.8844         0.5536       -55.7921      -2.433567      0.9818536
      9291.0000         0.7467         0.8669         0.5536       -55.0945      -2.044083      0.9867837
      9291.5000         0.7469         0.8406         0.5536       -54.0442      -1.301895      0.9961786
      9292.0000         0.7721         0.8232         0.5536       -52.9919     -0.5577049              1
      9292.5000         0.7883         0.8057         0.5536       -51.9377       0.188385              1
      9293.0000         0.7778         0.7973         0.5536       -51.2342      0.5837708              1
      9293.5000         0.7654         0.7798         0.5536       -50.5294      0.9804573              1
      9294.0000         0.7549         0.7713         0.5625            -50       1.201744              1
      9294.5000         0.7426         0.7628         0.5714       -49.2928        1.60083              1
      9295.0000         0.7303         0.7544         0.5714       -48.2302       2.355316              1
      9295.5000         0.7287         0.7459         0.5804       -47.8742        2.40321              1
      9296.0000         0.7271         0.7374         0.5893        -47.696       2.273296              1
      9296.5000         0.7254         0.7289         0.6161       -47.1616       2.499584              1
      9297.0000         0.7399         0.7025         0.6161       -46.9814        2.37167              1
      9297.5000         0.7615         0.6851         0.6161       -46.9785       2.066456              1
      9298.0000         0.7831         0.6677         0.6161       -47.1536       1.583244              1
      9298.5000         0.8047         0.6503         0.6161       -47.5072      0.9215355              1
      9299.0000         0.8261         0.6328         0.6161       -48.0396     0.08102036              1
      9299.5000         0.8493         0.6065         0.6161        -48.573     -0.7604942              1
      9300.0000         0.8495          0.598         0.6161       -48.9287      -1.424305       0.994629
      9300.5000         0.8495         0.5801         0.6161       -48.9286      -1.732319      0.9907302
      9301.0000         0.8459         0.5706         0.6161       -48.9286      -2.015018      0.9871517
      9301.5000         0.8334         0.5701         0.6161       -48.9286      -2.015018      0.9871517
      9302.0000         0.8245         0.5609         0.6071       -48.3929      -1.479317      0.9939327
      9302.5000         0.8138         0.5603         0.5982          -47.5     -0.5864182              1
      9303.0000         0.8012         0.5687         0.5982       -46.9643     -0.0507164              1
      9303.5000          0.794         0.5685         0.5982       -46.0714      0.8421822              1
      9304.0000         0.8419         0.5768         0.5982       -45.7143       1.199284              1
      9304.5000         0.8454         0.5852         0.5982       -45.1786       1.734982              1
      9305.0000         0.8454          0.585         0.5982       -45.1786       1.734982              1
      9305.5000         0.8293         0.6023         0.5982       -45.7143       1.199284              1
      9306.0000         0.8203         0.6109         0.5982       -46.4286      0.4849815              1
      9306.5000         0.8024         0.6282         0.5982       -46.9643     -0.0507164              1
      9307.0000         0.7863         0.6366         0.5982       -47.6786     -0.7650185              1
      9307.5000         0.7773         0.6364         0.5982       -48.0357       -1.12212      0.9984542
      9308.0000         0.7468         0.6537         0.5982       -47.8571     -0.9435196              1
      9308.5000         0.7431         0.6621         0.6161          -47.5     -0.5864182              1
      9309.0000         0.7431         0.6618         0.6339       -46.0714      0.8421822              1
      9309.5000         0.7626         0.6702         0.6339       -45.1786       1.734982              1
      9310.0000         0.8036         0.6786         0.6339            -45       1.913582              1
      9310.5000         0.8089         0.6786         0.6339       -44.8214       2.092182              1
      9311.0000         0.8107         0.6786         0.6429       -44.8214       2.092182              1
      9311.5000         0.8125         0.6875         0.6429       -44.8214       2.092182              1
