#------------------------------------------------------------------------------
# Created by    : vladimir.rabinovich
# Created on    : 09/19/2023 17:22:41
#------------------------------------------------------------------------------
~Version Information Section
VERS.           2.0     :   CWLS log ASCII Standard - VERSION 2.0
WRAP.           NO      :   One line per depth step
~Well Information Section
#MNEM       .UNIT                                         VALUE :DESCRIPTION
#------------------------------------------------------------------------------
STRT        .FT                                             190 :START DEPTH
STOP        .FT                                            7751 :STOP DEPTH
STEP        .FT                                             0.5 :STEP      
NULL        .                                           -999.25 :NULL      
COMP        .                       GOLDEN TRIANGLE STORAGE LLC :COMPANY   
WELL        .                         GOLDEN TRIANGLE STORAGE 2 :WELL      
FLD         .                                        SPINDLETOP :FIELD     
LOC         .                                                   :LOCATION  
CNTY        .                                         JEFFERSON :LOCATION  
STAT        .                                             TEXAS :STATE     
CTRY        .                                     UNITED STATES :COUNTRY   
SRVC        .                                                   :SERVICE COMPANY
DATE        .                             9/13/2023 11:18:46 AM :LOG DATE  
API         .                                    42245325580000 :API NUMBER
UWI         .                                    42245325580000 :UNIQUE WELL ID
XCOORD      .                                  1288599.33875083 :SURFACE X 
YCOORD      .                                  10896379.1240251 :SURFACE Y 
LAT         .                                        30.0189256 :LATITUDE  
LON         .                                       -94.1119908 :LONGITUDE 
ELEV        .FT                                            12.2 :ELEVATION VALUE
ELEV_TYPE   .                                                GL :ELEVATION REFERENCE TYPE
~Curve Information Section
#MNEM       .UNIT                                      API CODE :CURVE DESCRIPTION
#------------------------------------------------------------------------------
DEPT        .FT                                                 :DEPTH     
DCAL        .IN                                                 :          
DPSS        .V/V                                                :          
DRHO        .G/CM3                                              :          
GR          .GAPI                                               :          
GR_NORM     .GAPI                                               :GammaRay Normalized
ILD         .OHMM                                               :          
ILM         .OHMM                                               :          
NPSS        .V/V                                                :Neutron Porosity Sandstone
SFL         .OHMM                                               :          
SP          .MV                                                 :          
SP_NORM     .MV                                                 :SP Normalized
TENS        .LB                                                 :          
VSH_GR      .V/V                                                :Volume of Shale from GR
VSH_SP      .V/V                                                :Volume of Shale from SP
~A        DEPTH           DCAL           DPSS           DRHO             GR        GR_NORM            ILD            ILM           NPSS            SFL             SP        SP_NORM           TENS         VSH_GR         VSH_SP
# ...
      4726.0000          -0.72         0.3108         0.0796           71.4       67.99898         0.5233         0.7063         0.5004         0.6933          -60.4      -9.963791         2296.8      0.7446591      0.8828855
      4726.5000          -0.64         0.3108         0.0837             72       69.25822            0.5         0.6735         0.4968         0.6735          -64.8      -14.36604         2294.8      0.7714516      0.8181465
      4727.0000          -0.52          0.306         0.0735           71.4       67.99604         0.4773         0.6296         0.4848         0.6933          -69.6      -19.16828         2292.8      0.7445966      0.7475253
      4727.5000           -0.2         0.3072         0.0653           70.2       65.47316         0.4556            0.6         0.4739         0.7384            -74      -23.57053         2330.8      0.6909183      0.6827863
      4728.0000          -0.08         0.3144         0.0551           68.7       62.31988         0.4309         0.5785          0.469          0.772          -73.6      -23.17277         2328.8      0.6238273      0.6886357
      4728.5000          -0.08         0.3216          0.049           67.8       60.42738         0.4152         0.5578         0.4714         0.7929          -70.4      -19.97502         2326.8      0.5835614      0.7356614
      4729.0000          -0.16         0.3228         0.0469           67.8       60.42591         0.4075         0.5527         0.4751            0.8          -66.8      -16.37727         2324.8      0.5835301      0.7885696
      4729.5000          -0.16          0.318         0.0531           67.5       59.79408         0.4113         0.5578         0.4788         0.7789          -63.2      -12.77951         2322.8      0.5700868      0.8414778
      4730.0000          -0.16         0.3084         0.0571           67.2       59.16228         0.4269         0.5785         0.4788          0.772            -62      -11.58176         2320.8      0.5566443      0.8590918
      4730.5000          -0.16            0.3         0.0653           66.9       58.53045         0.4472         0.6058         0.4751         0.7517          -62.4        -11.984           2320      0.5432011      0.8531764
      4731.0000          -0.16         0.2892         0.0694           67.5       59.78972         0.4642         0.6543         0.4702         0.7254          -64.8      -14.38625           2320       0.569994      0.8178492
      4731.5000          -0.16         0.2808         0.0735           68.4       61.67936         0.4729         0.6671          0.469         0.6801          -68.8       -18.3885           2320       0.610199      0.7589927
      4732.0000           -0.2         0.2784         0.0714           68.7        62.3082         0.4599         0.6419         0.4776         0.6671          -77.2      -26.79074           2280      0.6235788      0.6354303
      4732.5000          -0.16          0.288         0.0694           67.8       60.41568         0.4269            0.6          0.486         0.6481       -86.5306      -36.12359           2320      0.5833123      0.4981825
      4733.0000          -0.16         0.3072         0.0612           64.2       52.84993         0.3859         0.5281         0.4956         0.6419       -93.0612      -42.65644           2320      0.4223389      0.4021112
      4733.5000          -0.12         0.3372          0.051           60.9       45.91454         0.3495         0.4599         0.5076         0.6543       -97.1429      -46.74038           2320      0.2747774      0.3420532
      4734.0000          -0.12         0.3564         0.0449           58.2       40.23987         0.3195         0.4229         0.5136         0.6671       -99.1837      -48.78343           2280      0.1540398      0.3120084
      4734.5000          -0.12          0.366         0.0408             57       37.71697            0.3         0.3964         0.5136         0.6735         -100.8      -50.40198           2320       0.100361      0.2882062
      4735.0000          -0.12         0.3684         0.0388             57        37.7155         0.2891         0.3894           0.51         0.6801         -102.4      -52.00422           2320      0.1003298      0.2646438
      4735.5000          -0.12         0.3672         0.0388           57.9       39.60513         0.2945         0.3929          0.504         0.6866           -104      -53.60646           2320      0.1405346      0.2410814
      4736.0000          -0.12         0.3684          0.049           57.3       38.34296         0.3054            0.4         0.5016         0.7063         -105.2      -54.80871           2280      0.1136799      0.2234014
      4736.5000           0.28         0.3816         0.0592           56.7       37.08078         0.3138         0.4113          0.504         0.7789         -107.2      -56.81096           2280     0.08682518      0.1939565
      4737.0000           0.68         0.4092         0.0735           55.5       34.55788         0.3138         0.4037         0.5148         0.7652         -109.6       -59.2132           2280     0.03314647      0.1586294
      4737.5000           1.08         0.4408         0.0857           54.9       33.29572         0.2945         0.3929         0.5256         0.7319         -111.2      -60.81544           2280    0.006291897       0.135067
      4738.0000           1.44         0.4788         0.0939           55.8       35.18533         0.2761         0.3756         0.5424         0.7063         -111.6      -61.21769           2280     0.04649629      0.1291516
      4738.5000           1.68         0.5052          0.102           56.4       36.44457         0.2686         0.3623         0.5568         0.7126         -111.2      -60.81994           2320     0.07328869      0.1350009
      4739.0000            1.6          0.492          0.114           56.4       36.44312         0.2686         0.3656         0.5628         0.7384           -110      -59.62219           2320     0.07325777      0.1526149
      4739.5000           1.44         0.4653          0.126           56.4       36.44165         0.2736         0.3722          0.558          0.772         -108.8      -58.42443           2320     0.07322653      0.1702289
      4740.0000           1.24         0.4347          0.134           56.4        36.4402         0.2839         0.3859         0.5424         0.8073         -107.2      -56.82668           2320     0.07319568      0.1937254
      4740.5000           1.04         0.4104          0.138           56.4       36.43873         0.2918         0.3964         0.5172         0.8073         -105.2      -54.82892           2320     0.07316443      0.2231041
      4741.0000              1         0.3924          0.128           56.4       36.43728            0.3         0.4037          0.492         0.7789         -102.8      -52.43118           2320     0.07313359      0.2583651
      4741.5000              1          0.378          0.112             57       37.69652         0.3027         0.4037         0.4739         0.7254         -102.4      -52.03342           2320     0.09992599      0.2642145
      4742.0000              1         0.3636         0.0939           57.6       38.95579         0.2972            0.4         0.4702         0.6671           -104      -53.63566           2320      0.1267189       0.240652
      4742.5000              1         0.3528         0.0796           58.5        40.8454         0.2891         0.3894         0.4812         0.6357         -107.2      -56.83791           2320      0.1669234      0.1935602
      4743.0000              1         0.3672         0.0796           59.1       42.10466         0.2813         0.3756         0.5028         0.6117         -108.4      -58.04016           2320      0.1937162        0.17588
      4743.5000           0.96          0.384         0.0898           58.5       40.84249         0.2736         0.3591         0.5196         0.5946         -109.2       -58.8424           2320      0.1668615      0.1640824
