#------------------------------------------------------------------------------
# Created by    : vladimir.rabinovich
# Created on    : 09/19/2023 17:19:40
#------------------------------------------------------------------------------
~Version Information Section
VERS.           2.0     :   CWLS log ASCII Standard - VERSION 2.0
WRAP.           NO      :   One line per depth step
~Well Information Section
#MNEM       .UNIT                                         VALUE :DESCRIPTION
#------------------------------------------------------------------------------
STRT        .FT                                            1208 :START DEPTH
STOP        .FT                                            8860 :STOP DEPTH
STEP        .FT                                             0.5 :STEP      
NULL        .                                           -999.25 :NULL      
COMP        .                             WEAVER EXPLORATION CO :COMPANY   
WELL        .                                       BEAVERS W H :WELL      
FLD         .                                           WILDCAT :FIELD     
LOC         .                                                   :LOCATION  
CNTY        .                                         JEFFERSON :LOCATION  
STAT        .                                             TEXAS :STATE     
CTRY        .                                     UNITED STATES :COUNTRY   
SRVC        .                                                   :SERVICE COMPANY
DATE        .                             9/13/2023 11:18:46 AM :LOG DATE  
API         .                                    42245314920000 :API NUMBER
UWI         .                                    42245314920000 :UNIQUE WELL ID
XCOORD      .                                  1212655.17721247 :SURFACE X 
YCOORD      .                                  10886677.7304034 :SURFACE Y 
LAT         .                                        29.9899994 :LATITUDE  
LON         .                                       -94.3516153 :LONGITUDE 
ELEV        .FT                                            37.2 :ELEVATION VALUE
ELEV_TYPE   .                                                KB :ELEVATION REFERENCE TYPE
~Curve Information Section
#MNEM       .UNIT                                      API CODE :CURVE DESCRIPTION
#------------------------------------------------------------------------------
DEPT        .FT                                                 :DEPTH     
ALL         .OHMM                                               :          
CILD        .MMHO/M                                             :          
ILD         .OHMM                                               :          
SP          .MV                                                 :          
SP_NORM     .MV                                                 :SP Normalized
VSH_SP      .V/V                                                :Volume of Shale from SP
~A        DEPTH            ALL           CILD            ILD             SP        SP_NORM         VSH_SP
      1208.0000         0.9344         4.9654        10.2004          179.2       2.868132              1
      1208.5000           0.99         8.8889        22.4365          172.6       3.222395              1
      1209.0000         1.1101         8.7061        34.7056          165.8      0.1080227              1
      1209.5000         1.2102        12.6407        99.2933       159.2079       1.131562              1
      1210.0000         1.9102        16.5828        99.3939        150.495      -0.073264              1
      1210.5000         2.6158       218.7485        80.6887       146.5304       3.581169              1
      1211.0000          3.319       648.3721        62.1708       141.5664       2.169062              1
      1211.5000         3.6786       676.5581        49.3857        140.963       1.989827              1
      1212.0000         3.6781       564.7442         13.981       139.9622     -0.9466487              1
      1212.5000         3.6876       330.8559        13.1762       139.3524      -1.388336      0.9741109
      1213.0000         3.6871       182.5941         4.2823       138.7429      -1.997833      0.9334778
      1213.5000         3.6967       120.9302         4.2582       138.3333       -2.40744      0.9061707
      1214.0000         3.6962       236.6819         4.2342       137.7238      -3.016937      0.8655375
      1214.5000         3.6857       236.8737         4.2101       136.9143      -3.826431      0.8115712
      1215.0000         3.6752       237.0655          4.186       136.3048      -4.435944      0.7709371
      1215.5000         3.6745        241.381         4.0778       135.6905      -5.050232      0.7299845
      1216.0000          3.674       249.8202         3.9695        135.081      -5.659744      0.6893504
      1216.5000         3.6736       258.2594         3.8613       134.6714      -6.069336      0.6620443
      1217.0000         3.6731       266.7945          3.753       134.2619      -6.478836      0.6347443
      1217.5000         3.6726       275.2338         3.6488       133.8524      -6.888336      0.6074442
      1218.0000         3.6921       271.3018         3.6521       133.6429      -7.097839      0.5934774
      1218.5000         3.7317       263.2462         3.7117       133.4333      -7.307434      0.5795044
      1219.0000         3.7712       259.3143         3.7612       133.2238      -7.516937      0.5655375
      1219.5000         3.8107       255.3824         4.2823       132.8143      -7.926437      0.5382375
      1220.0000         3.8502       247.3268         4.2382       132.6048      -8.135941      0.5242707
      1220.5000         3.8995       243.3741         4.1941          132.2      -8.540741      0.4972839
      1221.0000          3.939       235.2096          4.146            132      -8.740738      0.4839508
      1221.5000         3.9186       235.2885         4.1018          131.8      -8.940735      0.4706177
      1222.0000         3.8681       235.3673         4.0577          131.6      -9.140732      0.4572845
      1222.5000         3.8176       251.9015         4.0096          131.6      -9.140732      0.4572845
      1223.0000         3.7671       251.9723         3.9655          131.6      -9.140732      0.4572845
      1223.5000         3.7167        252.043         3.9174          131.6      -9.140732      0.4572845
      1224.0000         3.6562        252.149         3.9134          131.2      -9.540741      0.4306173
      1224.5000         3.6657       256.3246         3.9094            131      -9.740738      0.4172841
      1225.0000         3.6752       256.3931         3.9054            131      -9.740738      0.4172841
      1225.5000         3.6945       256.4616         3.9014            131      -9.740738      0.4172841
      1226.0000          3.704         256.53         3.8974            131      -9.740738      0.4172841
      1226.5000         3.7236       256.5984         3.8933            131      -9.740738      0.4172841
      1227.0000         3.7331       252.6065         3.9134            131      -9.740738      0.4172841
      1227.5000         3.7426       252.6767         3.9334            131      -9.740738      0.4172841
      1228.0000         3.7321       252.7467         3.9535            131      -9.740738      0.4172841
      1228.5000         3.7217       252.8167         3.9735          130.8      -9.940735       0.403951
      1229.0000         3.7112       256.9732         3.9936          130.4      -10.34074      0.3772837
      1229.5000         3.7007       257.0411         4.0136          130.4      -10.34074      0.3772837
      1230.0000         3.6702       257.1089         3.9415            130      -10.74074      0.3506175
      1230.5000         3.6495        265.496         3.8693       129.3905      -11.35023      0.3099843
      1231.0000          3.629       269.7674         3.7931        128.981      -11.75974      0.2826843
      1231.5000         3.6086       269.9573         3.7209       128.5714      -12.16934      0.2553772
      1232.0000         3.5881       270.1471         3.6488       128.3619      -12.37885      0.2414103
      1232.5000         3.5676       274.4186         3.5726       127.9524      -12.78834      0.2141108
      1233.0000         3.5671       270.5268         3.6127       127.7429      -12.99784      0.2001439
      1233.5000         3.5767        266.635         3.6528       127.3333      -13.40744      0.1728373
      1234.0000         3.6162       262.8382         3.6929       127.1238      -13.61694       0.158871
      1234.5000         3.6557       258.9464          3.733       126.7143      -14.02644       0.131571
      1235.0000         3.6852       255.0546         3.7731       126.3048      -14.43594      0.1042709
      1235.5000         3.7445       251.1628         3.8132       125.8905      -14.85023       0.076651
      1236.0000          3.784        247.271         3.8532        125.681      -15.05974     0.06268413
      1236.5000         3.8036       247.4608         3.8933       125.6714      -15.06934     0.06204427
      1237.0000         3.8031       247.7456         3.9334       126.2619      -14.47884      0.1014109
      1237.5000         3.7926       247.9355         3.9735       126.6524      -14.08834       0.127444
      1238.0000         3.7721       248.1253         4.0136       127.2429      -13.49784      0.1668106
      1238.5000         3.7517       252.3968         4.0016       127.6333      -13.10744      0.1928375
      1239.0000         3.7112       252.5866         3.9896       127.6238      -13.11694      0.1922043
      1239.5000         3.6707       260.9397         3.9094       126.6143      -14.12643      0.1249044
      1240.0000         3.6302       273.3745         3.8292       126.4048      -14.33594      0.1109375
      1240.5000         3.5595       285.8532          3.745       127.1938      -13.54694      0.1635376
      1241.0000          3.519       285.9922         3.6648       128.9894      -11.75134      0.2832438
      1241.5000         3.4786       273.8686         3.5846       129.7852      -10.95554      0.3362976
      1242.0000         3.4281       274.0019         3.5004       130.3814      -10.35934      0.3760437
      1242.5000         3.4276       270.0438         3.5325       133.1835      -7.557236       0.562851
      1243.0000         3.4271       266.0819         3.5686       137.3924      -3.348343      0.8434438
      1243.5000         3.5167        262.116         3.6006       137.3911       -3.34964      0.8433573
      1244.0000         3.6062       254.0488         3.6367       137.3898      -3.350937      0.8432709
      1244.5000         3.7057       250.0732         3.6728       137.1877       -3.55304      0.8297974
      1245.0000         3.7952       241.9922         3.8011       136.5834      -4.157333      0.7895111
      1245.5000         3.8945        238.065         3.9334       136.1796      -4.561142      0.7625905
