#------------------------------------------------------------------------------
# Created by    : vladimir.rabinovich
# Created on    : 09/19/2023 17:20:52
#------------------------------------------------------------------------------
~Version Information Section
VERS.           2.0     :   CWLS log ASCII Standard - VERSION 2.0
WRAP.           NO      :   One line per depth step
~Well Information Section
#MNEM       .UNIT                                         VALUE :DESCRIPTION
#------------------------------------------------------------------------------
STRT        .FT                                             722 :START DEPTH
STOP        .FT                                            8710 :STOP DEPTH
STEP        .FT                                             0.5 :STEP      
NULL        .                                           -999.25 :NULL      
COMP        .                              BRUNER ARNOLD H & CO :COMPANY   
WELL        .                                              WEIR :WELL      
FLD         .                                           WILDCAT :FIELD     
LOC         .                                                   :LOCATION  
CNTY        .                                         JEFFERSON :LOCATION  
STAT        .                                             TEXAS :STATE     
CTRY        .                                     UNITED STATES :COUNTRY   
SRVC        .                                                   :SERVICE COMPANY
DATE        .                             9/13/2023 11:19:11 AM :LOG DATE  
API         .                                    42245021890000 :API NUMBER
UWI         .                                    42245021890000 :UNIQUE WELL ID
XCOORD      .                                  1215604.35578741 :SURFACE X 
YCOORD      .                                  10884998.9913957 :SURFACE Y 
LAT         .                                        29.9854781 :LATITUDE  
LON         .                                       -94.3422367 :LONGITUDE 
ELEV        .FT                                              36 :ELEVATION VALUE
ELEV_TYPE   .                                                DF :ELEVATION REFERENCE TYPE
~Curve Information Section
#MNEM       .UNIT                                      API CODE :CURVE DESCRIPTION
#------------------------------------------------------------------------------
DEPT        .FT                                                 :DEPTH     
ASN         .OHMM                                               :          
LAT         .OHMM                                               :          
LN          .OHMM                                               :          
SP          .MV                                                 :          
SP_NORM     .MV                                                 :SP Normalized
VSH_SP      .V/V                                                :Volume of Shale from SP
~A        DEPTH            ASN            LAT             LN             SP        SP_NORM         VSH_SP
# ...
      3914.0000          0.593         0.3455         0.2456      -138.9286      -70.31573      0.1241572
      3914.5000         0.6182         0.3455         0.2456      -140.6897      -72.08266      0.1015043
      3915.0000         0.6473         0.3273         0.2281       -142.069       -73.4678     0.08374611
      3915.5000         0.6727         0.3091         0.2456      -143.7931      -75.19775     0.06156726
      3916.0000         0.6982         0.2909         0.2456      -145.5172      -76.92768     0.03938871
      3916.5000           0.72         0.2727         0.2456      -146.8966      -78.31293     0.02162914
      3917.0000           0.68         0.2545         0.2456       -147.931      -79.35316    0.008292761
      3917.5000         0.6509         0.2545         0.2281       -147.931        -79.359    0.008217934
      3918.0000         0.6145         0.2545         0.2281      -147.5862      -79.02003     0.01256366
      3918.5000         0.5825         0.2545         0.2281      -145.8621      -77.30178     0.03459255
      3919.0000         0.5614         0.2727         0.2105      -144.8276      -76.27312     0.04778045
      3919.5000         0.5333         0.2727         0.2105      -144.1379      -75.58925     0.05654809
      3920.0000         0.5053         0.2727         0.2105      -144.1379      -75.59509     0.05647327
      3920.5000         0.4737         0.2545         0.2105      -144.1379      -75.60092     0.05639844
      3921.0000         0.4456         0.2364         0.2105      -144.1379      -75.60677     0.05632352
      3921.5000         0.4351         0.2182         0.2105      -144.1379       -75.6126     0.05624869
      3922.0000         0.4211            0.2         0.2281      -144.8276      -76.30815     0.04733139
      3922.5000         0.4421            0.2         0.2456      -145.8621      -77.34849     0.03399375
      3923.0000         0.4702            0.2         0.2456      -146.8966      -78.38883       0.020656
      3923.5000         0.4982            0.2         0.2456      -147.5862      -79.08426     0.01174027
      3924.0000         0.5333         0.1818         0.2456      -148.6207       -80.1246              0
      3924.5000         0.5509         0.1818         0.2456           -150      -81.50974              0
      3925.0000         0.5649         0.1818         0.2632      -150.6897      -82.20528              0
      3925.5000         0.5579         0.1818         0.2632      -151.3793      -82.90072              0
      3926.0000         0.5439         0.1818         0.2456      -151.3793      -82.90656              0
      3926.5000         0.4807         0.1818         0.2456      -151.0345      -82.56759              0
      3927.0000         0.4351         0.1818         0.2456           -150      -81.53893              0
      3927.5000         0.4351            0.2         0.2456      -148.6207      -80.16547              0
      3928.0000         0.4351         0.2364         0.2281      -145.8621      -77.41271     0.03317036
      3928.5000         0.4351         0.2909         0.2105      -142.7586      -74.31506      0.0728839
      3929.0000         0.4561         0.3273          0.193      -138.5714      -70.13368      0.1264912
      3929.5000         0.4982         0.3636         0.1754      -133.9286      -65.49673      0.1859394
      3930.0000         0.5404         0.3636         0.1754         -132.5      -64.07396        0.20418
      3930.5000         0.5789         0.3636         0.1754      -134.2857      -65.86551      0.1812114
      3931.0000         0.6218         0.3455         0.1754      -135.7143      -67.29993      0.1628214
      3931.5000         0.6473         0.3273         0.1754      -137.1429      -68.73438      0.1444311
      3932.0000         0.6473         0.3091         0.2105      -137.8571      -69.45441      0.1351998
      3932.5000         0.6145         0.2909         0.2105      -139.2857      -70.88886      0.1168095
      3933.0000            0.6         0.2727         0.2105      -140.6897      -72.29869     0.09873474
      3933.5000         0.5825         0.2727         0.2632       -142.069      -73.68383     0.08097654
      3934.0000         0.5614         0.2545         0.2632      -143.4483      -75.06897     0.06321834
      3934.5000         0.5404         0.2364         0.2632      -144.4828      -76.10931     0.04988059
      3935.0000         0.5368            0.2         0.2456      -144.8276      -76.45995     0.04538522
      3935.5000         0.5368            0.2         0.2456      -144.4828      -76.12099     0.04973094
      3936.0000         0.5368         0.1818         0.2281      -143.1034      -74.74741     0.06734085
      3936.5000         0.5649         0.1818         0.2281      -142.4138      -74.06367     0.07610683
      3937.0000         0.5825         0.1818         0.2281      -141.3793        -73.035     0.08929483
      3937.5000            0.6         0.1818         0.2281      -140.3448      -72.00634      0.1024828
      3938.0000         0.6182         0.1818         0.2281           -140      -71.66737      0.1068285
      3938.5000           0.64         0.1818         0.2456      -140.6897      -72.36292     0.09791134
      3939.0000         0.6473         0.1818         0.2456      -141.7241      -73.40316     0.08457487
      3939.5000         0.6582         0.1818         0.2632      -143.7931        -75.478      0.0579744
      3940.0000         0.6327         0.1818         0.2632      -146.8966      -78.58734     0.01811101
      3940.5000         0.6036         0.1818         0.2629      -147.5862      -79.28277    0.009195278
      3941.0000         0.5439         0.1636         0.2625      -148.2759       -79.9783   0.0002781795
      3941.5000         0.4775         0.1273         0.2621      -146.8966      -78.60485     0.01788653
      3942.0000         0.4741         0.1455          0.244      -143.4483      -75.16239     0.06202062
      3942.5000         0.4742         0.1818         0.2082      -132.1429      -63.86282      0.2068869
      3943.0000         0.4918         0.2182           0.19      -124.2857      -56.01146      0.3075454
      3943.5000         0.5268         0.2545         0.1717      -116.4286      -48.16019      0.4082026
      3944.0000         0.5617         0.2909         0.1711      -108.5714      -40.30885      0.5088609
      3944.5000            0.6         0.3273         0.1705      -104.2857      -36.02898      0.5637311
      3945.0000         0.6364         0.3091         0.1699      -109.6429      -41.39201      0.4949742
      3945.5000         0.6764         0.2727         0.1693      -116.7857      -48.54065       0.403325
      3946.0000         0.6836         0.2545         0.2404      -131.0714      -62.83219      0.2201001
      3946.5000         0.6982         0.2182         0.2758         -137.5      -69.26663      0.1376073
      3947.0000         0.7055            0.2         0.2934           -140      -71.77247      0.1054812
      3947.5000         0.7055         0.1636          0.311      -144.8276      -76.60591     0.04351396
      3948.0000         0.7091         0.1455         0.3287      -147.5862      -79.37035    0.008072486
      3948.5000         0.7091         0.1455         0.3103      -147.5862      -79.37618     0.00799766
      3949.0000         0.7091         0.1636           0.31      -147.5862      -79.38202    0.007922833
      3949.5000         0.7055            0.2         0.3096      -147.5862      -79.38786    0.007848006
      3950.0000         0.5655            0.2         0.3093      -147.5862       -79.3937    0.007773081
      3950.5000         0.5483            0.2         0.3091      -147.2414      -79.05473      0.0121188
      3951.0000          0.545            0.2         0.3091      -143.1034      -74.92257     0.06509527
      3951.5000         0.5486         0.1818         0.2909         -137.5      -69.32502      0.1368587
