#------------------------------------------------------------------------------
# Created by    : vladimir.rabinovich
# Created on    : 09/19/2023 17:20:50
#------------------------------------------------------------------------------
~Version Information Section
VERS.           2.0     :   CWLS log ASCII Standard - VERSION 2.0
WRAP.           NO      :   One line per depth step
~Well Information Section
#MNEM       .UNIT                                         VALUE :DESCRIPTION
#------------------------------------------------------------------------------
STRT        .FT                                            1769 :START DEPTH
STOP        .FT                                           14822 :STOP DEPTH
STEP        .FT                                             0.5 :STEP      
NULL        .                                           -999.25 :NULL      
COMP        .                                      SHELL OIL CO :COMPANY   
WELL        .                                 MCFADDEN CEE CRSS :WELL      
FLD         .                                           WILDCAT :FIELD     
LOC         .                                                   :LOCATION  
CNTY        .                                         JEFFERSON :LOCATION  
STAT        .                                             TEXAS :STATE     
CTRY        .                                     UNITED STATES :COUNTRY   
SRVC        .                                                   :SERVICE COMPANY
DATE        .                             9/13/2023 11:19:11 AM :LOG DATE  
API         .                                    42245030100000 :API NUMBER
UWI         .                                    42245030100000 :UNIQUE WELL ID
XCOORD      .                                  1300794.63996209 :SURFACE X 
YCOORD      .                                  10796706.8159759 :SURFACE Y 
LAT         .                                        29.7451097 :LATITUDE  
LON         .                                       -94.0705183 :LONGITUDE 
ELEV        .FT                                            17.6 :ELEVATION VALUE
ELEV_TYPE   .                                                KB :ELEVATION REFERENCE TYPE
~Curve Information Section
#MNEM       .UNIT                                      API CODE :CURVE DESCRIPTION
#------------------------------------------------------------------------------
DEPT        .FT                                                 :DEPTH     
ASN         .OHMM                                               :          
DT          .US/F                                               :          
ILD         .OHMM                                               :          
SP          .MV                                                 :          
SP_NORM     .MV                                                 :SP Normalized
VSH_SP      .V/V                                                :Volume of Shale from SP
~A        DEPTH            ASN             DT            ILD             SP        SP_NORM         VSH_SP
# ...
     13929.0000         0.9027       115.1187         0.5451       -40.7142       1.261108              1
     13929.5000         0.8897       114.6469          0.538       -40.6655       1.309807              1
     13930.0000         0.8778       113.9579         0.5438       -40.6166       1.358707              1
     13930.5000         0.8686       113.4891         0.5496       -40.5679       1.407406              1
     13931.0000         0.8598       112.9521         0.5579       -40.5192       1.456108              1
     13931.5000         0.8676       112.5653         0.5689       -40.4705       1.504807              1
     13932.0000         0.8754       112.4883         0.5798       -40.4216       1.553707              1
     13932.5000         0.8833       112.3341         0.5908       -40.3729       1.602409              1
     13933.0000         0.8993       112.2571         0.6033       -40.3242       1.651108              1
     13933.5000         0.9247       112.2578          0.632       -40.2796       1.695709              1
     13934.0000         0.9518       112.2584         0.6576       -40.2371       1.738209              1
     13934.5000         0.9799        112.259         0.6884       -40.1947       1.780609              1
     13935.0000         1.0179       112.2595         0.7219       -40.1522       1.823109              1
     13935.5000         1.0546       112.3376         0.7542       -40.1097       1.865608              1
     13936.0000         1.0658       113.2552         0.7864       -40.0671       1.908207              1
     13936.5000          1.063       119.1552         0.7816       -40.0247       1.950607              1
     13937.0000         1.0811       108.3113         0.7744       -39.9822       1.993107              1
     13937.5000         1.1159        114.728         0.7671       -39.9397       2.035606              1
     13938.0000         1.1562       120.3632         0.7329       -39.8972       2.078106              1
     13938.5000         1.1986       126.4387         0.6916       -39.8547       2.120609              1
     13939.0000          1.177       135.5298         0.6575       -39.8123       2.163006              1
     13939.5000          1.141       141.2346         0.6274       -39.7697       2.205608              1
     13940.0000         1.0753       140.7858         0.5992       -39.7272       2.248108              1
     13940.5000         0.9552       140.2288         0.5899       -39.7136       2.261707              1
     13941.0000          0.884       139.9595          0.584       -39.7249       2.250408              1
     13941.5000         0.8836       139.5328         0.5827       -39.7361       2.239208              1
     13942.0000         0.8967       139.3619         0.5961       -39.7473       2.228008              1
     13942.5000         0.9079       139.1467         0.6095       -39.7585       2.216808              1
     13943.0000         0.9191       138.8861          0.622       -39.7697       2.205608              1
     13943.5000         0.9302       138.5282         0.6318       -39.7809       2.194408              1
     13944.0000         0.9411       138.3613         0.6415       -39.7922       2.183109              1
     13944.5000         0.9519       138.0646         0.6512       -39.8034       2.171909              1
     13945.0000         0.9628       137.8898          0.661       -39.8146       2.160706              1
     13945.5000         0.9736        137.601         0.6707       -39.8258       2.149506              1
     13946.0000         0.9941         137.43          0.676        -39.837       2.138306              1
     13946.5000         1.0261       137.0599         0.6762       -39.8483       2.127007              1
     13947.0000         1.0312       136.8153         0.6763       -39.8595       2.115807              1
     13947.5000         1.0095        136.364         0.6801       -39.8707       2.104607              1
     13948.0000         0.9898       136.2054         0.6947       -39.8819       2.093407              1
     13948.5000         0.9908       135.9778         0.7098       -39.8931       2.082207              1
     13949.0000         1.0075       135.6647         0.7323       -39.9269       2.048409              1
     13949.5000         1.0253       135.3593         0.7548        -39.961       2.014309              1
     13950.0000         1.0704         135.05         0.7772       -39.9952       1.980106              1
     13950.5000         1.1339       134.6279         0.7704       -40.0293       1.946007              1
     13951.0000         1.1896       134.0441         0.7497       -40.0634       1.911907              1
     13951.5000         1.1646       132.0906         0.7291       -40.0975       1.877808              1
     13952.0000         1.1292       129.7076         0.7076       -40.1317       1.843609              1
     13952.5000         1.0938       110.4734         0.6631       -40.1658       1.809509              1
     13953.0000         1.0573       109.4715         0.6207          -40.2       1.775307              1
     13953.5000          1.012       108.7429         0.5795       -40.2341       1.741207              1
     13954.0000         0.9695       108.0142         0.5867       -40.2682       1.707108              1
     13954.5000         0.9445       107.2856         0.6122       -40.3024       1.672909              1
     13955.0000         0.9221        106.557          0.639       -40.3311       1.644207              1
     13955.5000         0.9431       105.8284         0.6659       -40.3391       1.636208              1
     13956.0000          0.968       105.0997         0.6862       -40.3472       1.628109              1
     13956.5000         0.9784       104.3711         0.7051       -40.3552       1.620106              1
     13957.0000         0.9771       103.6425         0.7241       -40.3633       1.612007              1
     13957.5000         0.9806       102.9139         0.7417       -40.3713       1.604008              1
     13958.0000         0.9942       102.1852         0.7576       -40.3793       1.596008              1
     13958.5000         1.0169       102.3364         0.7735       -40.3874       1.587906              1
     13959.0000         1.0464       103.3271         0.7894       -40.3954       1.579906              1
     13959.5000         1.0765       104.3178         0.8054       -40.4035       1.571808              1
     13960.0000         1.1109       105.7045         0.8252       -40.4116       1.563709              1
     13960.5000         1.1526       109.2852         0.8471       -40.4196       1.555706              1
     13961.0000         1.1769       109.5787         0.8574       -40.4276       1.547707              1
     13961.5000         1.1931       108.9673         0.8543       -40.4357       1.539608              1
     13962.0000         1.1916       108.1855         0.8495       -40.4421       1.533207              1
     13962.5000         1.1742       108.8809         0.8181       -40.4187       1.556606              1
     13963.0000         1.1569       111.7498         0.7865       -40.3952       1.580109              1
     13963.5000         1.1395       111.9933         0.7548       -40.3718       1.603508              1
     13964.0000         1.1109       112.5256         0.7229       -40.3483       1.627007              1
     13964.5000          1.081       112.9257         0.6901       -40.3249       1.650406              1
     13965.0000         1.0486       114.6956         0.6533       -40.3014       1.673908              1
     13965.5000         0.9726       115.3158         0.6237        -40.278       1.697308              1
     13966.0000         0.9251       114.1546         0.6067       -40.2545       1.720806              1
     13966.5000         0.9018       113.6038         0.5898       -40.2311       1.744209              1
