#------------------------------------------------------------------------------
# Created by    : vladimir.rabinovich
# Created on    : 09/19/2023 17:19:40
#------------------------------------------------------------------------------
~Version Information Section
VERS.           2.0     :   CWLS log ASCII Standard - VERSION 2.0
WRAP.           NO      :   One line per depth step
~Well Information Section
#MNEM       .UNIT                                         VALUE :DESCRIPTION
#------------------------------------------------------------------------------
STRT        .FT                                            1208 :START DEPTH
STOP        .FT                                            8860 :STOP DEPTH
STEP        .FT                                             0.5 :STEP      
NULL        .                                           -999.25 :NULL      
COMP        .                             WEAVER EXPLORATION CO :COMPANY   
WELL        .                                       BEAVERS W H :WELL      
FLD         .                                           WILDCAT :FIELD     
LOC         .                                                   :LOCATION  
CNTY        .                                         JEFFERSON :LOCATION  
STAT        .                                             TEXAS :STATE     
CTRY        .                                     UNITED STATES :COUNTRY   
SRVC        .                                                   :SERVICE COMPANY
DATE        .                             9/13/2023 11:18:46 AM :LOG DATE  
API         .                                    42245314920000 :API NUMBER
UWI         .                                    42245314920000 :UNIQUE WELL ID
XCOORD      .                                  1212655.17721247 :SURFACE X 
YCOORD      .                                  10886677.7304034 :SURFACE Y 
LAT         .                                        29.9899994 :LATITUDE  
LON         .                                       -94.3516153 :LONGITUDE 
ELEV        .FT                                            37.2 :ELEVATION VALUE
ELEV_TYPE   .                                                KB :ELEVATION REFERENCE TYPE
~Curve Information Section
#MNEM       .UNIT                                      API CODE :CURVE DESCRIPTION
#------------------------------------------------------------------------------
DEPT        .FT                                                 :DEPTH     
ALL         .OHMM                                               :          
CILD        .MMHO/M                                             :          
ILD         .OHMM                                               :          
SP          .MV                                                 :          
SP_NORM     .MV                                                 :SP Normalized
VSH_SP      .V/V                                                :Volume of Shale from SP
~A        DEPTH            ALL           CILD            ILD             SP        SP_NORM         VSH_SP
# ...
      5274.0000         0.7826       2273.267         0.4887       118.6638      -24.93608      0.6765394
      5274.5000         0.7868       2186.139         0.5094       123.5232      -20.08317      0.7421194
      5275.0000         0.7949       2059.406         0.5303       123.5328      -20.08006      0.7421614
      5275.5000         0.8411       1928.713         0.5409       121.7255      -21.89384      0.7176508
      5276.0000         0.9192       1865.347         0.5615       118.9089      -24.71693       0.679501
      5276.5000         0.9193       1805.941         0.5721       118.7167      -24.91561       0.676816
      5277.0000         0.9174       1766.337         0.5928       118.9281      -24.71069      0.6795852
      5277.5000         0.8375       1726.733         0.6034       122.5715      -21.07376      0.7287329
      5278.0000         0.8116       1659.406         0.6241       128.0365      -15.61525      0.8024966
      5278.5000         0.7593       1647.525         0.6448       132.4922      -11.16603      0.8626212
      5279.0000         0.7331       1635.644         0.6553       136.3422      -7.322525      0.9145605
      5279.5000         0.6807       1623.762         0.6659       139.1919      -4.479309      0.9529823
      5280.0000         0.6808       1544.554         0.6869       142.9998      -0.677887              1
      5280.5000         0.6829       1489.109         0.6974        145.802       2.117828              1
      5281.0000         0.7012       1425.743         0.7172       145.8048       2.114136              1
      5281.5000         0.7296       1409.901         0.7273       146.6086       2.911453              1
      5282.0000         0.7478        1401.98         0.7374       146.6118       2.908173              1
      5282.5000         0.7661        1401.98         0.7273       146.8155       3.105408              1
      5283.0000         0.7945       1417.822         0.7273       146.8188       3.102219              1
      5283.5000         0.8107       1453.465         0.7172       147.0245       3.301437              1
      5284.0000         0.8248       1477.228         0.7172       147.0279        3.29834              1
      5284.5000         0.8009       1489.109         0.7071       147.0314       3.295364              1
      5285.0000         0.7989       1512.871         0.6768       146.4319       2.689377              1
      5285.5000          0.795       1540.594         0.6667        146.033       2.283997              1
      5286.0000         0.7931       1564.356         0.6667       145.4324        1.67691              1
      5286.5000         0.7892       1588.119         0.6667       142.8184      -0.943573              1
      5287.0000         0.7449       1667.327         0.6364       140.6041      -3.164368      0.9707518
      5287.5000         0.7449       1794.059         0.5859       135.7576      -8.017349       0.905171
      5288.0000         0.7571       1857.426         0.5253       133.3333      -10.44812      0.8723227
      5288.5000         0.8117           2760         0.4747       128.6869        -15.101       0.809446
      5289.0000         0.8318           2760         0.4242       106.8687      -36.92569      0.5145177
      5289.5000         0.8279           2760         0.3939       106.8687      -36.93217        0.51443
      5290.0000         0.7939       2764.024         0.4141       106.6555      -37.15186      0.5114614
      5290.5000         0.7939       2763.847         0.4343       106.2747      -37.53915      0.5062277
      5291.0000          0.818       2503.904         0.4545       118.2004      -25.61993      0.6672983
      5291.5000         0.8621        2459.92         0.4788       130.1277      -13.69911      0.8283904
      5292.0000         0.9022           2400         0.5004       136.1987      -7.634598      0.9103433
      5292.5000         0.9203       2328.547         0.5328       134.1897      -9.650085      0.8831069
      5293.0000         0.9404         2189.5         0.5544       130.1618      -13.68445      0.8285885
      5293.5000         0.9706       2050.307          0.576       128.3496      -15.50314      0.8040116
      5294.0000         0.9907       1911.331         0.5976       124.3215      -19.53772      0.7494903
      5294.5000         1.0111       1784.405          0.599       123.9274      -19.93831      0.7440769
      5295.0000         0.7596       1792.132         0.5803        123.937       -19.9352       0.744119
      5295.5000         0.7596       1807.774         0.5716       127.5809      -16.29778      0.7932733
      5296.0000         0.7374       1859.034          0.563       139.5125      -4.372665      0.9544234
      5296.5000         0.7152       1858.846         0.5443       142.5347      -1.356949      0.9951764
      5297.0000         0.6687       1846.785         0.5457        144.352      0.4538727              1
      5297.5000         0.6707       1834.723         0.5479       144.9608       1.056183              1
      5298.0000         0.6727       1822.662         0.5493       142.3642       -1.54689      0.9926096
      5298.5000         0.6929       1822.474         0.5508       141.1671      -2.750473      0.9763449
      5299.0000         0.7131       1826.148         0.5522       138.3601       -5.56395       0.938325
      5299.5000         0.7576       1837.833         0.5536        135.745      -8.185547       0.902898
      5300.0000         0.7939       1849.508         0.5551       133.1298      -10.80722        0.86747
      5300.5000         0.8485       1865.284         0.5565       130.9184      -13.02512      0.8374984
      5301.0000         0.9031       1881.027          0.558       128.5051       -15.4449      0.8047987
      5301.5000         0.9576       1888.887          0.557       127.2985      -16.65798      0.7884057
      5302.0000          0.994       1908.527         0.5576       124.8853      -19.07767      0.7557072
      5302.5000         0.9919       1928.127         0.5581       122.4722      -21.49725      0.7230101
      5303.0000         0.9758       1947.687         0.5587       121.8763      -22.09962      0.7148699
      5303.5000         0.9416       1963.274         0.5595       121.6842      -22.29821      0.7121863
      5304.0000         0.9155       1970.974         0.5601       123.3092       -20.6797      0.7340582
      5304.5000         0.8934       1943.338         0.5708       127.9676      -16.02778      0.7969219
      5305.0000         0.8734       1856.878         0.5714       130.1982      -13.80367      0.8269775
      5305.5000         0.8613       1809.799         0.5719       131.4194      -12.58894      0.8433927
      5306.0000         0.8393       1754.981         0.5827       131.4339      -12.58093      0.8435009
      5306.5000         0.8394       1696.337         0.5935       131.2417      -12.77962       0.840816
      5307.0000         0.8756       1637.859         0.6044       127.8194       -16.2084       0.794481
      5307.5000         0.8797       1743.423         0.6254       126.0073      -18.02699      0.7699056
      5308.0000         0.8858       1829.241         0.6158       117.9826      -26.05816      0.6613762
      5308.5000         0.8898        1911.03         0.6062       114.0299      -30.01734      0.6078737
      5309.0000         0.8959       1996.584         0.5965       110.0772      -33.97652      0.5543713
      5309.5000         0.9039       2168.208         0.4839        93.5858      -50.47441      0.3314269
      5310.0000          0.914       2403.997         0.3814        93.5905       -50.4762      0.3314027
      5310.5000         0.9181       2639.727         0.3818        93.9882      -50.08498      0.3366894
      5311.0000         0.9142       2874.713         0.3719        95.1621      -48.91756      0.3524653
      5311.5000         0.8783       2874.713         0.3505        95.9479      -48.13825      0.3629966
