#------------------------------------------------------------------------------
# Created by    : vladimir.rabinovich
# Created on    : 09/19/2023 17:20:52
#------------------------------------------------------------------------------
~Version Information Section
VERS.           2.0     :   CWLS log ASCII Standard - VERSION 2.0
WRAP.           NO      :   One line per depth step
~Well Information Section
#MNEM       .UNIT                                         VALUE :DESCRIPTION
#------------------------------------------------------------------------------
STRT        .FT                                            1025 :START DEPTH
STOP        .FT                                            8930 :STOP DEPTH
STEP        .FT                                             0.5 :STEP      
NULL        .                                           -999.25 :NULL      
COMP        .                                     MEREDITH & CO :COMPANY   
WELL        .                                 BROUSSARD JR ETAL :WELL      
FLD         .                                           WILDCAT :FIELD     
LOC         .                                                   :LOCATION  
CNTY        .                                         JEFFERSON :LOCATION  
STAT        .                                             TEXAS :STATE     
CTRY        .                                     UNITED STATES :COUNTRY   
SRVC        .                                                   :SERVICE COMPANY
DATE        .                             9/13/2023 11:19:11 AM :LOG DATE  
API         .                                    42245021860000 :API NUMBER
UWI         .                                    42245021860000 :UNIQUE WELL ID
XCOORD      .                                  1217776.66937412 :SURFACE X 
YCOORD      .                                  10884677.7702762 :SURFACE Y 
LAT         .                                        29.9846645 :LATITUDE  
LON         .                                       -94.3353628 :LONGITUDE 
ELEV        .FT                                              34 :ELEVATION VALUE
ELEV_TYPE   .                                                DF :ELEVATION REFERENCE TYPE
~Curve Information Section
#MNEM       .UNIT                                      API CODE :CURVE DESCRIPTION
#------------------------------------------------------------------------------
DEPT        .FT                                                 :DEPTH     
ASN         .OHMM                                               :          
LAT         .OHMM                                               :          
LN          .OHMM                                               :          
SP          .MV                                                 :          
SP_NORM     .MV                                                 :SP Normalized
VSH_SP      .V/V                                                :Volume of Shale from SP
~A        DEPTH            ASN            LAT             LN             SP        SP_NORM         VSH_SP
# ...
      6269.0000         0.5714         0.4643          0.625            -40     -0.4938278              1
      6269.5000         0.5786         0.4643         0.6429       -44.3636       -4.85743      0.9629093
      6270.0000         0.5786         0.4464         0.6429       -44.3636       -4.85743      0.9629093
      6270.5000         0.5607         0.4464          0.625       -40.7273      -1.221127      0.9978738
      6271.0000         0.5464         0.4464         0.6071            -40     -0.4938278              1
      6271.5000         0.5393         0.4464         0.6071       -38.2143       1.291874              1
      6272.0000         0.5393         0.4464         0.6071       -37.1429       2.363274              1
      6272.5000         0.5393         0.4643         0.6071       -35.3571       4.149071              1
      6273.0000         0.5464         0.4643         0.6071            -35       4.506172              1
      6273.5000         0.5536         0.4643         0.6071       -34.6429       4.863274              1
      6274.0000         0.5607         0.4643         0.6071       -34.6429       4.863274              1
      6274.5000         0.5607         0.4643         0.6071       -34.6429       4.863274              1
      6275.0000         0.5571         0.4643          0.625       -34.6429       4.863274              1
      6275.5000         0.5536         0.4643         0.6429       -34.6429       4.863274              1
      6276.0000         0.5607         0.4643         0.6429       -34.6429       4.863274              1
      6276.5000         0.5857         0.4464         0.6429            -35       4.506172              1
      6277.0000         0.5929         0.4286         0.6429       -35.3571       4.149071              1
      6277.5000            0.6         0.4286         0.6429       -36.0714       3.434772              1
      6278.0000         0.6109         0.4286         0.6429       -37.1429       2.363274              1
      6278.5000         0.6182         0.4286         0.6607       -38.2143       1.291874              1
      6279.0000         0.6218         0.4286         0.6607       -39.2857      0.2204704              1
      6279.5000         0.6218         0.4286         0.6429       -39.6429     -0.1367264              1
      6280.0000         0.6145         0.4286         0.6429       -39.2857      0.2204704              1
      6280.5000         0.5893         0.4464         0.6429       -38.2143       1.291874              1
      6281.0000         0.5821         0.4643         0.6429          -37.5       2.006172              1
      6281.5000         0.5714         0.4643         0.6429       -36.7857        2.72047              1
      6282.0000         0.5643         0.4821         0.6429       -36.4286       3.077572              1
      6282.5000         0.5607            0.5         0.6429       -36.0714       3.434772              1
      6283.0000         0.5607            0.5          0.625       -36.0714       3.434772              1
      6283.5000         0.5607            0.5          0.625       -35.7143       3.791874              1
      6284.0000         0.5571            0.5         0.6071       -35.3571       4.149071              1
      6284.5000           0.55            0.5         0.6071       -35.3571       4.149071              1
      6285.0000         0.5429            0.5         0.6071            -35       4.506172              1
      6285.5000         0.5429            0.5         0.6071            -35       4.506172              1
      6286.0000         0.5393         0.4821         0.6071       -34.6429       5.016907              1
      6286.5000         0.5357         0.4821         0.6071       -35.3571       4.528652              1
      6287.0000         0.5321         0.4821         0.6071       -35.7143       4.397408              1
      6287.5000          0.525         0.4643         0.6071       -36.4286       3.909054              1
      6288.0000         0.5214         0.4643         0.6071       -37.1429       3.420704              1
      6288.5000         0.5179         0.4643         0.6071          -37.5       3.289551              1
      6289.0000         0.5143         0.4643         0.6071       -38.5714       2.444103              1
      6289.5000         0.5071         0.4643         0.5893       -39.2857        1.95575              1
      6290.0000            0.5         0.4643         0.5714            -40         1.4674              1
      6290.5000            0.5         0.4643         0.5714       -41.1081       0.585247              1
      6291.0000         0.4929         0.4464         0.5714       -41.4881      0.4311981              1
      6291.5000         0.4857         0.4286         0.5714       -41.5049      0.6403465              1
      6292.0000         0.4857         0.4286         0.5714       -41.8839      0.4872971              1
      6292.5000         0.4857         0.4464         0.5714       -42.2622      0.3349457              1
      6293.0000         0.4964         0.4464         0.5714       -44.0864      -1.263306      0.9974682
      6293.5000         0.5071         0.4464         0.5714       -46.6298      -3.580757       0.975185
      6294.0000         0.5214         0.4643         0.5893       -51.6959      -8.420906      0.9286451
      6294.5000         0.5286         0.4821         0.5893       -53.5068      -10.00586      0.9134052
      6295.0000         0.5321            0.5         0.5893       -54.9541      -11.22721      0.9016615
      6295.5000         0.5286         0.5179         0.5893       -56.0388      -12.08596      0.8934042
      6296.0000          0.525         0.5179         0.6071       -55.3228      -11.14401      0.9024615
      6296.5000          0.525         0.5536         0.5893       -53.8892      -9.484459      0.9184186
      6297.0000         0.5321         0.5714         0.6071       -52.8172      -8.372757      0.9291081
      6297.5000         0.5357         0.5714         0.6071        -52.106      -7.661556      0.9359466
      6298.0000         0.5429         0.5714         0.6071       -51.7546      -7.310158      0.9393254
      6298.5000         0.5464         0.5714         0.6071       -51.4037      -6.959259      0.9426994
      6299.0000           0.55         0.5714         0.6071       -50.6957      -6.251259      0.9495071
      6299.5000         0.5571         0.5714         0.6071       -50.7039      -6.259457      0.9494283
      6300.0000         0.5571         0.5536         0.6071       -49.9978      -5.553356      0.9562177
      6300.5000         0.5571         0.5357         0.6071            -50      -5.555557      0.9561965
      6301.0000         0.5607         0.5357          0.625       -49.6429      -5.198456      0.9596303
      6301.5000         0.5606         0.5357         0.6429       -49.2857      -4.841259      0.9630648
      6302.0000         0.5749         0.5357         0.6429       -48.5714      -4.126957      0.9699331
      6302.5000         0.5821         0.5357         0.6429       -48.2143      -3.769855      0.9733668
      6303.0000         0.5928         0.5179         0.6429       -47.8571      -3.412659      0.9768013
      6303.5000         0.6036         0.5179         0.6429       -47.1429      -2.698456      0.9836687
      6304.0000         0.6072         0.5179         0.6607       -47.1429      -2.698456      0.9836687
      6304.5000         0.6036         0.5179         0.6607       -46.4286      -1.984158      0.9905369
      6305.0000         0.5964         0.5179         0.6607       -46.4286      -1.984158      0.9905369
      6305.5000         0.5892            0.5         0.6607       -46.0714      -1.626957      0.9939716
      6306.0000         0.5856            0.5         0.6607       -45.7143      -1.269855      0.9974052
      6306.5000         0.5892            0.5         0.6607       -45.3571     -0.9126587              1
