#------------------------------------------------------------------------------
# Created by    : vladimir.rabinovich
# Created on    : 09/19/2023 17:22:41
#------------------------------------------------------------------------------
~Version Information Section
VERS.           2.0     :   CWLS log ASCII Standard - VERSION 2.0
WRAP.           NO      :   One line per depth step
~Well Information Section
#MNEM       .UNIT                                         VALUE :DESCRIPTION
#------------------------------------------------------------------------------
STRT        .FT                                             190 :START DEPTH
STOP        .FT                                            7751 :STOP DEPTH
STEP        .FT                                             0.5 :STEP      
NULL        .                                           -999.25 :NULL      
COMP        .                       GOLDEN TRIANGLE STORAGE LLC :COMPANY   
WELL        .                         GOLDEN TRIANGLE STORAGE 2 :WELL      
FLD         .                                        SPINDLETOP :FIELD     
LOC         .                                                   :LOCATION  
CNTY        .                                         JEFFERSON :LOCATION  
STAT        .                                             TEXAS :STATE     
CTRY        .                                     UNITED STATES :COUNTRY   
SRVC        .                                                   :SERVICE COMPANY
DATE        .                             9/13/2023 11:18:46 AM :LOG DATE  
API         .                                    42245325580000 :API NUMBER
UWI         .                                    42245325580000 :UNIQUE WELL ID
XCOORD      .                                  1288599.33875083 :SURFACE X 
YCOORD      .                                  10896379.1240251 :SURFACE Y 
LAT         .                                        30.0189256 :LATITUDE  
LON         .                                       -94.1119908 :LONGITUDE 
ELEV        .FT                                            12.2 :ELEVATION VALUE
ELEV_TYPE   .                                                GL :ELEVATION REFERENCE TYPE
~Curve Information Section
#MNEM       .UNIT                                      API CODE :CURVE DESCRIPTION
#------------------------------------------------------------------------------
DEPT        .FT                                                 :DEPTH     
DCAL        .IN                                                 :          
DPSS        .V/V                                                :          
DRHO        .G/CM3                                              :          
GR          .GAPI                                               :          
GR_NORM     .GAPI                                               :GammaRay Normalized
ILD         .OHMM                                               :          
ILM         .OHMM                                               :          
NPSS        .V/V                                                :Neutron Porosity Sandstone
SFL         .OHMM                                               :          
SP          .MV                                                 :          
SP_NORM     .MV                                                 :SP Normalized
TENS        .LB                                                 :          
VSH_GR      .V/V                                                :Volume of Shale from GR
VSH_SP      .V/V                                                :Volume of Shale from SP
~A        DEPTH           DCAL           DPSS           DRHO             GR        GR_NORM            ILD            ILM           NPSS            SFL             SP        SP_NORM           TENS         VSH_GR         VSH_SP
# ...
      7732.0000              7         0.6768         0.0735        -999.25        -999.25         0.5233         0.6481         0.5547         0.6801          -44.4      -1.910759           3440        -999.25      0.9857694
      7732.5000            8.8         0.7518         0.0327        -999.25        -999.25         0.5186         0.6481         0.5792            0.7          -44.4      -1.934544           3440        -999.25      0.9853978
      7733.0000           9.68         0.8124          0.002        -999.25        -999.25         0.5378         0.6543         0.5976         0.7189          -44.4      -1.958328           3440        -999.25      0.9850261
      7733.5000           9.88         0.8616         -0.012        -999.25        -999.25         0.5378         0.6543            0.6         0.7254          -44.4      -1.982113           3440        -999.25      0.9846545
      7734.0000           9.88         0.8748         -0.004        -999.25        -999.25         0.5233         0.6607            0.6         0.7254          -44.4      -2.005898           3440        -999.25      0.9842829
      7734.5000           9.84         0.7992         0.0245        -999.25        -999.25         0.5233         0.6671            0.6         0.7319          -44.4      -2.029682           3440        -999.25      0.9839112
      7735.0000           9.28         0.6888         0.0694        -999.25        -999.25         0.5733         0.6735         0.5988         0.7254            -44      -1.653465           3440        -999.25      0.9897896
      7735.5000           8.68         0.5976          0.104        -999.25        -999.25         0.5527         0.6735         0.6024         0.7189          -43.6      -1.277245           3440        -999.25      0.9956681
      7736.0000           8.48         0.5988            0.1        -999.25        -999.25         0.5233         0.6801         0.6264         0.7126          -43.2     -0.9010315           3440        -999.25              1
      7736.5000            8.8          0.654         0.0837        -999.25        -999.25         0.5329         0.6801         0.6588         0.7063          -42.8     -0.5248146           3440        -999.25              1
      7737.0000           8.84         0.7104         0.0735        -999.25        -999.25         0.6058         0.6801         0.6912         0.7063          -42.4     -0.1486015           3440        -999.25              1
      7737.5000           8.92         0.7008         0.0776        -999.25        -999.25         0.6671         0.6866         0.7237         0.7063          -42.4     -0.1723862           3440        -999.25              1
      7738.0000           9.32         0.6648         0.0816        -999.25        -999.25         0.5838         0.6866         0.7482         0.7063          -42.4     -0.1961708           3440        -999.25              1
      7738.5000           9.48         0.6288         0.0796        -999.25        -999.25         0.5629         0.6866         0.7629         0.7189          -42.4     -0.2199554           3440        -999.25              1
      7739.0000           9.48         0.6216         0.0714        -999.25        -999.25            0.6         0.6933          0.758         0.7254          -42.4     -0.2437401           3400        -999.25              1
      7739.5000           9.28         0.6372         0.0714        -999.25        -999.25          1.441            0.7          0.731         0.7319          -42.4     -0.2675209           3400        -999.25              1
      7740.0000           8.64          0.654         0.0837        -999.25        -999.25       1962.636         0.7063         0.2616         0.7319          -42.4     -0.2913055           3400        -999.25              1
      7740.5000         8.6813         0.6588          0.106        -999.25        -999.25       32311.97        -999.25         0.0756        -999.25          -42.4     -0.3150902           3400        -999.25              1
      7741.0000         9.3234         0.6444          0.128        -999.25        -999.25       40750.77        -999.25         0.0468        -999.25          -42.4     -0.3388748           3400        -999.25              1
      7741.5000         9.6854         0.6336          0.138        -999.25        -999.25        -999.25        -999.25         0.0468        -999.25          -42.4     -0.3626595           3440        -999.25              1
      7742.0000         9.6073         0.6264           0.14        -999.25        -999.25        -999.25        -999.25         0.0468        -999.25          -42.4     -0.3864441           3440        -999.25              1
      7742.5000         9.3292         0.6009           0.16        -999.25        -999.25        -999.25        -999.25         0.0468        -999.25        -999.25        -999.25           3440        -999.25        -999.25
      7743.0000         9.4112         0.5147           0.19        -999.25        -999.25        -999.25        -999.25         0.0468        -999.25        -999.25        -999.25           3440        -999.25        -999.25
      7743.5000         9.5731         0.5976          0.198        -999.25        -999.25        -999.25        -999.25         0.0468        -999.25        -999.25        -999.25           3320        -999.25        -999.25
      7744.0000         9.6551         0.6096          0.144        -999.25        -999.25        -999.25        -999.25         0.0468        -999.25        -999.25        -999.25           3280        -999.25        -999.25
      7744.5000          9.657         0.6756         0.0918        -999.25        -999.25        -999.25        -999.25         0.0468        -999.25        -999.25        -999.25           3280        -999.25        -999.25
      7745.0000         9.4194         0.6888         0.0796        -999.25        -999.25        -999.25        -999.25         0.0468        -999.25        -999.25        -999.25           3280        -999.25        -999.25
      7745.5000         8.9013          0.636         0.0939        -999.25        -999.25        -999.25        -999.25         0.0468        -999.25        -999.25        -999.25           3280        -999.25        -999.25
      7746.0000         8.7032         0.5618          0.128        -999.25        -999.25        -999.25        -999.25         0.0468        -999.25        -999.25        -999.25           3360        -999.25        -999.25
      7746.5000         8.8652         0.5072          0.144        -999.25        -999.25        -999.25        -999.25         0.0468        -999.25        -999.25        -999.25           3480        -999.25        -999.25
      7747.0000         9.1071          0.495          0.142        -999.25        -999.25        -999.25        -999.25         0.0468        -999.25        -999.25        -999.25           3640        -999.25        -999.25
      7747.5000         8.9491         0.4828          0.144        -999.25        -999.25        -999.25        -999.25         0.0468        -999.25        -999.25        -999.25           3680        -999.25        -999.25
      7748.0000          8.471         0.4658          0.144        -999.25        -999.25        -999.25        -999.25         0.0468        -999.25        -999.25        -999.25           3640        -999.25        -999.25
      7748.5000         8.0333         0.4851          0.138        -999.25        -999.25        -999.25        -999.25         0.0468        -999.25        -999.25        -999.25           3600        -999.25        -999.25
      7749.0000         8.0753         0.5082          0.132        -999.25        -999.25        -999.25        -999.25         0.0468        -999.25        -999.25        -999.25           3560        -999.25        -999.25
      7749.5000         8.0773          0.529          0.124        -999.25        -999.25        -999.25        -999.25          0.048        -999.25        -999.25        -999.25        -999.25        -999.25        -999.25
