#------------------------------------------------------------------------------
# Created by    : vladimir.rabinovich
# Created on    : 09/19/2023 17:20:51
#------------------------------------------------------------------------------
~Version Information Section
VERS.           2.0     :   CWLS log ASCII Standard - VERSION 2.0
WRAP.           NO      :   One line per depth step
~Well Information Section
#MNEM       .UNIT                                         VALUE :DESCRIPTION
#------------------------------------------------------------------------------
STRT        .FT                                            1028 :START DEPTH
STOP        .FT                                            9325 :STOP DEPTH
STEP        .FT                                             0.5 :STEP      
NULL        .                                           -999.25 :NULL      
COMP        .                     HUNT LAMAR TRUST ESTATE ET AL :COMPANY   
WELL        .                                   BROUSSARD TRUST :WELL      
FLD         .                                           WILDCAT :FIELD     
LOC         .                                                   :LOCATION  
CNTY        .                                         JEFFERSON :LOCATION  
STAT        .                                             TEXAS :STATE     
CTRY        .                                     UNITED STATES :COUNTRY   
SRVC        .                                                   :SERVICE COMPANY
DATE        .                             9/13/2023 11:19:11 AM :LOG DATE  
API         .                                    42245021920000 :API NUMBER
UWI         .                                    42245021920000 :UNIQUE WELL ID
XCOORD      .                                  1218474.36862613 :SURFACE X 
YCOORD      .                                   10882715.986693 :SURFACE Y 
LAT         .                                        29.9792918 :LATITUDE  
LON         .                                       -94.3330868 :LONGITUDE 
ELEV        .FT                                              36 :ELEVATION VALUE
ELEV_TYPE   .                                                DF :ELEVATION REFERENCE TYPE
~Curve Information Section
#MNEM       .UNIT                                      API CODE :CURVE DESCRIPTION
#------------------------------------------------------------------------------
DEPT        .FT                                                 :DEPTH     
ASN         .OHMM                                               :          
LAT         .OHMM                                               :          
LN          .OHMM                                               :          
SP          .MV                                                 :          
SP_NORM     .MV                                                 :SP Normalized
VSH_SP      .V/V                                                :Volume of Shale from SP
~A        DEPTH            ASN            LAT             LN             SP        SP_NORM         VSH_SP
# ...
      4866.0000         2.1875         0.2035         0.2212      -153.2743      -96.84354     0.03188347
      4866.5000         2.1518         0.2478         0.2478      -153.0973      -96.65965     0.03374096
      4867.0000         2.1161         0.3186         0.2655      -153.0973      -96.65276     0.03381055
      4867.5000         1.9735         0.3451         0.2832      -153.2743      -96.82287     0.03209224
      4868.0000         1.4643         0.3451         0.3009      -153.6283      -97.16997     0.02858618
      4868.5000         1.4607         0.3186         0.3009      -154.1593      -97.69408     0.02329208
      4869.0000         1.3153         0.2124         0.3097      -154.5133       -98.0412     0.01978587
      4869.5000         0.8496         0.2035         0.3097      -154.8673      -98.38831     0.01627974
      4870.0000         0.8372         0.2035         0.3097      -154.8673      -98.38141     0.01634941
      4870.5000         0.6088         0.2035         0.3186      -153.8053      -97.31253     0.02714616
      4871.0000         0.5495         0.2035         0.3274      -151.1504      -94.65074     0.05403291
      4871.5000         0.5477         0.2743         0.3451      -133.5714      -77.06485      0.2316682
      4872.0000         0.5477         0.3451         0.3717       -95.7522      -39.23876      0.6137499
      4872.5000         0.5514         0.4159         0.3982       -95.5752      -39.05488      0.6156073
      4873.0000         0.8106         0.4867         0.4248       -84.6018      -28.07458      0.7265193
      4873.5000         0.8319         0.5044         0.4513       -55.0442       1.489902              1
      4874.0000         0.9168         0.5221          0.469       -53.9823       2.558693              1
      4874.5000          0.977         0.5398         0.5133       -53.2743       3.273579              1
      4875.0000         0.9982         0.5575          0.531       -52.9204       3.634369              1
      4875.5000         1.0054         0.5752          0.531       -52.7434       3.818256              1
      4876.0000         1.0089         0.5929         0.5221       -52.9204       3.648148              1
      4876.5000         1.0089         0.6106         0.5044       -53.0973       3.478134              1
      4877.0000         1.0089         0.6106         0.4867       -53.6283       2.954025              1
      4877.5000         1.0018         0.6283         0.4779       -54.6903       1.898911              1
      4878.0000         0.9593         0.6283          0.469       -55.9292      0.6669006              1
      4878.5000          0.915         0.6283          0.469       -57.1681     -0.5651093              1
      4879.0000         0.8708         0.6283          0.469       -57.1681     -0.5582199              1
      4879.5000         0.8265         0.6283         0.4867       -57.1681     -0.5513306              1
      4880.0000         0.7842         0.6283         0.5133       -57.1681     -0.5444412              1
      4880.5000         0.7404         0.6018          0.531       -52.5664       4.064144              1
      4881.0000         0.7175         0.5841         0.5487       -52.5664       4.071033              1
      4881.5000         0.7175         0.5575         0.5664       -52.5664       4.077923              1
      4882.0000         0.7298         0.5398         0.5752       -53.2743       3.376911              1
      4882.5000         0.7842         0.5133         0.5752       -55.2212       1.436901              1
      4883.0000         0.8389         0.4956         0.5752       -58.4071      -1.742111      0.9925039
      4883.5000          0.892          0.469         0.5752       -61.6071      -4.935226      0.9602503
      4884.0000         0.9204         0.4425         0.5664       -64.8214      -8.142639      0.9278522
      4884.5000         0.9221         0.4159         0.5575       -68.0357      -11.35004      0.8954541
      4885.0000         0.9257         0.3894         0.5398       -69.8214      -13.12886      0.8774862
      4885.5000         0.9274         0.3717         0.5133       -74.8214      -18.12197      0.8270508
      4886.0000         0.9965         0.3451         0.4956       -79.4643      -22.75798      0.7802224
      4886.5000         1.1089         0.3186         0.4779       -83.0088      -26.29559       0.744489
      4887.0000         1.2775         0.3009         0.4779       -89.9115       -33.1914      0.6748343
      4887.5000         1.2829         0.3009         0.4779       -96.8142      -40.08722      0.6051797
      4888.0000         1.1732          0.292         0.4956      -104.1071      -47.37323      0.5315835
      4888.5000         1.1196          0.292         0.5044      -104.6429      -47.90213      0.5262411
      4889.0000         1.0107         0.3186         0.5133      -105.1786      -48.43094      0.5208996
      4889.5000         0.9027         0.3363         0.5221      -105.1786      -48.42406      0.5209691
      4890.0000         0.7947         0.3894         0.6018       -61.2539       -4.49247      0.9647225
      4890.5000         0.7263          0.522          0.646       -53.4454       3.322918              1
      4891.0000         0.7683         0.6635         0.6726       -52.3785       4.396706              1
      4891.5000         0.8121         0.6722         0.6991       -51.6661       5.115997              1
      4892.0000         0.8546         0.6898         0.7345        -52.191       4.597984              1
      4892.5000         0.8989         0.6896         0.7611       -53.2453       3.309071              1
      4893.0000         0.9077         0.6451         0.8053       -54.2986       1.973335              1
      4893.5000         0.9166         0.6006         0.8319        -55.351      0.6384964              1
      4894.0000         0.9219          0.556         0.8319       -56.0497     -0.3426399              1
      4894.5000         0.9218         0.5114         0.8319       -56.3952     -0.9705734              1
      4895.0000          0.888         0.4668         0.7965       -56.7404      -1.598209      0.9939575
      4895.5000         0.8542         0.4221         0.7522        -56.733      -1.873249      0.9911793
      4896.0000         0.8541         0.3773         0.6814       -56.5497      -1.972385      0.9901779
      4896.5000         0.8754         0.3504         0.6549       -52.4952       1.826332              1
      4897.0000         0.8967         0.3501         0.6106       -52.4897       1.837715              1
      4897.5000         0.9181         0.3943         0.5929       -52.4843       1.849003              1
      4898.0000         0.9394         0.4832         0.5664       -52.8303       1.508884              1
      4898.5000         0.9608          0.581         0.5664       -53.3517      0.9933701              1
      4899.0000         0.9822         0.6789         0.5664       -54.9261     -0.5751495              1
      4899.5000         1.0036          0.768         0.5752       -55.9726      -1.615765      0.9937801
      4900.0000         1.0107         0.8661         0.6018       -57.0176      -2.654881      0.9832841
      4900.5000         1.0089         1.0088         0.6283       -58.5959      -4.227299       0.967401
      4901.0000         0.9964         1.1327          0.646         -60.18      -5.805511      0.9514595
      4901.5000          0.875         1.1504         0.6726       -61.7994      -7.419029      0.9351613
      4902.0000         0.8714         1.1504         0.6991       -63.4174      -9.031143      0.9188774
      4902.5000           0.95              1         0.7168       -64.8541      -10.46196      0.9044246
      4903.0000         1.0304         0.8393         0.7434       -66.4693      -12.07127      0.8881689
      4903.5000         1.1107         0.6786         0.7699        -68.083      -13.67909      0.8719283
