#------------------------------------------------------------------------------
# Created by    : vladimir.rabinovich
# Created on    : 09/19/2023 17:22:03
#------------------------------------------------------------------------------
~Version Information Section
VERS.           2.0     :   CWLS log ASCII Standard - VERSION 2.0
WRAP.           NO      :   One line per depth step
~Well Information Section
#MNEM       .UNIT                                         VALUE :DESCRIPTION
#------------------------------------------------------------------------------
STRT        .FT                                             959 :START DEPTH
STOP        .FT                                            9240 :STOP DEPTH
STEP        .FT                                             0.5 :STEP      
NULL        .                                           -999.25 :NULL      
COMP        .                                  SAMEDAN OIL CORP :COMPANY   
WELL        .                                            WILBER :WELL      
FLD         .                                     HAMSHIRE WEST :FIELD     
LOC         .                                                   :LOCATION  
CNTY        .                                         JEFFERSON :LOCATION  
STAT        .                                             TEXAS :STATE     
CTRY        .                                     UNITED STATES :COUNTRY   
SRVC        .                                                   :SERVICE COMPANY
DATE        .                             9/13/2023 11:18:46 AM :LOG DATE  
API         .                                    42245321080000 :API NUMBER
UWI         .                                    42245321080000 :UNIQUE WELL ID
XCOORD      .                                  1220512.54732583 :SURFACE X 
YCOORD      .                                  10829820.5318697 :SURFACE Y 
LAT         .                                        29.8338887 :LATITUDE  
LON         .                                       -94.3247224 :LONGITUDE 
ELEV        .FT                                              24 :ELEVATION VALUE
ELEV_TYPE   .                                                KB :ELEVATION REFERENCE TYPE
~Curve Information Section
#MNEM       .UNIT                                      API CODE :CURVE DESCRIPTION
#------------------------------------------------------------------------------
DEPT        .FT                                                 :DEPTH     
CALI        .IN                                                 :          
DPSS        .%                                                  :          
DRHO        .G/CM3                                              :          
GR          .GAPI                                               :          
GR_NORM     .GAPI                                               :GammaRay Normalized
ILD         .OHMM                                               :          
ILM         .OHMM                                               :          
NPSS        .%                                                  :Neutron Porosity Sandstone
SGRD        .OHMM                                               :          
SP          .MV                                                 :          
SP_NORM     .MV                                                 :SP Normalized
TENS        .LB                                                 :          
VSH_GR      .V/V                                                :Volume of Shale from GR
VSH_SP      .V/V                                                :Volume of Shale from SP
~A        DEPTH           CALI           DPSS           DRHO             GR        GR_NORM            ILD            ILM           NPSS           SGRD             SP        SP_NORM           TENS         VSH_GR         VSH_SP
# ...
      2111.0000        17.8193        -999.25        -999.25        65.1906       79.77635         1.2142         1.1647        -999.25         1.0817           -108      0.7438889           1940      0.9952415              1
      2111.5000        17.8193        -999.25        -999.25        64.4423        78.7578         1.2198         1.1647        -999.25         1.0817           -108      0.7237167           1980      0.9735703              1
      2112.0000        17.8193        -999.25        -999.25        61.3126       74.49442         1.2311         1.1647        -999.25         1.0767           -108       0.703537           2000      0.8828599              1
      2112.5000        17.8193        -999.25        -999.25        60.2638       73.06642         1.2541         1.1701        -999.25         1.0668         -107.8      0.8833618           1980      0.8524771              1
      2113.0000        17.8193        -999.25        -999.25        60.5545       73.46358         1.2775         1.1701        -999.25         1.0377         -107.6       1.063194           1980      0.8609273              1
      2113.5000        17.8193        -999.25        -999.25        61.8884       75.28219         1.3013          1.181        -999.25          1.014           -107       1.643021           1980       0.899621              1
      2114.0000        17.8193        -999.25        -999.25         66.652       81.77405         1.3256         1.2086        -999.25         1.0281         -106.2        2.43367           1980              1              1
      2114.5000        17.8193        -999.25        -999.25        69.9291       86.24039         1.3503         1.2483        -999.25         1.0968           -106       2.624908           1960              1              1
      2115.0000        17.8193        -999.25        -999.25        67.0914       82.37489         1.3819         1.2834        -999.25         1.1755         -105.8       2.816154           1980              1              1
      2115.5000        17.7995        -999.25        -999.25        67.3861       82.77752         1.4077         1.3195        -999.25         1.2716         -105.8       2.807396           1980              1              1
      2116.0000        17.7995        -999.25        -999.25        73.2076       90.71082         1.4406         1.3566        -999.25         1.3318         -105.4       3.198639           1980              1              1
      2116.5000        17.8193        -999.25        -999.25        73.5056       91.11794         1.4675         1.3819        -999.25         1.3256           -105       3.589882           1980              1              1
      2117.0000        17.7995        -999.25        -999.25        70.2154       86.63585         1.4948         1.4077        -999.25         1.2894         -105.6       2.981125           1980              1              1
      2117.5000        17.7995        -999.25        -999.25        66.6226       81.74146          1.488         1.4077        -999.25         1.2599         -106.4       2.172363           1980              1              1
      2118.0000        17.7995        -999.25        -999.25        64.3739        78.6785         1.4607         1.4142        -999.25         1.2368         -106.4       2.163605           2020      0.9718831              1
      2118.5000        17.8193        -999.25        -999.25        60.9244       73.97937         1.4208         1.3883        -999.25         1.2255           -107       1.554848           2020      0.8719015              1
      2119.0000        17.8193        -999.25        -999.25        56.8684       68.45383         1.3379         1.3503        -999.25         1.2198         -107.6      0.9460907           2020      0.7543369              1
      2119.5000        17.8193        -999.25        -999.25        54.7609       65.58327         1.2541         1.3074        -999.25         1.2368           -108      0.5373383           2060       0.693261              1
      2120.0000        17.8193        -999.25        -999.25        53.7034       64.14342         1.1755         1.2658        -999.25         1.2311         -109.2     -0.6714172           2020      0.6626261              1
      2120.5000        17.8199        -999.25        -999.25        54.1541       64.75859         1.1021         1.2088        -999.25           1.22         -111.2      -2.680176           1980      0.6757147      0.9694514
      2121.0000        17.8209        -999.25        -999.25        58.3616       70.49271         1.0428         1.1598        -999.25          1.209         -113.6      -5.088936           1980      0.7977173      0.9256557
      2121.5000        17.8219        -999.25        -999.25        63.7643       77.85536         0.9796         1.1128        -999.25         1.2037         -116.6      -8.097694           2020      0.9543694       0.870951
      2122.0000        17.8229        -999.25        -999.25        68.8608        84.8008         0.9193         1.0628        -999.25         1.2379         -120.8      -12.30646           2020              1      0.7944281
      2122.5000        17.8238        -999.25        -999.25        69.3129       85.41789         0.8589          1.015        -999.25         1.2671           -124      -15.51521           1980              1       0.736087
      2123.0000        17.8248        -999.25        -999.25        63.7809        77.8812         0.8085         0.9759        -999.25         1.2615         -127.4      -18.92397           1980       0.954919      0.6741096
      2123.5000        17.8258        -999.25        -999.25        60.1986        73.0011         0.7547         0.9273        -999.25         1.2445         -132.6      -24.13274           1980      0.8510872      0.5794048
      2124.0000        17.8268        -999.25        -999.25         57.957       69.94782         0.7045         0.8753        -999.25          1.239           -137      -28.54148           1980      0.7861239      0.4992458
      2124.5000        17.8278        -999.25        -999.25         56.014       67.30141         0.6607         0.8204        -999.25         1.2683      -143.3856      -34.93584           2020      0.7298172      0.3829846
      2125.0000        17.8288        -999.25        -999.25        54.8217       65.67787         0.6225         0.7763        -999.25         1.2686      -151.3456      -42.90459           2000      0.6952739      0.2380983
      2125.5000        17.8297        -999.25        -999.25        51.0794       60.57978         0.5838         0.7382        -999.25         1.2806       -156.314      -47.88175           1980      0.5868039      0.1476045
      2126.0000        17.8307        -999.25        -999.25        47.4864       55.68511         0.5428         0.7084        -999.25          1.323      -159.6859      -51.26241           2000       0.482662     0.08613794
      2126.5000        17.8317        -999.25        -999.25        46.4441       54.26597         0.5115         0.6828        -999.25         1.3859      -161.6748      -53.26008           2020      0.4524675     0.04981676
      2127.0000        17.8327        -999.25        -999.25        43.4568       50.19662         0.4817         0.6551        -999.25         1.4926      -163.0646      -54.65864           2000      0.3658855      0.0243884
      2127.5000        17.8337        -999.25        -999.25        38.3771       43.27622         0.4535         0.6255        -999.25         1.6075      -164.2543      -55.85709           1980       0.218643    0.002598294
      2128.0000        17.8347        -999.25        -999.25        35.6874       39.61236         0.4369         0.6112        -999.25         1.7075       -165.244      -56.85555           1980      0.1406885              0
      2128.5000        17.8357        -999.25        -999.25        37.6369       42.26977         0.4369         0.5973        -999.25          1.764      -166.0348      -57.65511           2000      0.1972291              0
