#------------------------------------------------------------------------------
# Created by    : vladimir.rabinovich
# Created on    : 09/19/2023 17:19:40
#------------------------------------------------------------------------------
~Version Information Section
VERS.           2.0     :   CWLS log ASCII Standard - VERSION 2.0
WRAP.           NO      :   One line per depth step
~Well Information Section
#MNEM       .UNIT                                         VALUE :DESCRIPTION
#------------------------------------------------------------------------------
STRT        .FT                                            1208 :START DEPTH
STOP        .FT                                            8860 :STOP DEPTH
STEP        .FT                                             0.5 :STEP      
NULL        .                                           -999.25 :NULL      
COMP        .                             WEAVER EXPLORATION CO :COMPANY   
WELL        .                                       BEAVERS W H :WELL      
FLD         .                                           WILDCAT :FIELD     
LOC         .                                                   :LOCATION  
CNTY        .                                         JEFFERSON :LOCATION  
STAT        .                                             TEXAS :STATE     
CTRY        .                                     UNITED STATES :COUNTRY   
SRVC        .                                                   :SERVICE COMPANY
DATE        .                             9/13/2023 11:18:46 AM :LOG DATE  
API         .                                    42245314920000 :API NUMBER
UWI         .                                    42245314920000 :UNIQUE WELL ID
XCOORD      .                                  1212655.17721247 :SURFACE X 
YCOORD      .                                  10886677.7304034 :SURFACE Y 
LAT         .                                        29.9899994 :LATITUDE  
LON         .                                       -94.3516153 :LONGITUDE 
ELEV        .FT                                            37.2 :ELEVATION VALUE
ELEV_TYPE   .                                                KB :ELEVATION REFERENCE TYPE
~Curve Information Section
#MNEM       .UNIT                                      API CODE :CURVE DESCRIPTION
#------------------------------------------------------------------------------
DEPT        .FT                                                 :DEPTH     
ALL         .OHMM                                               :          
CILD        .MMHO/M                                             :          
ILD         .OHMM                                               :          
SP          .MV                                                 :          
SP_NORM     .MV                                                 :SP Normalized
VSH_SP      .V/V                                                :Volume of Shale from SP
~A        DEPTH            ALL           CILD            ILD             SP        SP_NORM         VSH_SP
# ...
      2234.0000         1.4431       795.9596           1.25       144.4432       4.172089              1
      2234.5000         1.4588       787.8788           1.25       144.8451       4.568115              1
      2235.0000         1.4745       787.8788           1.25       144.8502       4.567352              1
      2235.5000         1.4902       787.8788           1.26       144.8553       4.566589              1
      2236.0000         1.5118       787.8788           1.26       144.8604       4.565811              1
      2236.5000         1.5176       787.8788           1.27       144.8655       4.565033              1
      2237.0000         1.5235       787.8788           1.27       144.8706       4.564285              1
      2237.5000         1.5314       787.8788           1.28       144.6786       4.366409              1
      2238.0000         1.5353       787.8788           1.28       144.6838       4.365738              1
      2238.5000         1.5373       787.8788           1.29       144.2957       3.971771              1
      2239.0000         1.5431       787.8788           1.29       144.3014       3.971603              1
      2239.5000          1.549       791.9192           1.28       143.3257       2.990036              1
      2240.0000         1.5764       791.9192           1.26       141.7648       1.423264              1
      2240.5000         1.6425       795.9596           1.23       139.3878       -0.95961              1
      2241.0000         1.6607            800            1.2        137.551      -2.802277      0.9632189
      2241.5000         1.7455       804.0344           1.18       133.8776      -6.481552      0.8881316
      2242.0000         1.7677       816.1296           1.13            130      -10.36502      0.8088771
      2242.5000         1.7698       836.2733           1.08       126.3265      -14.04438      0.7337881
      2243.0000         1.7758       928.9304           1.03       122.6531      -17.72366      0.6587009
      2243.5000         1.7839       1029.525              1       118.7589      -21.62371      0.5791079
      2244.0000         1.7919       1170.231         0.9495       115.0416      -25.34689      0.5031248
      2244.5000          1.798        1242.71          0.899       113.1862      -27.20816      0.4651396
      2245.0000            1.8       1383.869         0.8485        109.276      -31.12422        0.38522
      2245.5000            1.8       1529.072          0.798       105.5811        -34.825      0.3096939
      2246.0000          1.802       1524.934         0.7475       103.7369      -36.67506      0.2719376
      2246.5000          1.788       1573.204         0.6869        99.8497      -40.56813      0.1924871
      2247.0000         1.7839       1621.478         0.6768        96.4514      -43.97231      0.1230142
      2247.5000         1.7619       1669.754         0.6667        94.3665      -46.06306     0.08034562
      2248.0000         1.7319        1718.03         0.6566         93.613      -46.82244     0.06484814
      2248.5000         1.7159       1766.305         0.6465        93.0486      -47.39272     0.05320989
      2249.0000         1.6979       1810.542         0.6263         92.291      -48.15617     0.03762911
      2249.5000         1.6819       1858.818         0.6162         91.915      -48.53805     0.02983576
      2250.0000         1.5426        1903.03          0.596        91.9231       -48.5358     0.02988154
      2250.5000         1.5169       1951.515         0.5758        93.0769      -47.38789     0.05330845
      2251.0000          1.513           2000         0.5455        95.3846      -45.08606      0.1002845
      2251.5000          1.511        2011.75         0.5253        96.9231      -43.55341       0.131563
      2252.0000         1.5328       2039.147         0.5152        97.3077      -43.17469       0.139292
      2252.5000         1.5565       2078.252         0.5051        97.6923      -42.79595      0.1470214
      2253.0000         1.5803       2093.855         0.4949        98.6538      -41.84032       0.166524
      2253.5000         1.5803       2085.993         0.4747        99.4231       -41.0769      0.1821042
      2254.0000         1.5349       2003.907         0.4747       100.4049      -40.10096      0.2020212
      2254.5000         1.4423       1963.636         0.4848       101.0112      -39.50053      0.2142748
      2255.0000          1.395       1818.182         0.4949       101.6163      -38.90131       0.226504
      2255.5000         1.3006       1680.808         0.5253       108.6819      -31.84157      0.3705803
      2256.0000         1.2905        1604.04          0.596       134.4564      -6.072937      0.8964707
      2256.5000         1.2604       1466.667         0.7071       138.3155      -2.219696      0.9751083
      2257.0000         1.2524       1373.737         0.7879       142.8764       2.335327              1
      2257.5000         1.2484       1236.364         0.8687       143.4511       2.904144              1
      2258.0000         1.2504           1144         0.9495       143.8295       3.276688              1
      2258.5000         1.2565           1008         0.9899       144.0111       3.452408              1
      2259.0000         1.2646            956         0.9899       144.3907       3.826141              1
      2259.5000         1.2828            948         0.9899       144.5732       4.002777              1
      2260.0000         1.2949            940              1       144.9511       4.374802              1
      2260.5000         1.3273            928         1.0308       145.3446       4.762451              1
      2261.0000         1.3354            920         1.0514       145.7378       5.149765              1
      2261.5000         1.3455            912         1.0821       146.1306       5.536697              1
      2262.0000         1.3556            900         1.1229       146.7208       6.121033              1
      2262.5000         1.3657            884         1.1435       146.7175       6.111862              1
      2263.0000            1.4            872         1.1741       146.7143       6.102798              1
      2263.5000         1.4118            856         1.1947       146.7111       6.093735              1
      2264.0000         1.4236            844         1.2051       146.1144        5.49115              1
      2264.5000         1.4354            832         1.2055       145.7185       5.089401              1
      2265.0000         1.4493            820         1.2059       145.1244       4.489426              1
      2265.5000         1.4631            808         1.2163       144.5309       3.890045              1
      2266.0000         1.4789       791.9192         1.2167       143.9379       3.291183              1
      2266.5000         1.5006        759.596         1.2271       143.3456       2.693008              1
      2267.0000         1.5145        759.596          1.348       142.7538       2.095352              1
      2267.5000         1.5304        759.596         1.3484       142.1627       1.498383              1
      2268.0000         1.5383        759.596         1.3387       141.5721      0.9019012              1
      2268.5000         1.5325        759.596          1.329       140.9821      0.3060455              1
      2269.0000         1.5226        759.596         1.3193       140.3926     -0.2893372              1
      2269.5000         1.5128        759.596         1.2996       140.3924     -0.2953949              1
      2270.0000          1.501        759.596            1.3       140.3922     -0.3014679              1
      2270.5000          1.501        759.596         1.3101       140.3922     -0.3073425              1
      2271.0000         1.5149       751.5152         1.3203       140.3922     -0.3132019              1
      2271.5000         1.5288       751.5152         1.3305       140.5882     -0.1230774              1
