#------------------------------------------------------------------------------
# Created by    : vladimir.rabinovich
# Created on    : 09/19/2023 17:22:41
#------------------------------------------------------------------------------
~Version Information Section
VERS.           2.0     :   CWLS log ASCII Standard - VERSION 2.0
WRAP.           NO      :   One line per depth step
~Well Information Section
#MNEM       .UNIT                                         VALUE :DESCRIPTION
#------------------------------------------------------------------------------
STRT        .FT                                             190 :START DEPTH
STOP        .FT                                            7751 :STOP DEPTH
STEP        .FT                                             0.5 :STEP      
NULL        .                                           -999.25 :NULL      
COMP        .                       GOLDEN TRIANGLE STORAGE LLC :COMPANY   
WELL        .                         GOLDEN TRIANGLE STORAGE 2 :WELL      
FLD         .                                        SPINDLETOP :FIELD     
LOC         .                                                   :LOCATION  
CNTY        .                                         JEFFERSON :LOCATION  
STAT        .                                             TEXAS :STATE     
CTRY        .                                     UNITED STATES :COUNTRY   
SRVC        .                                                   :SERVICE COMPANY
DATE        .                             9/13/2023 11:18:46 AM :LOG DATE  
API         .                                    42245325580000 :API NUMBER
UWI         .                                    42245325580000 :UNIQUE WELL ID
XCOORD      .                                  1288599.33875083 :SURFACE X 
YCOORD      .                                  10896379.1240251 :SURFACE Y 
LAT         .                                        30.0189256 :LATITUDE  
LON         .                                       -94.1119908 :LONGITUDE 
ELEV        .FT                                            12.2 :ELEVATION VALUE
ELEV_TYPE   .                                                GL :ELEVATION REFERENCE TYPE
~Curve Information Section
#MNEM       .UNIT                                      API CODE :CURVE DESCRIPTION
#------------------------------------------------------------------------------
DEPT        .FT                                                 :DEPTH     
DCAL        .IN                                                 :          
DPSS        .V/V                                                :          
DRHO        .G/CM3                                              :          
GR          .GAPI                                               :          
GR_NORM     .GAPI                                               :GammaRay Normalized
ILD         .OHMM                                               :          
ILM         .OHMM                                               :          
NPSS        .V/V                                                :Neutron Porosity Sandstone
SFL         .OHMM                                               :          
SP          .MV                                                 :          
SP_NORM     .MV                                                 :SP Normalized
TENS        .LB                                                 :          
VSH_GR      .V/V                                                :Volume of Shale from GR
VSH_SP      .V/V                                                :Volume of Shale from SP
~A        DEPTH           DCAL           DPSS           DRHO             GR        GR_NORM            ILD            ILM           NPSS            SFL             SP        SP_NORM           TENS         VSH_GR         VSH_SP
# ...
      3718.0000           -1.4         0.3192         0.0857           59.7       53.73437          0.611         0.7924          0.469         1.0092       -86.9388      -22.74126           1920      0.4411567      0.5933086
      3718.5000          -1.44         0.3204         0.0939           55.2       46.35096         0.5719            0.7         0.4678          0.981       -88.5714      -24.37387           1880       0.284063      0.5612966
      3719.0000           -1.4           0.33         0.0878           53.4       43.39692         0.5451         0.6569         0.4727         0.9442            -80      -15.80247           1880       0.221211      0.7293634
      3719.5000          -1.32         0.3456         0.0776           55.2       46.34869         0.5347         0.6393           0.48         0.9717          -71.6      -7.402466           1920      0.2840146      0.8940693
      3720.0000          -1.36          0.348         0.0714           59.4       53.23766         0.5451         0.6629         0.4968         0.9905          -66.8       -2.60247           1920      0.4305886      0.9881868
      3720.5000           -1.4         0.3384         0.0694           63.6       60.12663         0.5943         0.7069         0.5112         0.9625          -62.8       1.397533           1920      0.5771623              1
      3721.0000           -1.4         0.3276         0.0735           66.3       64.55486         0.6337         0.7776         0.5304         0.8925          -60.8       3.397533           1920      0.6713799              1
      3721.5000           -1.4         0.3132         0.0796           70.5       71.44384         0.6819         0.8452         0.5628         0.8452          -59.2       4.997532           1920      0.8179541              1
      3722.0000           -1.4         0.3036         0.0837           73.5       76.36418         0.7145         0.9187         0.6024         0.8453            -58       6.197533           1920      0.9226422              1
      3722.5000           -1.4         0.3072         0.0857        76.8367       81.83692         0.7705         0.9907         0.6228         0.9277          -57.6       6.597534           1920              1              1
      3723.0000           -1.4         0.3132         0.0837        77.7551       83.34242         0.8302          1.076         0.6444         1.0185          -56.8       7.397533           1920              1              1
      3723.5000           -1.4         0.3216         0.0816        77.1429       82.33696         0.8459         1.1162         0.6504          1.076            -56       8.197533           1920              1              1
      3724.0000           -1.4         0.3264         0.0755           74.4       77.83607          0.862         1.1369         0.6384         1.1163          -54.8       9.397533           1920       0.953959              1
      3724.5000           -1.4         0.3288         0.0694           72.9       75.37418         0.8786         1.1687         0.6204         1.1475            -54       10.19753           1920      0.9015784              1
      3725.0000           -1.4         0.3288         0.0592           71.7       73.40446         0.8956         1.2015         0.5988         1.1796          -53.2       10.99753           1920      0.8596693              1
      3725.5000           -1.4         0.3252         0.0531           72.3       74.38762          0.921         1.2352          0.576         1.2239          -53.2       10.99753           1920      0.8805876              1
      3726.0000          -1.32         0.3216          0.049           73.5       76.35507         0.9469         1.2699          0.558         1.2583          -52.8       11.39753           1920      0.9224483              1
      3726.5000          -1.28         0.3156         0.0408           72.9       75.36964         0.9732         1.3299           0.54         1.2937          -52.4       11.79753           1920      0.9014816              1
      3727.0000          -1.24         0.3084         0.0367           71.7       73.39989              1         1.3928         0.5184         1.3302          -52.4       11.79753           1920      0.8595721              1
      3727.5000           -1.2            0.3         0.0327           69.9       70.44584          1.028         1.4453          0.498         1.3803          -52.4       11.79753           1920        0.79672              1
      3728.0000          -1.12         0.2904         0.0347           68.7        68.4761         1.0568         1.5138         0.4824         1.4193          -53.2       10.99753           1920      0.7548106              1
      3728.5000          -1.08         0.2796         0.0388           68.7       68.47493         1.0766         1.6152         0.4714         1.4729            -54       10.19753           1920      0.7547857              1
      3729.0000          -0.88         0.2652         0.0469             69       68.96595         1.1068         1.7077         0.4567         1.5862          -55.6       8.597534           1920       0.765233              1
      3729.5000          -0.76         0.2508         0.0531           69.6       69.94912         1.1275         1.7891         0.4433         1.7563          -57.2       6.997532           1920      0.7861515              1
      3730.0000          -0.64         0.2339         0.0551           69.6       69.94798         1.1487         1.7898         0.4322          1.757          -59.2       4.997532           1920      0.7861272              1
      3730.5000          -0.52         0.2192         0.0653           68.7       68.47041          1.107         1.7736         0.4237         1.7092          -60.8       3.397533           1880      0.7546895              1
      3731.0000          -0.36         0.2057         0.0776           68.7       68.46926         1.0767         1.6472         0.4128          1.544            -62       2.197533           1880      0.7546651              1
      3731.5000          -0.36         0.1959         0.0878             69       68.96027         1.0281         1.4607         0.4152         1.3947          -62.4       1.797531           1880       0.765112              1
      3732.0000          -0.36         0.1922            0.1           68.7       68.46695         0.9826         1.3947         0.4176         1.3441          -62.4       1.797531           1880       0.754616              1
      3732.5000          -0.36         0.1984            0.1           67.5       66.49723         0.9655         1.3819         0.4249         1.3566          -62.4       1.797531           1880       0.712707              1
      3733.0000          -0.36         0.2143         0.0898           65.1       62.55889          0.957         1.3566         0.4298         1.3441          -62.8       1.397533           1880      0.6289126              1
      3733.5000          -0.32         0.2302         0.0755           64.2       61.08129          0.957         1.3566          0.431         1.3441            -64      0.1975327           1920      0.5974742              1
      3734.0000          -0.32           0.24         0.0653           63.3       59.60371          0.957         1.3566         0.4273         1.3566          -64.8     -0.6024704           1880      0.5660363              1
      3734.5000          -0.28         0.2448         0.0531           62.1       57.63396         0.9404         1.3566           0.42         1.3692          -65.6      -1.402466           1880      0.5241268              1
      3735.0000          -0.28         0.2472          0.049           62.1       57.63281          0.924         1.3318          0.414         1.3692            -66      -1.802467           1880      0.5241024              1
      3735.5000          -0.32         0.2484          0.049           61.8       57.13951            0.9         1.2953         0.4092         1.3819          -66.8       -2.60247           1880      0.5136066      0.9901235
