#------------------------------------------------------------------------------
# Created by    : vladimir.rabinovich
# Created on    : 09/19/2023 17:20:51
#------------------------------------------------------------------------------
~Version Information Section
VERS.           2.0     :   CWLS log ASCII Standard - VERSION 2.0
WRAP.           NO      :   One line per depth step
~Well Information Section
#MNEM       .UNIT                                         VALUE :DESCRIPTION
#------------------------------------------------------------------------------
STRT        .FT                                            1818 :START DEPTH
STOP        .FT                                            9030 :STOP DEPTH
STEP        .FT                                             0.5 :STEP      
NULL        .                                           -999.25 :NULL      
COMP        .                               CONCHO PETROLEUM CO :COMPANY   
WELL        .                                  J E BROUSSARD JR :WELL      
FLD         .                                           WILDCAT :FIELD     
LOC         .                                                   :LOCATION  
CNTY        .                                         JEFFERSON :LOCATION  
STAT        .                                             TEXAS :STATE     
CTRY        .                                     UNITED STATES :COUNTRY   
SRVC        .                                                   :SERVICE COMPANY
DATE        .                             9/13/2023 11:19:11 AM :LOG DATE  
API         .                                    42245021900000 :API NUMBER
UWI         .                                    42245021900000 :UNIQUE WELL ID
XCOORD      .                                  1213918.99973078 :SURFACE X 
YCOORD      .                                  10884047.8383225 :SURFACE Y 
LAT         .                                         29.982808 :LATITUDE  
LON         .                                       -94.3475252 :LONGITUDE 
ELEV        .FT                                              35 :ELEVATION VALUE
ELEV_TYPE   .                                                GL :ELEVATION REFERENCE TYPE
~Curve Information Section
#MNEM       .UNIT                                      API CODE :CURVE DESCRIPTION
#------------------------------------------------------------------------------
DEPT        .FT                                                 :DEPTH     
ASN         .OHMM                                               :          
LAT         .OHMM                                               :          
LN          .OHMM                                               :          
SP          .MV                                                 :          
SP_NORM     .MV                                                 :SP Normalized
VSH_SP      .V/V                                                :Volume of Shale from SP
~A        DEPTH            ASN            LAT             LN             SP        SP_NORM         VSH_SP
# ...
      2768.0000           1.45         1.5965         1.4386       -66.5188      -2.680794      0.9756407
      2768.5000         1.4536         1.6667         1.3684       -66.8872      -3.041996      0.9704059
      2769.0000         1.4536         1.7368         1.3158       -66.8934      -3.041004      0.9704202
      2769.5000         1.4536          1.807         1.2456       -66.8997        -3.0401      0.9704334
      2770.0000         1.4571         1.8772          1.193       -67.6329      -3.766106      0.9599115
      2770.5000         1.4536         1.9649         1.1228       -67.6364      -3.762413      0.9599651
      2771.0000         1.4429         2.0175         1.1053       -68.3636      -4.482418      0.9495302
      2771.5000         1.4071         2.0175         1.1404       -68.7273      -4.838924      0.9443634
      2772.0000         1.3439         2.0175          1.193       -69.4545      -5.558926      0.9339286
      2772.5000         1.2807         1.9825         1.2281       -69.8182      -5.915428      0.9287619
      2773.0000         1.2211         1.9298         1.2632       -69.8182      -5.908234      0.9288662
      2773.5000         1.1579         1.7895         1.3158       -69.8182      -5.901039      0.9289705
      2774.0000         1.0947          1.614         1.3509       -69.0909      -5.166538      0.9396154
      2774.5000         1.0737         1.5263         1.4035       -68.3636      -4.432049      0.9502602
      2775.0000         1.0807         1.3684         1.4386            -68      -4.061253       0.955634
      2775.5000         1.0842         1.2632         1.4912            -68      -4.054054      0.9557384
      2776.0000         1.0877          1.193         1.5088       -67.6364      -3.683258      0.9611122
      2776.5000         1.0877         1.1754         1.5088       -67.2727      -3.312363      0.9664875
      2777.0000         1.0877         1.1754         1.5088       -67.2727      -3.305164      0.9665918
      2777.5000         1.1053          1.193         1.4912       -67.2727       -3.29797      0.9666961
      2778.0000         1.1404         1.2281         1.4561       -66.9091      -2.927181      0.9720699
      2778.5000         1.1754         1.2632         1.4386       -66.5455      -2.556381      0.9774438
      2779.0000         1.2105         1.2982         1.4035       -66.5455      -2.549187       0.977548
      2779.5000         1.2456         1.3509          1.386       -66.1818      -2.178291      0.9829233
      2780.0000         1.2667          1.386         1.3509       -66.1818      -2.171097      0.9830276
      2780.5000         1.2667          1.386         1.3158       -66.1818      -2.163895      0.9831319
      2781.0000         1.2632         1.4035         1.3158       -66.1818        -2.1567      0.9832363
      2781.5000         1.2526         1.4035         1.3158       -66.5455      -2.513206      0.9780695
      2782.0000         1.2246         1.4035         1.3158       -66.5455      -2.506012      0.9781737
      2782.5000            1.2          1.386         1.3158       -66.9091      -2.862419      0.9730084
      2783.0000         1.1754          1.386         1.3333       -67.2727      -3.218819      0.9678432
      2783.5000         1.1509         1.3684         1.3509       -67.6364      -3.575317      0.9626766
      2784.0000         1.1263         1.3509         1.3509       -68.3636      -4.295326      0.9522417
      2784.5000         1.1018         1.3158         1.3509       -68.3636      -4.288132      0.9523459
      2785.0000         1.0526         1.3158         1.3158       -67.6364      -3.553734      0.9629894
      2785.5000         1.0491         1.2982         1.2632       -67.6364      -3.546539      0.9630936
      2786.0000         1.0351         1.2982         1.2105       -66.9091       -2.81205      0.9737384
      2786.5000         1.0246         1.3158         1.1754       -66.5455      -2.441246      0.9791124
      2787.0000              1         1.3509         1.1228       -66.5455      -2.434052      0.9792166
      2787.5000         0.9724         1.4035         1.1053       -66.5455      -2.426857      0.9793209
      2788.0000         0.9448         1.4737         1.0526       -66.5455      -2.419662      0.9794252
      2788.5000         0.9138         1.5789         1.0351       -66.1818      -2.048767      0.9848005
      2789.0000         0.8862         1.7193              1       -66.1818      -2.041565      0.9849049
      2789.5000         0.8552         1.7895         0.9825       -65.8182      -1.670769      0.9902787
      2790.0000         0.8793         1.8772         0.9649       -66.1818      -2.027176      0.9851134
      2790.5000         0.9276         1.8948         0.9824       -66.5455      -2.383682      0.9799466
      2791.0000         0.9761         1.8598         1.0175       -66.9091      -2.740089      0.9747813
      2791.5000          1.025         1.7724         1.0525       -67.6364       -3.46019      0.9643451
      2792.0000         1.0743         1.6852         1.1049       -68.3636      -4.180191      0.9539103
      2792.5000         1.1236         1.5282         1.1573       -69.0909      -4.900291      0.9434741
      2793.0000         1.1729         1.4064         1.2095       -69.8182      -5.622055      0.9330137
      2793.5000         1.2222         1.3372         1.2268       -69.8182      -5.659462      0.9324716
      2794.0000         1.2715         1.2855          1.244       -69.0909      -4.969566      0.9424701
      2794.5000         1.3208         1.2688         1.2438       -68.3636      -4.279678      0.9524685
      2795.0000         1.3701          1.252         1.2262       -67.6364       -3.58989      0.9624653
      2795.5000         1.4198         1.2527         1.1912       -67.6364      -3.627296      0.9619232
      2796.0000           1.47         1.2707         1.1737            -68      -4.028305      0.9561116
      2796.5000         1.5201         1.2887         1.1388       -68.7273      -4.793018      0.9450287
      2797.0000         1.5703          1.324          1.104       -70.1818      -6.284924      0.9234069
      2797.5000         1.6194         1.3592         1.0866            -72      -8.140533       0.896514
      2798.0000         1.6739         1.3944         1.0519       -74.9091      -11.08704       0.853811
      2798.5000         1.6944         1.4295         1.0173       -77.8182      -14.03355       0.811108
      2799.0000         1.7115         1.4646         0.9822       -81.0152      -17.26796      0.7642325
      2799.5000         1.7286         1.4823         0.9643       -84.0643      -20.35447      0.7195004
      2800.0000         1.7322         1.4483         0.9286       -87.1186      -23.44617      0.6746931
      2800.5000         1.7254         1.3966         0.8929       -88.8136      -25.17859      0.6495857
      2801.0000         1.6949         1.3448          0.875       -91.8644       -28.2668       0.604829
      2801.5000         1.6542         1.3103         0.8571       -94.9153       -31.3551       0.560071
      2802.0000         1.6102         1.2586         0.8036       -97.2881      -33.76531      0.5251404
      2802.5000         1.5679         1.2069         0.7679       -97.2881      -33.80272      0.5245982
      2803.0000         1.5071         1.1897         0.7321       -95.9322      -32.48423      0.5437069
      2803.5000          1.425         1.1897         0.7143       -92.8814      -29.47084      0.5873791
      2804.0000         1.3614         1.1897         0.6964       -89.4915      -26.11835       0.635966
      2804.5000         1.3018         1.1897         0.6786       -86.4407      -23.10495      0.6796383
      2805.0000         1.2386         1.1724         0.6786       -83.3898      -20.09146      0.7233121
      2805.5000         1.1789         1.1207         0.6607       -83.3898      -20.12888      0.7227699
