#------------------------------------------------------------------------------
# Created by    : vladimir.rabinovich
# Created on    : 09/19/2023 17:20:52
#------------------------------------------------------------------------------
~Version Information Section
VERS.           2.0     :   CWLS log ASCII Standard - VERSION 2.0
WRAP.           NO      :   One line per depth step
~Well Information Section
#MNEM       .UNIT                                         VALUE :DESCRIPTION
#------------------------------------------------------------------------------
STRT        .FT                                            1025 :START DEPTH
STOP        .FT                                            8930 :STOP DEPTH
STEP        .FT                                             0.5 :STEP      
NULL        .                                           -999.25 :NULL      
COMP        .                                     MEREDITH & CO :COMPANY   
WELL        .                                 BROUSSARD JR ETAL :WELL      
FLD         .                                           WILDCAT :FIELD     
LOC         .                                                   :LOCATION  
CNTY        .                                         JEFFERSON :LOCATION  
STAT        .                                             TEXAS :STATE     
CTRY        .                                     UNITED STATES :COUNTRY   
SRVC        .                                                   :SERVICE COMPANY
DATE        .                             9/13/2023 11:19:11 AM :LOG DATE  
API         .                                    42245021860000 :API NUMBER
UWI         .                                    42245021860000 :UNIQUE WELL ID
XCOORD      .                                  1217776.66937412 :SURFACE X 
YCOORD      .                                  10884677.7702762 :SURFACE Y 
LAT         .                                        29.9846645 :LATITUDE  
LON         .                                       -94.3353628 :LONGITUDE 
ELEV        .FT                                              34 :ELEVATION VALUE
ELEV_TYPE   .                                                DF :ELEVATION REFERENCE TYPE
~Curve Information Section
#MNEM       .UNIT                                      API CODE :CURVE DESCRIPTION
#------------------------------------------------------------------------------
DEPT        .FT                                                 :DEPTH     
ASN         .OHMM                                               :          
LAT         .OHMM                                               :          
LN          .OHMM                                               :          
SP          .MV                                                 :          
SP_NORM     .MV                                                 :SP Normalized
VSH_SP      .V/V                                                :Volume of Shale from SP
~A        DEPTH            ASN            LAT             LN             SP        SP_NORM         VSH_SP
# ...
      3647.0000           0.64         0.3214          0.375      -137.8182      -88.04567     0.02195877
      3647.5000         0.6182         0.3214          0.375      -137.8182       -88.0477     0.02193597
      3648.0000         0.5857         0.3036          0.375      -137.8182      -88.04974     0.02191308
      3648.5000         0.5643         0.2857          0.375      -137.4545      -87.68806      0.0259768
      3649.0000         0.5536         0.2857          0.375      -137.0909      -87.32649     0.03003941
      3649.5000         0.5536         0.2857          0.375      -136.7273      -86.96494     0.03410185
      3650.0000         0.6036         0.2857          0.375      -136.7273      -86.96696     0.03407905
      3650.5000         0.6327         0.2857          0.375      -136.7273        -86.969     0.03405616
      3651.0000         0.6909         0.2857          0.375      -137.4545      -87.69824     0.02586245
      3651.5000         0.7164         0.2857          0.375      -137.8182      -88.06398     0.02175303
      3652.0000         0.7164         0.2857          0.375      -137.8182      -88.06602     0.02173006
      3652.5000         0.6545         0.2857         0.3571      -136.3636      -86.61345     0.03805113
      3653.0000         0.5607         0.2857         0.3571      -134.9091      -85.16099     0.05437092
      3653.5000         0.5321         0.2857         0.3571      -133.0909      -83.34482     0.07477733
      3654.0000         0.5179         0.2679         0.3571      -133.0909      -83.34686     0.07475444
      3654.5000         0.5357         0.2679         0.3571      -133.0909      -83.34889     0.07473155
      3655.0000         0.5821         0.2857         0.3571      -134.5455      -84.80553     0.05836487
      3655.5000         0.6364         0.3214         0.3571      -134.9091      -85.17117     0.05425657
      3656.0000         0.7309         0.3571         0.3571      -132.3636       -82.6277     0.08283482
      3656.5000         0.7964         0.3929         0.3393      -128.7273      -78.99343      0.1236693
      3657.0000           0.85         0.4286         0.3393      -126.9091      -77.17728      0.1440755
      3657.5000         0.9143         0.4643         0.3393      -123.2727      -73.54291      0.1849111
      3658.0000         0.9286         0.4821         0.3393      -121.4545      -71.72674      0.2053176
      3658.5000         0.9321            0.5         0.3393      -121.4545      -71.72878      0.2052947
      3659.0000         0.9179         0.4821         0.3393           -124      -74.27631      0.1766706
      3659.5000         0.8857         0.4464         0.3571      -129.4545      -79.73285      0.1153612
      3660.0000         0.8429         0.4286         0.3571      -134.9091      -85.18948     0.05405075
      3660.5000         0.7673         0.4107         0.3571      -134.9091      -85.19153     0.05402777
      3661.0000         0.7164          0.375         0.3571      -134.9091      -85.19356     0.05400497
      3661.5000         0.6436         0.3571         0.3571      -134.9091      -85.19559     0.05398208
      3662.0000         0.6182         0.3571          0.375      -133.4545      -83.74303     0.07030307
      3662.5000         0.6036         0.3393          0.375           -132      -82.29056     0.08662295
      3663.0000            0.6         0.3393          0.375      -133.4545       -83.7471     0.07025729
      3663.5000         0.5893         0.3214          0.375      -134.1818      -84.47643     0.06206264
      3664.0000         0.5821         0.3214          0.375      -135.6364      -85.93307     0.04569587
      3664.5000         0.5714         0.3214         0.3929      -136.7273        -87.026     0.03341572
      3665.0000           0.55         0.3214         0.3929      -136.7273      -87.02803     0.03339292
      3665.5000          0.525         0.3214         0.3929      -135.2727      -85.57549     0.04971365
      3666.0000         0.5107         0.3214         0.3929      -132.7273       -83.0321     0.07829096
      3666.5000            0.5         0.3214         0.3929      -129.0909      -79.39774      0.1191265
      3667.0000         0.4964         0.3036         0.4107      -127.2727      -77.58158      0.1395328
      3667.5000         0.5036         0.2857         0.4107      -125.8182      -76.12912      0.1558526
      3668.0000         0.5357         0.2857         0.4107           -124      -74.31296      0.1762589
      3668.5000         0.5786         0.2857         0.4107           -132      -82.31499     0.08634846
      3669.0000         0.6255         0.2857         0.4107      -134.9091      -85.22613     0.05363902
      3669.5000           0.72         0.2857         0.4286      -138.5455      -88.86456     0.01275772
      3670.0000         0.8143         0.2679         0.4286         -142.5      -92.82109              0
      3670.5000         0.8643         0.2679         0.4286      -143.5714      -93.89453              0
      3671.0000         0.8429         0.2857         0.4286      -143.5714      -93.89656              0
      3671.5000         0.8036         0.3036         0.4286      -141.7857      -92.11291              0
      3672.0000         0.7018         0.3214         0.4286      -139.6364      -89.96564   0.0003860988
      3672.5000         0.6291         0.3571         0.4286      -138.5455      -88.87677     0.01262056
      3673.0000         0.6291         0.4107         0.4107      -123.2727        -73.606      0.1842022
      3673.5000         0.6582         0.4464         0.4107      -116.7857      -67.12105      0.2570669
      3674.0000           0.72         0.5179         0.3929            -90      -40.33738       0.558007
      3674.5000         0.7818         0.5714         0.3929       -81.4286      -31.76801       0.654292
      3675.0000         0.8143          0.625          0.375       -77.8182      -28.15965      0.6948354
      3675.5000          0.825         0.6607         0.3571       -74.9091      -25.25259       0.727499
      3676.0000         0.7891         0.6786         0.3571       -73.4545      -23.80002        0.74382
      3676.5000         0.7673         0.6786          0.375       -71.6364      -21.98396      0.7642252
      3677.0000         0.7418         0.6786          0.375       -74.5455       -24.8951      0.7315158
      3677.5000         0.7273         0.6786         0.3929       -77.8182      -28.16983       0.694721
      3678.0000           0.72         0.6607         0.4107       -81.0714      -31.42507      0.6581453
      3678.5000           0.72          0.625         0.4107       -79.2727       -29.6284      0.6783326
      3679.0000           0.72         0.6071         0.4107            -76      -26.35773      0.7150816
      3679.5000           0.72         0.5714         0.4107       -84.2857      -34.64547       0.621961
      3680.0000         0.8143         0.5357         0.4107       -89.6429       -40.0047      0.5617449
      3680.5000         0.8607         0.4821         0.4107      -105.3571      -55.72094      0.3851579
      3681.0000         1.0145         0.4464         0.4107      -108.9286      -59.29448      0.3450059
      3681.5000         1.1491         0.4286         0.4107      -113.5714      -63.93932      0.2928167
      3682.0000         1.1709         0.4107         0.4107      -117.8571      -68.22705      0.2446399
      3682.5000         1.1636          0.375         0.4107      -125.4545      -75.82648       0.159253
      3683.0000         1.1491         0.3393         0.4107      -129.4545      -79.82852      0.1142863
      3683.5000         1.1273         0.3214         0.3929      -133.8182      -84.19426     0.06523304
      3684.0000         1.1127         0.3214         0.3929      -137.4545      -87.83259     0.02435294
      3684.5000         1.1091         0.3036         0.3929      -138.5455      -88.92563     0.01207159
