#------------------------------------------------------------------------------
# Created by    : vladimir.rabinovich
# Created on    : 09/19/2023 17:20:52
#------------------------------------------------------------------------------
~Version Information Section
VERS.           2.0     :   CWLS log ASCII Standard - VERSION 2.0
WRAP.           NO      :   One line per depth step
~Well Information Section
#MNEM       .UNIT                                         VALUE :DESCRIPTION
#------------------------------------------------------------------------------
STRT        .FT                                             722 :START DEPTH
STOP        .FT                                            8710 :STOP DEPTH
STEP        .FT                                             0.5 :STEP      
NULL        .                                           -999.25 :NULL      
COMP        .                              BRUNER ARNOLD H & CO :COMPANY   
WELL        .                                              WEIR :WELL      
FLD         .                                           WILDCAT :FIELD     
LOC         .                                                   :LOCATION  
CNTY        .                                         JEFFERSON :LOCATION  
STAT        .                                             TEXAS :STATE     
CTRY        .                                     UNITED STATES :COUNTRY   
SRVC        .                                                   :SERVICE COMPANY
DATE        .                             9/13/2023 11:19:11 AM :LOG DATE  
API         .                                    42245021890000 :API NUMBER
UWI         .                                    42245021890000 :UNIQUE WELL ID
XCOORD      .                                  1215604.35578741 :SURFACE X 
YCOORD      .                                  10884998.9913957 :SURFACE Y 
LAT         .                                        29.9854781 :LATITUDE  
LON         .                                       -94.3422367 :LONGITUDE 
ELEV        .FT                                              36 :ELEVATION VALUE
ELEV_TYPE   .                                                DF :ELEVATION REFERENCE TYPE
~Curve Information Section
#MNEM       .UNIT                                      API CODE :CURVE DESCRIPTION
#------------------------------------------------------------------------------
DEPT        .FT                                                 :DEPTH     
ASN         .OHMM                                               :          
LAT         .OHMM                                               :          
LN          .OHMM                                               :          
SP          .MV                                                 :          
SP_NORM     .MV                                                 :SP Normalized
VSH_SP      .V/V                                                :Volume of Shale from SP
~A        DEPTH            ASN            LAT             LN             SP        SP_NORM         VSH_SP
# ...
      6536.0000         1.0772          0.807         0.7719       -91.1864      -10.61102      0.9121325
      6536.5000            1.2         0.8421         0.7719       -91.1864      -10.60283       0.912216
      6537.0000         1.2034         0.8596         0.7719       -90.1695      -9.577744      0.9226761
      6537.5000         1.1719         0.8246         0.7895       -89.1525      -8.552551      0.9331372
      6538.0000         1.1228         0.7895         0.7895       -88.4746       -7.86647       0.940138
      6538.5000         0.9729         0.7368          0.807       -87.4576      -6.841286      0.9505991
      6539.0000         0.8949         0.7018          0.807       -86.7797      -6.155197      0.9576001
      6539.5000         0.8339         0.6842         0.8246       -86.1017      -5.469009      0.9646019
      6540.0000         0.7636         0.6667          0.807       -84.7458      -4.104919      0.9785212
      6540.5000         0.7345         0.6667          0.807       -84.0678      -3.418739       0.985523
      6541.0000         0.6727         0.6667         0.7895       -83.3898      -2.732552       0.992525
      6541.5000         0.6655         0.6491         0.7895       -83.0508      -2.385361      0.9960678
      6542.0000         0.6727         0.6491         0.7719       -83.0508      -2.377174      0.9961513
      6542.5000         0.6873         0.6491         0.7719       -83.0508       -2.36898      0.9962349
      6543.0000         0.6982         0.6491         0.7368       -83.0508      -2.360794      0.9963184
      6543.5000         0.7164         0.6667         0.7018       -83.0508      -2.352608       0.996402
      6544.0000         0.7382         0.6842         0.6491       -83.0508      -2.344421      0.9964855
      6544.5000           0.76         0.7193          0.614       -83.0508      -2.336235       0.996569
      6545.0000         0.8407         0.7719         0.5789       -83.3898      -2.667053      0.9931933
      6545.5000         0.9017         0.8596         0.5614       -83.7288      -2.997864      0.9898177
      6546.0000         0.9695         0.9825         0.5263       -85.0847      -4.345581      0.9760655
      6546.5000         1.0351         1.1552         0.4912       -87.4576      -6.710297      0.9519358
      6547.0000         1.1053         1.3103         0.4912       -88.8136      -8.058105      0.9381826
      6547.5000         1.1228         1.4828         0.5263       -91.5254      -10.76172      0.9105947
      6548.0000         1.1439          1.569         0.5614       -94.2373      -13.46543      0.8830058
      6548.5000         1.1649          1.569         0.5789       -93.8983      -13.11825      0.8865485
      6549.0000         1.2034         1.4138          0.614       -93.5593      -12.77106      0.8900912
      6549.5000          1.193         1.0862         0.6491       -92.8814      -12.08498      0.8970921
      6550.0000         0.7818         0.8421         0.6842       -92.2034      -11.39879       0.904094
      6550.5000         0.7638         0.7892         0.7018       -91.8644      -11.05161      0.9076367
      6551.0000         0.7422         0.6662         0.7018       -90.8475      -10.02652      0.9180967
      6551.5000         0.7242         0.6135         0.7193       -90.1695      -9.340332      0.9250987
      6552.0000         0.7025         0.5785         0.7193       -88.8136      -7.976242       0.939018
      6552.5000         0.6918         0.5609         0.7193       -87.7966      -6.951057       0.949479
      6553.0000         0.6811         0.5434         0.7193       -87.4576      -6.603874      0.9530217
      6553.5000          0.674         0.5434         0.7193       -86.7797      -5.917786      0.9600226
      6554.0000         0.6741         0.5433         0.7193       -86.1017      -5.231598      0.9670245
      6554.5000          0.678         0.5432         0.7193       -85.7627      -4.884415      0.9705672
      6555.0000         0.6927         0.5431         0.7193       -85.0847      -4.198227      0.9775691
      6555.5000         0.7038         0.5431         0.7193       -84.4068      -3.512138        0.98457
      6556.0000         0.7185         0.5602         0.7193       -83.7288      -2.825951      0.9915719
      6556.5000         0.7332         0.5601         0.7193       -83.3898      -2.478767      0.9951146
      6557.0000         0.7443         0.5428         0.7018       -83.7288      -2.809578       0.991739
      6557.5000          0.759         0.5257         0.7018       -84.0678      -3.140396      0.9883633
      6558.0000         0.7774         0.5085         0.6842       -84.4068      -3.471207      0.9849877
      6558.5000         0.7812         0.4915         0.6842       -84.7458      -3.802017      0.9816121
      6559.0000         0.7814         0.4915         0.6842       -84.7458      -3.793831      0.9816956
      6559.5000          0.767         0.4915         0.6667       -84.4068      -3.446648      0.9852383
      6560.0000          0.749         0.4915         0.6667       -84.0678      -3.099457       0.988781
      6560.5000         0.7273         0.5254         0.6491       -83.3898      -2.413269       0.995783
      6561.0000           0.68         0.5593         0.6491       -83.3898      -2.405083      0.9958665
      6561.5000         0.6691         0.5763         0.6491       -83.3898      -2.396896        0.99595
      6562.0000         0.6655         0.5593         0.6316       -83.0508      -2.049706      0.9994928
      6562.5000         0.7018         0.5763         0.6316       -83.3898      -2.380524      0.9961171
      6563.0000         0.7309         0.5932         0.6316       -84.0678      -3.050339      0.9892823
      6563.5000           0.76         0.6102         0.6316       -85.0847      -4.059052      0.9789892
      6564.0000         0.7818         0.6271         0.6316       -85.7627      -4.728867      0.9721544
      6564.5000         0.8167         0.6441         0.6316       -86.7797      -5.737679      0.9618604
      6565.0000         0.8533          0.678         0.6316       -87.7966      -6.746391      0.9515674
      6565.5000         0.8733         0.7288         0.6316       -89.1525      -8.094101      0.9378153
      6566.0000         0.8733         0.7797         0.6316       -90.8475      -9.780922      0.9206029
      6566.5000         0.8567         0.8475         0.6316       -92.5424      -11.46763      0.9033915
      6567.0000         0.8367         0.8983         0.6316       -93.2203      -12.13734      0.8965577
      6567.5000           0.82         0.9153         0.6316       -93.5593      -12.46816       0.893182
      6568.0000            0.8         0.9153         0.6316       -93.2203      -12.12097      0.8967248
      6568.5000         0.7818         0.8983          0.614       -92.5424      -11.43488      0.9037257
      6569.0000           0.76         0.8644          0.614       -91.5254       -10.4097      0.9141868
      6569.5000         0.7527         0.8475          0.614       -90.5085      -9.384613      0.9246468
      6570.0000         0.7491         0.8305          0.614       -89.4915      -8.359428      0.9351079
      6570.5000           0.76         0.7966          0.614       -89.1525      -8.012238      0.9386506
      6571.0000         0.7782         0.7797          0.614       -88.4746      -7.326157      0.9456515
      6571.5000         0.7782         0.7627         0.6316       -87.7966      -6.639969      0.9526534
      6572.0000         0.7709         0.7627         0.6316       -87.1186      -5.953781      0.9596553
      6572.5000         0.7636         0.7458         0.6316       -86.7797      -5.606697       0.963197
      6573.0000         0.7564         0.7458         0.6491       -86.4407      -5.259506      0.9667397
      6573.5000         0.7564         0.7288         0.6491       -85.7627      -4.573326      0.9737416
